timestamp,vel_pos_innov[0],vel_pos_innov[1],vel_pos_innov[2],vel_pos_innov[3],vel_pos_innov[4],vel_pos_innov[5],mag_innov[0],mag_innov[1],mag_innov[2],heading_innov,airspeed_innov,beta_innov,flow_innov[0],flow_innov[1],hagl_innov,vel_pos_innov_var[0],vel_pos_innov_var[1],vel_pos_innov_var[2],vel_pos_innov_var[3],vel_pos_innov_var[4],vel_pos_innov_var[5],mag_innov_var[0],mag_innov_var[1],mag_innov_var[2],heading_innov_var,airspeed_innov_var,beta_innov_var,flow_innov_var[0],flow_innov_var[1],hagl_innov_var,output_tracking_error[0],output_tracking_error[1],output_tracking_error[2],drag_innov[0],drag_innov[1],drag_innov_var[0],drag_innov_var[1],aux_vel_innov[0],aux_vel_innov[1]
1725780098,0.06432314,-0.008079189,0.0022029863,-0.0037708282,-0.017665863,-0.5297508,0.0,0.0,0.0,0.009785976,0.0,0.0,0.0,0.0,0.0,0.2627441,0.26274395,0.57214296,0.4381631,0.43816313,4.057308,0.0,0.0,0.0,0.09014775,0.0,0.0,0.0,0.0,0.0,0.00017976845,0.004770226,0.01482052,0.0,0.0,0.0,0.0,0.0,0.0
1725979826,0.07707426,-0.017731722,0.029580796,-0.010591507,-0.024816513,-0.0056114197,0.0,0.0,0.0,-0.050411485,0.0,0.0,0.0,0.0,0.0,0.26252633,0.26252618,0.5721326,0.43706346,0.4370635,4.0574017,0.0,0.0,0.0,0.090147756,0.0,0.0,0.0,0.0,0.0,0.0001588211,0.004017832,0.012689653,0.0,0.0,0.0,0.0,0.0,0.0
1726185434,0.06353057,-0.01519617,0.088823445,0.005346298,-0.021131516,0.09852028,0.0,0.0,0.0,-0.022628454,0.0,0.0,0.0,0.0,0.0,0.26246485,0.2624647,0.57210666,0.4367361,0.43673617,4.057274,0.0,0.0,0.0,0.09014785,0.0,0.0,0.0,0.0,0.0,0.00017680696,0.0050602485,0.013790818,0.0,0.0,0.0,0.0,0.0,0.0
1726389624,0.07653726,0.0021687597,0.038471304,0.00970459,-0.01766777,0.08991623,0.0,0.0,0.0,0.08828139,0.0,0.0,0.0,0.0,0.0,0.26251078,0.2625106,0.5721433,0.43821844,0.43821847,4.057248,0.0,0.0,0.0,0.090147845,0.0,0.0,0.0,0.0,0.0,0.0005588316,0.0050161746,0.014766416,0.0,0.0,0.0,0.0,0.0,0.0
1726589400,0.04498684,0.023989037,0.0634592,0.012199402,-0.02399826,0.08412552,0.0,0.0,0.0,-0.029324014,0.0,0.0,0.0,0.0,0.0,0.26245487,0.2624547,0.5721192,0.4379236,0.43792364,4.0570707,0.0,0.0,0.0,0.09014778,0.0,0.0,0.0,0.0,0.0,0.00032440067,0.004438542,0.0130217485,0.0,0.0,0.0,0.0,0.0,0.0
1726794187,0.09989606,0.009792475,0.025750047,0.014632225,-0.023071289,0.25841904,0.0,0.0,0.0,-0.040039055,0.0,0.0,0.0,0.0,0.0,0.26246732,0.2624671,0.57213134,0.4379748,0.43797484,4.0571976,0.0,0.0,0.0,0.090147704,0.0,0.0,0.0,0.0,0.0,0.00016564196,0.0034381603,0.008356293,0.0,0.0,0.0,0.0,0.0,0.0
1726994452,0.06663294,0.0048034107,-0.04066375,0.014165878,-0.020191193,-0.11903,0.0,0.0,0.0,-0.1052318,0.0,0.0,0.0,0.0,0.0,0.26264986,0.26264971,0.57216126,0.43771172,0.43771175,4.0571,0.0,0.0,0.0,0.09014779,0.0,0.0,0.0,0.0,0.0,0.0005643026,0.0030597686,0.0072937477,0.0,0.0,0.0,0.0,0.0,0.0
1727195011,0.04939366,-0.022060387,-0.0006294213,-0.0040225983,-0.015553474,1.661602,0.0,0.0,0.0,0.058837913,0.0,0.0,0.0,0.0,0.0,0.2625349,0.26253474,0.57210904,0.4357777,0.4357777,4.05694,0.0,0.0,0.0,0.09014769,0.0,0.0,0.0,0.0,0.0,0.0013388515,0.027684418,0.089991495,0.0,0.0,0.0,0.0,0.0,0.0
1727400009,-0.061250046,0.08298387,-0.165661,-0.018017769,-0.013292313,1.1927757,0.0,0.0,0.0,0.023427889,0.0,0.0,0.0,0.0,0.0,0.26289383,0.26289353,0.57212436,0.43577367,0.43577373,4.0568786,0.0,0.0,0.0,0.09014767,0.0,0.0,0.0,0.0,0.0,0.00072028796,0.009726958,0.03230788,0.0,0.0,0.0,0.0,0.0,0.0
1727600033,0.25975126,0.015638128,0.090976715,-0.0051221848,-0.009914398,1.176918,0.0,0.0,0.0,-0.07297549,0.0,0.0,0.0,0.0,0.0,0.2631122,0.26311016,0.5721123,0.43184438,0.43184438,4.0566425,0.0,0.0,0.0,0.09014766,0.0,0.0,0.0,0.0,0.0,0.00041272346,0.020488998,0.06799219,0.0,0.0,0.0,0.0,0.0,0.0
1727800845,0.009361945,-0.0019210428,-0.05542779,-0.0038862228,-0.020105362,-0.041282654,0.0,0.0,0.0,-0.03310947,0.0,0.0,0.0,0.0,0.0,0.26303166,0.26302814,0.5721272,0.43052137,0.43052122,4.0568056,0.0,0.0,0.0,0.090147674,0.0,0.0,0.0,0.0,0.0,0.00020720977,0.022360094,0.076804295,0.0,0.0,0.0,0.0,0.0,0.0
1728005637,-0.03984553,-0.12294729,-0.03150916,-0.009459496,-0.03738308,-0.83218384,0.0,0.0,0.0,0.004659377,0.0,0.0,0.0,0.0,0.0,0.26294073,0.26294002,0.5720653,0.42808113,0.4280807,4.056641,0.0,0.0,0.0,0.09014775,0.0,0.0,0.0,0.0,0.0,0.00021986131,0.004219485,0.0151571855,0.0,0.0,0.0,0.0,0.0,0.0
1728209399,0.028191641,0.022625491,0.05788082,-0.023801804,-0.029805183,-0.67975044,0.0,0.0,0.0,-0.025953893,0.0,0.0,0.0,0.0,0.0,0.26289976,0.26290065,0.5721138,0.427012,0.42701143,4.0565763,0.0,0.0,0.0,0.09014776,0.0,0.0,0.0,0.0,0.0,0.000424062,0.01121474,0.03394799,0.0,0.0,0.0,0.0,0.0,0.0
1728410528,0.0252769,-0.093113266,-0.109538734,-0.038640976,-0.030085564,0.3097458,0.0,0.0,0.0,-0.03239784,0.0,0.0,0.0,0.0,0.0,0.26283726,0.26283923,0.57213694,0.42452037,0.4245198,4.0567527,0.0,0.0,0.0,0.0901477,0.0,0.0,0.0,0.0,0.0,0.00048845424,0.013486198,0.043240882,0.0,0.0,0.0,0.0,0.0,0.0
1728611215,0.14832683,-0.034987308,-0.07006788,-0.031292915,-0.03260994,-0.28902626,0.0,0.0,0.0,0.024280917,0.0,0.0,0.0,0.0,0.0,0.26277867,0.2627813,0.5720769,0.42199704,0.42199662,4.0566726,0.0,0.0,0.0,0.09014762,0.0,0.0,0.0,0.0,0.0,0.00040840067,0.008900285,0.030667141,0.0,0.0,0.0,0.0,0.0,0.0
1728811242,0.19311051,-0.12116667,-0.049510896,0.012061119,-0.068772316,-0.32281113,0.0,0.0,0.0,0.026104715,0.0,0.0,0.0,0.0,0.0,0.26271492,0.26271573,0.5720955,0.41578624,0.41578597,4.0566616,0.0,0.0,0.0,0.09014764,0.0,0.0,0.0,0.0,0.0,0.0004888831,0.0070881736,0.017383376,0.0,0.0,0.0,0.0,0.0,0.0
1729015845,-0.064186834,0.010364197,-0.0034294128,-0.0029497147,-0.054088593,-0.24118614,0.0,0.0,0.0,-0.008398309,0.0,0.0,0.0,0.0,0.0,0.2625962,0.26259574,0.5720842,0.414074,0.41407382,4.056602,0.0,0.0,0.0,0.09014765,0.0,0.0,0.0,0.0,0.0,0.00024756786,0.0044315956,0.015504462,0.0,0.0,0.0,0.0,0.0,0.0
1729216611,0.21876515,-0.035455525,-0.1331377,0.011088371,-0.057383537,0.52132416,0.0,0.0,0.0,-0.000121388584,0.0,0.0,0.0,0.0,0.0,0.26262212,0.26262102,0.57206047,0.41303316,0.4130329,4.0567985,0.0,0.0,0.0,0.09014766,0.0,0.0,0.0,0.0,0.0,0.0002822179,0.006682638,0.020331245,0.0,0.0,0.0,0.0,0.0,0.0
1729417739,-0.173824,0.0638957,0.018718898,-0.012452126,-0.045135498,-0.6879349,0.0,0.0,0.0,-0.01905986,0.0,0.0,0.0,0.0,0.0,0.26251268,0.26251164,0.57212746,0.4125398,0.4125394,4.0567746,0.0,0.0,0.0,0.09014767,0.0,0.0,0.0,0.0,0.0,0.00012490366,0.01442737,0.045791242,0.0,0.0,0.0,0.0,0.0,0.0
1729621695,0.2901421,-0.00019499194,-0.10944414,0.0253582,-0.049868584,0.66064835,0.0,0.0,0.0,0.007662013,0.0,0.0,0.0,0.0,0.0,0.26253232,0.2625318,0.57209784,0.41149318,0.41149262,4.056704,0.0,0.0,0.0,0.09014768,0.0,0.0,0.0,0.0,0.0,0.00029800343,0.0058968174,0.017615588,0.0,0.0,0.0,0.0,0.0,0.0
1729822219,-0.093303904,0.07995846,-0.0753327,0.012901306,-0.039905548,-0.22237206,0.0,0.0,0.0,0.057372812,0.0,0.0,0.0,0.0,0.0,0.26249313,0.2624927,0.57211715,0.41133735,0.41133666,4.056642,0.0,0.0,0.0,0.090147614,0.0,0.0,0.0,0.0,0.0,0.00014271212,0.005589242,0.014832927,0.0,0.0,0.0,0.0,0.0,0.0
1730023301,0.08741683,0.10443533,-0.069137454,0.076581,-0.06273842,-0.4224167,0.0,0.0,0.0,0.0062466934,0.0,0.0,0.0,0.0,0.0,0.2624521,0.26245174,0.5720585,0.40402642,0.40402567,4.056611,0.0,0.0,0.0,0.09014762,0.0,0.0,0.0,0.0,0.0,0.00023429141,0.004502003,0.009027158,0.0,0.0,0.0,0.0,0.0,0.0
1730223820,0.051641185,0.13805833,0.059605956,0.06366825,-0.03891754,0.30049133,0.0,0.0,0.0,-0.0657582,0.0,0.0,0.0,0.0,0.0,0.2623482,0.26234776,0.5720457,0.4022708,0.40227002,4.0569835,0.0,0.0,0.0,0.09014787,0.0,0.0,0.0,0.0,0.0,0.00028687573,0.008533838,0.022782363,0.0,0.0,0.0,0.0,0.0,0.0
1730428136,0.05501105,0.09745996,-0.09195411,0.06841087,-0.026996613,-1.188652,0.0,0.0,0.0,0.030981455,0.0,0.0,0.0,0.0,0.0,0.26234046,0.26234064,0.5720901,0.40225023,0.4022495,4.057183,0.0,0.0,0.0,0.09014787,0.0,0.0,0.0,0.0,0.0,0.00022413908,0.0096613215,0.02711574,0.0,0.0,0.0,0.0,0.0,0.0
1730628935,0.038368534,0.052451245,0.016693294,0.0641346,-0.012945175,-0.1686058,0.0,0.0,0.0,-0.009468833,0.0,0.0,0.0,0.0,0.0,0.2623188,0.2623197,0.57210374,0.402087,0.40208635,4.057037,0.0,0.0,0.0,0.09014779,0.0,0.0,0.0,0.0,0.0,0.00016933068,0.0053794603,0.015518684,0.0,0.0,0.0,0.0,0.0,0.0
1730833738,-0.056885414,0.03827499,0.053229272,0.05512333,-0.0151577,0.15870285,0.0,0.0,0.0,-0.0256996,0.0,0.0,0.0,0.0,0.0,0.2623002,0.2623018,0.5721151,0.40076143,0.4007609,4.057216,0.0,0.0,0.0,0.090147726,0.0,0.0,0.0,0.0,0.0,8.087048e-05,0.0037592505,0.007308692,0.0,0.0,0.0,0.0,0.0,0.0
1731033668,-0.031246029,0.041669928,-0.16122234,0.058628082,-0.017073631,0.20046616,0.0,0.0,0.0,0.036087174,0.0,0.0,0.0,0.0,0.0,0.2622803,0.2622825,0.57212466,0.40059915,0.40059882,4.0571423,0.0,0.0,0.0,0.09014765,0.0,0.0,0.0,0.0,0.0,3.5698326e-05,0.0053909593,0.0139396135,0.0,0.0,0.0,0.0,0.0,0.0
1731234423,-0.12344855,-0.0268275,0.07477486,0.051160812,-0.020646095,0.14222717,0.0,0.0,0.0,0.002379723,0.0,0.0,0.0,0.0,0.0,0.26221427,0.2622165,0.5721028,0.39901108,0.39901096,4.057265,0.0,0.0,0.0,0.090147585,0.0,0.0,0.0,0.0,0.0,0.00027971843,0.0056772656,0.009364875,0.0,0.0,0.0,0.0,0.0,0.0
1731435000,-0.08843271,0.0038505718,-0.058404565,0.041936874,-0.019904137,-0.40831947,0.0,0.0,0.0,-0.038430613,0.0,0.0,0.0,0.0,0.0,0.2622078,0.2622101,0.5721098,0.398915,0.39891514,4.0574102,0.0,0.0,0.0,0.09014752,0.0,0.0,0.0,0.0,0.0,0.00011966862,0.005713621,0.009919903,0.0,0.0,0.0,0.0,0.0,0.0
1731635832,-0.18166254,-0.012148168,-0.047147393,0.05343628,-0.048478127,0.042222977,0.0,0.0,0.0,-0.026242455,0.0,0.0,0.0,0.0,0.0,0.26221383,0.26221532,0.5721178,0.39415002,0.39415038,4.057537,0.0,0.0,0.0,0.09014744,0.0,0.0,0.0,0.0,0.0,0.0004721839,0.0076182736,0.0140777165,0.0,0.0,0.0,0.0,0.0,0.0
1731836125,-0.022919416,0.05609112,0.026592493,0.048282623,-0.045508385,-0.34849167,0.0,0.0,0.0,-0.020027645,0.0,0.0,0.0,0.0,0.0,0.2622582,0.2622591,0.5721555,0.3943355,0.39433604,4.057515,0.0,0.0,0.0,0.090147525,0.0,0.0,0.0,0.0,0.0,0.00023331252,0.0043495297,0.010023601,0.0,0.0,0.0,0.0,0.0,0.0
1732040808,-0.1360489,0.08588491,-0.005349934,0.016813278,-0.03053093,0.5330925,0.0,0.0,0.0,-0.027384557,0.0,0.0,0.0,0.0,0.0,0.26221803,0.26221842,0.57215375,0.3940574,0.39405796,4.057321,0.0,0.0,0.0,0.09014762,0.0,0.0,0.0,0.0,0.0,0.00014294355,0.0064103124,0.014691454,0.0,0.0,0.0,0.0,0.0,0.0
1732241610,-0.06492851,-0.022057025,-0.121676564,0.0052394867,-0.040364265,-0.065071106,0.0,0.0,0.0,0.02809351,0.0,0.0,0.0,0.0,0.0,0.26220086,0.26220092,0.57207847,0.3939376,0.39393806,4.0572205,0.0,0.0,0.0,0.09014747,0.0,0.0,0.0,0.0,0.0,0.00015967964,0.005976434,0.014459415,0.0,0.0,0.0,0.0,0.0,0.0
1732441775,-0.17888233,0.08389265,-0.03168583,-0.0040245056,-0.03536606,-0.8860569,0.0,0.0,0.0,0.00016890839,0.0,0.0,0.0,0.0,0.0,0.26220408,0.26220396,0.57208836,0.3938709,0.39387125,4.057376,0.0,0.0,0.0,0.09014758,0.0,0.0,0.0,0.0,0.0,0.00023083424,0.01188969,0.034278512,0.0,0.0,0.0,0.0,0.0,0.0
1732642420,-0.122850664,0.004878223,-0.035942078,-0.031125069,-0.033548355,-0.17910385,0.0,0.0,0.0,-0.014108747,0.0,0.0,0.0,0.0,0.0,0.26219746,0.26219738,0.5721002,0.39381847,0.39381868,4.0571966,0.0,0.0,0.0,0.09014743,0.0,0.0,0.0,0.0,0.0,0.00023378116,0.011740192,0.035985958,0.0,0.0,0.0,0.0,0.0,0.0
1732843410,-0.17783894,0.08256249,0.16605014,-0.051268578,-0.01911068,0.23353195,0.0,0.0,0.0,0.025161223,0.0,0.0,0.0,0.0,0.0,0.26220697,0.26220754,0.57211024,0.3937797,0.39377978,4.057061,0.0,0.0,0.0,0.09014736,0.0,0.0,0.0,0.0,0.0,0.00030481914,0.007979876,0.018612009,0.0,0.0,0.0,0.0,0.0,0.0
1733043287,-0.07571599,0.04377261,-0.10903835,-0.05480385,-0.021308899,-0.29610825,0.0,0.0,0.0,-0.03051708,0.0,0.0,0.0,0.0,0.0,0.2621452,0.2621457,0.5720891,0.3922484,0.3922484,4.0569935,0.0,0.0,0.0,0.09014746,0.0,0.0,0.0,0.0,0.0,0.00023713616,0.0057360167,0.014461489,0.0,0.0,0.0,0.0,0.0,0.0
1733244139,-0.019819833,0.109586455,0.07332176,-0.06594849,-0.012160301,-0.25592422,0.0,0.0,0.0,0.0043925624,0.0,0.0,0.0,0.0,0.0,0.26216918,0.26217005,0.5720258,0.39225164,0.3922516,4.0568895,0.0,0.0,0.0,0.09014747,0.0,0.0,0.0,0.0,0.0,0.00017737284,0.004223887,0.011392845,0.0,0.0,0.0,0.0,0.0,0.0
1733444886,-0.011418966,0.033243068,-0.0077103376,-0.058917046,-0.00057315826,-0.31384087,0.0,0.0,0.0,0.027869146,0.0,0.0,0.0,0.0,0.0,0.26218718,0.2621882,0.5720436,0.39108863,0.3910886,4.0570383,0.0,0.0,0.0,0.090147406,0.0,0.0,0.0,0.0,0.0,9.270605e-05,0.0024052705,0.0079047,0.0,0.0,0.0,0.0,0.0,0.0
1733645413,0.11746079,-0.0008637868,0.051216364,-0.02278328,-0.020953178,-0.012145996,0.0,0.0,0.0,0.05923941,0.0,0.0,0.0,0.0,0.0,0.26219782,0.2621997,0.57206035,0.3887421,0.38874215,4.0571885,0.0,0.0,0.0,0.09014742,0.0,0.0,0.0,0.0,0.0,0.00010553004,0.006355463,0.01888406,0.0,0.0,0.0,0.0,0.0,0.0
1733849599,-0.15844786,0.011605937,0.009876251,-0.038075447,-0.018039703,-0.08695984,0.0,0.0,0.0,-0.044840027,0.0,0.0,0.0,0.0,0.0,0.2622091,0.2622117,0.57207096,0.38867638,0.38867658,4.057057,0.0,0.0,0.0,0.09014752,0.0,0.0,0.0,0.0,0.0,0.00018502795,0.0067031807,0.022817781,0.0,0.0,0.0,0.0,0.0,0.0
1734050478,-0.073461995,0.16200492,0.12580788,-0.044878006,-0.0073184967,-0.20766068,0.0,0.0,0.0,-0.015789432,0.0,0.0,0.0,0.0,0.0,0.2622104,0.26221287,0.5720844,0.38748375,0.3874841,4.0569096,0.0,0.0,0.0,0.09014761,0.0,0.0,0.0,0.0,0.0,0.00025086146,0.003563878,0.007509683,0.0,0.0,0.0,0.0,0.0,0.0
1734251250,0.033480037,-0.12232581,-0.15203679,-0.036564827,-0.026828766,-0.17944145,0.0,0.0,0.0,-0.031218892,0.0,0.0,0.0,0.0,0.0,0.26221886,0.2622196,0.57203174,0.38739324,0.38739383,4.0571113,0.0,0.0,0.0,0.090147465,0.0,0.0,0.0,0.0,0.0,0.00011192997,0.009696039,0.023825802,0.0,0.0,0.0,0.0,0.0,0.0
1734455051,0.116611265,0.076532476,-0.100791395,-0.025694847,-0.027623177,-0.70536804,0.0,0.0,0.0,-0.011118067,0.0,0.0,0.0,0.0,0.0,0.26219225,0.26219273,0.57204145,0.38723212,0.38723272,4.0568514,0.0,0.0,0.0,0.09014754,0.0,0.0,0.0,0.0,0.0,0.00023854374,0.00830418,0.0153301535,0.0,0.0,0.0,0.0,0.0,0.0
1734656176,0.116611265,0.076532476,-0.100791395,-0.025694847,-0.027623177,-0.39450836,0.0,0.0,0.0,-0.021677986,0.0,0.0,0.0,0.0,0.0,0.26219225,0.26219273,0.57204145,0.38723212,0.38723272,4.0568156,0.0,0.0,0.0,0.090147555,0.0,0.0,0.0,0.0,0.0,0.0002536129,0.005503556,0.0139994295,0.0,0.0,0.0,0.0,0.0,0.0
1734856834,-0.14934792,0.20214644,0.13032186,-0.044244766,-0.010007858,-0.5205498,0.0,0.0,0.0,-0.04476967,0.0,0.0,0.0,0.0,0.0,0.2622407,0.26224092,0.57201475,0.38753438,0.387535,4.0567064,0.0,0.0,0.0,0.09014756,0.0,0.0,0.0,0.0,0.0,0.00040282388,0.006786291,0.019609451,0.0,0.0,0.0,0.0,0.0,0.0
1735057743,-0.22407721,0.1226529,0.03308344,-0.070176125,0.0047216415,-0.2774048,0.0,0.0,0.0,0.0036318395,0.0,0.0,0.0,0.0,0.0,0.26216775,0.26216677,0.5720236,0.38832712,0.38832772,4.056139,0.0,0.0,0.0,0.09014765,0.0,0.0,0.0,0.0,0.0,0.0005429941,0.016014805,0.029531304,0.0,0.0,0.0,0.0,0.0,0.0
1735257614,-0.08858879,0.1061035,0.0132972,-0.08859539,0.0202322,0.26355362,0.0,0.0,0.0,0.020277305,0.0,0.0,0.0,0.0,0.0,0.2621967,0.26219508,0.5720703,0.3885137,0.3885142,4.056759,0.0,0.0,0.0,0.09014773,0.0,0.0,0.0,0.0,0.0,0.0005710439,0.016269023,0.0352541,0.0,0.0,0.0,0.0,0.0,0.0
1735458473,-0.08858879,0.1061035,0.0132972,-0.08859539,0.0202322,-0.19634628,0.0,0.0,0.0,-0.0045927446,0.0,0.0,0.0,0.0,0.0,0.2621967,0.26219508,0.5720703,0.3885137,0.3885142,4.056949,0.0,0.0,0.0,0.09014766,0.0,0.0,0.0,0.0,0.0,0.0003394275,0.0054945718,0.014785614,0.0,0.0,0.0,0.0,0.0,0.0
1735663321,0.14459515,0.015856825,0.07561612,-0.0685873,0.016043663,-0.059547424,0.0,0.0,0.0,-0.008266583,0.0,0.0,0.0,0.0,0.0,0.2621509,0.26215053,0.57209843,0.38718617,0.38718647,4.0569935,0.0,0.0,0.0,0.09014766,0.0,0.0,0.0,0.0,0.0,0.0003304391,0.005640395,0.013402991,0.0,0.0,0.0,0.0,0.0,0.0
1735863275,-0.008839916,0.049654067,-0.056163788,-0.067975044,0.025792122,0.27444458,0.0,0.0,0.0,0.019439869,0.0,0.0,0.0,0.0,0.0,0.26215622,0.262157,0.57203585,0.38720357,0.38720387,4.0568986,0.0,0.0,0.0,0.09014767,0.0,0.0,0.0,0.0,0.0,0.00017717406,0.0065566674,0.01978954,0.0,0.0,0.0,0.0,0.0,0.0
1736064107,-0.065594524,0.009177595,-0.055259705,-0.085066795,0.022851944,0.14511108,0.0,0.0,0.0,0.083037525,0.0,0.0,0.0,0.0,0.0,0.26216272,0.26216465,0.57205176,0.38719556,0.38719594,4.0570693,0.0,0.0,0.0,0.09014777,0.0,0.0,0.0,0.0,0.0,0.00022917666,0.0051094545,0.013851281,0.0,0.0,0.0,0.0,0.0,0.0
1736268872,0.2154595,0.04493115,-0.15744895,-0.046322823,0.006515503,0.51501846,0.0,0.0,0.0,0.028934041,0.0,0.0,0.0,0.0,0.0,0.26217076,0.26217347,0.5720662,0.38721612,0.38721672,4.056453,0.0,0.0,0.0,0.09014777,0.0,0.0,0.0,0.0,0.0,0.00029694862,0.009289774,0.020540966,0.0,0.0,0.0,0.0,0.0,0.0
1736469068,0.048231855,0.08077399,-0.042695045,-0.041763306,0.015954018,0.031097412,0.0,0.0,0.0,-0.030396126,0.0,0.0,0.0,0.0,0.0,0.26222417,0.26222777,0.57211125,0.38869816,0.38869908,4.057182,0.0,0.0,0.0,0.09014778,0.0,0.0,0.0,0.0,0.0,0.00021777656,0.013720406,0.042821717,0.0,0.0,0.0,0.0,0.0,0.0
1736669421,-0.26064244,0.08552429,0.047291875,-0.063355446,0.0250206,0.06912804,0.0,0.0,0.0,-0.010754902,0.0,0.0,0.0,0.0,0.0,0.26216847,0.26217267,0.57209116,0.3884015,0.38840276,4.056782,0.0,0.0,0.0,0.09014771,0.0,0.0,0.0,0.0,0.0,0.00040066618,0.015461034,0.04258435,0.0,0.0,0.0,0.0,0.0,0.0
1736874524,0.08517732,0.07129992,0.025222778,-0.061662674,0.034698486,0.3624611,0.0,0.0,0.0,-0.02614842,0.0,0.0,0.0,0.0,0.0,0.26217192,0.2621752,0.5720997,0.38840932,0.38841096,4.0571814,0.0,0.0,0.0,0.090147704,0.0,0.0,0.0,0.0,0.0,0.000507406,0.0052403617,0.013696757,0.0,0.0,0.0,0.0,0.0,0.0
1737075026,-0.04347994,0.0073965974,-0.011684537,-0.06021881,0.03827572,-0.13693237,0.0,0.0,0.0,0.018204672,0.0,0.0,0.0,0.0,0.0,0.2621191,0.26212117,0.57208014,0.38815066,0.38815248,4.0565486,0.0,0.0,0.0,0.09014779,0.0,0.0,0.0,0.0,0.0,0.00036909303,0.006457256,0.021003172,0.0,0.0,0.0,0.0,0.0,0.0
1737275027,-0.015006736,0.005786516,0.005610347,-0.058750153,0.03467846,-0.45907974,0.0,0.0,0.0,0.051995747,0.0,0.0,0.0,0.0,0.0,0.26219493,0.2621953,0.57204914,0.38851625,0.38851804,4.056725,0.0,0.0,0.0,0.090147816,0.0,0.0,0.0,0.0,0.0,0.00031378836,0.0028515852,0.007133772,0.0,0.0,0.0,0.0,0.0,0.0
1737480037,0.03949157,0.035689753,-0.028760314,-0.05297947,0.043574333,-0.027597427,0.0,0.0,0.0,-0.005169171,0.0,0.0,0.0,0.0,0.0,0.26214364,0.2621441,0.57202744,0.38821667,0.38821822,4.056568,0.0,0.0,0.0,0.090147726,0.0,0.0,0.0,0.0,0.0,0.00034778813,0.0017410303,0.0045634815,0.0,0.0,0.0,0.0,0.0,0.0
1737681012,0.040924758,-0.051832438,0.10002458,-0.040629387,0.036335945,0.15115738,0.0,0.0,0.0,-0.057740495,0.0,0.0,0.0,0.0,0.0,0.2621772,0.26217726,0.5720658,0.38842756,0.38842884,4.0565834,0.0,0.0,0.0,0.090147726,0.0,0.0,0.0,0.0,0.0,0.00036549527,0.0034848938,0.0038660641,0.0,0.0,0.0,0.0,0.0,0.0
1737885312,-0.062014095,0.0033551976,0.020938277,-0.028614998,0.033390045,-0.22632027,0.0,0.0,0.0,-0.040390585,0.0,0.0,0.0,0.0,0.0,0.26216,0.26215988,0.57208025,0.3896312,0.3896322,4.0567503,0.0,0.0,0.0,0.09014774,0.0,0.0,0.0,0.0,0.0,0.0005207437,0.0082313595,0.02385249,0.0,0.0,0.0,0.0,0.0,0.0
1738089694,-0.048874766,-0.010179311,0.010909557,-0.021169662,0.029776573,-0.35051727,0.0,0.0,0.0,-0.015223297,0.0,0.0,0.0,0.0,0.0,0.26216406,0.26216406,0.57209164,0.39084896,0.3908497,4.056668,0.0,0.0,0.0,0.09014775,0.0,0.0,0.0,0.0,0.0,0.0005426427,0.0053506657,0.015608453,0.0,0.0,0.0,0.0,0.0,0.0
1738290431,0.14418027,-0.005904071,-0.10468817,-0.0045251846,0.025845528,-0.20171928,0.0,0.0,0.0,0.0167398,0.0,0.0,0.0,0.0,0.0,0.26214945,0.26214948,0.57202476,0.39087433,0.39087492,4.056516,0.0,0.0,0.0,0.090147674,0.0,0.0,0.0,0.0,0.0,0.0005215993,0.007657062,0.013697408,0.0,0.0,0.0,0.0,0.0,0.0
1738491048,-0.11623502,0.06241418,-0.076574445,-0.0051259995,0.03460884,-0.03036499,0.0,0.0,0.0,-0.046134673,0.0,0.0,0.0,0.0,0.0,0.2621185,0.2621183,0.572033,0.39077926,0.39077973,4.0565963,0.0,0.0,0.0,0.09014767,0.0,0.0,0.0,0.0,0.0,0.00062098505,0.0010703334,0.0045769257,0.0,0.0,0.0,0.0,0.0,0.0
1738692323,-0.04633303,0.008035988,0.019295096,-0.007662773,0.03695011,-0.080337524,0.0,0.0,0.0,-0.033617485,0.0,0.0,0.0,0.0,0.0,0.26209545,0.262094,0.57204306,0.39186448,0.39186478,4.0566387,0.0,0.0,0.0,0.0901476,0.0,0.0,0.0,0.0,0.0,0.00055810326,0.0064199963,0.020590503,0.0,0.0,0.0,0.0,0.0,0.0
1738896114,0.16675717,-0.03194847,0.0886637,0.02186203,0.024053574,-0.15092087,0.0,0.0,0.0,-0.015833827,0.0,0.0,0.0,0.0,0.0,0.26211497,0.26211244,0.57205707,0.3919258,0.3919259,4.0565286,0.0,0.0,0.0,0.09014778,0.0,0.0,0.0,0.0,0.0,0.00037102873,0.009884254,0.023728054,0.0,0.0,0.0,0.0,0.0,0.0
1739096812,0.09934273,-0.074041605,0.047719955,0.04548931,0.008665085,0.4291954,0.0,0.0,0.0,-0.006784739,0.0,0.0,0.0,0.0,0.0,0.2621316,0.26212826,0.5720711,0.39201227,0.39201206,4.0566597,0.0,0.0,0.0,0.090147875,0.0,0.0,0.0,0.0,0.0,0.00040528446,0.012240105,0.02502508,0.0,0.0,0.0,0.0,0.0,0.0
1739297719,-0.10164373,0.031279497,0.05019605,0.028465271,0.0150437355,0.5857277,0.0,0.0,0.0,-0.030663174,0.0,0.0,0.0,0.0,0.0,0.26213565,0.26213348,0.5720853,0.39208198,0.39208147,4.0565424,0.0,0.0,0.0,0.09014778,0.0,0.0,0.0,0.0,0.0,0.0004825225,0.0055198525,0.015280627,0.0,0.0,0.0,0.0,0.0,0.0
1739497647,0.030650549,0.0030167922,-0.05398357,0.019730568,0.015974045,0.076828,0.0,0.0,0.0,0.029091787,0.0,0.0,0.0,0.0,0.0,0.26213178,0.2621314,0.5720995,0.39096802,0.3909673,4.056703,0.0,0.0,0.0,0.09014779,0.0,0.0,0.0,0.0,0.0,0.00038098553,0.004585323,0.012017582,0.0,0.0,0.0,0.0,0.0,0.0
1739702482,0.17804942,-0.048236933,0.07854557,0.03691864,0.0157094,-0.40437698,0.0,0.0,0.0,0.017825615,0.0,0.0,0.0,0.0,0.0,0.2621252,0.26212615,0.5721102,0.39096764,0.39096686,4.056874,0.0,0.0,0.0,0.09014772,0.0,0.0,0.0,0.0,0.0,0.0002868238,0.011590286,0.023240142,0.0,0.0,0.0,0.0,0.0,0.0
1739903331,0.12897947,-0.053294554,0.034460783,0.031377792,0.026734829,-0.056427002,0.0,0.0,0.0,-0.038862493,0.0,0.0,0.0,0.0,0.0,0.26211235,0.2621149,0.57204133,0.39099413,0.39099354,4.056733,0.0,0.0,0.0,0.09014782,0.0,0.0,0.0,0.0,0.0,0.00039170193,0.012147544,0.02385865,0.0,0.0,0.0,0.0,0.0,0.0
1740103347,0.12014072,-0.05435579,0.008998036,0.033625603,0.025262833,-0.8526077,0.0,0.0,0.0,-0.020861223,0.0,0.0,0.0,0.0,0.0,0.26211715,0.26212087,0.572055,0.39218777,0.39218754,4.0566072,0.0,0.0,0.0,0.09014778,0.0,0.0,0.0,0.0,0.0,0.00041415368,0.012115173,0.024344051,0.0,0.0,0.0,0.0,0.0,0.0
1740304011,-0.032743108,-0.12295607,0.012683749,0.021061897,0.020072937,-0.5409546,0.0,0.0,0.0,-0.015631204,0.0,0.0,0.0,0.0,0.0,0.2621173,0.2621235,0.57206666,0.39219517,0.3921954,4.056728,0.0,0.0,0.0,0.09014784,0.0,0.0,0.0,0.0,0.0,0.00066649035,0.009612968,0.023335807,0.0,0.0,0.0,0.0,0.0,0.0
1740504618,0.06206093,-0.03137727,-0.050257802,0.019934654,0.014665604,0.12577057,0.0,0.0,0.0,-0.04394403,0.0,0.0,0.0,0.0,0.0,0.26211154,0.2621205,0.5720801,0.3934037,0.3934046,4.0566497,0.0,0.0,0.0,0.09014776,0.0,0.0,0.0,0.0,0.0,0.00051046076,0.0076109227,0.019441614,0.0,0.0,0.0,0.0,0.0,0.0
1740704876,0.0031055063,-0.0073760077,0.08416307,-0.0022029877,0.022267342,-0.3074112,0.0,0.0,0.0,-0.014081122,0.0,0.0,0.0,0.0,0.0,0.26211798,0.262128,0.5720942,0.39344823,0.3934499,4.056798,0.0,0.0,0.0,0.090147756,0.0,0.0,0.0,0.0,0.0,0.00016137474,0.0021915925,0.0065947836,0.0,0.0,0.0,0.0,0.0,0.0
1741916853,-0.0040169954,-0.0058268346,0.16915798,-0.06377792,-0.020874977,-0.1597271,0.0,0.0,0.0,-0.03113529,0.0,0.0,0.0,0.0,0.0,0.26208603,0.2620878,0.57209575,0.3885182,0.38852242,4.05665,0.0,0.0,0.0,0.09014759,0.0,0.0,0.0,0.0,0.0,0.0005472944,0.009199223,0.032082845,0.0,0.0,0.0,0.0,0.0,0.0
1742923421,-0.027693667,-0.08383757,-0.004984975,-0.14119911,-0.024830818,-0.08047676,0.0,0.0,0.0,-0.023574704,0.0,0.0,0.0,0.0,0.0,0.26206902,0.26207,0.5720867,0.38846603,0.3884669,4.056891,0.0,0.0,0.0,0.09014757,0.0,0.0,0.0,0.0,0.0,0.00038143224,0.011342372,0.030216735,0.0,0.0,0.0,0.0,0.0,0.0
1743123839,0.0107923895,-0.10986775,0.11589885,-0.12666035,-0.048020363,-0.18533516,0.0,0.0,0.0,0.016544046,0.0,0.0,0.0,0.0,0.0,0.2620718,0.2620747,0.5720991,0.38847038,0.38847077,4.056725,0.0,0.0,0.0,0.09014752,0.0,0.0,0.0,0.0,0.0,0.0005768653,0.012835118,0.035810348,0.0,0.0,0.0,0.0,0.0,0.0
1743328846,0.15319583,-0.07956113,0.09923375,-0.110445976,-0.04583645,-0.21922302,0.0,0.0,0.0,-0.0579117,0.0,0.0,0.0,0.0,0.0,0.26207492,0.2620786,0.572035,0.38731146,0.38731155,4.056653,0.0,0.0,0.0,0.09014753,0.0,0.0,0.0,0.0,0.0,0.00059287663,0.0068658283,0.01854284,0.0,0.0,0.0,0.0,0.0,0.0
1743528849,-0.005669698,-0.06886658,-0.043613553,-0.10919666,-0.05375862,-0.58766174,0.0,0.0,0.0,-0.019601844,0.0,0.0,0.0,0.0,0.0,0.26206693,0.2620703,0.5720519,0.38729241,0.38729241,4.0565453,0.0,0.0,0.0,0.0901474,0.0,0.0,0.0,0.0,0.0,0.000528401,0.0063132425,0.0158773,0.0,0.0,0.0,0.0,0.0,0.0
1743729421,0.06430104,-0.074576885,0.012269497,-0.10588455,-0.052968025,0.4082489,0.0,0.0,0.0,-0.032782853,0.0,0.0,0.0,0.0,0.0,0.2620607,0.26206306,0.57206863,0.3872521,0.38725215,4.056476,0.0,0.0,0.0,0.0901474,0.0,0.0,0.0,0.0,0.0,0.000689532,0.010542287,0.031763148,0.0,0.0,0.0,0.0,0.0,0.0
1743930273,-0.023946263,-0.025219908,0.062092304,-0.103598595,-0.052487373,0.3925972,0.0,0.0,0.0,-0.01779135,0.0,0.0,0.0,0.0,0.0,0.26206425,0.26206553,0.5720869,0.386081,0.38608116,4.0566497,0.0,0.0,0.0,0.09014749,0.0,0.0,0.0,0.0,0.0,0.0006027532,0.00430942,0.011428285,0.0,0.0,0.0,0.0,0.0,0.0
1744131255,0.09851904,-0.052889757,-0.042009234,-0.08653259,-0.056853294,-0.24336433,0.0,0.0,0.0,0.013414655,0.0,0.0,0.0,0.0,0.0,0.26207018,0.2620695,0.5720246,0.38605744,0.38605756,4.0565457,0.0,0.0,0.0,0.09014735,0.0,0.0,0.0,0.0,0.0,0.0006309971,0.0064946967,0.021263178,0.0,0.0,0.0,0.0,0.0,0.0
1744331025,0.09266222,-0.12351652,0.016576529,-0.060725212,-0.06857681,0.10671806,0.0,0.0,0.0,-0.013975749,0.0,0.0,0.0,0.0,0.0,0.26207536,0.26207414,0.5720408,0.38601202,0.38601205,4.056453,0.0,0.0,0.0,0.09014729,0.0,0.0,0.0,0.0,0.0,0.00035501664,0.0067415074,0.014859089,0.0,0.0,0.0,0.0,0.0,0.0
1744531809,0.059099674,-0.08176326,0.1182307,-0.0518713,-0.08091736,0.54831314,0.0,0.0,0.0,-0.012244593,0.0,0.0,0.0,0.0,0.0,0.26208314,0.2620819,0.5720578,0.38483942,0.3848393,4.0566,0.0,0.0,0.0,0.090147294,0.0,0.0,0.0,0.0,0.0,0.0004497784,0.007236208,0.0183736,0.0,0.0,0.0,0.0,0.0,0.0
1744732864,0.046967313,-0.02056551,0.082466125,-0.04857731,-0.076262474,-0.39403725,0.0,0.0,0.0,-0.044367887,0.0,0.0,0.0,0.0,0.0,0.2620238,0.26202267,0.5720393,0.38452032,0.38452002,4.0567584,0.0,0.0,0.0,0.0901473,0.0,0.0,0.0,0.0,0.0,0.00053591246,0.0045022396,0.0110297175,0.0,0.0,0.0,0.0,0.0,0.0
1744932604,0.08716109,-0.07442794,0.10075283,-0.03281212,-0.07527828,0.21759796,0.0,0.0,0.0,-0.004016923,0.0,0.0,0.0,0.0,0.0,0.26207826,0.26207697,0.57208335,0.3848021,0.38480163,4.0566893,0.0,0.0,0.0,0.090147234,0.0,0.0,0.0,0.0,0.0,0.00061293953,0.0066117253,0.01601486,0.0,0.0,0.0,0.0,0.0,0.0
1745137399,0.23732124,-0.04809151,0.09556234,-0.01437664,-0.08027363,-0.34670258,0.0,0.0,0.0,-0.05373045,0.0,0.0,0.0,0.0,0.0,0.26202202,0.2620203,0.5720656,0.3833329,0.38333228,4.056819,0.0,0.0,0.0,0.09014724,0.0,0.0,0.0,0.0,0.0,0.0005964742,0.012436152,0.028220931,0.0,0.0,0.0,0.0,0.0,0.0
1745338228,0.09133998,-0.04553145,0.12748408,-0.014140129,-0.07848263,1.1185188,0.0,0.0,0.0,0.07122041,0.0,0.0,0.0,0.0,0.0,0.262025,0.2620233,0.57207817,0.382177,0.38217622,4.056694,0.0,0.0,0.0,0.09014726,0.0,0.0,0.0,0.0,0.0,0.00052863994,0.014132086,0.03988007,0.0,0.0,0.0,0.0,0.0,0.0
1745538503,0.07091539,-0.111100346,0.17570138,-0.007078171,-0.08808613,-0.8569584,0.0,0.0,0.0,0.019639172,0.0,0.0,0.0,0.0,0.0,0.26214293,0.2621406,0.57207507,0.3827245,0.38272348,4.0568433,0.0,0.0,0.0,0.090147264,0.0,0.0,0.0,0.0,0.0,0.0005318733,0.008575076,0.019270187,0.0,0.0,0.0,0.0,0.0,0.0
1745743318,0.07072609,-0.057914883,0.10970676,-0.012236595,-0.07758045,-0.20078087,0.0,0.0,0.0,-0.008611901,0.0,0.0,0.0,0.0,0.0,0.2620692,0.2620653,0.57205445,0.38234675,0.38234547,4.0567627,0.0,0.0,0.0,0.09014728,0.0,0.0,0.0,0.0,0.0,0.0005019117,0.006491467,0.015892496,0.0,0.0,0.0,0.0,0.0,0.0
1745944025,0.057978854,-0.04916969,0.2239275,-0.014930725,-0.07520294,-0.5369358,0.0,0.0,0.0,0.020176569,0.0,0.0,0.0,0.0,0.0,0.26200992,0.26200536,0.57203656,0.38202146,0.3820199,4.0569034,0.0,0.0,0.0,0.09014714,0.0,0.0,0.0,0.0,0.0,0.0005758799,0.004239929,0.011006802,0.0,0.0,0.0,0.0,0.0,0.0
1746148840,0.110511616,-0.06146603,0.0868299,-0.012410164,-0.067150116,0.28667068,0.0,0.0,0.0,0.054786168,0.0,0.0,0.0,0.0,0.0,0.2620036,0.26199877,0.57204837,0.38084966,0.38084775,4.0569077,0.0,0.0,0.0,0.09014707,0.0,0.0,0.0,0.0,0.0,0.00032202547,0.008869827,0.026253816,0.0,0.0,0.0,0.0,0.0,0.0
1746348964,0.11304161,-0.015520811,-0.049258113,-0.01056385,-0.06894302,-0.21095657,0.0,0.0,0.0,0.06669366,0.0,0.0,0.0,0.0,0.0,0.2620307,0.2620263,0.5720849,0.37983638,0.37983412,4.0567737,0.0,0.0,0.0,0.09014716,0.0,0.0,0.0,0.0,0.0,0.00027313072,0.0064085005,0.0191614,0.0,0.0,0.0,0.0,0.0,0.0
1746549656,-0.032531247,0.00014679879,0.035790563,-0.018484116,-0.057162285,0.3598976,0.0,0.0,0.0,-0.014334125,0.0,0.0,0.0,0.0,0.0,0.26203084,0.26202646,0.5720976,0.37979603,0.37979338,4.0568943,0.0,0.0,0.0,0.09014709,0.0,0.0,0.0,0.0,0.0,0.0002930047,0.0071749236,0.025148587,0.0,0.0,0.0,0.0,0.0,0.0
1746750202,0.13100931,-0.10052246,-0.045273542,-0.014732361,-0.049869537,-0.20161629,0.0,0.0,0.0,-0.0029082391,0.0,0.0,0.0,0.0,0.0,0.26194632,0.26194128,0.57206935,0.3793317,0.3793288,4.0568953,0.0,0.0,0.0,0.09014709,0.0,0.0,0.0,0.0,0.0,0.00041912962,0.004524111,0.009936951,0.0,0.0,0.0,0.0,0.0,0.0
1746954279,0.06398375,-0.033234365,0.09291482,-0.023470879,-0.039889336,0.5207939,0.0,0.0,0.0,0.060015984,0.0,0.0,0.0,0.0,0.0,0.26200905,0.2620039,0.5720315,0.37847158,0.37846825,4.0568094,0.0,0.0,0.0,0.090147115,0.0,0.0,0.0,0.0,0.0,0.0002239852,0.0056603923,0.017483767,0.0,0.0,0.0,0.0,0.0,0.0
1747155025,0.022883195,-0.031027507,0.043772817,-0.028251648,-0.030503273,0.08940697,0.0,0.0,0.0,-0.012766669,0.0,0.0,0.0,0.0,0.0,0.26200986,0.2620042,0.57204515,0.3784489,0.3784452,4.0566635,0.0,0.0,0.0,0.09014705,0.0,0.0,0.0,0.0,0.0,0.00029983057,0.0033460907,0.009502969,0.0,0.0,0.0,0.0,0.0,0.0
1747356031,0.040383592,0.027193926,0.036997795,-0.027988434,-0.016794205,0.02812004,0.0,0.0,0.0,-0.027471386,0.0,0.0,0.0,0.0,0.0,0.26201272,0.2620065,0.57205814,0.3784309,0.37842682,4.0568104,0.0,0.0,0.0,0.09014714,0.0,0.0,0.0,0.0,0.0,0.00049948564,0.005210468,0.012456418,0.0,0.0,0.0,0.0,0.0,0.0
1747559996,-0.004646521,-0.03983292,0.08708191,-0.027293205,-0.014181137,0.204525,0.0,0.0,0.0,-0.02129783,0.0,0.0,0.0,0.0,0.0,0.26199007,0.2619831,0.5720641,0.37827307,0.3782686,4.056873,0.0,0.0,0.0,0.09014715,0.0,0.0,0.0,0.0,0.0,0.00074525713,0.0048271753,0.011944371,0.0,0.0,0.0,0.0,0.0,0.0
1747760934,-0.114525124,0.12179163,0.008450985,-0.043421745,0.0032110214,-0.47346306,0.0,0.0,0.0,-0.039407004,0.0,0.0,0.0,0.0,0.0,0.26200736,0.26199827,0.5720751,0.3782567,0.3782517,4.05675,0.0,0.0,0.0,0.090147234,0.0,0.0,0.0,0.0,0.0,0.00068560406,0.011185801,0.021562288,0.0,0.0,0.0,0.0,0.0,0.0
1747965385,0.029173814,0.04825294,0.11518073,-0.048083305,0.016996384,0.4562645,0.0,0.0,0.0,-0.058902673,0.0,0.0,0.0,0.0,0.0,0.26201108,0.26200128,0.57209,0.37827513,0.37826952,4.056879,0.0,0.0,0.0,0.09014717,0.0,0.0,0.0,0.0,0.0,0.0007402645,0.010363732,0.02216388,0.0,0.0,0.0,0.0,0.0,0.0
1748166484,0.18961015,-0.073923334,0.14168096,-0.018751144,0.0046596527,0.043333054,0.0,0.0,0.0,0.006880112,0.0,0.0,0.0,0.0,0.0,0.26195765,0.26194936,0.57206964,0.37685087,0.37684494,4.0570173,0.0,0.0,0.0,0.09014728,0.0,0.0,0.0,0.0,0.0,0.00047143316,0.0055485032,0.013719191,0.0,0.0,0.0,0.0,0.0,0.0
1748367026,0.11263928,-0.032576993,0.15917337,-0.0151491165,0.007665634,0.57556915,0.0,0.0,0.0,0.007975742,0.0,0.0,0.0,0.0,0.0,0.26208103,0.26207507,0.5720634,0.37746745,0.37746114,4.056873,0.0,0.0,0.0,0.09014722,0.0,0.0,0.0,0.0,0.0,0.0006927376,0.0056974064,0.01475832,0.0,0.0,0.0,0.0,0.0,0.0
1748570983,0.051867325,-0.034008905,0.11207366,-0.030895233,0.005839348,0.19179153,0.0,0.0,0.0,-0.020748783,0.0,0.0,0.0,0.0,0.0,0.2621218,0.26211867,0.5720253,0.3776841,0.377678,4.0567884,0.0,0.0,0.0,0.09014714,0.0,0.0,0.0,0.0,0.0,0.0005479402,0.007238769,0.02049072,0.0,0.0,0.0,0.0,0.0,0.0
1748772279,-0.0611884,0.04813716,0.10573411,-0.043081284,0.015932083,0.424366,0.0,0.0,0.0,-0.019737918,0.0,0.0,0.0,0.0,0.0,0.26198927,0.26198846,0.572053,0.37702456,0.37701935,4.056643,0.0,0.0,0.0,0.09014715,0.0,0.0,0.0,0.0,0.0,0.00035340994,0.011999315,0.035606783,0.0,0.0,0.0,0.0,0.0,0.0
1748972855,0.033935975,0.06816982,0.03169763,-0.045817375,0.024014473,0.36899185,0.0,0.0,0.0,-0.094762385,0.0,0.0,0.0,0.0,0.0,0.26198843,0.2619886,0.57206696,0.37700891,0.37700462,4.056666,0.0,0.0,0.0,0.090147234,0.0,0.0,0.0,0.0,0.0,0.000506977,0.0071997317,0.014942568,0.0,0.0,0.0,0.0,0.0,0.0
1749176888,-0.028514408,-0.032124393,0.104436636,-0.05774212,0.021105766,0.33509445,0.0,0.0,0.0,-0.016808322,0.0,0.0,0.0,0.0,0.0,0.26195964,0.26195997,0.57207334,0.37803304,0.37802988,4.056872,0.0,0.0,0.0,0.09014725,0.0,0.0,0.0,0.0,0.0,0.00049132307,0.005819585,0.013102843,0.0,0.0,0.0,0.0,0.0,0.0
1749377694,0.054957993,-0.07594143,0.022770643,-0.04499817,0.008694649,-0.75483894,0.0,0.0,0.0,-0.030759038,0.0,0.0,0.0,0.0,0.0,0.261963,0.2619628,0.57200736,0.3780842,0.3780822,4.056722,0.0,0.0,0.0,0.09014734,0.0,0.0,0.0,0.0,0.0,0.00036182793,0.0020752014,0.006307761,0.0,0.0,0.0,0.0,0.0,0.0
1749578437,0.036046732,-0.11289031,0.113871455,-0.044412613,-0.0070943832,0.35324478,0.0,0.0,0.0,-0.012622748,0.0,0.0,0.0,0.0,0.0,0.26197806,0.2619769,0.5720227,0.37928152,0.3792805,4.0566163,0.0,0.0,0.0,0.09014728,0.0,0.0,0.0,0.0,0.0,0.0004162428,0.00301621,0.0068068854,0.0,0.0,0.0,0.0,0.0,0.0
1749778596,-0.008988991,0.09302515,0.18610966,-0.037670135,-0.00064086914,0.08636284,0.0,0.0,0.0,-0.031926632,0.0,0.0,0.0,0.0,0.0,0.2619892,0.26198816,0.5720383,0.3793127,0.3793125,4.0567946,0.0,0.0,0.0,0.09014729,0.0,0.0,0.0,0.0,0.0,0.00041359002,0.0056778872,0.015048315,0.0,0.0,0.0,0.0,0.0,0.0
1749983330,0.010510892,0.0013216138,0.09238601,-0.045045853,0.0016546249,-0.5335903,0.0,0.0,0.0,0.008046089,0.0,0.0,0.0,0.0,0.0,0.26199657,0.26199624,0.57205343,0.38052598,0.3805263,4.0567026,0.0,0.0,0.0,0.09014722,0.0,0.0,0.0,0.0,0.0,0.00043342056,0.0036002225,0.009183412,0.0,0.0,0.0,0.0,0.0,0.0
1750184152,0.06646627,0.009592913,0.13731503,-0.0366354,-0.00022029877,-0.4123993,0.0,0.0,0.0,-0.083260894,0.0,0.0,0.0,0.0,0.0,0.2619735,0.2619748,0.572063,0.38160536,0.38160607,4.056736,0.0,0.0,0.0,0.090147294,0.0,0.0,0.0,0.0,0.0,0.0007115348,0.003843784,0.011151322,0.0,0.0,0.0,0.0,0.0,0.0
1750388038,0.03429065,-0.009240277,0.14721358,-0.037172318,-0.006567955,-0.35616112,0.0,0.0,0.0,-0.02137693,0.0,0.0,0.0,0.0,0.0,0.2619915,0.26199424,0.57207644,0.38167322,0.3816743,4.056897,0.0,0.0,0.0,0.09014739,0.0,0.0,0.0,0.0,0.0,0.0007480759,0.0048289723,0.015243228,0.0,0.0,0.0,0.0,0.0,0.0
1750588880,0.03809256,0.009723379,0.031998754,-0.03394127,0.0012464523,0.6872139,0.0,0.0,0.0,-0.023252461,0.0,0.0,0.0,0.0,0.0,0.26200724,0.26200962,0.5720093,0.38176343,0.38176477,4.0567737,0.0,0.0,0.0,0.09014741,0.0,0.0,0.0,0.0,0.0,0.00073068734,0.0035543204,0.009049119,0.0,0.0,0.0,0.0,0.0,0.0
1750793648,0.1409005,-0.029267265,0.05799246,-0.026460648,-0.00744915,-0.2420559,0.0,0.0,0.0,-0.026199663,0.0,0.0,0.0,0.0,0.0,0.26196286,0.26196453,0.57199186,0.38155052,0.38155198,4.056973,0.0,0.0,0.0,0.09014733,0.0,0.0,0.0,0.0,0.0,0.00074487104,0.0032718352,0.0064933803,0.0,0.0,0.0,0.0,0.0,0.0
1750994422,0.09657795,-0.010512134,0.10075891,-0.023522377,-0.007757187,-0.18664742,0.0,0.0,0.0,-0.016325712,0.0,0.0,0.0,0.0,0.0,0.2619917,0.26199278,0.5720054,0.38162768,0.3816292,4.0568447,0.0,0.0,0.0,0.09014727,0.0,0.0,0.0,0.0,0.0,0.00061255344,0.0057798424,0.016641382,0.0,0.0,0.0,0.0,0.0,0.0
1751194500,-0.012559146,0.0854546,0.011415482,-0.0365839,0.006667137,0.2382698,0.0,0.0,0.0,-0.02876295,0.0,0.0,0.0,0.0,0.0,0.26206693,0.2620675,0.5720511,0.3820138,0.3820152,4.05673,0.0,0.0,0.0,0.09014737,0.0,0.0,0.0,0.0,0.0,0.00046310909,0.003718938,0.007722693,0.0,0.0,0.0,0.0,0.0,0.0
1751399226,0.0555128,-0.00076648965,0.03249061,-0.021976471,0.012645721,-0.3392334,0.0,0.0,0.0,0.0006374847,0.0,0.0,0.0,0.0,0.0,0.26211503,0.26211503,0.5720186,0.38235062,0.38235182,4.0569067,0.0,0.0,0.0,0.090147324,0.0,0.0,0.0,0.0,0.0,0.00062433066,0.0048013623,0.012614279,0.0,0.0,0.0,0.0,0.0,0.0
1751600077,0.034332886,-0.020273538,0.07719016,-0.029943466,0.009654045,-0.003911972,0.0,0.0,0.0,0.013112303,0.0,0.0,0.0,0.0,0.0,0.26207337,0.26207295,0.5720244,0.38335723,0.3833581,4.056657,0.0,0.0,0.0,0.09014733,0.0,0.0,0.0,0.0,0.0,0.00046594092,0.0012909917,0.0032697516,0.0,0.0,0.0,0.0,0.0,0.0
1751800145,-0.029883437,-0.00877022,0.021089911,-0.020338058,0.012454987,0.37481308,0.0,0.0,0.0,0.009402059,0.0,0.0,0.0,0.0,0.0,0.262002,0.26200143,0.57200783,0.38422662,0.3842271,4.0568314,0.0,0.0,0.0,0.09014733,0.0,0.0,0.0,0.0,0.0,5.461423e-05,0.0028814403,0.006571213,0.0,0.0,0.0,0.0,0.0,0.0
1752000861,0.0049673505,0.047969803,-0.06127119,-0.037686348,0.0184021,-0.22441292,0.0,0.0,0.0,0.028391149,0.0,0.0,0.0,0.0,0.0,0.26200625,0.2620058,0.5720221,0.38431272,0.38431287,4.056693,0.0,0.0,0.0,0.09014733,0.0,0.0,0.0,0.0,0.0,0.00012061906,0.009323122,0.027287329,0.0,0.0,0.0,0.0,0.0,0.0
1752201667,-0.07675987,-0.04406859,-0.021323562,-0.054121017,0.014666557,0.47864532,0.0,0.0,0.0,-0.0051042996,0.0,0.0,0.0,0.0,0.0,0.26201338,0.26201203,0.5720384,0.3855466,0.3855465,4.0566454,0.0,0.0,0.0,0.09014735,0.0,0.0,0.0,0.0,0.0,0.00016201794,0.0060615223,0.01474421,0.0,0.0,0.0,0.0,0.0,0.0
1752402399,0.07108349,0.016012467,-0.02652824,-0.0504961,0.013168335,-0.4489174,0.0,0.0,0.0,-0.05401521,0.0,0.0,0.0,0.0,0.0,0.26199123,0.26198983,0.5720491,0.3854813,0.38548097,4.0566864,0.0,0.0,0.0,0.09014727,0.0,0.0,0.0,0.0,0.0,0.00037891444,0.0038236845,0.010698123,0.0,0.0,0.0,0.0,0.0,0.0
1752606463,0.12250108,-0.021047153,-0.060085893,-0.025798798,0.011258125,-0.59701157,0.0,0.0,0.0,-0.018280545,0.0,0.0,0.0,0.0,0.0,0.2620634,0.26206163,0.57201725,0.3858303,0.38582972,4.0568566,0.0,0.0,0.0,0.090147205,0.0,0.0,0.0,0.0,0.0,0.00013973459,0.0072263484,0.021514177,0.0,0.0,0.0,0.0,0.0,0.0
1752807401,0.030930204,0.03933496,0.05578792,-0.034475327,0.012393951,-0.06611824,0.0,0.0,0.0,0.040419072,0.0,0.0,0.0,0.0,0.0,0.26203135,0.26202962,0.57203066,0.38703108,0.3870303,4.056717,0.0,0.0,0.0,0.09014714,0.0,0.0,0.0,0.0,0.0,7.797714e-05,0.0028676828,0.008900605,0.0,0.0,0.0,0.0,0.0,0.0
1753007806,0.03248372,0.039449524,0.13094532,-0.028100967,0.0066804886,0.06668472,0.0,0.0,0.0,0.017748334,0.0,0.0,0.0,0.0,0.0,0.26193833,0.26193717,0.5720446,0.3870365,0.3870357,4.0569015,0.0,0.0,0.0,0.09014716,0.0,0.0,0.0,0.0,0.0,0.00013194016,0.002633889,0.008552563,0.0,0.0,0.0,0.0,0.0,0.0
1753212009,-0.03238992,0.01899866,0.239321,-0.036904335,0.0074796677,-0.4486351,0.0,0.0,0.0,-0.002719175,0.0,0.0,0.0,0.0,0.0,0.26184845,0.26184785,0.57206017,0.38822037,0.38821954,4.0570664,0.0,0.0,0.0,0.09014717,0.0,0.0,0.0,0.0,0.0,0.0004969311,0.0038274254,0.009951482,0.0,0.0,0.0,0.0,0.0,0.0
1753412629,0.0043281317,-0.020624079,0.16333878,-0.029753685,0.009432793,0.39857864,0.0,0.0,0.0,-0.043942608,0.0,0.0,0.0,0.0,0.0,0.26181477,0.26181626,0.5720713,0.38941047,0.38940966,4.0571823,0.0,0.0,0.0,0.09014791,0.0,0.0,0.0,0.0,0.0,0.0002291321,0.0055804816,0.0077004954,0.0,0.0,0.0,0.0,0.0,0.0
1753613776,0.11767459,0.030710548,0.025998473,-0.017457008,0.011995316,-0.51903915,0.0077747703,-0.006409342,-0.011957198,-0.036239814,0.0,0.0,0.0,0.0,0.0,0.2618279,0.26185745,0.5720693,0.39061466,0.39061415,4.057065,0.0032149828,0.0031965466,0.0032148503,0.09014816,0.0,0.0,0.0,0.0,0.0,0.00034789974,0.002137498,0.0049119988,0.0,0.0,0.0,0.0,0.0,0.0
1753817588,0.016977668,0.022031486,0.18718684,-0.023280144,0.0049390793,-0.41381836,-0.053227723,0.0002961727,0.03163594,-0.036239814,0.0,0.0,0.0,0.0,0.0,0.26176873,0.26188725,0.5720246,0.39034033,0.39034203,4.0569134,0.0027112777,0.0027075764,0.0027075054,0.09014816,0.0,0.0,0.0,0.0,0.0,0.00013346519,0.011251619,0.03640371,0.0,0.0,0.0,0.0,0.0,0.0
1754018563,-0.11128175,0.058165133,0.04611948,-0.033537865,-0.0028390884,-0.50637627,-0.0386457,0.005695682,0.026805162,-0.036239814,0.0,0.0,0.0,0.0,0.0,0.26170456,0.26191226,0.57194865,0.3903996,0.39040902,4.0566344,0.002666405,0.002647499,0.0026503801,0.09014816,0.0,0.0,0.0,0.0,0.0,0.00013383362,0.0018589254,0.004859629,0.0,0.0,0.0,0.0,0.0,0.0
1754227191,0.046648264,0.087768435,0.029829353,-0.010849953,-0.0006132126,0.73062515,-0.017250195,0.006430194,0.012916654,-0.036239814,0.0,0.0,0.0,0.0,0.0,0.2616515,0.26186812,0.57197416,0.38856182,0.38858187,4.0570683,0.0026410287,0.0026386974,0.0026152919,0.09014816,0.0,0.0,0.0,0.0,0.0,0.0001420783,0.010021669,0.033503134,0.0,0.0,0.0,0.0,0.0,0.0
1754427805,0.068252325,-0.058865547,-0.06380737,-0.010149956,0.029466629,0.72361755,-0.009014085,0.0016607046,-0.013291299,-0.036239814,0.0,0.0,0.0,0.0,0.0,0.2619884,0.2620925,0.5720003,0.3871915,0.3872265,4.057194,0.002617271,0.0026328238,0.0025876458,0.09014816,0.0,0.0,0.0,0.0,0.0,9.418582e-05,0.0089682685,0.03207954,0.0,0.0,0.0,0.0,0.0,0.0
1754628093,-0.03474307,0.100081325,0.12663949,-0.018651009,0.052306175,0.88615036,-0.009863064,-0.0060099214,-0.017255604,-0.036239814,0.0,0.0,0.0,0.0,0.0,0.2622341,0.2622283,0.57199186,0.38659555,0.38663533,4.0573006,0.002598057,0.002618124,0.0025668922,0.09014816,0.0,0.0,0.0,0.0,0.0,0.00014387582,0.010001479,0.034273975,0.0,0.0,0.0,0.0,0.0,0.0
1754832881,-0.0053772926,0.051626086,0.021692097,0.058307648,0.030888557,-0.3014412,0.002712205,-0.0045511425,-0.029347837,-0.036239814,0.0,0.0,0.0,0.0,0.0,0.2621674,0.26210532,0.572058,0.3832894,0.3833232,4.0576525,0.0025804173,0.0025952864,0.0025516727,0.09014816,0.0,0.0,0.0,0.0,0.0,0.0001531008,0.007526277,0.027903723,0.0,0.0,0.0,0.0,0.0,0.0
1755037649,0.035275817,-0.016922832,0.020572007,0.091052055,0.01649952,0.73501205,0.005368665,0.015271366,-0.015467942,-0.036239814,0.0,0.0,0.0,0.0,0.0,0.26234576,0.26225623,0.57205635,0.38445136,0.3844755,4.0574045,0.0025671378,0.0025756555,0.0025424897,0.09014816,0.0,0.0,0.0,0.0,0.0,0.00014537528,0.0070284083,0.026037607,0.0,0.0,0.0,0.0,0.0,0.0
1755237629,0.05709696,-0.01752901,0.04479848,0.128829,0.034451485,0.27531433,0.0013765544,-0.011849746,-0.018196076,-0.036239814,0.0,0.0,0.0,0.0,0.0,0.26264206,0.26254493,0.5720096,0.3859126,0.38592502,4.0574946,0.002557314,0.0025623085,0.0025369846,0.09014816,0.0,0.0,0.0,0.0,0.0,0.00025884475,0.0060432735,0.019503983,0.0,0.0,0.0,0.0,0.0,0.0
1755438495,0.05373609,0.10106981,-0.07099972,0.18129683,0.03618908,0.8237953,0.005902663,0.00067307055,0.0018000901,-0.036239814,0.0,0.0,0.0,0.0,0.0,0.26287383,0.26276845,0.5719839,0.38682276,0.38682404,4.057539,0.0025491717,0.0025522735,0.0025329355,0.09014816,0.0,0.0,0.0,0.0,0.0,0.00035447825,0.009791933,0.031619865,0.0,0.0,0.0,0.0,0.0,0.0
1755639240,0.013670087,-0.039000273,-0.07832642,0.1881342,0.035017967,0.22447205,0.008716032,-0.0009928495,-0.006647229,-0.036239814,0.0,0.0,0.0,0.0,0.0,0.26332933,0.26321128,0.57202095,0.38958395,0.38957253,4.057324,0.0025416766,0.0025436748,0.0025293708,0.09014816,0.0,0.0,0.0,0.0,0.0,0.00030310333,0.007025416,0.022225857,0.0,0.0,0.0,0.0,0.0,0.0
1755840042,-0.053575277,0.021777749,-0.03806403,0.20503855,0.038118362,-0.07746315,0.00063979626,0.008890033,0.0039696693,-0.036239814,0.0,0.0,0.0,0.0,0.0,0.26373422,0.26359844,0.5720278,0.39091152,0.3908878,4.0574403,0.0025365914,0.0025378584,0.0025268774,0.09014816,0.0,0.0,0.0,0.0,0.0,0.00017294356,0.0051258784,0.017993126,0.0,0.0,0.0,0.0,0.0,0.0
1756039801,0.011927724,-0.037205458,-0.12252469,0.29137516,-0.027132988,-0.2954197,-0.011630133,0.00027817488,0.020365924,-0.036239814,0.0,0.0,0.0,0.0,0.0,0.26424298,0.26406935,0.57202005,0.39261436,0.39256915,4.0573845,0.0025340742,0.0025340742,0.0025254583,0.09014816,0.0,0.0,0.0,0.0,0.0,0.00077014277,0.02378987,0.058220368,0.0,0.0,0.0,0.0,0.0,0.0
1756244805,0.06311023,0.011918545,0.00790276,0.28257942,-0.027050018,-0.02936554,-0.008713886,0.0056714416,0.020706713,-0.036239814,0.0,0.0,0.0,0.0,0.0,0.26465842,0.2644608,0.5720262,0.39418572,0.3941217,4.057452,0.0025443623,0.002534109,0.0025284912,0.09014816,0.0,0.0,0.0,0.0,0.0,0.00082466775,0.026617553,0.061661202,0.0,0.0,0.0,0.0,0.0,0.0
1756445904,0.06311023,0.011918545,0.00790276,0.28257942,-0.027050018,0.33932877,-0.0003272593,-0.0036232024,-0.014561385,-0.036239814,0.0,0.0,0.0,0.0,0.0,0.26465842,0.2644608,0.5720262,0.39418572,0.3941217,4.057535,0.0025548656,0.0025371155,0.002533973,0.09014816,0.0,0.0,0.0,0.0,0.0,0.0004463913,0.0102117825,0.023663705,0.0,0.0,0.0,0.0,0.0,0.0
1756650433,0.014108062,0.032127857,-0.0057498645,0.25630808,-0.00050640106,-0.3618183,0.009655178,-0.008549601,-0.004022658,-0.036239814,0.0,0.0,0.0,0.0,0.0,0.2652313,0.26505736,0.57200736,0.39882663,0.39872944,4.0573215,0.0025476974,0.0025385467,0.0025349618,0.09014816,0.0,0.0,0.0,0.0,0.0,0.00034413993,0.007003439,0.017888911,0.0,0.0,0.0,0.0,0.0,0.0
1756854613,0.0071282685,-0.018781424,-0.07599397,0.24227476,-1.5258789e-05,0.3862877,-0.014174134,0.0012122542,0.021191716,-0.036239814,0.0,0.0,0.0,0.0,0.0,0.26555437,0.26554576,0.571958,0.40433708,0.4042077,4.057167,0.002537474,0.0025364065,0.0025322817,0.09014816,0.0,0.0,0.0,0.0,0.0,0.00031982316,0.009243289,0.029375097,0.0,0.0,0.0,0.0,0.0,0.0
1757055273,0.024756491,-0.022485971,-0.05090589,0.2449646,-0.033400536,0.056430817,-0.005281493,0.0057712644,0.009587228,-0.036239814,0.0,0.0,0.0,0.0,0.0,0.26557174,0.26583633,0.5719361,0.40921766,0.40907574,4.0572467,0.002529611,0.0025313774,0.002527648,0.09014816,0.0,0.0,0.0,0.0,0.0,0.00035151938,0.006120825,0.019857453,0.0,0.0,0.0,0.0,0.0,0.0
1757259796,-0.04571134,-0.03599167,-0.10386464,0.21042442,-0.098929405,0.027992249,-0.0020499527,-0.008932993,-0.015711695,-0.036239814,0.0,0.0,0.0,0.0,0.0,0.2654815,0.26634955,0.57201695,0.41566515,0.4155674,4.056925,0.0025224525,0.002526049,0.0025223617,0.09014816,0.0,0.0,0.0,0.0,0.0,0.000712906,0.018891836,0.05145434,0.0,0.0,0.0,0.0,0.0,0.0
1757460204,-0.07901716,-0.04218781,-0.010836467,0.20132351,-0.116641045,0.1899643,0.0046678036,-0.011288971,-0.022463948,-0.036239814,0.0,0.0,0.0,0.0,0.0,0.26543775,0.2664857,0.5720056,0.4195074,0.41946918,4.056723,0.0025189267,0.0025229712,0.0025192953,0.09014816,0.0,0.0,0.0,0.0,0.0,0.00059671915,0.01392511,0.032729786,0.0,0.0,0.0,0.0,0.0,0.0
1757660807,-0.07901716,-0.04218781,-0.010836467,0.20132351,-0.116641045,0.29848862,-0.0040418655,-0.020122573,-0.018791437,-0.036239814,0.0,0.0,0.0,0.0,0.0,0.26543775,0.2664857,0.5720056,0.4195074,0.41946918,4.057071,0.0025168166,0.0025204082,0.0025169207,0.09014816,0.0,0.0,0.0,0.0,0.0,0.00028998125,0.007868025,0.016004818,0.0,0.0,0.0,0.0,0.0,0.0
1757861595,-0.13952851,0.0015956163,-0.17964512,0.22325277,-0.068068504,0.4238243,-0.010180801,-0.01821141,-0.017551571,-0.036239814,0.0,0.0,0.0,0.0,0.0,0.26569337,0.26686954,0.57204705,0.42473298,0.42479542,4.057195,0.0025159612,0.0025184746,0.0025154375,0.09014816,0.0,0.0,0.0,0.0,0.0,0.00018862043,0.00979713,0.022657081,0.0,0.0,0.0,0.0,0.0,0.0
1758061670,-0.08094323,-0.05152011,-0.030156016,0.19739246,-0.08379364,1.4479942,-0.0047475547,-0.00024056435,-0.0126723945,-0.036239814,0.0,0.0,0.0,0.0,0.0,0.26564616,0.26679054,0.5720678,0.42759722,0.42775375,4.0573096,0.0025154308,0.002516526,0.0025141912,0.09014816,0.0,0.0,0.0,0.0,0.0,0.00027126752,0.007923406,0.015904061,0.0,0.0,0.0,0.0,0.0,0.0
1758262498,-0.19969916,0.032446742,-0.26495567,0.16971874,-0.058763504,0.37607193,-0.008453846,0.0067762136,0.0056236386,-0.036239814,0.0,0.0,0.0,0.0,0.0,0.2654404,0.2663284,0.57209545,0.43194783,0.43226933,4.0574317,0.0025150029,0.002515427,0.0025134305,0.09014816,0.0,0.0,0.0,0.0,0.0,0.00018844132,0.012148319,0.024273219,0.0,0.0,0.0,0.0,0.0,0.0
1758463347,-0.06394434,0.04035151,-0.10835837,0.15325928,-0.055257797,1.0500145,0.012708679,-6.303191e-06,-0.031005442,-0.036239814,0.0,0.0,0.0,0.0,0.0,0.26527515,0.26598397,0.5720962,0.43577477,0.43614802,4.0576253,0.0025145716,0.0025145088,0.0025127865,0.09014816,0.0,0.0,0.0,0.0,0.0,0.00010864661,0.0055007567,0.008566383,0.0,0.0,0.0,0.0,0.0,0.0
1758663301,-0.0064888,0.022703886,-0.016038282,0.18314838,-0.04268837,-1.2831802,-0.0051856637,-0.0096536875,-0.008538246,-0.036239814,0.0,0.0,0.0,0.0,0.0,0.26513994,0.2656844,0.57210135,0.4373151,0.43773004,4.0576987,0.0025139563,0.0025137675,0.0025122114,0.09014816,0.0,0.0,0.0,0.0,0.0,0.00019801335,0.009436187,0.029509028,0.0,0.0,0.0,0.0,0.0,0.0
1758868061,-0.123869896,0.010141373,-0.07332921,0.16087723,-0.03439331,0.6342697,-0.00899823,0.011891767,0.018149376,-0.036239814,0.0,0.0,0.0,0.0,0.0,0.26489335,0.2652807,0.5720747,0.43845373,0.4388817,4.0569596,0.0025133716,0.0025130294,0.0025116564,0.09014816,0.0,0.0,0.0,0.0,0.0,0.00020458149,0.007301258,0.017124074,0.0,0.0,0.0,0.0,0.0,0.0
1759069643,-0.18510652,0.036113143,-0.06510423,0.15543175,-0.0036678314,0.48197937,-0.00652878,-0.005278796,-0.010934025,-0.036239814,0.0,0.0,0.0,0.0,0.0,0.2647911,0.2650263,0.57210857,0.44025242,0.44068757,4.0581036,0.0025129656,0.0025126024,0.0025112566,0.09014816,0.0,0.0,0.0,0.0,0.0,0.00014747452,0.009672398,0.012969995,0.0,0.0,0.0,0.0,0.0,0.0
1759269756,-0.20219064,0.06922293,-0.046120636,0.10979462,-0.025058746,-0.5150242,-0.0018931478,0.004958734,0.0320206,-0.036239814,0.0,0.0,0.0,0.0,0.0,0.26445976,0.26457888,0.57211953,0.44095728,0.44136217,4.0575247,0.0025124943,0.0025122757,0.002510878,0.09014816,0.0,0.0,0.0,0.0,0.0,0.00036722654,0.015727697,0.02914712,0.0,0.0,0.0,0.0,0.0,0.0
1759477419,-0.11867905,0.014739752,-0.13067524,0.14313126,0.0035877228,-0.2672577,0.0061701983,-0.02090311,-0.033872873,-0.036239814,0.0,0.0,0.0,0.0,0.0,0.2644167,0.26442984,0.5721028,0.44309974,0.44348025,4.0581264,0.0025120608,0.0025119958,0.0025104939,0.09014816,0.0,0.0,0.0,0.0,0.0,0.00028572747,0.01074249,0.020625269,0.0,0.0,0.0,0.0,0.0,0.0
1759678497,-0.090254545,0.028247476,-0.12447173,0.12536716,-0.008337021,-0.3437271,-0.0037244856,0.017805964,0.022510976,-0.036239814,0.0,0.0,0.0,0.0,0.0,0.26421008,0.26415452,0.5721017,0.4443786,0.44471207,4.0578284,0.0025117928,0.0025118538,0.0025102259,0.09014816,0.0,0.0,0.0,0.0,0.0,0.00019387853,0.009367397,0.020442113,0.0,0.0,0.0,0.0,0.0,0.0
1759883350,-0.28594685,0.10706365,-0.035497542,0.078769684,-0.02492714,-0.32674026,-0.0063474923,-0.017284915,-0.037524164,-0.036239814,0.0,0.0,0.0,0.0,0.0,0.26392913,0.2638284,0.57215047,0.44407508,0.44435322,4.057595,0.0025113863,0.0025120254,0.0025099695,0.09014816,0.0,0.0,0.0,0.0,0.0,0.00040644768,0.018818522,0.03744417,0.0,0.0,0.0,0.0,0.0,0.0
1760087231,-0.14093375,0.016110301,-0.08321044,0.0757494,-0.036058426,-0.3230667,-0.0051876456,0.0058032125,0.007386476,-0.036239814,0.0,0.0,0.0,0.0,0.0,0.2637434,0.26362678,0.57207125,0.44537014,0.4455926,4.0573325,0.002511091,0.0025119542,0.0025096925,0.09014816,0.0,0.0,0.0,0.0,0.0,0.0004602061,0.014225229,0.028790507,0.0,0.0,0.0,0.0,0.0,0.0
1760284057,-0.2184403,0.09427726,-0.058751483,0.031811714,-0.053689957,-0.20451736,-0.0019682944,0.0057294816,0.011913717,-0.036239814,0.0,0.0,0.0,0.0,0.0,0.26344082,0.26333147,0.5720928,0.44468886,0.4448575,4.057381,0.002510812,0.002511467,0.0025093982,0.09014816,0.0,0.0,0.0,0.0,0.0,0.00050980365,0.017497795,0.034484908,0.0,0.0,0.0,0.0,0.0,0.0
1760488886,-0.11407781,0.07173371,0.039336942,0.08227253,-0.02221489,-0.3595066,8.793175e-05,-0.014388889,-0.03557393,-0.036239814,0.0,0.0,0.0,0.0,0.0,0.2634248,0.2633297,0.57208467,0.44542992,0.44554448,4.0573964,0.0025105418,0.002511182,0.002509143,0.09014816,0.0,0.0,0.0,0.0,0.0,0.0003235727,0.011221624,0.024326874,0.0,0.0,0.0,0.0,0.0,0.0
1760689639,-0.20763683,0.102133274,-0.06291739,0.076862335,-0.012861252,0.41853714,-0.007899448,0.0030130744,0.03809166,-0.036239814,0.0,0.0,0.0,0.0,0.0,0.26323816,0.2631766,0.5720915,0.4453718,0.44544142,4.057433,0.002510289,0.0025108596,0.0025088494,0.09014816,0.0,0.0,0.0,0.0,0.0,0.0003173343,0.014181812,0.030085782,0.0,0.0,0.0,0.0,0.0,0.0
1760889666,-0.1870637,0.09924114,-0.14246684,0.0301857,-0.031467438,-0.7032623,-0.0019572526,-0.0065306574,0.015752345,-0.036239814,0.0,0.0,0.0,0.0,0.0,0.26297313,0.2629452,0.5721146,0.44588915,0.4459235,4.0574718,0.0025100661,0.0025105607,0.002508613,0.09014816,0.0,0.0,0.0,0.0,0.0,0.00038321482,0.014083866,0.030735612,0.0,0.0,0.0,0.0,0.0,0.0
1761094461,-0.14816046,0.050573707,-0.062746935,0.05638981,0.013988495,-0.35009956,0.011766627,-0.010661989,-0.011158615,-0.036239814,0.0,0.0,0.0,0.0,0.0,0.26294896,0.26296276,0.57210445,0.44901878,0.44902214,4.057235,0.0025098266,0.0025099544,0.0025083104,0.09014816,0.0,0.0,0.0,0.0,0.0,0.0002644496,0.010665944,0.029536402,0.0,0.0,0.0,0.0,0.0,0.0
1761295013,-0.22139955,0.11309552,-0.12996061,0.018012047,0.010847092,0.14202881,-0.0021195114,0.008833066,0.015142798,-0.036239814,0.0,0.0,0.0,0.0,0.0,0.2627797,0.26283047,0.57208395,0.44988662,0.44987187,4.057023,0.0025096543,0.0025097264,0.0025081073,0.09014816,0.0,0.0,0.0,0.0,0.0,0.00036160415,0.013844528,0.032504678,0.0,0.0,0.0,0.0,0.0,0.0
1761495198,-0.14571488,0.07565546,-0.12712513,-0.0029335022,0.005809784,-0.5098839,-0.010261223,-0.0023414493,0.004729092,-0.014892161,0.0,0.0,0.0,0.0,0.0,0.26265803,0.26274166,0.57209116,0.45349604,0.4534692,4.057247,0.0025095637,0.002509597,0.002508012,0.09021861,0.0,0.0,0.0,0.0,0.0,0.0003559759,0.013407883,0.031581186,0.0,0.0,0.0,0.0,0.0,0.0
1761696010,-0.14885843,0.03379464,-0.16300426,-0.0047836304,0.016794205,0.06250572,-0.010261223,-0.0023414493,0.004729092,-0.0051303506,0.0,0.0,0.0,0.0,0.0,0.26266062,0.26276878,0.5721319,0.45763513,0.45760068,4.057287,0.0025095637,0.002509597,0.002508012,0.09021694,0.0,0.0,0.0,0.0,0.0,0.00047463863,0.010161368,0.024460347,0.0,0.0,0.0,0.0,0.0,0.0
1761896853,-0.09312451,0.02078712,0.04470858,-0.016510963,0.0034999847,-0.04638672,-0.010261223,-0.0023414493,0.004729092,-0.011098981,0.0,0.0,0.0,0.0,0.0,0.2625798,0.26271313,0.57213575,0.4613443,0.46131063,4.057234,0.0025095637,0.002509597,0.002508012,0.09021545,0.0,0.0,0.0,0.0,0.0,0.0009700872,0.009076326,0.025946656,0.0,0.0,0.0,0.0,0.0,0.0
1762097690,-0.07837629,0.114931345,-0.0372569,-0.011483192,0.010875702,0.4266281,-0.010261223,-0.0023414493,0.004729092,-0.06117958,0.0,0.0,0.0,0.0,0.0,0.2625427,0.26270393,0.57214564,0.46399546,0.46396828,4.0570326,0.0025095637,0.002509597,0.002508012,0.09021364,0.0,0.0,0.0,0.0,0.0,0.0003561086,0.011913836,0.03607529,0.0,0.0,0.0,0.0,0.0,0.0
1762301632,-0.06000185,0.048750043,-0.06070041,-0.02648735,0.01449585,-0.3760872,-0.010261223,-0.0023414493,0.004729092,-0.04391581,0.0,0.0,0.0,0.0,0.0,0.26249442,0.262678,0.57215166,0.46779418,0.46777812,4.057038,0.0025095637,0.002509597,0.002508012,0.09021182,0.0,0.0,0.0,0.0,0.0,0.0003511575,0.005183192,0.015681528,0.0,0.0,0.0,0.0,0.0,0.0
1762502402,-0.03654504,0.016000748,0.043574743,-0.024711609,0.018115997,0.13822365,-0.010261223,-0.0023414493,0.004729092,-0.0005273223,0.0,0.0,0.0,0.0,0.0,0.26248923,0.26268673,0.57216215,0.47178608,0.4717843,4.0571165,0.0025095637,0.002509597,0.002508012,0.09021019,0.0,0.0,0.0,0.0,0.0,0.00055743556,0.0028108219,0.00987936,0.0,0.0,0.0,0.0,0.0,0.0
1762703305,-0.04728818,-0.001491189,-0.14124368,0.0018482208,0.04227066,-0.41003227,-0.010261223,-0.0023414493,0.004729092,0.0046225786,0.0,0.0,0.0,0.0,0.0,0.26257288,0.26278448,0.5721237,0.47487533,0.4748909,4.057209,0.0025095637,0.002509597,0.002508012,0.09020851,0.0,0.0,0.0,0.0,0.0,0.00026261056,0.002897126,0.009465337,0.0,0.0,0.0,0.0,0.0,0.0
1762904078,-0.064750075,0.04218924,-0.118600056,0.00050735474,0.031009674,-0.46894264,-0.010261223,-0.0023414493,0.004729092,0.10673225,0.0,0.0,0.0,0.0,0.0,0.26252884,0.2627618,0.5720997,0.4772999,0.47733197,4.057303,0.0025095637,0.002509597,0.002508012,0.090207085,0.0,0.0,0.0,0.0,0.0,0.00045925518,0.010565444,0.032655574,0.0,0.0,0.0,0.0,0.0,0.0
1763104052,0.02614963,-0.009057283,0.015098266,0.009431839,0.024377823,-0.64408684,-0.010261223,-0.0023414493,0.004729092,0.033551753,0.0,0.0,0.0,0.0,0.0,0.26254904,0.26280004,0.5721059,0.4787929,0.4788446,4.057106,0.0025095637,0.002509597,0.002508012,0.09020532,0.0,0.0,0.0,0.0,0.0,0.00039778094,0.011308447,0.03782179,0.0,0.0,0.0,0.0,0.0,0.0
1763304605,-0.076431155,-0.0054415464,0.022286946,0.012805939,0.016773224,-0.8093128,-0.010261223,-0.0023414493,0.004729092,-0.04463148,0.0,0.0,0.0,0.0,0.0,0.26256886,0.26283222,0.57211417,0.48154965,0.48162225,4.0569024,0.0025095637,0.002509597,0.002508012,0.09020374,0.0,0.0,0.0,0.0,0.0,0.00020927086,0.005795731,0.023026045,0.0,0.0,0.0,0.0,0.0,0.0
1763505633,-0.0227983,0.052791715,-0.019291049,0.011857986,0.02617836,0.021726608,-0.010261223,-0.0023414493,0.004729092,-0.022595763,0.0,0.0,0.0,0.0,0.0,0.2626095,0.262865,0.57212293,0.48566872,0.48576194,4.0570054,0.0025095637,0.002509597,0.002508012,0.090201996,0.0,0.0,0.0,0.0,0.0,0.0011583436,0.016854657,0.058025297,0.0,0.0,0.0,0.0,0.0,0.0
1763705635,0.038599133,0.029293537,0.014599831,0.004020691,0.014053345,0.36324692,-0.010261223,-0.0023414493,0.004729092,0.057226002,0.0,0.0,0.0,0.0,0.0,0.2625896,0.26282635,0.5720959,0.4881591,0.4882683,4.0570993,0.0025095637,0.002509597,0.002508012,0.09020073,0.0,0.0,0.0,0.0,0.0,0.00048584724,0.0072324844,0.02430922,0.0,0.0,0.0,0.0,0.0,0.0
1763906262,-0.013602614,0.015805125,-0.0067383554,0.05138588,0.054491043,-0.12693405,-0.010261223,-0.0023414493,0.004729092,-0.025567234,0.0,0.0,0.0,0.0,0.0,0.26269576,0.2629206,0.5721353,0.49005264,0.49018136,4.0571694,0.0025095637,0.002509597,0.002508012,0.0901994,0.0,0.0,0.0,0.0,0.0,0.0005205457,0.0072025885,0.02277489,0.0,0.0,0.0,0.0,0.0,0.0
1764107411,0.07819462,0.009477973,0.017490126,0.07158089,0.06114769,-0.41913986,-0.010261223,-0.0023414493,0.004729092,-0.0408898,0.0,0.0,0.0,0.0,0.0,0.26270425,0.26291558,0.57210946,0.48861483,0.48875463,4.057264,0.0025095637,0.002509597,0.002508012,0.090197906,0.0,0.0,0.0,0.0,0.0,0.00065670756,0.009745005,0.0230112,0.0,0.0,0.0,0.0,0.0,0.0
1764311253,0.0149924755,0.034965396,0.025953405,0.100019455,0.07798958,0.14829254,-0.010261223,-0.0023414493,0.004729092,0.02056694,0.0,0.0,0.0,0.0,0.0,0.26276645,0.26296747,0.57211435,0.48749506,0.4876467,4.057349,0.0025095637,0.002509597,0.002508012,0.090196565,0.0,0.0,0.0,0.0,0.0,0.00032113199,0.009813716,0.022580337,0.0,0.0,0.0,0.0,0.0,0.0
1764512103,0.036683917,0.014379621,0.016723238,0.0951767,0.06590462,0.13977432,-0.010261223,-0.0023414493,0.004729092,-0.0100136995,0.0,0.0,0.0,0.0,0.0,0.26280257,0.2629936,0.5721156,0.48761275,0.48777357,4.0573974,0.0025095637,0.002509597,0.002508012,0.0901952,0.0,0.0,0.0,0.0,0.0,0.00037990368,0.00982086,0.022893801,0.0,0.0,0.0,0.0,0.0,0.0
1764712804,0.006389141,-0.035519242,0.04220449,0.08916092,0.063589096,0.35437012,-0.010261223,-0.0023414493,0.004729092,0.032351255,0.0,0.0,0.0,0.0,0.0,0.26283386,0.26301584,0.5721175,0.48906404,0.4892322,4.057503,0.0025095637,0.002509597,0.002508012,0.09019411,0.0,0.0,0.0,0.0,0.0,0.00026626335,0.009772228,0.026172752,0.0,0.0,0.0,0.0,0.0,0.0
1764913714,-0.039494872,-0.09217739,-0.05639008,0.1036129,0.059690475,-1.2563362,-0.010261223,-0.0023414493,0.004729092,0.033074975,0.0,0.0,0.0,0.0,0.0,0.26290253,0.2630719,0.57214427,0.4893603,0.48953462,4.0571465,0.0025095637,0.002509597,0.002508012,0.09019301,0.0,0.0,0.0,0.0,0.0,0.0006652322,0.00696465,0.015990937,0.0,0.0,0.0,0.0,0.0,0.0
1765113690,-0.041057706,-0.07707751,-0.12996405,0.09718895,0.032598495,-0.24181557,-0.010261223,-0.0023414493,0.004729092,-0.027727902,0.0,0.0,0.0,0.0,0.0,0.26286405,0.2630142,0.5721157,0.49044576,0.4906192,4.057514,0.0025095637,0.002509597,0.002508012,0.09019163,0.0,0.0,0.0,0.0,0.0,0.00042372732,0.007097744,0.015314486,0.0,0.0,0.0,0.0,0.0,0.0
1765318416,-0.010162592,-0.059099913,0.034923628,0.10858345,0.021247864,-0.326725,-0.010261223,-0.0023414493,0.004729092,-0.01187706,0.0,0.0,0.0,0.0,0.0,0.26290265,0.26303512,0.57211584,0.49187568,0.49204808,4.0575476,0.0025095637,0.002509597,0.002508012,0.0901904,0.0,0.0,0.0,0.0,0.0,0.00034487096,0.008167467,0.020388031,0.0,0.0,0.0,0.0,0.0,0.0
1765519019,0.070598364,-0.016967773,0.085947454,0.15285873,0.047311783,0.10268593,-0.010261223,-0.0023414493,0.004729092,0.035127044,0.0,0.0,0.0,0.0,0.0,0.26304844,0.26315692,0.5721785,0.49399522,0.4941674,4.0575886,0.0025095637,0.002509597,0.002508012,0.09018923,0.0,0.0,0.0,0.0,0.0,0.0003940604,0.009910312,0.023995057,0.0,0.0,0.0,0.0,0.0,0.0
1765719236,-0.017185092,-0.06901407,-0.14242013,0.11912155,0.028720856,0.09064865,-0.010261223,-0.0023414493,0.004729092,0.047163248,0.0,0.0,0.0,0.0,0.0,0.26302004,0.26310918,0.57214266,0.4950541,0.49521655,4.057622,0.0025095637,0.002509597,0.002508012,0.090188235,0.0,0.0,0.0,0.0,0.0,0.0003959838,0.007823311,0.018849581,0.0,0.0,0.0,0.0,0.0,0.0
