timestamp,gyro_rad[0],gyro_rad[1],gyro_rad[2],gyro_integral_dt,accelerometer_timestamp_relative,accelerometer_m_s2[0],accelerometer_m_s2[1],accelerometer_m_s2[2],accelerometer_integral_dt
1725779198,-0.00023058779,-0.004657225,-0.0035931023,4036,0,0.041138995,0.053572204,-9.8888,4036
1725899165,0.0024594974,-0.0028457686,-0.0022637784,4000,0,0.048328124,0.041390765,-9.896738,4000
1725943170,0.00044313198,0.00043571676,-0.0022095381,4013,0,0.039510705,0.07791376,-9.893793,4013
1725983191,0.0020392113,-0.001357632,-0.0019242028,4041,0,0.036903344,0.06280563,-9.888956,4041
1726027954,0.0017945934,-0.0009257978,-0.0031867356,3987,0,0.004067651,0.05109257,-9.869885,3987
1726068776,0.0020603999,-0.00073607074,-0.0018291208,4040,0,0.04009544,0.0021366505,-9.897469,4040
1726108750,0.09302976,-0.066518895,0.025326857,4020,0,-0.6434427,-1.7024056,-11.076119,4020
1726152771,0.0154338535,-0.06694721,0.025710696,4013,0,-1.538529,1.4151556,-9.707196,4013
1726192730,0.07591371,0.026055733,-0.009510693,4000,0,-1.566081,0.3605872,-9.414092,4000
1726236802,0.016587915,-0.055460256,0.010229725,4072,0,1.5645305,-2.958857,-10.607943,4072
1726276773,-0.0143152615,-0.007014747,0.05030588,4019,0,-2.03182,1.362914,-9.408871,4019
1726316792,-0.027985923,-0.020118952,-0.054047342,4039,0,0.81105405,3.606737,-10.180266,4039
1726360754,-0.017568817,-0.0012152893,-0.02117984,4000,0,-0.33732334,-2.0926445,-9.574464,4000
1726404818,-9.149277e-05,0.0037990627,-0.0051909443,4058,0,0.56913364,-1.4696089,-10.554664,4058
1726444792,-0.00016419106,0.01548783,-0.009489665,4038,0,-0.21064644,1.0293546,-9.799269,4038
1726484753,0.015808774,0.012401355,-0.0073969364,3993,0,0.171851,0.2624064,-10.230889,3993
1726528760,-0.0029986338,0.015851123,-0.013038938,4006,0,-0.6071585,-0.312282,-9.846204,4006
1726572817,0.01185901,-0.015564468,0.002436973,4057,0,0.9429715,-0.055364184,-9.783199,4057
1726612780,0.018553006,-0.03827664,0.0051773735,4024,0,0.2841787,0.6687849,-10.008759,4024
1726656791,-0.02240817,0.0032404829,0.013057176,4031,0,-0.61143625,0.8560223,-9.548417,4031
1726696754,0.0010801817,0.009889919,0.0017797226,3987,0,0.35057592,-0.24423513,-10.012673,3987
1726740830,-0.032248188,0.0032830988,0.013216121,4076,0,0.5203027,-0.62774354,-10.158338,4076
1726788782,0.0056922506,0.03220491,0.063858345,4022,0,-1.9362277,0.085688986,-9.505465,4022
1726829561,-0.14273696,-0.035064675,0.036664322,3965,0,-3.6187198,0.023584971,-9.156398,3965
1726869534,-0.19081435,-0.19347961,0.13932487,4004,0,-0.52635866,2.6339583,-11.479584,4004
1726913541,-0.02646641,-0.2530731,0.047295213,3959,0,1.2427582,-3.66379,-10.935347,3959
1726957529,-0.37172925,-0.26561326,0.085373536,3999,0,-2.618784,-1.7176611,-14.687464,3999
1726997532,-0.07016401,-0.25596583,0.07808943,4003,0,-3.0619073,-2.283151,-18.411201,4003
1727037603,-0.124800034,0.008632015,0.09046536,4061,0,-2.5222337,3.0204458,-19.513762,4061
1727081554,0.04730036,0.18984279,-0.02093586,3958,0,-2.056731,-0.09523112,-13.517576,3958
1727122354,-0.064189546,0.20234817,-0.017476141,3969,0,0.13339758,-1.4086839,-12.955037,3969
1727162358,0.10449771,0.100899965,0.07476749,3957,0,1.3814715,-0.92495775,-12.113372,3957
1727202353,0.18430705,0.20722571,-0.03962172,3957,0,0.95741457,-2.9029899,-9.600306,3957
1727246390,-0.06169812,0.12825972,-0.008011422,4036,0,-2.93695,-2.0806723,-11.61787,4036
1727286365,-0.008481795,-0.09530365,0.05730774,4012,0,-1.3170245,-1.1259837,-11.7357,4012
1727330370,-0.053332277,0.21032423,0.011953932,3978,0,-1.4299635,3.203729,-10.310595,3978
1727371177,-0.12759425,0.13638459,-0.047452435,3993,0,-2.2474024,1.6876113,-8.367191,3993
1727411171,-0.17744182,-0.0202852,-0.10469753,3964,0,-1.4764768,0.22961959,-10.041099,3964
1727455136,0.12981248,0.1206403,0.07767129,4003,0,-0.9274708,1.6843487,-10.895472,4003
1727495182,-0.15954351,-0.08435382,-0.06471673,4049,0,-2.2350354,0.5199098,-6.980139,4049
1727539144,0.16274998,0.091881715,0.08142116,3976,0,-3.0819736,0.80828685,-12.263447,3976
1727579142,0.013889581,-0.072732694,0.14575943,3966,0,-0.74571776,1.6151325,-10.679993,3966
1727623182,0.012883764,0.07578523,-0.14232019,4036,0,-1.1173471,0.29479745,-6.927376,4036
1727663195,0.08408024,-0.21791168,-0.075743474,4032,0,-2.3086216,1.9400522,-10.355489,4032
1727707961,0.052681576,-0.048703913,-0.030898219,3964,0,0.18217915,0.86653894,-10.849767,3964
1727752011,0.022619447,-0.04476963,-0.02362277,4050,0,1.4870827,-0.68225366,-9.619475,4050
1727791961,0.06837526,0.04426735,-0.04214677,4000,0,-1.7139565,-1.0583642,-11.791186,4000
1727831961,0.12675302,-0.07192661,-0.024629323,4000,0,-1.451775,-1.383849,-11.524128,4000
1727875967,-0.17275788,-0.020052634,-0.12687646,3971,0,-0.84004813,-0.93283385,-10.349179,3971
1727915967,-0.05768464,-0.07825308,-0.10738133,3980,0,-1.2428824,-2.836265,-10.315087,3980
1727956760,0.3151243,-0.040689506,0.034360908,3976,0,-0.84175307,-2.3749633,-10.782258,3976
1728000784,0.028608652,0.01726051,-0.07779614,4024,0,-1.4005797,-2.5807052,-11.437406,4024
1728040784,0.12931341,-0.13755052,0.010912246,4043,0,-0.9425275,-2.1924233,-9.270708,4043
1728080751,0.13041228,-0.102993876,0.0035639005,4022,0,2.3628402,0.014470349,-6.9408364,4022
1728124729,0.103804655,-0.16634916,0.028291875,3978,0,1.606224,-1.8020618,-7.4416666,3978
1728168767,-0.038150024,-0.16072951,0.02096379,4038,0,0.22066033,-3.1022177,-9.062998,4038
1728208749,0.10911175,-0.18734778,-0.071378544,4019,0,0.32199943,-1.5872223,-7.76285,4019
1728253562,-0.106473,-0.22910507,-0.034554172,4008,0,-1.2684913,-1.3791095,-8.373262,4008
1728297560,-0.044940636,-0.12863506,-0.040111113,3993,0,-2.3382125,0.0033932114,-10.5625105,3993
1728341569,0.078381985,0.026658451,-0.026711477,4009,0,-1.7772578,1.2067679,-10.623656,4009
1728385553,0.1583367,-0.0021128447,0.0400599,4000,0,-0.9422802,1.2613322,-11.7923155,4000
1728425554,-0.13667826,-0.07914836,-0.05040947,3996,0,-0.44931677,-0.507071,-10.627195,3996
1728465554,0.03708023,-0.031693652,-0.022358231,3992,0,0.28177613,-1.223066,-8.173627,3992
1728506359,0.13063248,0.06174581,-0.065108016,4804,0,-0.073649764,1.1830698,-10.490088,4804
1728550353,0.024316853,0.028677082,-0.08222418,4000,0,2.117238,-0.2905287,-8.710709,4000
1728590358,0.026069101,0.1919313,-0.12284081,3997,0,1.2886981,-0.5556141,-8.016023,3997
1728634329,0.081104204,-0.009208852,-0.014532319,4000,0,2.338005,-0.92915326,-7.5431747,4000
1728674334,0.014885058,0.16854687,-0.01441247,4005,0,0.8681629,1.4286829,-11.326406,4005
1728718335,0.11456241,0.0065709245,0.038466115,4006,0,2.268518,1.2687615,-10.30058,4006
1728758334,-0.039680954,0.069706194,0.076573215,4005,0,0.9546803,0.960263,-10.242689,4005
1728802329,-0.04374484,0.029369263,-0.05324443,4000,0,-0.031692855,1.2504,-9.860321,4000
1728843169,-0.1678088,-0.12866783,0.09308373,4012,0,1.6603168,1.6398973,-8.861446,4012
1728887157,0.048232075,0.15805556,-0.07148431,3982,0,0.9678287,0.3519212,-10.082807,3982
1728931157,0.119365185,0.18358989,-0.074412055,4000,0,1.4798273,-1.3571843,-10.470636,4000
1728975245,0.10717924,0.12199303,0.055812694,4070,0,1.7110593,-1.566303,-11.53988,4070
1729019162,-0.017190868,0.032074787,-0.018140681,3975,0,0.12171595,-0.30195117,-11.021344,3975
1729059954,0.05962709,-0.024230031,0.017573763,3963,0,1.3288517,-0.2236333,-9.170439,3963
1729103953,-0.016659928,-0.031678975,-0.1160259,3993,0,-0.7576417,-0.32334545,-7.2320137,3993
1729143974,-0.0071538347,-0.15427965,-0.037263297,4014,0,0.10784285,1.0059619,-8.4588175,4014
1729187954,-0.18900198,-0.0775259,-0.17688252,3992,0,-1.6324887,-0.9501109,-8.164164,3992
1729227929,0.017643346,-0.15738575,-0.07769406,3974,0,1.2487442,-1.8489996,-6.377075,3974
1729271948,-0.0621184,-0.18033487,-0.031242587,4019,0,-0.41043523,-3.401304,-9.421406,4019
1729311974,0.016853616,-0.026182137,-0.0534043,4044,0,0.66482043,-1.7335721,-7.747055,4044
1729356760,-0.20411722,-0.08995164,-0.014423854,3995,0,-0.605333,-1.0400987,-11.169233,3995
1729396763,-0.08089261,-0.10128492,-0.020117367,3970,0,-1.1967123,-3.4155233,-8.850953,3970
1729440754,-0.037844777,-0.095278665,0.041406743,4000,0,-3.0094516,-0.31680703,-11.980007,4000
1729480754,-0.1784348,-0.15046822,-0.020219248,4000,0,-0.88216287,-0.4227112,-10.481554,4000
1729524753,-0.04309012,0.030915385,-0.019548208,3968,0,-0.9491172,1.0464363,-11.985037,3968
1729564753,-0.051655132,0.03614452,0.009949735,3973,0,-1.0529987,-1.0621929,-10.135014,3973
1729608754,0.16404045,0.15191287,-0.04919493,3997,0,-0.9887326,-1.1077012,-13.245115,3997
1729649568,-0.0007696753,0.026412826,-0.0344481,4014,0,-0.6527241,-0.258845,-10.4879465,4014
1729689554,-0.11693277,0.012090133,-0.112435035,3993,0,-0.054416243,0.95488876,-6.964594,3993
1729733555,-0.0624098,-0.060122028,-0.07956242,3997,0,0.02412499,-0.20103616,-7.1489305,3997
1729773556,0.06431754,0.02599537,-0.08872192,3996,0,-0.36064956,0.20733084,-8.713899,3996
1729817530,-0.10546408,-0.19208519,-0.090842195,4001,0,0.42799303,-0.9432653,-6.5989857,4001
1729857547,0.22671707,0.08079362,-0.058618013,4016,0,2.330963,-0.909559,-9.963103,4016
1729901536,0.08611827,-0.06141168,-0.032489035,3957,0,2.2487288,-2.1066473,-8.135048,3957
1729942366,0.20780942,-0.0033430373,-0.053466395,3974,0,2.0047734,-0.94111186,-10.6171055,3974
1729986401,-0.111392125,-0.0697885,-0.101456985,4041,0,-0.1920387,-1.4800222,-9.641335,4041
1730026383,0.1477815,-0.15245132,0.039317213,4023,0,2.2018096,-1.5287254,-8.066611,4023
1730070400,-0.036589302,-0.04821078,-0.0908159,4035,0,0.0625714,-1.7339976,-7.2037396,4035
1730110353,0.14556344,-0.08363836,0.051521312,3970,0,-0.24670626,0.1369266,-10.466327,3970
1730154400,0.060994387,-0.08106162,-0.016098099,4047,0,-1.0265058,0.7034663,-9.771196,4047
1730194361,0.0139957145,0.071948625,0.020283515,4007,0,-0.16437905,0.9835016,-11.116454,4007
1730235202,-0.17808577,-0.0025378328,-0.016089756,4045,0,-1.4254539,1.221834,-8.32106,4045
1730275163,-0.2837805,-0.12673835,-0.043183483,4000,0,-1.4131898,1.6482147,-9.15604,4000
1730319194,-0.22682191,-0.0012381745,0.031232849,4034,0,0.052448142,2.6191113,-9.571318,4034
1730363184,0.06432279,0.13864328,-0.01639818,4023,0,3.3022382,0.5266039,-10.545193,4023
1730403252,0.010138863,0.18461835,0.08846693,4082,0,-0.044576347,1.1297201,-11.4301195,4082
1730443155,0.00687115,0.12316368,-0.031354178,4022,0,-2.327232,0.4577315,-12.171581,4022
1730483953,-0.011526873,0.105348036,-0.08555201,4820,0,-1.2856528,-0.69257116,-10.123531,4820
1730527966,0.011162704,0.16259132,-0.060371723,3991,0,0.060242824,-0.27544254,-10.079215,3991
1730567955,-0.13404815,-0.033726778,-0.11753457,3991,0,-0.31321737,-1.4980685,-10.744939,3991
1730611989,-0.24651057,-0.13217147,-0.0064839246,3996,0,-1.4470924,0.4783551,-10.226126,3996
1730651983,-0.19491218,-0.16344783,-0.1257042,4029,0,1.0079055,-2.6321855,-7.497548,4029
1730695954,-0.2387098,-0.15501373,-0.0072794487,3968,0,-2.240579,0.16302888,-9.058067,3968
1730735954,-0.21758415,-0.098554105,-0.04023534,3965,0,-1.468782,0.102099255,-10.621611,3965
1730780767,-0.21624635,0.12508547,-0.021609453,4006,0,-0.55505353,1.7951623,-11.170881,4006
1730820769,0.09688284,0.11762787,0.04404497,4002,0,-2.6906283,-0.79289156,-12.76858,4002
1730864761,0.042278074,0.16853695,0.08726352,4000,0,-0.56789994,-0.47972763,-11.738525,4000
1730904762,-0.034780715,0.0033994494,0.0565481,4001,0,-0.69388384,1.1799589,-10.048141,4001
1730948761,-0.04339466,-0.12640484,0.1179768,4000,0,0.9390831,2.640969,-8.485712,4000
1730988761,-0.12609947,-0.07449477,0.09487842,4000,0,0.29838216,0.74756515,-10.103529,4000
1731032736,-0.078901306,-0.016605537,0.06184295,4002,0,-1.8233697,1.4850523,-10.795501,4002
1731076729,-0.025086496,0.11654466,-0.06816188,4000,0,-0.18762279,0.031599104,-10.576859,4000
1731117553,0.086254895,0.1996178,-0.02305913,3998,0,1.3780371,-0.40584493,-10.845791,3998
1731161574,0.026614115,0.15175879,-0.11616896,4020,0,3.4312365,-0.8480454,-8.290248,4020
1731201553,0.046582423,0.27636778,-0.04956523,3987,0,1.5439633,0.6782797,-10.675479,3987
1731245554,-0.099924095,-0.052413687,-0.06343601,4000,0,1.985153,1.6074352,-7.669402,4000
1731285554,-0.026564391,0.07866889,-0.09328285,4000,0,1.7177126,-0.3004503,-8.47471,4000
1731329553,0.013832317,-0.070480995,-0.07139412,3997,0,-0.37181708,-0.45363212,-7.210632,3997
1731370361,0.07094387,-0.10068679,-0.020883422,4001,0,-0.6512878,1.9610912,-9.032269,4001
1731414404,0.043630023,-0.11981647,-0.077984616,4043,0,-0.59544027,0.036390807,-8.418625,4043
1731454383,0.080717936,0.13652776,-0.032046203,4022,0,1.257845,-0.11086428,-9.758094,4022
1731498437,-0.122312985,0.04479803,-0.05440901,4070,0,2.7165687,-1.8439867,-6.985085,4070
1731538361,0.12753613,0.24478547,-0.08815316,4000,0,0.8718632,-1.6433238,-11.0414295,4000
1731582405,-0.029029574,-0.104006626,0.024852762,4037,0,2.545723,-0.8012033,-7.9610147,4037
1731623190,0.097590916,0.1026999,-0.068582274,4019,0,2.9697711,0.115025334,-8.136911,4019
1731663224,0.11846976,0.17420271,0.027451877,4053,0,0.7996654,0.92393017,-10.127176,4053
1731707203,0.06994996,-0.1234138,-0.013114146,3984,0,-0.43224743,0.8685608,-7.1484466,3984
1731747223,0.19149657,-0.068152845,0.010573964,4040,0,2.2932587,0.5274326,-8.432712,4040
1731787178,-0.048159666,-0.0062049213,-0.0018320708,3975,0,1.563452,2.9191217,-8.868393,3975
1731831201,0.16203028,-0.0051625883,-0.05943988,4037,0,0.4855669,-0.37686306,-9.371906,4037
1731875209,0.025256312,-0.039149586,0.09147379,4045,0,0.7362535,-2.3009095,-9.930163,4045
1731915978,-0.11738836,0.055758543,-0.13546345,4024,0,1.6613508,-2.8370645,-6.327444,4024
1731959954,-0.0646632,-0.008780194,0.040118836,3974,0,-0.31389433,0.09304913,-9.513531,3974
1731999960,-0.20236735,-0.103574574,-0.044449475,4006,0,-0.11638948,0.60471076,-8.412662,4006
1732043963,0.17966697,-0.03707067,0.09176927,4003,0,-1.674022,-0.37906322,-12.01467,4003
1732083979,0.062049218,-0.22250192,-0.0064097517,4025,0,-0.47672135,-0.5440624,-7.1820946,4025
1732127954,0.21585707,-0.010356475,0.04269395,4001,0,-2.0928576,-1.7960438,-12.558963,4001
1732168729,-0.04589899,-0.07866773,-0.0063073295,4768,0,0.3498562,-2.1583426,-11.038325,4768
1732212754,-0.17351772,0.11522806,0.0007499052,3994,0,0.03542198,0.011969197,-11.73198,3994
1732252793,-0.04434362,-0.05522235,0.03910789,4033,0,-2.6333978,-1.0979947,-13.021456,4033
1732296765,-0.058206957,0.2159501,-0.110590324,3985,0,-2.2079556,2.853815,-10.840702,3985
1732336753,-0.09953097,-0.010802774,-0.0019495352,3961,0,-0.63162977,1.775477,-10.887939,3961
1732380809,-0.12585655,0.14561799,-0.14986226,4056,0,0.9371731,1.960682,-6.5969887,4056
1732420804,0.060079683,-0.006155436,-0.0648433,4043,0,-0.47808704,0.8152474,-10.599356,4043
1732464761,-0.08396181,-0.045302108,-0.05021039,3951,0,1.1605201,-1.0769247,-9.552159,3951
1732505572,-0.13135676,-0.028353654,-0.074598834,4003,0,1.4968724,-0.022029174,-7.2583594,4003
1732545556,0.034459177,0.03317209,-0.009439283,3945,0,-1.3060066,-0.2081927,-11.644762,3945
1732589572,-0.2802311,-0.039218776,0.048341833,4012,0,-0.8757398,2.2748718,-9.607501,4012
1732629560,-0.13977557,-0.0037987712,-0.07383863,3988,0,-3.3063014,-0.33891952,-11.015135,3988
1732673553,-0.018436654,0.05875128,0.072093494,3952,0,-2.326116,3.0319848,-11.54444,3952
1732713554,-0.18771255,-0.04811518,0.042739052,3993,0,-1.4339935,2.5316474,-11.826769,3993
1732757603,0.052739277,0.1124461,0.046750627,4050,0,0.9558239,1.9518121,-9.375027,4050
1732798361,0.07415009,0.010006726,0.056778237,4008,0,0.102744415,-0.8433444,-11.768199,4008
1732842406,-0.1396856,0.06117228,-0.08491406,4009,0,-0.9982302,-0.6028503,-10.965213,4009
1732882353,-0.035270456,0.055123247,0.014726034,3974,0,0.22066343,-0.516827,-12.391399,3974
1732922353,0.13449539,-0.067385994,0.17425258,3961,0,-1.8723058,-0.83933985,-12.756304,3961
1732966377,-0.18564549,0.08066069,-0.043045294,4024,0,-3.1721396,1.5975915,-11.776854,4024
1733010405,-0.097742155,0.27504835,-0.08066982,4039,0,0.114766486,1.769085,-9.681876,4039
1733050361,-0.07929474,0.22103466,-0.05723365,3964,0,-0.81887525,1.481001,-9.293597,3964
1733091194,-0.0268937,0.19256192,-0.010673806,4030,0,-1.1047024,1.677856,-11.345452,4030
1733135198,-0.17639518,-0.06698866,-0.010486945,4029,0,1.9327775,1.4347085,-7.3365583,4029
1733175203,-0.104470275,0.18569614,-0.11369503,4034,0,1.6871281,-0.018625049,-8.034464,4034
1733219168,0.04119786,0.05431234,0.11586374,3982,0,0.8104861,1.9069779,-9.507566,3982
1733259194,-0.18601388,-0.00741405,0.05754946,4018,0,-0.13159914,2.3715491,-9.227224,4018
1733299930,-0.30010185,-0.1324606,-0.18020089,3972,0,-1.4251347,1.4233221,-5.857642,3972
1733339930,-0.023037989,-0.12729296,-0.032869674,3980,0,-1.1675864,1.4670073,-11.346002,3980
1733383934,-0.18678662,-0.13179009,-0.0075396635,3974,0,-1.216165,2.6929054,-8.911206,3974
1733423997,0.08503548,0.09573031,-0.022886826,4044,0,-2.6375864,-0.78272873,-12.779471,4044
1733467953,0.12489876,0.13796997,0.11393499,3975,0,-1.0171825,-0.75431216,-13.991829,3975
1733507953,0.1493613,-0.018529188,0.10538907,3967,0,-0.8043975,-0.21113168,-13.645207,3967
1733551960,0.030491063,0.24151556,-0.0155225145,3958,0,0.4858908,-0.112816274,-13.155952,3958
1733591957,0.06573897,-0.080367595,0.07599485,4003,0,-1.3533138,-1.2065247,-13.649307,4003
1733636754,-0.19174942,-0.019430373,-0.085702375,4000,0,-1.3021977,2.2362041,-9.736499,4000
1733680754,-0.2011232,-0.013525499,-0.089470424,4001,0,-0.33649,0.92346203,-8.44987,4001
1733724755,0.053931367,0.1355723,-0.09695467,4002,0,1.4038872,-2.568685,-11.438547,4002
1733768760,-0.16099958,0.0905182,-0.17491153,4006,0,2.027105,-0.8696811,-8.511675,4006
1733808779,-0.31401208,0.106178395,-0.14608079,4017,0,-1.0252957,1.2390144,-10.453135,4017
1733852753,-0.07068918,0.12813519,0.09318476,3994,0,0.7682079,3.370108,-10.484834,3994
1733893536,-0.21438447,0.11827241,-0.107584655,4005,0,-1.974084,2.477797,-8.136576,4005
1733937531,0.22160535,0.12576893,-0.051308814,3987,0,-0.027465258,1.0011891,-10.461797,3987
1733977554,0.30160284,-0.026222123,0.15169859,4007,0,0.07667612,1.6247648,-12.792465,4007
1734021554,0.039666153,0.0610347,-0.07116988,3999,0,-0.014386526,-0.61430806,-10.002955,3999
1734065594,-0.08760559,0.0048146006,0.089498304,4041,0,-1.2467679,1.1046265,-11.381531,4041
1734109592,0.058339607,0.18654917,0.047874298,4028,0,-1.8565005,2.5978231,-13.403952,4028
1734149602,0.09165743,-0.0047533,0.00610172,4048,0,-1.570961,-1.0249825,-13.939653,4048
1734189561,0.011069507,-0.15515666,0.12965181,4008,0,-1.4337307,0.23631601,-8.599892,4008
1734230360,-0.10766967,-0.10901485,-0.026989121,4006,0,0.5978767,0.049176604,-9.793733,4006
1734274357,0.1718428,0.051684365,0.12047177,3959,0,0.6738211,0.7484548,-10.779459,3959
1734314354,0.0034447666,0.09109907,0.054298196,4001,0,0.6426903,1.793247,-9.179704,4001
1734358384,0.3345957,0.035241462,-1.6877562e-05,3972,0,1.6126306,0.15635622,-10.069653,3972
1734398353,0.08335603,0.3140171,0.08921367,3999,0,1.7322292,2.8234408,-11.178578,3999
1734442358,0.17177786,0.29367083,-0.057525963,3957,0,2.6397922,0.4618434,-8.919175,3957
1734483145,0.17385356,0.2722711,0.09049266,4012,0,0.28048,1.2455287,-13.026289,4012
1734523145,-0.008217044,-0.11070335,0.07503326,3969,0,-0.7560921,1.4817281,-9.331401,3969
1734567163,-0.05363597,-0.13133636,0.020639934,4014,0,0.47771758,-0.3655964,-8.67127,4014
1734607186,0.14082067,-0.16400771,0.13496774,3969,0,-0.27442265,-0.49785465,-12.389803,3969
1734651157,-0.20704697,-0.13297221,-0.053732883,3989,0,-2.399463,0.9140294,-10.959855,3989
1734691156,-0.006104372,-0.10372626,-0.046991963,3956,0,-0.33292162,-3.4129913,-12.648429,3956
1734735205,-0.10111969,-0.04431901,-0.0064156633,4049,0,-3.0433288,-0.50804234,-12.659285,4049
1734775225,-0.2866537,-0.18499924,-0.06253918,4013,0,-1.4171615,0.50968415,-7.530613,4013
1734819953,0.07552177,-0.14432171,0.055817626,3973,0,0.7918157,-0.26639205,-9.866563,3973
1734859953,-0.05667427,-0.032827754,-0.0113871265,4000,0,2.0577261,-0.36635986,-7.1259775,4000
1734903962,-0.01669794,-0.16820785,0.013832192,3996,0,0.20555131,-2.8686633,-11.503164,3996
1734943993,0.31619966,-0.060133286,0.12656614,4027,0,2.2883947,-1.8187107,-8.8914995,4027
1734987954,-0.16109876,-0.04547995,-0.06812071,4001,0,-0.55669856,-2.1038465,-6.672752,4001
1735028753,0.07121988,0.02119572,0.012489767,3998,0,-0.5156231,0.26657033,-10.675991,3998
1735068730,-0.11976996,0.17344597,-0.05002198,3986,0,0.5014567,0.19900614,-11.392725,3986
1735112769,-0.07303192,0.23898612,-0.083511166,4040,0,0.19672821,1.3130634,-8.190062,4040
1735152772,-0.100480705,0.076238334,-0.074098796,4043,0,0.5089659,2.4194217,-7.2888355,4043
1735196754,0.14408627,-0.21014449,0.1336144,3962,0,3.297925,-0.4928179,-6.7006774,3962
1735236753,0.116389915,0.11198863,0.062116902,3997,0,3.2978005,-0.29903606,-9.023147,3997
1735280786,0.050387472,-0.1541302,0.049938828,4033,0,0.8981383,-2.1134257,-10.119867,4033
1735320798,0.10878987,0.07183757,0.000770948,4045,0,2.2478259,-1.834398,-9.956685,4045
1735365562,0.008149051,0.03945205,-0.08429748,4809,0,0.19082579,-1.2299249,-8.324001,4809
1735405561,0.34067628,0.19717513,-0.021477684,3967,0,0.019063044,0.27339417,-11.310155,3967
1735449591,0.012341397,0.041931402,0.0057673804,4024,0,2.736819,-1.0759529,-8.032126,4024
1735489571,0.12645133,0.10606986,-0.08433988,4011,0,2.2196374,-2.204802,-6.5498285,4011
1735533556,0.13500929,-0.21088608,0.12104328,3964,0,-0.7147156,-2.0861328,-9.609908,3964
1735573555,-0.020031042,-0.33351067,0.08719148,4001,0,2.415635,1.3861288,-5.463223,4001
1735614333,-0.07116433,-0.17840713,-0.008950554,3965,0,2.1805413,1.2072545,-4.741996,3965
1735654329,-0.14013036,0.051779244,-0.16981605,3954,0,0.9092379,1.0335491,-8.581956,3954
1735698340,0.23184393,-0.105751365,0.092905775,4011,0,0.9381841,-0.82310855,-9.799226,4011
1735738343,0.07134934,0.19908158,-0.05744935,4014,0,-0.03613594,1.1633534,-10.38888,4014
1735782397,0.27910465,0.10877637,0.08199752,4018,0,2.056512,-0.4265676,-10.733173,4018
1735826364,-0.17124583,-0.20757304,-0.08545064,4004,0,0.7938765,1.00776,-6.5362406,4004
1735870362,0.07675929,-0.1676475,0.08321117,3960,0,-1.2010789,-0.2097265,-11.030638,3960
1735915157,0.14095043,0.18598899,0.08452525,4804,0,-0.37505394,-1.5519775,-13.076546,4804
1735955157,0.10199,-0.03519044,0.057263095,4000,0,-1.7462714,-1.8718966,-13.87469,4000
1735999162,-0.045731444,0.051936314,0.01431178,3954,0,-1.149563,2.145778,-10.590477,3954
1736039172,-0.19167328,-0.07116932,-0.1271707,4009,0,-0.04014946,0.29797405,-8.72033,4009
1736083181,-0.02678413,0.017142229,0.08868036,4024,0,-2.2476518,2.2610831,-8.981834,4024
1736123214,-0.24745823,-0.2216217,-0.052948605,4057,0,-1.3346863,0.6843504,-9.303027,4057
1736167166,0.18062615,0.19906023,0.15287915,3972,0,0.6080746,-0.8279254,-13.237086,3972
1736207930,-0.15892555,0.19252996,-0.013041632,4001,0,-0.6631992,0.14260948,-11.960403,4001
1736251930,-0.04615126,0.17802446,-0.06597124,4001,0,1.5541166,2.3100147,-8.938607,4001
1736295929,0.17698742,-0.17091203,0.11129431,3969,0,1.1434873,-0.3321589,-7.8866086,3969
1736335931,0.17753366,-0.087178215,0.042694375,4002,0,1.137491,0.32207078,-7.2541175,4002
1736379995,0.102762185,-0.15163356,0.031191338,4011,0,-1.0063267,-2.6850317,-11.728694,4011
1736419953,0.16769725,-0.1359072,0.024557285,4000,0,1.4098086,-3.611696,-10.276436,4000
1736463960,-0.3760161,-0.14715812,-0.18762253,3977,0,-1.452347,-2.1468089,-9.09254,3977
1736508760,0.15181617,-0.01710987,0.05210989,3963,0,-1.6312408,0.30573463,-12.624804,3963
1736552769,-0.0475481,-0.07510184,0.017086623,4015,0,-1.4280452,1.1695749,-10.524922,4015
1736592792,-0.11290707,-0.20332861,-0.061883662,4007,0,0.22559711,-0.06656325,-8.601667,4007
1736636754,-0.075992435,-0.09539935,0.011458558,3987,0,-2.3463376,1.8416196,-9.409688,3987
1736676753,-0.09582184,-0.24996807,-0.008368919,3953,0,-2.000079,0.93454903,-10.996607,3953
1736720803,0.20766859,0.02760993,0.07526666,4049,0,-0.506631,0.28660822,-13.328909,4049
1736761606,0.03617836,0.042439595,-0.036958,4034,0,-1.0802926,-2.0851252,-15.03101,4034
1736801577,0.1673829,-0.09852805,0.07445015,4045,0,-0.06270437,-2.0695057,-10.203954,4045
1736845529,0.061357435,0.07514798,-0.06739984,3937,0,1.0500298,-2.9463248,-10.632509,3937
1736885535,0.24661648,0.03955669,0.078972794,3990,0,1.7776092,-0.94817805,-10.0310545,3990
1736929546,-0.14271031,-0.055203337,-0.14981093,4010,0,1.0920578,0.39796388,-8.32031,4010
1736969590,0.27561355,0.21776174,0.021079497,4030,0,1.7446564,-0.31662273,-11.4892435,4030
1737013553,0.2704142,0.10471943,-0.06362652,3965,0,1.8040614,-0.016094245,-8.315704,3965
1737053553,0.028263304,0.11499134,-0.112347506,3993,0,-0.4965478,1.8504835,-10.910912,3993
1737094354,0.03590951,0.023762641,0.11046449,3994,0,-0.5915191,3.4436815,-10.598874,3994
1737134353,-0.29534557,-0.03470706,-0.121227846,3995,0,-0.40625894,-0.69738287,-8.523507,3995
1737178377,-0.089369714,-0.06933234,0.061948072,4023,0,-1.0530194,2.465496,-9.764295,4023
1737218385,-0.22796175,0.015453805,-0.1349825,3997,0,-1.5742236,-1.2352701,-10.725006,3997
1737258353,0.03128187,-0.08776728,-0.05281939,3993,0,2.8348205,-1.1638944,-8.422555,3993
1737302353,-0.13459504,-0.07943445,-0.05658345,3989,0,2.3051503,0.49088112,-5.5612364,3989
1737343176,0.14891373,0.2558228,-0.02819739,4012,0,0.84992534,0.93772304,-13.310795,4012
1737387151,0.028426178,0.26077485,-0.11034925,3992,0,0.76144534,1.8921664,-11.975363,3992
1737431134,-0.007594009,0.081668764,-0.098490775,3965,0,1.1802093,2.556655,-9.8804655,3965
1737471139,-0.24138004,0.16484222,-0.046677317,4006,0,1.2706146,1.479925,-9.630854,4006
1737515173,-0.22446275,0.17175527,-0.083156615,4040,0,1.3497154,1.475198,-8.008892,4040
1737555199,-0.023315921,0.085981086,-0.08888386,4066,0,-2.25244,-1.2962179,-14.258685,4066
1737599173,-0.09869001,0.057375234,-0.14771551,3951,0,-1.6276191,-0.30898407,-12.724507,3951
1737639954,0.064071596,0.039300878,0.1322768,3970,0,-0.05464868,0.6948534,-12.043271,3970
1737683973,0.16049007,0.21204306,-0.016856143,4019,0,0.42208374,-0.9682235,-13.670416,4019
1737727997,0.13807721,0.15719123,-0.119866304,4022,0,1.2783989,-2.3890922,-12.716047,4022
1737767965,0.24357747,0.061650574,0.15522982,3983,0,0.1811865,1.0873542,-9.161796,3983
1737811991,0.305086,0.029048758,0.09968517,4038,0,0.4399697,-0.83657044,-10.700555,4038
1737852008,0.058185592,0.06743278,0.033347677,4054,0,1.1476411,1.6922275,-8.58641,4054
1737896761,0.14802484,-0.09135918,0.073236935,4000,0,2.3699033,-0.8425709,-8.461584,4000
1737936761,-0.036434587,0.23561002,-0.01896879,3954,0,1.9455403,0.25035995,-7.951921,3954
1737980730,0.11651631,0.055826712,0.1284858,4001,0,1.8891654,0.13756588,-8.665066,4001
1738020742,-0.35501027,0.009380203,-0.12061048,3975,0,0.75057435,-0.15823013,-8.424027,3975
1738064729,-0.22141336,-0.15847965,-0.0142631,3984,0,1.9922531,0.98134184,-7.6085334,3984
1738104729,-0.24499227,0.17263368,-0.03605334,3976,0,0.24850643,0.28347534,-10.868953,3976
1738144753,-0.1103994,-0.17740145,0.13911289,3993,0,-1.1505255,0.14434566,-11.809805,3993
1738185564,0.060227465,0.079261735,-0.023947218,3935,0,-0.62988925,-2.1008844,-13.330961,3935
1738225562,-0.19141708,-0.16728356,0.034235876,3957,0,-1.0290412,-1.691741,-8.529661,3957
1738269584,-0.104848355,-0.05175289,0.09280525,3992,0,-3.2124803,1.0338749,-12.2234335,3992
1738309578,-0.18076706,-0.19871424,-0.11568192,4022,0,0.29209033,-2.6723661,-6.983042,4022
1738353555,-0.02005741,-0.111217275,0.015983855,3918,0,-2.3602326,-1.4047899,-10.386155,3918
1738393555,0.09768517,-0.004372841,-0.04567665,3962,0,-2.1381621,-1.0250463,-11.136044,3962
1738438361,0.117947206,-0.09682994,0.04535707,4000,0,-1.2331269,-3.0547864,-15.688617,4000
1738478367,0.16203324,-0.11036858,0.14681548,4002,0,0.24343058,-1.9744816,-9.769534,4002
1738522361,0.020855358,-0.21340922,0.07648145,3964,0,-2.0786295,-0.78868246,-13.236859,3964
1738562329,-0.059828244,-0.29901356,0.06612646,3937,0,0.9181737,-1.672578,-8.935503,3937
1738606329,0.02902045,-0.15867631,-0.016459955,3993,0,-1.398593,-0.4681308,-9.08689,3993
1738646333,0.01688809,-0.055422746,-0.20360623,4000,0,-0.8383206,-1.8430514,-8.918466,4000
1738691193,-0.13686894,0.027336558,0.03795896,4036,0,-0.6836064,-1.5556531,-12.571662,4036
1738735170,-0.22141115,0.011953454,-0.101736136,4014,0,0.67333394,-1.3374757,-10.710047,4014
1738775181,0.1134635,0.07058509,0.06063911,4006,0,-2.6594257,-1.3111084,-14.727624,4006
1738815162,-0.022463594,-0.39725623,0.10235292,3993,0,-0.12502328,-1.3044884,-9.60856,3993
1738859163,-0.09031772,-0.059127826,-0.11194999,4006,0,-2.2372763,0.21394894,-8.497513,4006
1738903170,0.20989873,0.037809134,0.16558161,4013,0,0.11986489,0.4676281,-11.824078,4013
1738943179,0.17903195,0.20759493,0.18451895,4022,0,-0.70883554,-1.4881877,-14.713,4022
1738987170,-0.01907817,0.16551077,-0.116636984,3958,0,0.82122254,-0.255916,-9.930238,3958
1739027157,-0.1470826,0.034722928,-0.1425809,3992,0,-1.3043091,-0.9735367,-11.477208,3992
1739067961,-0.09162849,-0.09994468,0.022635506,4000,0,-0.2883928,-1.035476,-10.599596,4000
1739107961,-0.14984828,-0.03443144,-0.0427625,4000,0,0.01778626,-2.921141,-11.107501,4000
1739151930,-0.0005305906,0.26206753,0.00819335,3995,0,-2.9862976,1.7363131,-13.502764,3995
1739191930,-0.14933206,-0.1409411,0.012559509,3994,0,-2.734028,0.53287137,-11.53199,3994
1739235931,-0.15300295,0.029367963,-0.07385164,3998,0,-0.9726792,1.3883402,-10.113931,3998
1739276798,-0.04252852,0.08360239,0.09020414,4038,0,-1.1076025,0.5308929,-12.269394,4038
1739320754,-0.077893816,-0.12082976,0.027761094,4001,0,2.5657852,1.318336,-7.744739,4001
1739360796,0.025451051,0.14944428,-0.04816281,4042,0,-0.44454968,0.075255245,-11.929651,4042
1739404761,-0.028158797,0.08307554,0.041506063,4007,0,-0.3481727,2.0729687,-9.615638,4007
1739444797,-0.12246815,-0.038389996,0.038489033,4044,0,-0.10635758,3.1855638,-8.496499,4044
1739488754,0.08311991,-0.06962978,-0.02088829,4001,0,0.9516787,1.9704759,-7.06991,4001
1739528803,0.16282028,0.13662393,0.022017831,4049,0,1.4810746,2.4990816,-9.615438,4049
1739572754,0.14299487,0.21596414,-0.004158987,3994,0,2.089124,-1.1693728,-7.141916,3994
1739617571,-0.14239123,-0.25954938,-0.04222873,3994,0,-0.35776076,-1.3136696,-7.701221,3994
1739657561,-0.15095483,-0.2095575,-0.10656314,3998,0,-0.76737046,-1.0534469,-8.019286,3998
1739701604,0.29429188,-0.031127315,0.10097554,4034,0,-1.7833447,-1.0761241,-15.374762,4034
1739741569,0.2757384,-0.2178049,0.13584824,4040,0,-0.88376546,-1.7123376,-10.98153,4040
1739785536,-0.30337498,-0.29601097,-0.1856301,3990,0,-0.33146688,-2.9616623,-8.369089,3990
1739825538,-6.335204e-05,0.06423061,-0.16209099,3998,0,1.069455,-3.771494,-10.556441,3998
1739870365,-0.3541797,-0.075340495,-0.05997225,4012,0,-1.4925444,-0.31118122,-11.411616,4012
1739914353,0.11575747,0.29173362,0.04006614,3961,0,-2.0254836,0.38346568,-15.741487,3961
1739958390,-0.35931343,0.045340642,-0.2624347,4036,0,1.7792132,-0.3770284,-8.339054,4036
1740002354,-0.13345201,-0.075400285,-0.012061527,3965,0,2.9368398,1.348178,-8.208391,3965
1740042365,0.12237413,0.22275284,0.12187839,3987,0,-0.5471042,0.9114371,-14.24782,3987
1740086393,-0.07730245,0.20257688,-0.1512054,4040,0,-0.10818614,0.41474566,-10.180472,4040
1740126387,0.018726595,0.24155095,0.036201023,4033,0,-1.8191837,1.8277977,-12.529112,4033
1740171174,0.019412355,0.16003333,-0.066252746,3992,0,0.9907551,0.53894705,-8.116975,3992
1740211174,-0.31675726,-0.11967023,-0.104527295,3974,0,-0.9494853,2.0579998,-6.98741,3974
1740255164,0.19392766,-0.04707823,0.23143707,3969,0,1.0906955,2.4297557,-10.216711,3969
1740299171,-0.07443333,-0.0072192946,-0.097305864,4007,0,0.6362146,1.6674458,-5.292187,4007
1740343145,0.26946643,-0.017094668,0.1656706,4012,0,-0.7077865,0.38646746,-8.826313,4012
1740383165,-0.03752771,-0.18042123,-0.001380568,4013,0,1.8614149,1.8268558,-4.335336,4013
1740427133,0.25445953,-0.07892891,0.05353464,3974,0,2.8010194,-2.7864656,-8.703745,3974
1740467953,0.28732923,0.04974373,0.17032361,3992,0,1.8053164,-0.50730383,-8.475488,3992
1740507953,0.18161784,-0.064453214,0.16048132,4000,0,2.4020753,0.71142334,-8.218064,4000
1740551954,0.08101208,-0.061990097,-0.055975314,4001,0,1.7422241,-1.593115,-7.9793015,4001
1740591954,0.27445668,0.034498982,0.12027937,3992,0,0.684223,1.1240051,-10.29496,3992
1740635953,-0.083729684,-0.075805716,-0.14245644,4000,0,-1.239157,0.048465732,-6.1409755,4000
1740675954,-0.13115379,-0.13003615,-0.19084251,4000,0,2.8544376,0.658008,-2.8942137,4000
1740719954,0.062094286,-0.13989468,0.13850728,4001,0,1.65284,-2.8498104,-8.329653,4001
1740760761,0.09368913,-0.016853726,0.083909295,4000,0,1.2957256,-1.5261531,-8.5475645,4000
1740804761,-0.24035938,-0.03510457,-0.012726493,4000,0,-0.4370502,-1.2231555,-10.412277,4000
1740844774,-0.24074784,-0.39402172,-0.05698965,3999,0,0.22822979,-1.9212899,-6.247119,3999
1741815182,-0.3217507,0.029074803,-0.1075662,4000,0,1.7591372,0.5647681,-6.262529,4000
1741855203,-0.31533918,-0.15384383,-0.19361833,4032,0,0.26555398,1.8176025,-5.837816,4032
1741899954,0.15971953,-0.12848169,0.30214953,3954,0,0.21054414,2.07599,-11.183934,3954
1741939953,0.39415175,0.058692675,0.21260601,3957,0,-0.6732762,0.86564505,-11.608621,3957
1742818398,0.10760067,0.10591416,0.041241966,4041,0,1.2923365,0.22460435,-10.462446,4041
1742862354,-0.2708064,-0.41645724,-0.02043426,3992,0,2.2943099,-0.7365556,-4.510222,3992
1742902397,-0.030516295,0.13603987,-0.14000455,4014,0,1.0833374,-1.9995073,-8.003103,4014
1742947157,0.14109363,-0.0078239795,0.074066624,4797,0,-1.041759,-1.4095356,-12.711192,4797
1742987165,-0.07466962,-0.22674292,0.013365985,3973,0,-2.1224427,-2.0357027,-9.900942,3973
1743031162,-0.15527582,-0.14530532,0.021612734,4005,0,-2.357305,-0.9522543,-11.545498,4005
1743071157,-0.0618603,-0.1858521,0.027456399,3984,0,-0.6052496,-0.520544,-8.072114,3984
1743115157,-0.11486469,0.003857823,0.0719543,4000,0,0.57745445,0.07533636,-9.3393345,4000
1743155173,-0.19242018,-0.03846247,-0.040927123,4014,0,0.22828773,1.359283,-9.69175,4014
1743199177,0.14278431,-0.13527031,0.12899232,3982,0,0.5222615,3.317199,-8.596311,3982
1743239157,0.0075393827,0.24030863,0.0769533,3999,0,-1.3762927,3.0561717,-12.351362,3999
1743279930,-0.28450707,-0.08276005,0.038393524,4700,0,-0.88825345,1.7889963,-8.453243,4700
1743323959,-0.05792946,-0.008108187,-0.029334988,4006,0,2.631558,-0.5953062,-6.8442163,4006
1743363960,0.25875014,0.2275703,-0.035909023,4000,0,1.1866015,-0.3383312,-9.248081,4000
1743407985,0.07952565,-0.05333439,0.07566395,4032,0,0.6202657,-1.8326629,-8.344119,4032
1743447953,0.06944921,-0.20331544,0.012862631,3954,0,0.74185365,-1.8343327,-8.7557745,3954
1743491959,0.0036705928,-0.33892426,0.10066723,3999,0,-0.15234014,-2.3397036,-12.133284,3999
1743531954,-0.12867185,-0.18998878,-0.04825368,4001,0,0.87792534,-3.1959484,-8.5147085,4001
1743576754,0.07330253,-0.0897399,0.04965044,4000,0,-2.6252735,-0.71910983,-14.021717,4000
1743616753,-0.15955983,-0.20829658,0.008187744,3982,0,-2.305098,0.6134129,-8.564349,3982
1743656754,-0.051127836,-0.27400386,-0.11784504,3973,0,-1.2940997,0.054256417,-7.0123367,3973
1743700753,0.054643963,-0.03492105,0.15788965,3999,0,-1.0357893,0.14469619,-11.953423,3999
1743744760,-0.12754779,0.073357254,-0.146294,4007,0,-1.580572,1.9972659,-8.996363,4007
1743784753,-0.29675406,-0.2549064,0.010613161,3999,0,0.9725362,2.5807412,-6.8246226,3999
1743828753,-0.021834044,0.04882224,0.04830526,3999,0,1.9561968,1.7606965,-6.6909184,3999
1743869530,0.4084721,0.3140712,0.07722101,3985,0,-0.25207883,0.4838141,-12.500403,3985
1743909559,0.22918096,-0.0030180693,0.19838138,3997,0,0.66798174,2.7767847,-11.117574,3997
1743949554,0.26634154,0.33669463,0.14250195,3974,0,-1.7063769,1.8896136,-14.38242,3974
1743993566,0.13095534,0.15106976,-0.20062307,4013,0,2.0791347,-0.20077845,-7.1515045,4013
1744037560,0.09809443,-0.12879068,0.15774977,4001,0,0.75816566,1.3503727,-7.9590263,4001
1744077560,-0.02423957,-0.07050113,0.10999544,3997,0,2.4708827,0.8665096,-6.593672,3997
1744121568,0.05064098,-0.10855335,-0.0954691,4007,0,0.25676498,-2.2764552,-8.448809,4007
1744162403,0.15422957,-0.21979238,0.13906698,4032,0,0.5647053,-1.4778697,-9.043818,4032
1744206361,-0.108956926,-0.08034486,0.056842573,3996,0,-1.3372874,-1.0167702,-9.873466,3996
1744246398,-0.031075321,-0.1285283,-0.0035315685,4033,0,-0.61812896,-1.7915162,-11.033019,4033
1744290367,-0.2210594,0.18671754,-0.07197385,3984,0,-1.8663266,1.2276585,-11.621086,3984
1744330399,-0.121998705,0.03561345,-0.027027821,4034,0,-0.88505507,0.7194446,-9.586828,4034
1744374360,-0.11866031,0.16187412,-0.08383295,3993,0,-0.3652286,2.3284674,-6.775667,3993
1744414404,-0.15224427,0.059612848,-0.04925703,4039,0,-0.56662625,3.1789908,-7.057855,4039
1744459159,0.01206933,-0.061566636,0.15606979,4026,0,2.0907288,-1.4644582,-7.3402424,4026
1744503183,-0.070856616,-0.23065124,-0.06749632,4019,0,0.052153725,-1.4499732,-8.998204,4019
1744543175,-0.059772752,-0.09266034,-0.02752069,4018,0,-0.29358763,-1.6409763,-9.567372,4018
1744587213,0.26130527,0.16705446,0.08802267,4016,0,-2.2683694,-1.0651406,-15.434174,4016
1744627163,0.07042359,0.0052890833,0.06705286,3986,0,-1.946331,-0.75819176,-12.694022,3986
1744671157,-0.18878938,0.18400179,-0.22160135,3997,0,-0.81708914,-1.3645439,-10.349834,3997
1744711163,-0.038393687,-0.0048159705,-0.05418061,4006,0,-1.3905281,-0.85773754,-9.996648,4006
1744751967,-0.045271017,-0.036312588,0.107505724,4006,0,0.45546174,0.61098593,-11.2681675,4006
1744791961,-0.06780188,0.1838812,-0.017691212,4000,0,0.10271232,-1.3122318,-11.234982,4000
1744835974,-0.27793786,0.030773032,-0.1271227,4013,0,0.9773643,1.5564414,-6.5781136,4013
1744875968,-0.26710823,0.24048899,-0.13741016,4007,0,-2.0824199,0.5115683,-12.00032,4007
1744919961,0.023304597,0.18767793,0.019660786,4000,0,-0.69472426,3.1122077,-10.5368,4000
1744959962,-0.39276168,0.047520965,-0.14956592,4001,0,-0.6986432,1.2481892,-7.5385857,4001
1745004756,0.13186374,0.1891138,-0.10811975,4015,0,2.0364609,-1.3401605,-8.882066,4015
1745044768,0.19456545,0.15665609,0.035816498,4032,0,0.45950857,-0.064595535,-10.525033,4032
1745088761,0.094436996,0.10805233,0.0021946859,4032,0,0.31865844,-3.6934311,-12.387491,4032
1745128759,0.33657593,-0.15970217,0.11767169,4006,0,1.1700821,-2.0647032,-10.952878,4006
1745172779,-0.21945986,-0.2122351,-0.15427984,4026,0,-0.6916114,-2.72559,-9.333117,4026
1745212753,0.21771777,-0.18529995,0.04390394,4000,0,0.21679896,-2.3568523,-10.46023,4000
1745252753,-0.093371585,-0.2037443,0.05756334,3999,0,3.0456975,-0.8561496,-8.131077,3999
1745296753,-0.10495285,-0.22079843,-0.08009649,3993,0,-0.13374501,-1.0892609,-10.4125805,3993
1745337563,-0.22225517,-0.15591222,-0.044693615,3995,0,-0.6136069,-1.4090861,-7.3004284,3995
1745377561,0.11659226,-0.19132547,-0.014570242,3985,0,-0.283048,-0.40322405,-9.586462,3985
1745421595,-0.14478634,-0.20148209,-0.13440366,4034,0,-1.5029764,-1.2876786,-7.619523,4034
1745465561,0.022086436,-0.031331893,0.13682586,3999,0,-1.2715983,-1.1831417,-11.56997,3999
1745505563,-0.0036289995,-0.22582915,0.07431964,3995,0,-0.04757887,-1.5897192,-8.676167,3995
1745549621,-0.08842734,-0.050081614,0.123216406,4053,0,-1.0516582,0.9469789,-11.277842,4053
1745590366,-0.09613467,-0.15173493,0.21437538,4031,0,-1.1576836,2.0796554,-11.121564,4031
1745634335,0.106308095,0.13733518,0.08977382,3980,0,-0.061217595,1.6620375,-11.505014,3980
1745674366,0.019181747,0.046878744,0.10072246,4033,0,-1.1105758,3.3075469,-9.68151,4033
1745718395,0.11784597,0.17816757,-0.1330848,4042,0,0.13576484,0.8498894,-8.796181,4042
1745758441,0.0048833326,-0.046694763,0.031264957,4084,0,0.9574849,1.3460885,-7.8613577,4084
1745802360,0.013947463,-0.11175803,-0.012420239,3957,0,2.2102804,-1.0006489,-6.6638308,3957
1745842401,0.07636028,0.010493926,0.022470972,4037,0,2.653512,-0.6369919,-8.735874,4037
1745886384,0.1467007,-0.067355216,0.106829114,4030,0,0.16012967,-1.2718455,-10.691075,4030
1745927194,0.1587431,-0.007495144,0.0044164993,4007,0,0.2862692,-0.3268866,-9.69853,4007
1745971171,0.28435668,0.034953166,0.032828745,3975,0,-1.2593312,-2.346767,-12.663229,3975
1746011167,0.26367202,-0.1065402,0.071553566,3951,0,-1.3538882,-1.7585353,-10.042219,3951
1746051164,0.17696868,-0.049957156,0.03042687,3969,0,1.5309503,-1.148944,-7.4094396,3969
1746095167,-0.047242474,-0.18146764,0.013358207,3996,0,0.74106777,-3.6944818,-9.724422,3996
1746139178,-0.47499743,-0.027741428,-0.109034,3965,0,-1.1818378,-0.75637037,-8.309848,3965
1746179929,-0.1640536,0.07386119,0.039167356,3999,0,-2.8591049,0.21857964,-13.111369,3999
1746219930,-0.026532467,-0.010232614,0.09489181,3963,0,-2.923968,1.4473239,-13.343188,3963
1746263929,-0.12287868,0.3044469,-0.1111117,4000,0,-1.2741194,2.299686,-8.674625,4000
1746304008,-0.088378735,0.15587562,-0.14100587,4079,0,-1.9592525,0.86937904,-10.997265,4079
1746347960,-0.031157916,0.20271432,-0.11666038,3991,0,0.8813653,0.8490553,-8.363378,3991
1746387960,-0.15939821,0.0032952114,-0.040049955,3980,0,3.0933578,-0.006448616,-7.8162565,3980
1746432761,-0.043095585,0.017423876,0.003634054,4808,0,0.21491085,-0.72639763,-10.154128,4808
1746472762,0.033952277,-0.114053614,0.05950839,3986,0,-1.3303037,-0.41656327,-9.412153,3986
1746516761,-0.026222887,0.1709519,-0.07659686,3987,0,-1.881332,-0.5960504,-12.70183,3987
1746556767,0.19275492,-0.014056955,0.12832814,3960,0,-2.2394528,-1.7875662,-14.11243,3960
1746600761,-0.10231942,0.12459182,-0.099184394,3994,0,-0.82622015,-1.4137756,-11.903454,3994
1746644774,-0.08027327,-0.023136856,-0.065030105,4013,0,0.8163498,2.0311582,-7.777363,4013
1746688761,0.16704156,-0.10251499,0.085204825,4000,0,1.5169531,0.9550685,-7.2525783,4000
1746729536,0.14327219,-0.0011853436,0.0010045744,4775,0,1.245794,1.1806839,-8.816057,4775
1746769584,0.16761602,0.16967899,-0.09440231,4055,0,1.4165056,1.4550955,-9.667727,4055
1746813529,0.35225838,0.0062438454,-0.0127156135,3993,0,1.899505,-1.5426772,-9.241672,3993
1746853577,0.111578904,-0.04162433,-0.026682355,4043,0,1.8967532,-0.1228842,-6.7179003,4043
1746897561,0.01612232,-0.2893678,0.042168096,4000,0,0.37787628,-2.0283346,-8.00812,4000
1746937608,0.08237552,-0.1641675,0.04432049,4041,0,2.0891614,-1.1737566,-8.6863575,4041
1746981567,-0.060439404,-0.24235326,0.064712204,4006,0,-0.6095475,0.22627275,-10.115449,4006
1747021605,0.11019788,-0.13283092,0.13099019,4041,0,-0.64339393,-0.78254145,-12.020566,4041
1747066360,0.11662849,0.13586259,0.10748393,3999,0,-0.68164414,-0.3811636,-12.03472,3999
1747110353,-0.14554131,0.0057229963,-0.115852915,4000,0,1.2828094,-0.7998927,-8.418641,4000
1747154358,-0.16988084,-0.21342245,0.0127142165,3998,0,0.68813616,1.243064,-6.1486707,3998
1747198396,-0.0080012875,-0.066488795,0.08890624,4036,0,0.7042598,-1.9867672,-11.062938,4036
1747238358,0.16586585,0.12751508,0.11837525,3998,0,0.15469217,-2.9071932,-11.942928,3998
1747282353,-0.111631066,0.053960465,0.0073681055,4000,0,-0.29901493,-1.6655983,-12.32575,4000
1747323145,-0.2026327,0.19967529,0.012466568,3974,0,-2.3406355,0.60275155,-14.473189,3974
1747367175,0.1053253,0.29119024,-0.081152424,4026,0,0.25045428,1.9613798,-11.119185,4026
1747407171,-0.08332877,0.050081562,-0.0560335,4019,0,-1.8724626,2.0496747,-9.701371,4019
1747447178,-0.22341755,0.2049396,-0.17038171,4033,0,-1.916258,1.0939752,-10.880762,4033
1747487156,-0.2122604,-0.008234298,-0.12831305,3985,0,-0.6213393,-1.0756063,-8.340955,3985
1747531157,-0.08381851,0.09122692,0.120715156,4001,0,1.6231997,2.01102,-9.043398,4001
1747571167,-0.2312169,0.20230025,-0.024555996,4006,0,-1.3146724,2.022084,-9.879845,4006
1747615964,0.4474534,0.3028908,0.18429202,4003,0,1.1046437,1.5453894,-11.332219,4003
1747655992,0.19634178,0.23295303,0.07693669,4039,0,-0.3835513,2.0078132,-9.751522,4039
1747700009,0.37162155,0.056118898,-0.006249615,4055,0,1.1616998,-2.2621472,-11.036496,4055
1747739960,0.1256957,0.039615706,0.040152106,4000,0,1.9107802,-2.304248,-9.383079,4000
1747783972,-0.08005528,-0.26998705,-0.0958855,4018,0,0.73682606,-1.8270948,-8.914855,4018
1747824841,0.013248412,-0.0937192,0.012290384,4087,0,-0.15140294,-0.852658,-10.719425,4087
1747864780,-0.11660664,-0.047500934,-0.10108899,4026,0,-0.33940437,-0.84950656,-8.414069,4026
1747904769,0.08650458,-0.054526884,0.060086634,4033,0,-0.0740775,0.7602167,-8.430778,4033
1747948729,-0.10585953,0.015327583,-0.08579955,4000,0,-1.1180904,-0.7768661,-7.908792,4000
1747988729,0.03796779,0.051609904,-0.18058068,4000,0,-1.7271223,-2.828992,-10.921239,4000
1748032756,-0.15099122,0.0145757245,-0.12053619,4027,0,-0.91697425,-1.5876111,-10.683615,4027
1748072753,-0.3154085,-0.070957094,-0.15927449,4000,0,0.7927593,-3.2939866,-8.965083,4000
1748113624,0.17737168,0.068205856,0.015611791,4057,0,-1.4753659,-3.118951,-14.323672,4057
1748157594,-0.17386578,0.064293,-0.10774572,4039,0,-2.6945791,2.0186067,-11.009912,4039
1748197598,-0.1506069,0.1143931,-0.17852989,4043,0,-2.1129138,-0.3996803,-11.326465,4043
1748241593,-0.002938047,0.24365531,-0.1134105,4040,0,-0.37025183,1.130239,-8.695684,4040
1748281617,-0.19734485,0.06551785,-0.1718043,4062,0,-1.4200927,0.4335206,-8.6390085,4062
1748325556,-0.1962247,-0.15524156,0.09198953,3953,0,1.7891256,3.1563087,-6.355157,3953
1748366354,-0.25783452,0.08054456,-0.14415401,3927,0,1.7522111,2.3062465,-6.479928,3927
1748410365,0.14512448,0.0022227324,0.13959198,4008,0,1.2271364,1.4800771,-5.9994593,4008
1748454353,0.17621143,-0.19084679,0.041516174,4001,0,0.9277818,-3.7927809,-9.140043,4001
1748498334,-0.28850484,-0.2695376,-0.122057654,4005,0,-1.7204626,-1.5307338,-8.595805,4005
1748538355,-0.014061155,-0.15647168,-0.015037934,4026,0,-0.0734795,-2.8282537,-12.291511,4026
1748578335,-0.039870143,-0.17725323,0.015208297,4006,0,-0.27410558,-2.988541,-10.329547,4006
1748618370,0.03473615,-0.18282796,0.14047432,4000,0,-0.29164743,0.25397104,-8.732691,4000
1748658396,-0.14832981,-0.15758923,-0.013936804,4067,0,2.3613045,-0.34405476,-4.938137,4067
1748702366,-0.032086942,-0.11394358,-0.07033698,3989,0,-0.89753085,-2.3938792,-9.031753,3989
1748746379,0.008238023,-0.03296105,-0.037961893,4020,0,-2.298434,-1.8956318,-12.088408,4020
1748787203,-0.26071647,-0.15547034,-0.036251448,4011,0,0.17543028,-2.2222018,-9.845967,4011
1748827189,0.013632952,0.073012926,-0.043411896,4010,0,-0.61137915,-3.489157,-10.949842,4010
1748871157,-0.095928855,0.0034800144,0.080780104,3955,0,-2.1348724,1.6673237,-11.034188,3955
1748911168,-0.2194572,-0.062194724,0.0060019004,4011,0,-3.5052285,2.4279037,-10.454206,4011
1748955207,0.14597772,0.08670883,0.1615131,4050,0,-1.194351,2.8361566,-10.8211155,4050
1748995963,-0.056215003,0.16540271,-0.08698081,4009,0,-0.07589773,1.5936496,-7.8600974,4009
1749039960,0.17241968,0.029721316,0.13219225,3958,0,2.0137908,-0.1623896,-9.080162,3958
1749079930,-0.065333776,0.08940924,0.064771734,3940,0,2.4982634,-0.50360304,-9.153338,3940
1749123937,0.12654987,-0.023344023,0.101641946,4008,0,0.64714456,-1.0276941,-12.249074,4008
1749163952,0.06729506,-0.044075523,0.10935492,4022,0,-1.1249365,-0.11651491,-11.598583,4022
1749207930,0.031382862,0.07047654,-0.07581054,3992,0,-1.6534678,-1.1331736,-12.472782,3992
1749247943,0.053118628,-0.18128543,0.07966269,3988,0,-0.52262455,-1.1715112,-11.17233,3988
1749288766,-0.023163397,-0.07797412,0.16385403,3996,0,0.6299677,-0.66691935,-10.639984,3996
1749328760,-0.031507675,0.0966949,0.06738609,3980,0,-0.055433214,-2.0857117,-12.164801,3980
1749372754,-0.16203107,0.046281647,0.11961651,4000,0,-0.43320107,2.3429291,-10.636169,4000
1749412807,-0.07882118,0.06703822,0.102666,4053,0,-1.821565,2.757578,-10.825413,4053
1749456768,0.18794377,0.10560894,-0.007182819,3967,0,0.52379704,-0.6629259,-9.04259,3967
1749500760,0.005345877,-0.24779293,0.09428417,4007,0,-0.784417,-3.0997672,-11.152858,4007
1749541559,-0.054555364,-0.21635932,0.034872107,4799,0,0.4347545,-2.0142028,-9.553472,4799
1749585555,-0.22754194,0.012688768,0.06991662,3992,0,-2.8364837,1.2040385,-12.945961,3992
1749625590,0.058999024,0.08339587,0.12835048,4017,0,-3.3351357,0.10193688,-15.144528,4017
1749669537,-0.01072514,0.30874124,-0.14286314,4008,0,0.21506287,0.8783097,-10.086173,4008
1749709533,-0.25131828,0.18130834,-0.14764889,4003,0,0.6257837,0.21835789,-8.706607,4003
1749753530,0.01261601,-0.006620996,-0.0019172274,3967,0,0.90653956,1.0926987,-7.275679,3967
1749793580,0.02454517,0.03120294,-0.12688728,4040,0,0.6953834,0.7658508,-8.770572,4040
1749838353,0.074124314,-0.108918056,-0.05372867,4818,0,0.46320972,-2.5042472,-10.053438,4818
1749882354,-0.450262,-0.02912831,-0.113765635,4001,0,-0.94703794,-0.5719804,-9.404156,4001
1749926370,-0.08775213,-0.0011139755,0.022118088,4017,0,-1.326536,2.6328702,-10.638214,4017
1749970353,0.25473905,-0.022288818,0.10995614,3993,0,1.5216746,-0.9596689,-10.284403,3993
1750010358,0.1821025,-0.01734653,0.055512864,4005,0,2.5182474,-1.4138529,-8.517465,4005
1750054353,-0.11369445,-0.2610947,-0.007170642,3993,0,1.9877685,-2.2421172,-9.329315,3993
1750098379,-0.25674236,-0.039777312,-0.22964363,4022,0,-1.4113934,-1.277098,-11.013973,4022
1750143212,-0.0049202247,0.14474161,-0.13725728,4012,0,-1.2151107,0.44982478,-11.823236,4012
1750183232,-0.19952244,-0.03923417,-0.078993514,4015,0,0.8986604,-0.7480877,-9.702032,4015
1750223178,-0.052388467,0.08218663,-0.040545575,4015,0,-0.43862644,-2.3954353,-13.147698,4015
1750267194,-0.14440775,0.2047966,-0.05012714,4049,0,-1.3755356,1.5590222,-13.159587,4049
1750311170,0.09060949,0.22813345,-0.044959914,3989,0,1.0442488,2.0486743,-10.7496395,3989
1750351133,0.12576811,0.32109535,0.018930942,4000,0,-1.2884234,1.9724624,-12.114291,4000
1750395167,0.04635795,0.115770616,-0.07412348,4021,0,2.6422913,-0.12281909,-6.7327533,4021
1750435973,0.25520915,0.27833658,-0.029570026,3967,0,0.8012359,-0.66445696,-12.22445,3967
1750475967,0.06976629,0.23736402,0.023441304,4007,0,1.2395018,0.82807213,-11.064938,4007
1750519986,-0.14939797,-0.122489244,-0.16547602,3951,0,2.628871,1.4014586,-5.143099,3951
1750559954,-0.029455455,0.28427947,-0.08707652,4001,0,0.21149667,1.4029971,-10.645978,4001
1750603991,0.21880853,-0.058670282,0.018779451,3993,0,2.3086884,1.311765,-7.42866,3993
1750643979,-0.12962936,0.20901097,-0.14263849,4026,0,0.98564714,1.4692369,-6.575209,4026
1750687960,0.25655088,-0.036181197,0.1651082,3937,0,2.8480926,-1.3179262,-8.085144,3937
1750728760,0.08988498,-0.0006984213,-0.022651413,3986,0,1.7747288,-0.86341465,-7.386604,3986
1750772754,0.21297474,-0.16050778,0.1899245,4000,0,0.15943733,-0.010239071,-10.538712,4000
1750812766,0.106483236,-0.17011559,0.14550084,4013,0,0.60620797,-0.4368225,-8.788386,4013
1750856729,0.15194893,-0.2591852,-0.056707308,3993,0,-0.6995668,-2.0601165,-9.486537,3993
1750900729,-0.07683565,-0.14570796,-0.09672489,4000,0,-1.3719511,-1.6573288,-9.058683,4000
1750944736,-0.08488869,-0.12288585,0.13671073,4007,0,-0.7595601,0.6959019,-11.781385,4007
1750985563,-0.13390426,-0.053319957,0.066382006,4833,0,-0.87367624,0.1740317,-10.045441,4833
1751025553,-0.21379898,-0.15746403,-0.11506411,3999,0,-1.3758096,0.16306552,-8.908033,3999
1751069560,0.11017256,0.03205888,0.16782834,4000,0,-1.9724687,2.3661826,-13.569296,4000
1751109567,0.0051346268,-0.021282045,0.15545306,4001,0,-3.040989,0.81493616,-10.065713,4001
1751153555,0.10703656,0.06912989,0.040816713,3987,0,-1.6181134,-0.95287925,-11.521408,3987
1751193554,0.17537686,0.046376202,0.083416305,3972,0,-1.352115,-2.055351,-14.531771,3972
1751237556,-0.29751447,0.08672232,-0.16553025,3994,0,-0.72743064,-0.6693124,-9.989822,3994
1751278354,-0.22229098,-0.13116136,-0.07185322,4000,0,-0.9935513,-0.08551971,-9.541466,4000
1751322392,-0.1859182,0.050404977,-0.028910484,4039,0,-0.43981054,3.0488636,-8.232578,4039
1751362354,-0.15054499,0.24242812,-0.052488267,4001,0,-1.2618085,2.693931,-9.339042,4001
1751406397,0.31051436,0.3351345,0.14880048,4044,0,1.3621322,0.05551355,-11.205707,4044
1751446329,0.12679787,0.2278671,0.11897275,4000,0,0.17157987,0.8069009,-12.048343,4000
1751490380,-0.0049613956,0.12213789,-0.12819389,4049,0,1.8322523,-0.5625685,-8.407669,4049
1751530329,-0.086532325,0.053039335,-0.07219643,4000,0,1.215838,0.33460197,-8.900096,4000
1751571213,0.14693129,0.19449802,0.19651012,4052,0,1.2711978,2.5122707,-12.497054,4052
1751611165,-0.097723216,0.16730501,0.09874483,4004,0,-0.44728315,1.7264156,-9.999173,4004
1751655200,0.1922248,0.23371105,-0.15228434,4043,0,0.7862259,-0.40066013,-9.331563,4043
1751699170,0.0014646066,-0.07666232,-0.07325581,3998,0,1.3309108,-2.3431957,-7.136794,3998
1751743169,0.03214116,-0.094603136,0.15545186,3984,0,-1.4901277,-0.7360361,-12.63502,3984
1751783195,-0.03988357,-0.2276098,0.11811573,4016,0,-1.3877057,-1.5957923,-9.914279,4016
1751823211,-0.030301116,-0.21777973,0.108994834,4043,0,1.4724847,1.138232,-6.387727,4043
1751867959,0.17823295,-0.14176577,0.1401451,4006,0,-1.2258443,-0.6886195,-12.788554,4006
1751907954,0.17835799,0.018901255,0.14438397,4000,0,-1.3686329,-1.5063081,-11.610293,4000
1751951953,-0.045181748,0.051248718,0.013907796,3999,0,-0.75293016,-1.3890897,-11.829266,3999
1751991954,0.14260393,0.043336764,0.11404722,4001,0,-1.7823,-1.5152628,-15.069248,4001
1752035936,-0.30213508,0.24475762,-0.112960495,4006,0,-2.1045928,2.3595672,-9.898433,4006
1752076759,-0.16709992,0.06620506,-0.027539998,4828,0,-2.71469,1.4948056,-12.432784,4828
1752120753,-0.027908633,0.22211267,-0.1649822,3993,0,0.61569893,2.1675956,-8.265447,3993
1752160753,-0.19556698,0.23135716,-0.15196326,4000,0,1.2359982,0.93820643,-8.538178,4000
1752204781,-0.18346798,-0.06224526,-0.037391167,4019,0,3.538914,0.47731215,-5.2809954,4019
1752248754,0.16552201,-0.046995386,0.060919035,4001,0,-0.73722184,-0.6358747,-11.019232,4001
1752288754,0.15325125,-0.111662395,0.13499047,4000,0,1.5851458,0.10745132,-8.824569,4000
1752328753,0.16014703,0.009913123,0.06976682,4000,0,0.16196972,0.93630123,-8.160134,4000
1752372753,0.33230618,0.02056818,0.079112045,3942,0,-1.3860917,-2.9356818,-12.732367,3942
1752413583,0.2816199,-0.1638491,0.09292097,4028,0,0.33185822,-2.24445,-9.664297,4028
1752453557,-0.036808755,-0.158925,-0.0031937675,4003,0,3.3230398,-1.4793998,-4.4864597,4003
1752497560,-0.050015327,-0.17109486,0.020737994,4006,0,0.5089521,-3.0204048,-8.643489,4006
1752537561,0.2711328,0.121377125,0.046803012,4006,0,1.5724795,-1.556746,-10.298881,4006
1752581609,-0.24958384,-0.09635093,-0.1855362,4056,0,-0.1311474,-0.9216061,-6.501509,4056
1752621560,-0.10097127,-0.1945627,-0.0074141305,4005,0,2.0425704,1.1238688,-6.121352,4005
1752665549,0.05578147,0.07689664,0.047494955,4016,0,1.2921908,0.43810895,-8.286211,4016
1752706353,0.049771603,0.033548884,0.1927964,3999,0,0.14783952,2.2161317,-10.049773,3999
1752750398,0.02439383,-0.0049940334,0.0086448975,4045,0,0.3641649,2.6671796,-8.03451,4045
1752790401,-0.14389317,-0.07876808,-0.017744603,4041,0,-1.9232626,2.1734605,-9.318627,4041
1752834401,-0.09954146,-0.050073262,0.03817784,4041,0,-0.4161467,1.1134217,-9.552805,4041
1752874353,-0.26377153,-0.08733887,-0.1269891,3992,0,-0.68877435,-0.49664074,-8.036111,3992
1752918439,0.112884425,0.18811467,0.1399065,4085,0,-2.2968254,1.0189106,-12.850554,4085
1752958353,0.43119392,0.43870804,0.0562326,3999,0,-2.1775477,1.52302,-10.331526,3999
1752999238,0.2131335,0.61646545,-0.07438493,4075,0,-2.278958,1.7258302,-9.4506445,4075
1753039197,0.6238248,0.66163474,0.04756214,4028,0,-1.6064961,-1.1555351,-11.456365,4028
1753083212,0.6606967,0.96656454,-0.080486275,4055,0,-0.09252406,-1.9987494,-12.956598,4055
1753123213,0.26301295,0.8022611,-0.14465609,4057,0,1.1236379,-1.9427075,-6.7760134,4057
1753167231,0.56356823,0.67162174,0.14194313,4038,0,-1.2536209,-0.42219925,-11.339741,4038
1753211163,0.5882403,0.98158777,0.080766566,3995,0,-1.727959,-2.1805665,-15.3593,3995
1753251954,0.33553442,0.7552135,0.07330196,3962,0,-2.3233986,-0.74148655,-13.2864065,3962
1753295978,0.25931436,0.82372993,-0.008487741,4025,0,-0.43264866,3.5189133,-10.547006,4025
1753336005,0.04755035,0.6536948,0.035718247,4045,0,0.2497661,3.0415995,-7.35516,4045
1753379953,0.27078128,0.3074019,0.09288904,3974,0,1.1366011,-1.3875859,-10.536592,3974
1753419954,-0.13121389,0.13824627,0.10260198,4001,0,2.219107,-1.7711424,-8.005148,4001
1753467954,0.007666446,-0.007916294,0.2318156,3971,0,0.5534953,-0.51418066,-9.324229,3971
1753508754,0.11876224,-0.30891153,0.53223497,4000,0,0.63090265,2.7116246,-9.986156,4000
1753548754,0.15198803,-0.4612557,0.43273845,3975,0,1.199548,0.13406499,-7.779603,3975
1753592754,-0.028233994,-0.9732106,0.5975473,3988,0,-0.100625634,1.5383537,-8.168764,3988
1753636754,0.15445286,-0.97041893,0.625565,4000,0,0.07580442,-2.5541322,-8.180594,4000
1753684755,-0.05414023,-0.8840058,0.6790597,3995,0,1.2133435,1.0068026,-10.782619,3995
1753724797,-0.0911547,-0.7146934,0.7086819,4044,0,-0.7195756,0.5449318,-10.300692,4044
1753768754,-0.18065628,-0.6270201,0.55694944,4001,0,0.10254559,-1.4713533,-9.138088,4001
1753812799,-0.17790945,-0.60083383,0.6945096,4013,0,-1.2389398,1.0822347,-9.696896,4013
1753853580,-0.28492418,-0.5467157,0.7573965,4026,0,-2.9617958,2.123353,-9.437673,4026
1753897561,-0.08400838,-0.0996728,0.8003518,3991,0,-2.2773197,0.24867019,-14.491656,3991
1753937559,-0.04553462,-0.3421498,0.90742874,3997,0,-2.2894964,0.8591848,-11.590091,3997
1753981593,0.17200151,-0.015637998,0.88919854,4040,0,-0.43823072,-2.3057117,-14.532525,4040
1754025554,-0.2789997,-0.06328236,0.61837167,3996,0,0.7264376,-3.830906,-11.839928,3996
1754065569,-0.19045664,-0.044400357,0.7321521,4008,0,0.57166344,-2.5085695,-9.33464,4008
1754105553,-0.122065835,-0.050436307,0.80390376,3995,0,1.2654688,-0.87546366,-11.152803,3995
1754150355,-0.19262289,0.16570221,0.73651034,4002,0,-1.6795368,1.9017631,-9.274049,4002
1754190390,-0.39291787,-0.0402862,0.81457055,4036,0,-0.9277409,2.9128547,-8.8658695,4036
1754234353,-0.25633743,0.19218534,0.47251627,3957,0,2.8067298,-1.7649852,-4.1426964,3957
1754274354,-0.46728307,0.018408017,0.5400785,4000,0,0.39579192,0.5524145,-6.7308197,4000
1754322401,0.31065908,0.31133208,0.611731,4025,0,-2.1209986,-2.6921937,-14.67164,4025
1754362353,-0.38770416,-0.075437084,0.49750152,3974,0,1.3402046,-1.7060529,-9.89332,3974
1754403147,0.08352895,0.18828218,0.60361534,3981,0,-0.52928543,-1.0857655,-10.625338,3981
1754447148,0.1480294,0.15787551,0.41004893,3980,0,-1.1520493,-0.32612136,-6.663666,3980
1754491191,-0.1571086,0.10721975,0.29366884,4035,0,1.8824346,-1.3791344,-7.7365317,4035
1754535163,0.06897738,0.14123644,0.5715682,3957,0,-1.5679303,0.13980588,-13.051017,3957
1754579192,-0.1686474,0.13644348,0.27074006,4011,0,2.495401,0.22931582,-1.8902254,4011
1754623173,0.12683372,-0.016593348,0.27922854,4011,0,1.3265414,-2.2392128,-11.115945,4011
1754667999,-0.1370199,0.30017886,0.40038964,4046,0,-3.1787696,-0.30136922,-13.489245,4046
1754707965,-0.08551071,-0.13761976,0.3481329,4011,0,-0.9575246,2.4338832,-10.2412405,4011
1754751960,0.104621015,0.050693944,0.18263105,4005,0,0.3035136,-3.3334618,-7.2453995,4005
1754791960,0.23417847,0.04342629,0.21794082,4006,0,1.3553398,-2.2528358,-11.468911,4006
1754831954,-0.36516213,-0.20708552,0.10611152,4000,0,2.7466643,-0.7879128,-5.7126894,4000
1754871954,0.019840864,-0.054621063,0.030076228,3989,0,3.1581516,-2.6468277,-5.5715647,3989
1754915959,-0.107427344,0.063585386,-0.024793422,4005,0,-3.5634224,-0.27490807,-11.561226,4005
1754956730,-0.22385027,-0.20556025,-0.026974056,4000,0,0.99609154,-0.048325166,-3.6195269,4000
1755000730,-0.0007195628,0.06359534,0.019912094,3994,0,2.5917532,1.0671788,-2.3541849,3994
1755040753,-0.07454605,0.057952683,0.102397114,3990,0,1.5625489,1.0978956,-8.339272,3990
1755084753,0.19266418,-0.10325676,0.025780391,3993,0,2.126518,-0.70683056,-6.4056935,3993
1755124753,0.039450213,0.110775046,0.086153135,3993,0,-0.89381,1.058035,-11.187066,3993
1755168763,0.17820713,0.1468853,0.08451681,4010,0,0.45056656,-2.829762,-13.402473,4010
1755208754,-0.29804128,-0.094790466,-0.114483945,4000,0,1.3658485,-3.4324408,-4.975089,4000
1755252782,-0.4256652,-0.002673043,-0.1821621,4022,0,-2.9806824,0.5642509,-7.6823,4022
1755293596,-0.3588333,-0.24903026,0.008720443,4042,0,-2.5786393,0.8131348,-11.354988,4042
1755333554,0.044528823,0.10509315,-0.09206161,3993,0,-1.2188779,-1.1761475,-10.810095,3993
1755377562,0.22672153,0.26489955,-0.137323,4008,0,0.09431838,-1.8853179,-8.417393,4008
1755417553,-0.19807032,-0.014792417,0.069927454,4000,0,0.98488146,0.6703199,-7.742475,4000
1755461560,0.09462238,0.09696121,0.04957924,4007,0,1.3693638,1.4289396,-9.604422,4007
