timestamp,noutputs,output[0],output[1],output[2],output[3],output[4],output[5],output[6],output[7],output[8],output[9],output[10],output[11],output[12],output[13],output[14],output[15]
1725779438,8,1140.0,1135.0,1129.0,1127.0,1127.0,1132.0,1137.0,1141.0,0.0,0.0,0.0,0.0,0.0,0.0,0.0,0.0
1725911495,8,1467.0,1462.0,1457.0,1453.0,1455.0,1458.0,1464.0,1467.0,0.0,0.0,0.0,0.0,0.0,0.0,0.0,0.0
1725951494,8,1471.0,1467.0,1462.0,1459.0,1460.0,1464.0,1469.0,1472.0,0.0,0.0,0.0,0.0,0.0,0.0,0.0,0.0
1725991448,8,1477.0,1472.0,1467.0,1463.0,1464.0,1469.0,1474.0,1477.0,0.0,0.0,0.0,0.0,0.0,0.0,0.0,0.0
1726033138,8,1482.0,1477.0,1472.0,1468.0,1469.0,1473.0,1479.0,1482.0,0.0,0.0,0.0,0.0,0.0,0.0,0.0,0.0
1726076950,8,1488.0,1483.0,1478.0,1474.0,1475.0,1478.0,1485.0,1487.0,0.0,0.0,0.0,0.0,0.0,0.0,0.0,0.0
1726116989,8,1490.0,1484.0,1479.0,1478.0,1481.0,1487.0,1492.0,1493.0,0.0,0.0,0.0,0.0,0.0,0.0,0.0,0.0
1726160970,8,1500.0,1496.0,1487.0,1482.0,1480.0,1486.0,1493.0,1500.0,0.0,0.0,0.0,0.0,0.0,0.0,0.0,0.0
1726204967,8,1497.0,1495.0,1501.0,1498.0,1501.0,1495.0,1496.0,1492.0,0.0,0.0,0.0,0.0,0.0,0.0,0.0,0.0
1726249038,8,1522.0,1501.0,1491.0,1476.0,1487.0,1495.0,1518.0,1520.0,0.0,0.0,0.0,0.0,0.0,0.0,0.0,0.0
1726289017,8,1521.0,1500.0,1524.0,1497.0,1517.0,1490.0,1515.0,1493.0,0.0,0.0,0.0,0.0,0.0,0.0,0.0,0.0
1726333043,8,1519.0,1528.0,1503.0,1509.0,1492.0,1513.0,1508.0,1532.0,0.0,0.0,0.0,0.0,0.0,0.0,0.0,0.0
1726373043,8,1519.0,1518.0,1506.0,1511.0,1510.0,1524.0,1523.0,1530.0,0.0,0.0,0.0,0.0,0.0,0.0,0.0,0.0
1726413044,8,1529.0,1523.0,1518.0,1515.0,1517.0,1521.0,1527.0,1529.0,0.0,0.0,0.0,0.0,0.0,0.0,0.0,0.0
1726453103,8,1533.0,1534.0,1523.0,1524.0,1518.0,1527.0,1528.0,1537.0,0.0,0.0,0.0,0.0,0.0,0.0,0.0,0.0
1726497005,8,1539.0,1540.0,1530.0,1529.0,1524.0,1531.0,1533.0,1542.0,0.0,0.0,0.0,0.0,0.0,0.0,0.0,0.0
1726537049,8,1543.0,1542.0,1534.0,1534.0,1532.0,1539.0,1541.0,1547.0,0.0,0.0,0.0,0.0,0.0,0.0,0.0,0.0
1726577064,8,1551.0,1547.0,1538.0,1535.0,1534.0,1542.0,1548.0,1554.0,0.0,0.0,0.0,0.0,0.0,0.0,0.0,0.0
1726617045,8,1557.0,1554.0,1547.0,1542.0,1540.0,1544.0,1550.0,1556.0,0.0,0.0,0.0,0.0,0.0,0.0,0.0,0.0
1726661051,8,1563.0,1551.0,1550.0,1543.0,1551.0,1553.0,1564.0,1562.0,0.0,0.0,0.0,0.0,0.0,0.0,0.0,0.0
1726701025,8,1569.0,1558.0,1554.0,1548.0,1555.0,1558.0,1569.0,1568.0,0.0,0.0,0.0,0.0,0.0,0.0,0.0,0.0
1726745060,8,1575.0,1563.0,1566.0,1554.0,1563.0,1559.0,1573.0,1567.0,0.0,0.0,0.0,0.0,0.0,0.0,0.0,0.0
1726789042,8,1588.0,1547.0,1578.0,1542.0,1581.0,1551.0,1591.0,1556.0,0.0,0.0,0.0,0.0,0.0,0.0,0.0,0.0
1726829799,8,1601.0,1529.0,1577.0,1517.0,1585.0,1540.0,1609.0,1552.0,0.0,0.0,0.0,0.0,0.0,0.0,0.0,0.0
1726869755,8,1608.0,1522.0,1572.0,1506.0,1586.0,1541.0,1622.0,1557.0,0.0,0.0,0.0,0.0,0.0,0.0,0.0,0.0
1726913813,8,1623.0,1522.0,1572.0,1493.0,1582.0,1537.0,1633.0,1565.0,0.0,0.0,0.0,0.0,0.0,0.0,0.0,0.0
1726957749,8,1624.0,1524.0,1561.0,1482.0,1565.0,1529.0,1628.0,1571.0,0.0,0.0,0.0,0.0,0.0,0.0,0.0,0.0
1726997762,8,1603.0,1519.0,1546.0,1478.0,1545.0,1518.0,1602.0,1558.0,0.0,0.0,0.0,0.0,0.0,0.0,0.0,0.0
1727037871,8,1571.0,1496.0,1525.0,1473.0,1537.0,1514.0,1583.0,1538.0,0.0,0.0,0.0,0.0,0.0,0.0,0.0,0.0
1727081847,8,1533.0,1458.0,1509.0,1458.0,1533.0,1492.0,1558.0,1492.0,0.0,0.0,0.0,0.0,0.0,0.0,0.0,0.0
1727122625,8,1518.0,1449.0,1501.0,1447.0,1515.0,1469.0,1532.0,1471.0,0.0,0.0,0.0,0.0,0.0,0.0,0.0,0.0
1727162623,8,1502.0,1448.0,1503.0,1448.0,1501.0,1447.0,1501.0,1447.0,0.0,0.0,0.0,0.0,0.0,0.0,0.0,0.0
1727202635,8,1490.0,1434.0,1496.0,1437.0,1494.0,1432.0,1489.0,1430.0,0.0,0.0,0.0,0.0,0.0,0.0,0.0,0.0
1727246619,8,1479.0,1420.0,1475.0,1419.0,1479.0,1426.0,1484.0,1426.0,0.0,0.0,0.0,0.0,0.0,0.0,0.0,0.0
1727286590,8,1477.0,1409.0,1468.0,1412.0,1481.0,1427.0,1490.0,1425.0,0.0,0.0,0.0,0.0,0.0,0.0,0.0,0.0
1727330623,8,1471.0,1404.0,1467.0,1413.0,1484.0,1428.0,1488.0,1418.0,0.0,0.0,0.0,0.0,0.0,0.0,0.0,0.0
1727371463,8,1470.0,1407.0,1466.0,1413.0,1479.0,1426.0,1483.0,1420.0,0.0,0.0,0.0,0.0,0.0,0.0,0.0,0.0
1727411449,8,1470.0,1409.0,1462.0,1414.0,1477.0,1429.0,1484.0,1425.0,0.0,0.0,0.0,0.0,0.0,0.0,0.0,0.0
1727455366,8,1477.0,1412.0,1471.0,1413.0,1478.0,1422.0,1484.0,1421.0,0.0,0.0,0.0,0.0,0.0,0.0,0.0,0.0
1727495400,8,1479.0,1412.0,1473.0,1412.0,1479.0,1421.0,1485.0,1420.0,0.0,0.0,0.0,0.0,0.0,0.0,0.0,0.0
1727539398,8,1474.0,1410.0,1465.0,1413.0,1477.0,1428.0,1486.0,1425.0,0.0,0.0,0.0,0.0,0.0,0.0,0.0,0.0
1727579398,8,1478.0,1412.0,1466.0,1414.0,1480.0,1432.0,1492.0,1431.0,0.0,0.0,0.0,0.0,0.0,0.0,0.0,0.0
1727623400,8,1479.0,1414.0,1466.0,1412.0,1476.0,1429.0,1489.0,1431.0,0.0,0.0,0.0,0.0,0.0,0.0,0.0,0.0
1727663409,8,1487.0,1425.0,1473.0,1415.0,1473.0,1426.0,1488.0,1436.0,0.0,0.0,0.0,0.0,0.0,0.0,0.0,0.0
1727708270,8,1491.0,1429.0,1470.0,1413.0,1468.0,1427.0,1489.0,1443.0,0.0,0.0,0.0,0.0,0.0,0.0,0.0,0.0
1727752236,8,1491.0,1432.0,1476.0,1419.0,1473.0,1427.0,1487.0,1440.0,0.0,0.0,0.0,0.0,0.0,0.0,0.0,0.0
1727792196,8,1484.0,1427.0,1473.0,1421.0,1475.0,1431.0,1486.0,1437.0,0.0,0.0,0.0,0.0,0.0,0.0,0.0,0.0
1727832186,8,1482.0,1428.0,1472.0,1424.0,1476.0,1434.0,1487.0,1439.0,0.0,0.0,0.0,0.0,0.0,0.0,0.0,0.0
1727876255,8,1481.0,1426.0,1472.0,1425.0,1479.0,1436.0,1488.0,1437.0,0.0,0.0,0.0,0.0,0.0,0.0,0.0,0.0
1727916235,8,1481.0,1431.0,1472.0,1427.0,1476.0,1436.0,1484.0,1439.0,0.0,0.0,0.0,0.0,0.0,0.0,0.0,0.0
1727957017,8,1480.0,1435.0,1472.0,1431.0,1474.0,1437.0,1482.0,1441.0,0.0,0.0,0.0,0.0,0.0,0.0,0.0,0.0
1728001020,8,1476.0,1430.0,1465.0,1429.0,1476.0,1444.0,1487.0,1445.0,0.0,0.0,0.0,0.0,0.0,0.0,0.0,0.0
1728041030,8,1477.0,1432.0,1467.0,1431.0,1476.0,1446.0,1487.0,1446.0,0.0,0.0,0.0,0.0,0.0,0.0,0.0,0.0
1728085037,8,1477.0,1431.0,1465.0,1431.0,1477.0,1448.0,1489.0,1448.0,0.0,0.0,0.0,0.0,0.0,0.0,0.0,0.0
1728124986,8,1482.0,1432.0,1469.0,1430.0,1479.0,1447.0,1492.0,1449.0,0.0,0.0,0.0,0.0,0.0,0.0,0.0,0.0
1728169001,8,1485.0,1434.0,1467.0,1428.0,1476.0,1446.0,1493.0,1452.0,0.0,0.0,0.0,0.0,0.0,0.0,0.0,0.0
1728208976,8,1481.0,1431.0,1464.0,1429.0,1478.0,1450.0,1495.0,1453.0,0.0,0.0,0.0,0.0,0.0,0.0,0.0,0.0
1728253838,8,1484.0,1433.0,1463.0,1426.0,1474.0,1449.0,1495.0,1455.0,0.0,0.0,0.0,0.0,0.0,0.0,0.0,0.0
1728297783,8,1485.0,1435.0,1462.0,1425.0,1472.0,1448.0,1495.0,1457.0,0.0,0.0,0.0,0.0,0.0,0.0,0.0,0.0
1728341838,8,1487.0,1436.0,1465.0,1425.0,1472.0,1446.0,1495.0,1457.0,0.0,0.0,0.0,0.0,0.0,0.0,0.0,0.0
1728385777,8,1489.0,1439.0,1467.0,1427.0,1472.0,1447.0,1495.0,1459.0,0.0,0.0,0.0,0.0,0.0,0.0,0.0,0.0
1728425802,8,1491.0,1438.0,1466.0,1426.0,1473.0,1448.0,1498.0,1461.0,0.0,0.0,0.0,0.0,0.0,0.0,0.0,0.0
1728469818,8,1491.0,1442.0,1468.0,1429.0,1473.0,1450.0,1496.0,1462.0,0.0,0.0,0.0,0.0,0.0,0.0,0.0,0.0
1728510630,8,1494.0,1441.0,1474.0,1429.0,1477.0,1445.0,1497.0,1458.0,0.0,0.0,0.0,0.0,0.0,0.0,0.0,0.0
1728554579,8,1494.0,1443.0,1471.0,1430.0,1475.0,1448.0,1498.0,1462.0,0.0,0.0,0.0,0.0,0.0,0.0,0.0,0.0
1728594578,8,1494.0,1445.0,1475.0,1433.0,1478.0,1449.0,1497.0,1460.0,0.0,0.0,0.0,0.0,0.0,0.0,0.0,0.0
1728638599,8,1493.0,1442.0,1471.0,1430.0,1475.0,1448.0,1497.0,1461.0,0.0,0.0,0.0,0.0,0.0,0.0,0.0,0.0
1728678596,8,1494.0,1442.0,1473.0,1430.0,1478.0,1448.0,1498.0,1460.0,0.0,0.0,0.0,0.0,0.0,0.0,0.0,0.0
1728722556,8,1495.0,1438.0,1473.0,1426.0,1479.0,1446.0,1501.0,1457.0,0.0,0.0,0.0,0.0,0.0,0.0,0.0,0.0
1728762545,8,1490.0,1437.0,1469.0,1429.0,1479.0,1451.0,1500.0,1459.0,0.0,0.0,0.0,0.0,0.0,0.0,0.0,0.0
1728806603,8,1495.0,1437.0,1473.0,1426.0,1479.0,1446.0,1501.0,1457.0,0.0,0.0,0.0,0.0,0.0,0.0,0.0,0.0
1728847437,8,1489.0,1433.0,1467.0,1425.0,1478.0,1450.0,1501.0,1458.0,0.0,0.0,0.0,0.0,0.0,0.0,0.0,0.0
1728891447,8,1495.0,1438.0,1477.0,1430.0,1483.0,1446.0,1500.0,1454.0,0.0,0.0,0.0,0.0,0.0,0.0,0.0,0.0
1728931364,8,1493.0,1435.0,1475.0,1429.0,1484.0,1447.0,1502.0,1454.0,0.0,0.0,0.0,0.0,0.0,0.0,0.0,0.0
1728975490,8,1495.0,1439.0,1480.0,1432.0,1485.0,1447.0,1500.0,1454.0,0.0,0.0,0.0,0.0,0.0,0.0,0.0,0.0
1729019468,8,1494.0,1436.0,1478.0,1430.0,1486.0,1447.0,1502.0,1453.0,0.0,0.0,0.0,0.0,0.0,0.0,0.0,0.0
1729060249,8,1495.0,1438.0,1478.0,1432.0,1486.0,1449.0,1502.0,1455.0,0.0,0.0,0.0,0.0,0.0,0.0,0.0,0.0
1729104247,8,1494.0,1432.0,1473.0,1426.0,1485.0,1448.0,1506.0,1455.0,0.0,0.0,0.0,0.0,0.0,0.0,0.0,0.0
1729144242,8,1494.0,1434.0,1475.0,1428.0,1486.0,1450.0,1506.0,1456.0,0.0,0.0,0.0,0.0,0.0,0.0,0.0,0.0
1729188302,8,1496.0,1431.0,1475.0,1425.0,1486.0,1447.0,1507.0,1454.0,0.0,0.0,0.0,0.0,0.0,0.0,0.0,0.0
1729228257,8,1496.0,1435.0,1479.0,1430.0,1489.0,1449.0,1506.0,1454.0,0.0,0.0,0.0,0.0,0.0,0.0,0.0,0.0
1729272179,8,1499.0,1436.0,1483.0,1428.0,1488.0,1444.0,1505.0,1452.0,0.0,0.0,0.0,0.0,0.0,0.0,0.0,0.0
1729312250,8,1494.0,1436.0,1478.0,1431.0,1487.0,1449.0,1503.0,1454.0,0.0,0.0,0.0,0.0,0.0,0.0,0.0,0.0
1729357014,8,1495.0,1439.0,1479.0,1433.0,1486.0,1448.0,1502.0,1455.0,0.0,0.0,0.0,0.0,0.0,0.0,0.0,0.0
1729397022,8,1494.0,1439.0,1479.0,1432.0,1484.0,1445.0,1499.0,1453.0,0.0,0.0,0.0,0.0,0.0,0.0,0.0,0.0
1729440988,8,1495.0,1442.0,1478.0,1432.0,1481.0,1445.0,1497.0,1455.0,0.0,0.0,0.0,0.0,0.0,0.0,0.0,0.0
1729480975,8,1495.0,1444.0,1480.0,1436.0,1484.0,1448.0,1498.0,1456.0,0.0,0.0,0.0,0.0,0.0,0.0,0.0,0.0
1729525031,8,1492.0,1444.0,1477.0,1437.0,1482.0,1450.0,1497.0,1458.0,0.0,0.0,0.0,0.0,0.0,0.0,0.0,0.0
1729565014,8,1494.0,1447.0,1480.0,1437.0,1481.0,1448.0,1495.0,1457.0,0.0,0.0,0.0,0.0,0.0,0.0,0.0,0.0
1729608986,8,1491.0,1447.0,1476.0,1439.0,1479.0,1452.0,1494.0,1460.0,0.0,0.0,0.0,0.0,0.0,0.0,0.0,0.0
1729649807,8,1494.0,1447.0,1481.0,1439.0,1482.0,1449.0,1495.0,1458.0,0.0,0.0,0.0,0.0,0.0,0.0,0.0,0.0
1729689776,8,1491.0,1445.0,1476.0,1439.0,1483.0,1454.0,1497.0,1460.0,0.0,0.0,0.0,0.0,0.0,0.0,0.0,0.0
1729733811,8,1492.0,1448.0,1478.0,1440.0,1482.0,1453.0,1496.0,1460.0,0.0,0.0,0.0,0.0,0.0,0.0,0.0,0.0
1729773825,8,1490.0,1447.0,1474.0,1440.0,1479.0,1454.0,1495.0,1462.0,0.0,0.0,0.0,0.0,0.0,0.0,0.0,0.0
1729817753,8,1493.0,1449.0,1478.0,1440.0,1481.0,1453.0,1497.0,1461.0,0.0,0.0,0.0,0.0,0.0,0.0,0.0,0.0
1729857777,8,1493.0,1450.0,1477.0,1442.0,1481.0,1456.0,1497.0,1464.0,0.0,0.0,0.0,0.0,0.0,0.0,0.0,0.0
1729901789,8,1496.0,1450.0,1480.0,1440.0,1482.0,1453.0,1499.0,1464.0,0.0,0.0,0.0,0.0,0.0,0.0,0.0,0.0
1729942643,8,1495.0,1452.0,1476.0,1441.0,1479.0,1457.0,1499.0,1468.0,0.0,0.0,0.0,0.0,0.0,0.0,0.0,0.0
1729986633,8,1497.0,1450.0,1475.0,1437.0,1478.0,1454.0,1500.0,1468.0,0.0,0.0,0.0,0.0,0.0,0.0,0.0,0.0
1730026609,8,1496.0,1455.0,1479.0,1443.0,1480.0,1456.0,1497.0,1468.0,0.0,0.0,0.0,0.0,0.0,0.0,0.0,0.0
1730070669,8,1495.0,1449.0,1475.0,1438.0,1480.0,1456.0,1500.0,1467.0,0.0,0.0,0.0,0.0,0.0,0.0,0.0,0.0
1730110618,8,1495.0,1452.0,1476.0,1440.0,1478.0,1455.0,1498.0,1467.0,0.0,0.0,0.0,0.0,0.0,0.0,0.0,0.0
1730154625,8,1497.0,1448.0,1475.0,1437.0,1481.0,1456.0,1503.0,1468.0,0.0,0.0,0.0,0.0,0.0,0.0,0.0,0.0
1730194590,8,1496.0,1449.0,1473.0,1437.0,1479.0,1457.0,1501.0,1469.0,0.0,0.0,0.0,0.0,0.0,0.0,0.0,0.0
1730235440,8,1501.0,1448.0,1475.0,1432.0,1478.0,1452.0,1504.0,1468.0,0.0,0.0,0.0,0.0,0.0,0.0,0.0,0.0
1730275391,8,1501.0,1447.0,1475.0,1431.0,1479.0,1453.0,1505.0,1468.0,0.0,0.0,0.0,0.0,0.0,0.0,0.0,0.0
1730319461,8,1503.0,1447.0,1478.0,1432.0,1481.0,1451.0,1506.0,1467.0,0.0,0.0,0.0,0.0,0.0,0.0,0.0,0.0
1730363442,8,1500.0,1449.0,1478.0,1437.0,1482.0,1455.0,1503.0,1467.0,0.0,0.0,0.0,0.0,0.0,0.0,0.0,0.0
1730403486,8,1502.0,1449.0,1480.0,1434.0,1481.0,1450.0,1502.0,1465.0,0.0,0.0,0.0,0.0,0.0,0.0,0.0,0.0
1730443381,8,1501.0,1445.0,1478.0,1432.0,1482.0,1451.0,1505.0,1465.0,0.0,0.0,0.0,0.0,0.0,0.0,0.0,0.0
1730484221,8,1500.0,1445.0,1477.0,1433.0,1482.0,1452.0,1504.0,1464.0,0.0,0.0,0.0,0.0,0.0,0.0,0.0,0.0
1730528276,8,1499.0,1445.0,1480.0,1435.0,1485.0,1451.0,1503.0,1460.0,0.0,0.0,0.0,0.0,0.0,0.0,0.0,0.0
1730568300,8,1501.0,1443.0,1482.0,1434.0,1488.0,1451.0,1507.0,1461.0,0.0,0.0,0.0,0.0,0.0,0.0,0.0,0.0
1730612257,8,1503.0,1443.0,1484.0,1432.0,1488.0,1449.0,1508.0,1460.0,0.0,0.0,0.0,0.0,0.0,0.0,0.0,0.0
1730652251,8,1502.0,1442.0,1483.0,1434.0,1491.0,1453.0,1509.0,1460.0,0.0,0.0,0.0,0.0,0.0,0.0,0.0,0.0
1730696245,8,1504.0,1441.0,1483.0,1430.0,1489.0,1449.0,1509.0,1459.0,0.0,0.0,0.0,0.0,0.0,0.0,0.0,0.0
1730736251,8,1504.0,1440.0,1481.0,1430.0,1489.0,1451.0,1511.0,1461.0,0.0,0.0,0.0,0.0,0.0,0.0,0.0,0.0
1730780996,8,1507.0,1441.0,1483.0,1427.0,1488.0,1448.0,1512.0,1461.0,0.0,0.0,0.0,0.0,0.0,0.0,0.0,0.0
1730821024,8,1506.0,1442.0,1483.0,1426.0,1485.0,1444.0,1508.0,1460.0,0.0,0.0,0.0,0.0,0.0,0.0,0.0,0.0
1730865013,8,1507.0,1445.0,1485.0,1430.0,1484.0,1444.0,1506.0,1460.0,0.0,0.0,0.0,0.0,0.0,0.0,0.0,0.0
1730905063,8,1508.0,1444.0,1485.0,1429.0,1486.0,1445.0,1508.0,1460.0,0.0,0.0,0.0,0.0,0.0,0.0,0.0,0.0
1730948978,8,1505.0,1446.0,1487.0,1435.0,1489.0,1449.0,1507.0,1461.0,0.0,0.0,0.0,0.0,0.0,0.0,0.0,0.0
1730989021,8,1505.0,1445.0,1487.0,1434.0,1489.0,1448.0,1507.0,1459.0,0.0,0.0,0.0,0.0,0.0,0.0,0.0,0.0
1731033106,8,1503.0,1443.0,1484.0,1431.0,1487.0,1448.0,1507.0,1459.0,0.0,0.0,0.0,0.0,0.0,0.0,0.0,0.0
1731076954,8,1503.0,1442.0,1485.0,1433.0,1490.0,1449.0,1508.0,1458.0,0.0,0.0,0.0,0.0,0.0,0.0,0.0,0.0
1731117787,8,1501.0,1445.0,1486.0,1437.0,1490.0,1450.0,1505.0,1458.0,0.0,0.0,0.0,0.0,0.0,0.0,0.0,0.0
1731161835,8,1502.0,1446.0,1487.0,1439.0,1491.0,1452.0,1505.0,1459.0,0.0,0.0,0.0,0.0,0.0,0.0,0.0,0.0
1731201821,8,1501.0,1447.0,1484.0,1436.0,1486.0,1450.0,1504.0,1461.0,0.0,0.0,0.0,0.0,0.0,0.0,0.0,0.0
1731245781,8,1502.0,1448.0,1485.0,1438.0,1488.0,1453.0,1505.0,1462.0,0.0,0.0,0.0,0.0,0.0,0.0,0.0,0.0
1731285787,8,1500.0,1447.0,1482.0,1437.0,1486.0,1452.0,1504.0,1462.0,0.0,0.0,0.0,0.0,0.0,0.0,0.0,0.0
1731329802,8,1502.0,1446.0,1482.0,1435.0,1485.0,1451.0,1505.0,1463.0,0.0,0.0,0.0,0.0,0.0,0.0,0.0,0.0
1731370620,8,1500.0,1445.0,1480.0,1434.0,1486.0,1453.0,1507.0,1464.0,0.0,0.0,0.0,0.0,0.0,0.0,0.0,0.0
1731414684,8,1503.0,1443.0,1481.0,1433.0,1488.0,1453.0,1510.0,1463.0,0.0,0.0,0.0,0.0,0.0,0.0,0.0,0.0
1731454631,8,1500.0,1443.0,1480.0,1434.0,1488.0,1454.0,1508.0,1462.0,0.0,0.0,0.0,0.0,0.0,0.0,0.0,0.0
1731498659,8,1504.0,1444.0,1487.0,1436.0,1492.0,1451.0,1509.0,1460.0,0.0,0.0,0.0,0.0,0.0,0.0,0.0,0.0
1731538614,8,1502.0,1441.0,1482.0,1433.0,1490.0,1453.0,1510.0,1461.0,0.0,0.0,0.0,0.0,0.0,0.0,0.0,0.0
1731582629,8,1506.0,1445.0,1490.0,1437.0,1495.0,1451.0,1510.0,1459.0,0.0,0.0,0.0,0.0,0.0,0.0,0.0,0.0
1731623484,8,1500.0,1443.0,1485.0,1438.0,1492.0,1454.0,1508.0,1460.0,0.0,0.0,0.0,0.0,0.0,0.0,0.0,0.0
1731663505,8,1502.0,1441.0,1483.0,1433.0,1490.0,1451.0,1508.0,1459.0,0.0,0.0,0.0,0.0,0.0,0.0,0.0,0.0
1731707467,8,1503.0,1441.0,1482.0,1431.0,1490.0,1452.0,1511.0,1461.0,0.0,0.0,0.0,0.0,0.0,0.0,0.0,0.0
1731747482,8,1505.0,1442.0,1485.0,1434.0,1492.0,1452.0,1512.0,1461.0,0.0,0.0,0.0,0.0,0.0,0.0,0.0,0.0
1731787436,8,1505.0,1439.0,1483.0,1430.0,1492.0,1453.0,1514.0,1462.0,0.0,0.0,0.0,0.0,0.0,0.0,0.0,0.0
1731831437,8,1505.0,1438.0,1482.0,1429.0,1492.0,1452.0,1515.0,1462.0,0.0,0.0,0.0,0.0,0.0,0.0,0.0,0.0
1731875478,8,1509.0,1443.0,1489.0,1431.0,1493.0,1447.0,1512.0,1459.0,0.0,0.0,0.0,0.0,0.0,0.0,0.0,0.0
1731916252,8,1505.0,1438.0,1486.0,1431.0,1494.0,1450.0,1513.0,1458.0,0.0,0.0,0.0,0.0,0.0,0.0,0.0,0.0
1731960242,8,1505.0,1439.0,1486.0,1430.0,1492.0,1447.0,1511.0,1456.0,0.0,0.0,0.0,0.0,0.0,0.0,0.0,0.0
1732000269,8,1505.0,1438.0,1487.0,1431.0,1495.0,1449.0,1513.0,1456.0,0.0,0.0,0.0,0.0,0.0,0.0,0.0,0.0
1732044254,8,1503.0,1441.0,1487.0,1433.0,1491.0,1448.0,1508.0,1456.0,0.0,0.0,0.0,0.0,0.0,0.0,0.0,0.0
1732084263,8,1504.0,1438.0,1489.0,1433.0,1497.0,1448.0,1511.0,1454.0,0.0,0.0,0.0,0.0,0.0,0.0,0.0,0.0
1732128276,8,1502.0,1439.0,1486.0,1432.0,1492.0,1447.0,1507.0,1454.0,0.0,0.0,0.0,0.0,0.0,0.0,0.0,0.0
1732168980,8,1505.0,1442.0,1490.0,1435.0,1494.0,1448.0,1509.0,1455.0,0.0,0.0,0.0,0.0,0.0,0.0,0.0,0.0
1732213052,8,1503.0,1439.0,1485.0,1431.0,1492.0,1449.0,1510.0,1457.0,0.0,0.0,0.0,0.0,0.0,0.0,0.0,0.0
1732253093,8,1504.0,1440.0,1482.0,1428.0,1487.0,1447.0,1509.0,1459.0,0.0,0.0,0.0,0.0,0.0,0.0,0.0,0.0
1732297041,8,1503.0,1436.0,1476.0,1423.0,1485.0,1449.0,1512.0,1461.0,0.0,0.0,0.0,0.0,0.0,0.0,0.0,0.0
1732336965,8,1506.0,1441.0,1480.0,1426.0,1484.0,1448.0,1511.0,1464.0,0.0,0.0,0.0,0.0,0.0,0.0,0.0,0.0
1732381043,8,1504.0,1438.0,1478.0,1425.0,1485.0,1448.0,1511.0,1462.0,0.0,0.0,0.0,0.0,0.0,0.0,0.0,0.0
1732421030,8,1505.0,1441.0,1481.0,1427.0,1486.0,1448.0,1510.0,1462.0,0.0,0.0,0.0,0.0,0.0,0.0,0.0,0.0
1732465022,8,1506.0,1442.0,1484.0,1430.0,1488.0,1448.0,1510.0,1460.0,0.0,0.0,0.0,0.0,0.0,0.0,0.0,0.0
1732505849,8,1505.0,1442.0,1483.0,1429.0,1487.0,1449.0,1510.0,1461.0,0.0,0.0,0.0,0.0,0.0,0.0,0.0,0.0
1732545858,8,1506.0,1443.0,1479.0,1426.0,1481.0,1446.0,1508.0,1464.0,0.0,0.0,0.0,0.0,0.0,0.0,0.0,0.0
1732589800,8,1510.0,1443.0,1482.0,1424.0,1482.0,1444.0,1510.0,1463.0,0.0,0.0,0.0,0.0,0.0,0.0,0.0,0.0
1732629792,8,1509.0,1440.0,1479.0,1421.0,1481.0,1443.0,1510.0,1462.0,0.0,0.0,0.0,0.0,0.0,0.0,0.0,0.0
1732673802,8,1508.0,1444.0,1480.0,1424.0,1480.0,1445.0,1509.0,1464.0,0.0,0.0,0.0,0.0,0.0,0.0,0.0,0.0
1732713771,8,1511.0,1439.0,1482.0,1423.0,1487.0,1446.0,1515.0,1463.0,0.0,0.0,0.0,0.0,0.0,0.0,0.0,0.0
1732757810,8,1505.0,1441.0,1480.0,1428.0,1486.0,1450.0,1511.0,1463.0,0.0,0.0,0.0,0.0,0.0,0.0,0.0,0.0
1732798584,8,1507.0,1442.0,1484.0,1429.0,1489.0,1449.0,1512.0,1462.0,0.0,0.0,0.0,0.0,0.0,0.0,0.0,0.0
1732842689,8,1502.0,1437.0,1479.0,1428.0,1489.0,1452.0,1513.0,1461.0,0.0,0.0,0.0,0.0,0.0,0.0,0.0,0.0
1732882613,8,1503.0,1442.0,1481.0,1432.0,1489.0,1454.0,1512.0,1464.0,0.0,0.0,0.0,0.0,0.0,0.0,0.0,0.0
1732922619,8,1506.0,1444.0,1483.0,1430.0,1486.0,1447.0,1508.0,1462.0,0.0,0.0,0.0,0.0,0.0,0.0,0.0,0.0
1732966598,8,1503.0,1437.0,1475.0,1425.0,1485.0,1451.0,1513.0,1464.0,0.0,0.0,0.0,0.0,0.0,0.0,0.0,0.0
1733010671,8,1501.0,1435.0,1476.0,1426.0,1488.0,1453.0,1513.0,1462.0,0.0,0.0,0.0,0.0,0.0,0.0,0.0,0.0
1733050626,8,1502.0,1436.0,1477.0,1425.0,1486.0,1449.0,1511.0,1460.0,0.0,0.0,0.0,0.0,0.0,0.0,0.0,0.0
1733091458,8,1501.0,1435.0,1476.0,1424.0,1486.0,1449.0,1511.0,1460.0,0.0,0.0,0.0,0.0,0.0,0.0,0.0,0.0
1733135466,8,1502.0,1437.0,1481.0,1429.0,1490.0,1450.0,1511.0,1459.0,0.0,0.0,0.0,0.0,0.0,0.0,0.0,0.0
1733175452,8,1500.0,1434.0,1480.0,1428.0,1491.0,1449.0,1511.0,1456.0,0.0,0.0,0.0,0.0,0.0,0.0,0.0,0.0
1733219481,8,1501.0,1437.0,1482.0,1429.0,1490.0,1448.0,1509.0,1456.0,0.0,0.0,0.0,0.0,0.0,0.0,0.0,0.0
1733259473,8,1505.0,1438.0,1483.0,1427.0,1489.0,1446.0,1510.0,1457.0,0.0,0.0,0.0,0.0,0.0,0.0,0.0,0.0
1733300211,8,1502.0,1436.0,1476.0,1423.0,1484.0,1448.0,1511.0,1461.0,0.0,0.0,0.0,0.0,0.0,0.0,0.0,0.0
1733340242,8,1502.0,1439.0,1477.0,1425.0,1483.0,1448.0,1509.0,1462.0,0.0,0.0,0.0,0.0,0.0,0.0,0.0,0.0
1733384213,8,1507.0,1440.0,1477.0,1420.0,1479.0,1443.0,1509.0,1462.0,0.0,0.0,0.0,0.0,0.0,0.0,0.0,0.0
1733424275,8,1503.0,1439.0,1475.0,1421.0,1478.0,1444.0,1507.0,1461.0,0.0,0.0,0.0,0.0,0.0,0.0,0.0,0.0
1733468296,8,1501.0,1441.0,1476.0,1427.0,1480.0,1447.0,1505.0,1462.0,0.0,0.0,0.0,0.0,0.0,0.0,0.0,0.0
1733508299,8,1501.0,1441.0,1476.0,1428.0,1482.0,1450.0,1507.0,1463.0,0.0,0.0,0.0,0.0,0.0,0.0,0.0,0.0
1733552233,8,1496.0,1438.0,1469.0,1427.0,1480.0,1455.0,1508.0,1466.0,0.0,0.0,0.0,0.0,0.0,0.0,0.0,0.0
1733592238,8,1499.0,1443.0,1470.0,1426.0,1476.0,1451.0,1505.0,1468.0,0.0,0.0,0.0,0.0,0.0,0.0,0.0,0.0
1733637016,8,1498.0,1437.0,1463.0,1422.0,1476.0,1456.0,1511.0,1471.0,0.0,0.0,0.0,0.0,0.0,0.0,0.0,0.0
1733680981,8,1500.0,1436.0,1463.0,1419.0,1476.0,1455.0,1513.0,1472.0,0.0,0.0,0.0,0.0,0.0,0.0,0.0,0.0
1733725018,8,1499.0,1439.0,1463.0,1422.0,1475.0,1456.0,1510.0,1472.0,0.0,0.0,0.0,0.0,0.0,0.0,0.0,0.0
1733768974,8,1501.0,1436.0,1463.0,1419.0,1476.0,1455.0,1514.0,1472.0,0.0,0.0,0.0,0.0,0.0,0.0,0.0,0.0
1733809018,8,1499.0,1437.0,1458.0,1417.0,1471.0,1456.0,1512.0,1475.0,0.0,0.0,0.0,0.0,0.0,0.0,0.0,0.0
1733853097,8,1501.0,1441.0,1465.0,1421.0,1473.0,1452.0,1509.0,1472.0,0.0,0.0,0.0,0.0,0.0,0.0,0.0,0.0
1733893794,8,1500.0,1438.0,1460.0,1416.0,1469.0,1451.0,1509.0,1472.0,0.0,0.0,0.0,0.0,0.0,0.0,0.0,0.0
1733937738,8,1497.0,1443.0,1462.0,1423.0,1469.0,1452.0,1503.0,1472.0,0.0,0.0,0.0,0.0,0.0,0.0,0.0,0.0
1733977781,8,1499.0,1450.0,1467.0,1427.0,1466.0,1449.0,1498.0,1472.0,0.0,0.0,0.0,0.0,0.0,0.0,0.0,0.0
1734021823,8,1499.0,1447.0,1465.0,1424.0,1465.0,1449.0,1500.0,1472.0,0.0,0.0,0.0,0.0,0.0,0.0,0.0,0.0
1734065827,8,1502.0,1449.0,1468.0,1423.0,1465.0,1444.0,1498.0,1470.0,0.0,0.0,0.0,0.0,0.0,0.0,0.0,0.0
1734109863,8,1498.0,1448.0,1465.0,1424.0,1465.0,1447.0,1498.0,1471.0,0.0,0.0,0.0,0.0,0.0,0.0,0.0,0.0
1734149854,8,1498.0,1451.0,1465.0,1427.0,1465.0,1451.0,1498.0,1474.0,0.0,0.0,0.0,0.0,0.0,0.0,0.0,0.0
1734189821,8,1501.0,1448.0,1473.0,1427.0,1470.0,1444.0,1497.0,1466.0,0.0,0.0,0.0,0.0,0.0,0.0,0.0,0.0
1734230672,8,1499.0,1446.0,1471.0,1429.0,1474.0,1450.0,1501.0,1467.0,0.0,0.0,0.0,0.0,0.0,0.0,0.0,0.0
1734274665,8,1497.0,1448.0,1474.0,1433.0,1475.0,1450.0,1498.0,1465.0,0.0,0.0,0.0,0.0,0.0,0.0,0.0,0.0
1734314629,8,1497.0,1445.0,1475.0,1431.0,1478.0,1449.0,1500.0,1463.0,0.0,0.0,0.0,0.0,0.0,0.0,0.0,0.0
1734358643,8,1496.0,1446.0,1474.0,1434.0,1479.0,1453.0,1501.0,1466.0,0.0,0.0,0.0,0.0,0.0,0.0,0.0,0.0
1734398656,8,1497.0,1446.0,1475.0,1433.0,1478.0,1451.0,1500.0,1464.0,0.0,0.0,0.0,0.0,0.0,0.0,0.0,0.0
1734442633,8,1493.0,1445.0,1471.0,1434.0,1478.0,1455.0,1500.0,1466.0,0.0,0.0,0.0,0.0,0.0,0.0,0.0,0.0
1734483432,8,1501.0,1448.0,1474.0,1430.0,1476.0,1450.0,1502.0,1467.0,0.0,0.0,0.0,0.0,0.0,0.0,0.0,0.0
1734523396,8,1504.0,1448.0,1475.0,1427.0,1476.0,1449.0,1505.0,1469.0,0.0,0.0,0.0,0.0,0.0,0.0,0.0,0.0
1734567412,8,1505.0,1449.0,1472.0,1427.0,1475.0,1452.0,1507.0,1473.0,0.0,0.0,0.0,0.0,0.0,0.0,0.0,0.0
1734607489,8,1507.0,1450.0,1473.0,1426.0,1473.0,1450.0,1506.0,1474.0,0.0,0.0,0.0,0.0,0.0,0.0,0.0,0.0
1734651434,8,1508.0,1447.0,1469.0,1419.0,1470.0,1448.0,1509.0,1475.0,0.0,0.0,0.0,0.0,0.0,0.0,0.0,0.0
1734691433,8,1509.0,1450.0,1474.0,1423.0,1472.0,1447.0,1507.0,1474.0,0.0,0.0,0.0,0.0,0.0,0.0,0.0,0.0
1734735474,8,1510.0,1446.0,1474.0,1419.0,1473.0,1444.0,1509.0,1471.0,0.0,0.0,0.0,0.0,0.0,0.0,0.0,0.0
1734775529,8,1511.0,1446.0,1477.0,1420.0,1474.0,1443.0,1509.0,1469.0,0.0,0.0,0.0,0.0,0.0,0.0,0.0,0.0
1734820217,8,1511.0,1450.0,1481.0,1425.0,1477.0,1444.0,1507.0,1468.0,0.0,0.0,0.0,0.0,0.0,0.0,0.0,0.0
1734860196,8,1512.0,1446.0,1484.0,1424.0,1481.0,1442.0,1509.0,1464.0,0.0,0.0,0.0,0.0,0.0,0.0,0.0,0.0
1734904200,8,1512.0,1450.0,1483.0,1425.0,1478.0,1442.0,1506.0,1466.0,0.0,0.0,0.0,0.0,0.0,0.0,0.0,0.0
1734944219,8,1510.0,1453.0,1484.0,1430.0,1478.0,1445.0,1504.0,1467.0,0.0,0.0,0.0,0.0,0.0,0.0,0.0,0.0
1734988279,8,1512.0,1442.0,1482.0,1420.0,1481.0,1441.0,1511.0,1463.0,0.0,0.0,0.0,0.0,0.0,0.0,0.0,0.0
1735029047,8,1508.0,1442.0,1478.0,1423.0,1481.0,1447.0,1511.0,1466.0,0.0,0.0,0.0,0.0,0.0,0.0,0.0,0.0
1735068962,8,1506.0,1439.0,1477.0,1424.0,1484.0,1449.0,1513.0,1465.0,0.0,0.0,0.0,0.0,0.0,0.0,0.0,0.0
1735113059,8,1506.0,1434.0,1477.0,1420.0,1488.0,1449.0,1518.0,1463.0,0.0,0.0,0.0,0.0,0.0,0.0,0.0,0.0
1735153055,8,1505.0,1433.0,1477.0,1422.0,1490.0,1452.0,1518.0,1463.0,0.0,0.0,0.0,0.0,0.0,0.0,0.0,0.0
1735197034,8,1508.0,1442.0,1484.0,1431.0,1492.0,1453.0,1515.0,1464.0,0.0,0.0,0.0,0.0,0.0,0.0,0.0,0.0
1735236989,8,1506.0,1438.0,1482.0,1428.0,1492.0,1453.0,1517.0,1463.0,0.0,0.0,0.0,0.0,0.0,0.0,0.0,0.0
1735281019,8,1508.0,1442.0,1481.0,1428.0,1489.0,1454.0,1517.0,1467.0,0.0,0.0,0.0,0.0,0.0,0.0,0.0,0.0
1735321013,8,1506.0,1442.0,1477.0,1429.0,1488.0,1457.0,1516.0,1469.0,0.0,0.0,0.0,0.0,0.0,0.0,0.0,0.0
1735365823,8,1507.0,1439.0,1477.0,1425.0,1487.0,1453.0,1517.0,1467.0,0.0,0.0,0.0,0.0,0.0,0.0,0.0,0.0
1735405832,8,1507.0,1441.0,1479.0,1427.0,1488.0,1453.0,1516.0,1467.0,0.0,0.0,0.0,0.0,0.0,0.0,0.0,0.0
1735449819,8,1511.0,1447.0,1487.0,1432.0,1490.0,1450.0,1513.0,1465.0,0.0,0.0,0.0,0.0,0.0,0.0,0.0,0.0
1735489799,8,1509.0,1443.0,1485.0,1429.0,1489.0,1450.0,1513.0,1464.0,0.0,0.0,0.0,0.0,0.0,0.0,0.0,0.0
1735533807,8,1513.0,1448.0,1488.0,1430.0,1486.0,1447.0,1511.0,1465.0,0.0,0.0,0.0,0.0,0.0,0.0,0.0,0.0
1735573815,8,1512.0,1447.0,1487.0,1432.0,1491.0,1451.0,1515.0,1466.0,0.0,0.0,0.0,0.0,0.0,0.0,0.0,0.0
1735614628,8,1510.0,1441.0,1484.0,1428.0,1491.0,1451.0,1517.0,1464.0,0.0,0.0,0.0,0.0,0.0,0.0,0.0,0.0
1735654559,8,1507.0,1437.0,1478.0,1424.0,1489.0,1452.0,1518.0,1465.0,0.0,0.0,0.0,0.0,0.0,0.0,0.0,0.0
1735698568,8,1511.0,1443.0,1487.0,1428.0,1489.0,1446.0,1513.0,1462.0,0.0,0.0,0.0,0.0,0.0,0.0,0.0,0.0
1735738561,8,1509.0,1439.0,1480.0,1423.0,1487.0,1449.0,1515.0,1464.0,0.0,0.0,0.0,0.0,0.0,0.0,0.0,0.0
1735782662,8,1511.0,1445.0,1489.0,1429.0,1489.0,1445.0,1511.0,1461.0,0.0,0.0,0.0,0.0,0.0,0.0,0.0,0.0
1735826628,8,1513.0,1441.0,1488.0,1425.0,1491.0,1444.0,1515.0,1460.0,0.0,0.0,0.0,0.0,0.0,0.0,0.0,0.0
1735870690,8,1517.0,1444.0,1490.0,1422.0,1487.0,1439.0,1513.0,1460.0,0.0,0.0,0.0,0.0,0.0,0.0,0.0,0.0
1735915377,8,1513.0,1443.0,1487.0,1423.0,1484.0,1439.0,1510.0,1459.0,0.0,0.0,0.0,0.0,0.0,0.0,0.0,0.0
1735955371,8,1515.0,1442.0,1490.0,1423.0,1488.0,1439.0,1513.0,1458.0,0.0,0.0,0.0,0.0,0.0,0.0,0.0,0.0
1735999410,8,1511.0,1436.0,1486.0,1421.0,1490.0,1442.0,1515.0,1457.0,0.0,0.0,0.0,0.0,0.0,0.0,0.0,0.0
1736039485,8,1510.0,1436.0,1485.0,1423.0,1491.0,1445.0,1516.0,1458.0,0.0,0.0,0.0,0.0,0.0,0.0,0.0,0.0
1736083401,8,1516.0,1431.0,1489.0,1415.0,1493.0,1436.0,1520.0,1452.0,0.0,0.0,0.0,0.0,0.0,0.0,0.0,0.0
1736123499,8,1514.0,1431.0,1488.0,1419.0,1496.0,1443.0,1522.0,1455.0,0.0,0.0,0.0,0.0,0.0,0.0,0.0,0.0
1736167457,8,1511.0,1436.0,1490.0,1424.0,1494.0,1442.0,1515.0,1454.0,0.0,0.0,0.0,0.0,0.0,0.0,0.0,0.0
1736208245,8,1510.0,1431.0,1484.0,1420.0,1494.0,1446.0,1520.0,1457.0,0.0,0.0,0.0,0.0,0.0,0.0,0.0,0.0
1736248217,8,1511.0,1432.0,1484.0,1419.0,1493.0,1445.0,1520.0,1458.0,0.0,0.0,0.0,0.0,0.0,0.0,0.0,0.0
1736292184,8,1504.0,1426.0,1475.0,1420.0,1494.0,1453.0,1523.0,1460.0,0.0,0.0,0.0,0.0,0.0,0.0,0.0,0.0
1736332151,8,1505.0,1427.0,1475.0,1419.0,1493.0,1452.0,1522.0,1461.0,0.0,0.0,0.0,0.0,0.0,0.0,0.0,0.0
1736376272,8,1506.0,1429.0,1478.0,1422.0,1495.0,1454.0,1523.0,1462.0,0.0,0.0,0.0,0.0,0.0,0.0,0.0,0.0
1736416222,8,1503.0,1428.0,1474.0,1420.0,1492.0,1454.0,1521.0,1462.0,0.0,0.0,0.0,0.0,0.0,0.0,0.0,0.0
1736460207,8,1504.0,1436.0,1476.0,1425.0,1488.0,1453.0,1516.0,1464.0,0.0,0.0,0.0,0.0,0.0,0.0,0.0,0.0
1736500999,8,1502.0,1434.0,1471.0,1423.0,1486.0,1455.0,1517.0,1467.0,0.0,0.0,0.0,0.0,0.0,0.0,0.0,0.0
1736545020,8,1501.0,1434.0,1465.0,1420.0,1481.0,1456.0,1516.0,1470.0,0.0,0.0,0.0,0.0,0.0,0.0,0.0,0.0
1736585018,8,1501.0,1435.0,1463.0,1419.0,1478.0,1456.0,1516.0,1472.0,0.0,0.0,0.0,0.0,0.0,0.0,0.0,0.0
1736628988,8,1504.0,1442.0,1471.0,1424.0,1479.0,1454.0,1512.0,1471.0,0.0,0.0,0.0,0.0,0.0,0.0,0.0,0.0
1736668981,8,1500.0,1441.0,1464.0,1421.0,1473.0,1453.0,1509.0,1473.0,0.0,0.0,0.0,0.0,0.0,0.0,0.0,0.0
1736713072,8,1497.0,1447.0,1463.0,1429.0,1471.0,1458.0,1505.0,1477.0,0.0,0.0,0.0,0.0,0.0,0.0,0.0,0.0
1736753847,8,1497.0,1445.0,1465.0,1429.0,1475.0,1459.0,1508.0,1475.0,0.0,0.0,0.0,0.0,0.0,0.0,0.0,0.0
1736797791,8,1494.0,1443.0,1459.0,1427.0,1472.0,1461.0,1507.0,1476.0,0.0,0.0,0.0,0.0,0.0,0.0,0.0,0.0
1736837793,8,1492.0,1443.0,1459.0,1429.0,1472.0,1461.0,1505.0,1475.0,0.0,0.0,0.0,0.0,0.0,0.0,0.0,0.0
1736881854,8,1491.0,1441.0,1460.0,1428.0,1473.0,1460.0,1504.0,1472.0,0.0,0.0,0.0,0.0,0.0,0.0,0.0,0.0
1736925805,8,1491.0,1450.0,1466.0,1437.0,1474.0,1461.0,1499.0,1473.0,0.0,0.0,0.0,0.0,0.0,0.0,0.0,0.0
1736965839,8,1493.0,1451.0,1465.0,1434.0,1469.0,1457.0,1497.0,1475.0,0.0,0.0,0.0,0.0,0.0,0.0,0.0,0.0
1737009906,8,1494.0,1454.0,1467.0,1435.0,1467.0,1455.0,1495.0,1474.0,0.0,0.0,0.0,0.0,0.0,0.0,0.0,0.0
1737053816,8,1489.0,1450.0,1460.0,1435.0,1467.0,1460.0,1496.0,1475.0,0.0,0.0,0.0,0.0,0.0,0.0,0.0,0.0
1737094612,8,1491.0,1454.0,1466.0,1437.0,1466.0,1455.0,1492.0,1473.0,0.0,0.0,0.0,0.0,0.0,0.0,0.0,0.0
1737134569,8,1489.0,1455.0,1465.0,1437.0,1465.0,1455.0,1489.0,1472.0,0.0,0.0,0.0,0.0,0.0,0.0,0.0,0.0
1737178614,8,1489.0,1454.0,1465.0,1437.0,1464.0,1454.0,1488.0,1471.0,0.0,0.0,0.0,0.0,0.0,0.0,0.0,0.0
1737218652,8,1487.0,1452.0,1462.0,1435.0,1464.0,1455.0,1489.0,1471.0,0.0,0.0,0.0,0.0,0.0,0.0,0.0,0.0
1737258626,8,1486.0,1456.0,1465.0,1443.0,1468.0,1460.0,1489.0,1473.0,0.0,0.0,0.0,0.0,0.0,0.0,0.0,0.0
1737302584,8,1484.0,1453.0,1465.0,1443.0,1469.0,1460.0,1488.0,1470.0,0.0,0.0,0.0,0.0,0.0,0.0,0.0,0.0
1737343383,8,1478.0,1452.0,1456.0,1442.0,1463.0,1463.0,1486.0,1474.0,0.0,0.0,0.0,0.0,0.0,0.0,0.0,0.0
1737387374,8,1479.0,1448.0,1454.0,1438.0,1465.0,1463.0,1489.0,1473.0,0.0,0.0,0.0,0.0,0.0,0.0,0.0,0.0
1737431409,8,1478.0,1450.0,1454.0,1441.0,1465.0,1466.0,1489.0,1474.0,0.0,0.0,0.0,0.0,0.0,0.0,0.0,0.0
1737471373,8,1480.0,1453.0,1456.0,1440.0,1462.0,1462.0,1486.0,1475.0,0.0,0.0,0.0,0.0,0.0,0.0,0.0,0.0
1737515406,8,1479.0,1451.0,1456.0,1440.0,1463.0,1462.0,1486.0,1473.0,0.0,0.0,0.0,0.0,0.0,0.0,0.0,0.0
1737555435,8,1479.0,1452.0,1453.0,1439.0,1462.0,1464.0,1488.0,1476.0,0.0,0.0,0.0,0.0,0.0,0.0,0.0,0.0
1737599470,8,1479.0,1448.0,1452.0,1439.0,1466.0,1467.0,1493.0,1477.0,0.0,0.0,0.0,0.0,0.0,0.0,0.0,0.0
1737640242,8,1481.0,1453.0,1458.0,1444.0,1468.0,1467.0,1491.0,1477.0,0.0,0.0,0.0,0.0,0.0,0.0,0.0,0.0
1737684202,8,1478.0,1448.0,1455.0,1444.0,1471.0,1471.0,1494.0,1475.0,0.0,0.0,0.0,0.0,0.0,0.0,0.0,0.0
1737728289,8,1476.0,1447.0,1456.0,1445.0,1473.0,1473.0,1494.0,1475.0,0.0,0.0,0.0,0.0,0.0,0.0,0.0,0.0
1737768266,8,1481.0,1447.0,1462.0,1443.0,1475.0,1465.0,1493.0,1470.0,0.0,0.0,0.0,0.0,0.0,0.0,0.0,0.0
1737812223,8,1480.0,1448.0,1463.0,1445.0,1476.0,1466.0,1493.0,1469.0,0.0,0.0,0.0,0.0,0.0,0.0,0.0,0.0
1737852245,8,1480.0,1443.0,1462.0,1442.0,1479.0,1466.0,1497.0,1467.0,0.0,0.0,0.0,0.0,0.0,0.0,0.0,0.0
1737897051,8,1482.0,1445.0,1465.0,1444.0,1480.0,1467.0,1498.0,1468.0,0.0,0.0,0.0,0.0,0.0,0.0,0.0,0.0
1737937060,8,1481.0,1438.0,1459.0,1437.0,1479.0,1465.0,1500.0,1467.0,0.0,0.0,0.0,0.0,0.0,0.0,0.0,0.0
1737981019,8,1483.0,1441.0,1463.0,1438.0,1479.0,1464.0,1499.0,1466.0,0.0,0.0,0.0,0.0,0.0,0.0,0.0,0.0
1738021016,8,1484.0,1435.0,1459.0,1432.0,1480.0,1464.0,1505.0,1468.0,0.0,0.0,0.0,0.0,0.0,0.0,0.0,0.0
1738065047,8,1484.0,1437.0,1460.0,1435.0,1481.0,1466.0,1505.0,1468.0,0.0,0.0,0.0,0.0,0.0,0.0,0.0,0.0
1738105020,8,1483.0,1433.0,1457.0,1431.0,1480.0,1465.0,1506.0,1467.0,0.0,0.0,0.0,0.0,0.0,0.0,0.0,0.0
1738145040,8,1487.0,1436.0,1461.0,1432.0,1480.0,1463.0,1506.0,1468.0,0.0,0.0,0.0,0.0,0.0,0.0,0.0,0.0
1738189805,8,1487.0,1432.0,1459.0,1429.0,1483.0,1466.0,1511.0,1468.0,0.0,0.0,0.0,0.0,0.0,0.0,0.0,0.0
1738229839,8,1483.0,1429.0,1455.0,1428.0,1482.0,1467.0,1510.0,1468.0,0.0,0.0,0.0,0.0,0.0,0.0,0.0,0.0
1738273885,8,1483.0,1425.0,1453.0,1426.0,1485.0,1470.0,1515.0,1468.0,0.0,0.0,0.0,0.0,0.0,0.0,0.0,0.0
1738313843,8,1484.0,1429.0,1454.0,1427.0,1481.0,1467.0,1510.0,1469.0,0.0,0.0,0.0,0.0,0.0,0.0,0.0,0.0
1738357772,8,1483.0,1425.0,1452.0,1425.0,1482.0,1468.0,1513.0,1469.0,0.0,0.0,0.0,0.0,0.0,0.0,0.0,0.0
1738397819,8,1487.0,1427.0,1456.0,1424.0,1483.0,1465.0,1514.0,1469.0,0.0,0.0,0.0,0.0,0.0,0.0,0.0,0.0
1738442653,8,1485.0,1421.0,1452.0,1419.0,1482.0,1465.0,1516.0,1467.0,0.0,0.0,0.0,0.0,0.0,0.0,0.0,0.0
1738486577,8,1486.0,1421.0,1454.0,1419.0,1484.0,1463.0,1515.0,1464.0,0.0,0.0,0.0,0.0,0.0,0.0,0.0,0.0
1738530627,8,1486.0,1427.0,1459.0,1427.0,1485.0,1464.0,1512.0,1465.0,0.0,0.0,0.0,0.0,0.0,0.0,0.0,0.0
1738570577,8,1487.0,1421.0,1458.0,1420.0,1486.0,1460.0,1515.0,1461.0,0.0,0.0,0.0,0.0,0.0,0.0,0.0,0.0
1738610589,8,1486.0,1423.0,1457.0,1420.0,1482.0,1459.0,1511.0,1462.0,0.0,0.0,0.0,0.0,0.0,0.0,0.0,0.0
1738650594,8,1487.0,1424.0,1462.0,1422.0,1484.0,1456.0,1510.0,1458.0,0.0,0.0,0.0,0.0,0.0,0.0,0.0,0.0
1738691462,8,1488.0,1419.0,1461.0,1418.0,1487.0,1456.0,1514.0,1457.0,0.0,0.0,0.0,0.0,0.0,0.0,0.0,0.0
1738735388,8,1484.0,1416.0,1455.0,1418.0,1487.0,1460.0,1515.0,1459.0,0.0,0.0,0.0,0.0,0.0,0.0,0.0,0.0
1738775427,8,1487.0,1420.0,1459.0,1417.0,1482.0,1452.0,1509.0,1456.0,0.0,0.0,0.0,0.0,0.0,0.0,0.0,0.0
1738815384,8,1492.0,1424.0,1470.0,1422.0,1488.0,1450.0,1510.0,1452.0,0.0,0.0,0.0,0.0,0.0,0.0,0.0,0.0
1738859431,8,1490.0,1415.0,1466.0,1414.0,1488.0,1447.0,1512.0,1448.0,0.0,0.0,0.0,0.0,0.0,0.0,0.0,0.0
1738903392,8,1489.0,1423.0,1473.0,1422.0,1489.0,1445.0,1505.0,1445.0,0.0,0.0,0.0,0.0,0.0,0.0,0.0,0.0
1738943416,8,1488.0,1422.0,1472.0,1422.0,1488.0,1445.0,1505.0,1445.0,0.0,0.0,0.0,0.0,0.0,0.0,0.0,0.0
1738987448,8,1485.0,1414.0,1470.0,1421.0,1494.0,1449.0,1510.0,1442.0,0.0,0.0,0.0,0.0,0.0,0.0,0.0,0.0
1739027456,8,1487.0,1415.0,1469.0,1420.0,1494.0,1450.0,1512.0,1445.0,0.0,0.0,0.0,0.0,0.0,0.0,0.0,0.0
1739068277,8,1490.0,1419.0,1473.0,1421.0,1492.0,1447.0,1510.0,1445.0,0.0,0.0,0.0,0.0,0.0,0.0,0.0,0.0
1739108272,8,1491.0,1419.0,1472.0,1421.0,1493.0,1448.0,1511.0,1447.0,0.0,0.0,0.0,0.0,0.0,0.0,0.0,0.0
1739152171,8,1490.0,1413.0,1466.0,1412.0,1488.0,1444.0,1512.0,1446.0,0.0,0.0,0.0,0.0,0.0,0.0,0.0,0.0
1739192167,8,1494.0,1416.0,1469.0,1413.0,1490.0,1446.0,1515.0,1449.0,0.0,0.0,0.0,0.0,0.0,0.0,0.0,0.0
1739236203,8,1491.0,1413.0,1465.0,1413.0,1490.0,1448.0,1516.0,1449.0,0.0,0.0,0.0,0.0,0.0,0.0,0.0,0.0
1739277065,8,1491.0,1415.0,1467.0,1413.0,1489.0,1446.0,1513.0,1448.0,0.0,0.0,0.0,0.0,0.0,0.0,0.0,0.0
1739321022,8,1491.0,1414.0,1472.0,1418.0,1498.0,1450.0,1516.0,1445.0,0.0,0.0,0.0,0.0,0.0,0.0,0.0,0.0
1739361008,8,1488.0,1411.0,1465.0,1414.0,1493.0,1450.0,1516.0,1447.0,0.0,0.0,0.0,0.0,0.0,0.0,0.0,0.0
1739405065,8,1488.0,1412.0,1465.0,1415.0,1493.0,1452.0,1516.0,1449.0,0.0,0.0,0.0,0.0,0.0,0.0,0.0,0.0
1739445074,8,1489.0,1413.0,1468.0,1416.0,1495.0,1451.0,1517.0,1447.0,0.0,0.0,0.0,0.0,0.0,0.0,0.0,0.0
1739489013,8,1491.0,1412.0,1471.0,1418.0,1500.0,1453.0,1520.0,1446.0,0.0,0.0,0.0,0.0,0.0,0.0,0.0,0.0
1739529024,8,1489.0,1415.0,1472.0,1421.0,1498.0,1451.0,1514.0,1445.0,0.0,0.0,0.0,0.0,0.0,0.0,0.0,0.0
1739573122,8,1486.0,1420.0,1470.0,1424.0,1493.0,1451.0,1508.0,1447.0,0.0,0.0,0.0,0.0,0.0,0.0,0.0,0.0
1739617801,8,1492.0,1420.0,1471.0,1421.0,1493.0,1451.0,1513.0,1450.0,0.0,0.0,0.0,0.0,0.0,0.0,0.0,0.0
1739657820,8,1490.0,1421.0,1467.0,1421.0,1490.0,1454.0,1513.0,1453.0,0.0,0.0,0.0,0.0,0.0,0.0,0.0,0.0
1739701835,8,1489.0,1424.0,1464.0,1421.0,1485.0,1453.0,1510.0,1457.0,0.0,0.0,0.0,0.0,0.0,0.0,0.0,0.0
1739741860,8,1491.0,1424.0,1467.0,1421.0,1487.0,1453.0,1512.0,1456.0,0.0,0.0,0.0,0.0,0.0,0.0,0.0,0.0
1739785756,8,1488.0,1422.0,1459.0,1421.0,1486.0,1461.0,1515.0,1462.0,0.0,0.0,0.0,0.0,0.0,0.0,0.0,0.0
1739825806,8,1481.0,1423.0,1453.0,1424.0,1483.0,1465.0,1511.0,1464.0,0.0,0.0,0.0,0.0,0.0,0.0,0.0,0.0
1739870593,8,1488.0,1421.0,1456.0,1418.0,1484.0,1460.0,1515.0,1463.0,0.0,0.0,0.0,0.0,0.0,0.0,0.0,0.0
1739914604,8,1481.0,1420.0,1449.0,1417.0,1478.0,1461.0,1511.0,1463.0,0.0,0.0,0.0,0.0,0.0,0.0,0.0,0.0
1739958611,8,1481.0,1417.0,1448.0,1420.0,1485.0,1469.0,1517.0,1466.0,0.0,0.0,0.0,0.0,0.0,0.0,0.0,0.0
1740002620,8,1482.0,1419.0,1453.0,1423.0,1488.0,1468.0,1517.0,1464.0,0.0,0.0,0.0,0.0,0.0,0.0,0.0,0.0
1740042641,8,1479.0,1421.0,1450.0,1422.0,1481.0,1465.0,1510.0,1464.0,0.0,0.0,0.0,0.0,0.0,0.0,0.0,0.0
1740086619,8,1475.0,1416.0,1444.0,1420.0,1482.0,1470.0,1514.0,1465.0,0.0,0.0,0.0,0.0,0.0,0.0,0.0,0.0
1740126613,8,1475.0,1418.0,1445.0,1422.0,1479.0,1467.0,1509.0,1464.0,0.0,0.0,0.0,0.0,0.0,0.0,0.0,0.0
1740171462,8,1480.0,1418.0,1454.0,1423.0,1487.0,1465.0,1513.0,1460.0,0.0,0.0,0.0,0.0,0.0,0.0,0.0,0.0
1740211478,8,1482.0,1419.0,1456.0,1422.0,1487.0,1463.0,1513.0,1459.0,0.0,0.0,0.0,0.0,0.0,0.0,0.0,0.0
1740255422,8,1480.0,1426.0,1460.0,1431.0,1487.0,1464.0,1506.0,1459.0,0.0,0.0,0.0,0.0,0.0,0.0,0.0,0.0
1740299462,8,1480.0,1418.0,1456.0,1424.0,1490.0,1465.0,1514.0,1458.0,0.0,0.0,0.0,0.0,0.0,0.0,0.0,0.0
1740343366,8,1487.0,1422.0,1466.0,1424.0,1490.0,1456.0,1511.0,1454.0,0.0,0.0,0.0,0.0,0.0,0.0,0.0,0.0
1740383433,8,1484.0,1421.0,1463.0,1427.0,1493.0,1463.0,1514.0,1457.0,0.0,0.0,0.0,0.0,0.0,0.0,0.0,0.0
1740427462,8,1487.0,1427.0,1467.0,1429.0,1489.0,1460.0,1510.0,1458.0,0.0,0.0,0.0,0.0,0.0,0.0,0.0,0.0
1740468249,8,1483.0,1428.0,1467.0,1432.0,1489.0,1459.0,1505.0,1455.0,0.0,0.0,0.0,0.0,0.0,0.0,0.0,0.0
1740508297,8,1491.0,1424.0,1474.0,1426.0,1495.0,1454.0,1513.0,1452.0,0.0,0.0,0.0,0.0,0.0,0.0,0.0,0.0
1740552175,8,1484.0,1423.0,1462.0,1428.0,1491.0,1464.0,1513.0,1460.0,0.0,0.0,0.0,0.0,0.0,0.0,0.0,0.0
1740592205,8,1481.0,1420.0,1461.0,1429.0,1492.0,1464.0,1512.0,1456.0,0.0,0.0,0.0,0.0,0.0,0.0,0.0,0.0
1740636218,8,1484.0,1413.0,1461.0,1421.0,1495.0,1461.0,1518.0,1453.0,0.0,0.0,0.0,0.0,0.0,0.0,0.0,0.0
1740676231,8,1486.0,1411.0,1464.0,1423.0,1501.0,1464.0,1523.0,1452.0,0.0,0.0,0.0,0.0,0.0,0.0,0.0,0.0
1740720174,8,1486.0,1419.0,1471.0,1429.0,1499.0,1460.0,1515.0,1450.0,0.0,0.0,0.0,0.0,0.0,0.0,0.0,0.0
1740760976,8,1482.0,1418.0,1466.0,1429.0,1497.0,1463.0,1514.0,1452.0,0.0,0.0,0.0,0.0,0.0,0.0,0.0,0.0
1740805018,8,1477.0,1415.0,1458.0,1427.0,1494.0,1467.0,1514.0,1455.0,0.0,0.0,0.0,0.0,0.0,0.0,0.0,0.0
1740845032,8,1480.0,1417.0,1461.0,1428.0,1496.0,1466.0,1515.0,1455.0,0.0,0.0,0.0,0.0,0.0,0.0,0.0,0.0
1740888981,8,1482.0,1415.0,1460.0,1421.0,1490.0,1458.0,1512.0,1452.0,0.0,0.0,0.0,0.0,0.0,0.0,0.0,0.0
1741823436,8,1469.0,1410.0,1447.0,1423.0,1488.0,1468.0,1510.0,1454.0,0.0,0.0,0.0,0.0,0.0,0.0,0.0,0.0
1741864218,8,1468.0,1410.0,1447.0,1427.0,1492.0,1473.0,1513.0,1457.0,0.0,0.0,0.0,0.0,0.0,0.0,0.0,0.0
1741904193,8,1464.0,1407.0,1443.0,1425.0,1489.0,1472.0,1510.0,1454.0,0.0,0.0,0.0,0.0,0.0,0.0,0.0,0.0
1742786595,8,1474.0,1412.0,1466.0,1432.0,1503.0,1464.0,1511.0,1444.0,0.0,0.0,0.0,0.0,0.0,0.0,0.0,0.0
1742830635,8,1471.0,1408.0,1463.0,1433.0,1506.0,1469.0,1514.0,1444.0,0.0,0.0,0.0,0.0,0.0,0.0,0.0,0.0
1742870628,8,1473.0,1411.0,1463.0,1434.0,1505.0,1470.0,1514.0,1447.0,0.0,0.0,0.0,0.0,0.0,0.0,0.0,0.0
1742914590,8,1473.0,1414.0,1465.0,1436.0,1504.0,1470.0,1513.0,1448.0,0.0,0.0,0.0,0.0,0.0,0.0,0.0,0.0
1742955378,8,1470.0,1416.0,1463.0,1437.0,1501.0,1468.0,1507.0,1446.0,0.0,0.0,0.0,0.0,0.0,0.0,0.0,0.0
1742999398,8,1476.0,1411.0,1467.0,1433.0,1507.0,1467.0,1515.0,1445.0,0.0,0.0,0.0,0.0,0.0,0.0,0.0,0.0
1743039439,8,1474.0,1411.0,1465.0,1434.0,1506.0,1469.0,1515.0,1447.0,0.0,0.0,0.0,0.0,0.0,0.0,0.0,0.0
1743083389,8,1470.0,1417.0,1460.0,1437.0,1499.0,1471.0,1508.0,1450.0,0.0,0.0,0.0,0.0,0.0,0.0,0.0,0.0
1743123393,8,1473.0,1416.0,1462.0,1435.0,1499.0,1469.0,1510.0,1450.0,0.0,0.0,0.0,0.0,0.0,0.0,0.0,0.0
1743167436,8,1473.0,1414.0,1462.0,1433.0,1499.0,1467.0,1510.0,1448.0,0.0,0.0,0.0,0.0,0.0,0.0,0.0,0.0
1743207419,8,1476.0,1418.0,1469.0,1437.0,1502.0,1466.0,1510.0,1447.0,0.0,0.0,0.0,0.0,0.0,0.0,0.0,0.0
1743251387,8,1471.0,1411.0,1457.0,1432.0,1501.0,1473.0,1515.0,1453.0,0.0,0.0,0.0,0.0,0.0,0.0,0.0,0.0
1743292260,8,1472.0,1417.0,1460.0,1434.0,1495.0,1467.0,1507.0,1450.0,0.0,0.0,0.0,0.0,0.0,0.0,0.0,0.0
1743332167,8,1471.0,1415.0,1456.0,1433.0,1496.0,1472.0,1511.0,1454.0,0.0,0.0,0.0,0.0,0.0,0.0,0.0,0.0
1743376254,8,1473.0,1411.0,1460.0,1431.0,1502.0,1469.0,1514.0,1449.0,0.0,0.0,0.0,0.0,0.0,0.0,0.0,0.0
1743416240,8,1475.0,1413.0,1461.0,1431.0,1501.0,1468.0,1514.0,1450.0,0.0,0.0,0.0,0.0,0.0,0.0,0.0,0.0
1743456218,8,1475.0,1410.0,1461.0,1430.0,1502.0,1469.0,1517.0,1450.0,0.0,0.0,0.0,0.0,0.0,0.0,0.0,0.0
1743500167,8,1476.0,1416.0,1464.0,1434.0,1502.0,1470.0,1514.0,1452.0,0.0,0.0,0.0,0.0,0.0,0.0,0.0,0.0
1743540180,8,1471.0,1414.0,1454.0,1431.0,1495.0,1473.0,1513.0,1455.0,0.0,0.0,0.0,0.0,0.0,0.0,0.0,0.0
1743581002,8,1474.0,1412.0,1458.0,1429.0,1497.0,1468.0,1513.0,1451.0,0.0,0.0,0.0,0.0,0.0,0.0,0.0,0.0
1743620984,8,1477.0,1415.0,1461.0,1430.0,1498.0,1467.0,1514.0,1452.0,0.0,0.0,0.0,0.0,0.0,0.0,0.0,0.0
1743665032,8,1483.0,1413.0,1465.0,1427.0,1503.0,1467.0,1522.0,1453.0,0.0,0.0,0.0,0.0,0.0,0.0,0.0,0.0
1743705012,8,1482.0,1411.0,1461.0,1424.0,1500.0,1466.0,1521.0,1453.0,0.0,0.0,0.0,0.0,0.0,0.0,0.0,0.0
1743748984,8,1484.0,1421.0,1467.0,1430.0,1498.0,1464.0,1514.0,1454.0,0.0,0.0,0.0,0.0,0.0,0.0,0.0,0.0
1743788981,8,1482.0,1414.0,1461.0,1424.0,1495.0,1463.0,1516.0,1453.0,0.0,0.0,0.0,0.0,0.0,0.0,0.0,0.0
1743833117,8,1485.0,1418.0,1468.0,1429.0,1499.0,1463.0,1517.0,1453.0,0.0,0.0,0.0,0.0,0.0,0.0,0.0,0.0
1743873842,8,1486.0,1418.0,1472.0,1430.0,1503.0,1462.0,1517.0,1450.0,0.0,0.0,0.0,0.0,0.0,0.0,0.0,0.0
1743913835,8,1483.0,1414.0,1464.0,1425.0,1500.0,1464.0,1519.0,1452.0,0.0,0.0,0.0,0.0,0.0,0.0,0.0,0.0
1743957801,8,1485.0,1422.0,1467.0,1428.0,1495.0,1460.0,1512.0,1453.0,0.0,0.0,0.0,0.0,0.0,0.0,0.0,0.0
1743997832,8,1489.0,1421.0,1474.0,1429.0,1500.0,1458.0,1515.0,1451.0,0.0,0.0,0.0,0.0,0.0,0.0,0.0,0.0
1744041852,8,1483.0,1417.0,1461.0,1425.0,1495.0,1465.0,1517.0,1456.0,0.0,0.0,0.0,0.0,0.0,0.0,0.0,0.0
1744081862,8,1485.0,1415.0,1468.0,1425.0,1500.0,1461.0,1518.0,1450.0,0.0,0.0,0.0,0.0,0.0,0.0,0.0,0.0
1744125816,8,1487.0,1417.0,1473.0,1426.0,1499.0,1455.0,1514.0,1446.0,0.0,0.0,0.0,0.0,0.0,0.0,0.0,0.0
1744166686,8,1484.0,1413.0,1467.0,1424.0,1499.0,1458.0,1516.0,1447.0,0.0,0.0,0.0,0.0,0.0,0.0,0.0,0.0
1744210653,8,1482.0,1414.0,1466.0,1426.0,1499.0,1461.0,1515.0,1449.0,0.0,0.0,0.0,0.0,0.0,0.0,0.0,0.0
1744250648,8,1483.0,1413.0,1468.0,1425.0,1499.0,1458.0,1514.0,1446.0,0.0,0.0,0.0,0.0,0.0,0.0,0.0,0.0
1744290657,8,1482.0,1412.0,1465.0,1425.0,1500.0,1461.0,1517.0,1448.0,0.0,0.0,0.0,0.0,0.0,0.0,0.0,0.0
1744330664,8,1481.0,1416.0,1465.0,1429.0,1499.0,1464.0,1515.0,1451.0,0.0,0.0,0.0,0.0,0.0,0.0,0.0,0.0
1744374604,8,1483.0,1410.0,1468.0,1425.0,1504.0,1462.0,1520.0,1447.0,0.0,0.0,0.0,0.0,0.0,0.0,0.0,0.0
1744414634,8,1483.0,1410.0,1468.0,1426.0,1505.0,1462.0,1520.0,1447.0,0.0,0.0,0.0,0.0,0.0,0.0,0.0,0.0
1744459441,8,1482.0,1420.0,1474.0,1436.0,1505.0,1464.0,1513.0,1448.0,0.0,0.0,0.0,0.0,0.0,0.0,0.0,0.0
1744503403,8,1480.0,1419.0,1470.0,1435.0,1504.0,1467.0,1515.0,1451.0,0.0,0.0,0.0,0.0,0.0,0.0,0.0,0.0
1744543449,8,1482.0,1420.0,1473.0,1436.0,1505.0,1465.0,1514.0,1449.0,0.0,0.0,0.0,0.0,0.0,0.0,0.0,0.0
1744587439,8,1478.0,1423.0,1469.0,1437.0,1497.0,1464.0,1506.0,1450.0,0.0,0.0,0.0,0.0,0.0,0.0,0.0,0.0
1744627489,8,1480.0,1425.0,1472.0,1438.0,1499.0,1464.0,1508.0,1451.0,0.0,0.0,0.0,0.0,0.0,0.0,0.0,0.0
1744671389,8,1478.0,1418.0,1466.0,1434.0,1501.0,1466.0,1512.0,1450.0,0.0,0.0,0.0,0.0,0.0,0.0,0.0,0.0
1744711453,8,1476.0,1425.0,1465.0,1438.0,1495.0,1467.0,1506.0,1454.0,0.0,0.0,0.0,0.0,0.0,0.0,0.0,0.0
1744756185,8,1475.0,1419.0,1464.0,1437.0,1500.0,1471.0,1512.0,1453.0,0.0,0.0,0.0,0.0,0.0,0.0,0.0,0.0
1744796245,8,1477.0,1425.0,1467.0,1442.0,1501.0,1472.0,1510.0,1455.0,0.0,0.0,0.0,0.0,0.0,0.0,0.0,0.0
1744840222,8,1475.0,1427.0,1469.0,1444.0,1500.0,1470.0,1506.0,1453.0,0.0,0.0,0.0,0.0,0.0,0.0,0.0,0.0
1744880209,8,1476.0,1426.0,1471.0,1445.0,1503.0,1471.0,1507.0,1452.0,0.0,0.0,0.0,0.0,0.0,0.0,0.0,0.0
1744924218,8,1474.0,1426.0,1467.0,1445.0,1501.0,1474.0,1508.0,1455.0,0.0,0.0,0.0,0.0,0.0,0.0,0.0,0.0
1744964215,8,1472.0,1428.0,1468.0,1447.0,1500.0,1473.0,1504.0,1453.0,0.0,0.0,0.0,0.0,0.0,0.0,0.0,0.0
1745004982,8,1474.0,1423.0,1468.0,1444.0,1503.0,1473.0,1509.0,1452.0,0.0,0.0,0.0,0.0,0.0,0.0,0.0,0.0
1745044993,8,1475.0,1426.0,1466.0,1442.0,1499.0,1473.0,1509.0,1456.0,0.0,0.0,0.0,0.0,0.0,0.0,0.0,0.0
1745088986,8,1474.0,1428.0,1465.0,1444.0,1497.0,1473.0,1506.0,1457.0,0.0,0.0,0.0,0.0,0.0,0.0,0.0,0.0
1745128973,8,1478.0,1432.0,1469.0,1446.0,1498.0,1472.0,1506.0,1458.0,0.0,0.0,0.0,0.0,0.0,0.0,0.0,0.0
1745173066,8,1477.0,1427.0,1463.0,1441.0,1497.0,1474.0,1510.0,1460.0,0.0,0.0,0.0,0.0,0.0,0.0,0.0,0.0
1745213075,8,1476.0,1428.0,1465.0,1442.0,1495.0,1471.0,1506.0,1457.0,0.0,0.0,0.0,0.0,0.0,0.0,0.0,0.0
1745253091,8,1480.0,1431.0,1470.0,1444.0,1498.0,1472.0,1509.0,1459.0,0.0,0.0,0.0,0.0,0.0,0.0,0.0,0.0
1745296967,8,1479.0,1427.0,1463.0,1439.0,1496.0,1473.0,1511.0,1461.0,0.0,0.0,0.0,0.0,0.0,0.0,0.0,0.0
1745337787,8,1479.0,1424.0,1463.0,1435.0,1494.0,1469.0,1510.0,1458.0,0.0,0.0,0.0,0.0,0.0,0.0,0.0,0.0
1745377782,8,1479.0,1425.0,1463.0,1436.0,1494.0,1471.0,1511.0,1460.0,0.0,0.0,0.0,0.0,0.0,0.0,0.0,0.0
1745421829,8,1482.0,1424.0,1463.0,1432.0,1494.0,1467.0,1513.0,1459.0,0.0,0.0,0.0,0.0,0.0,0.0,0.0,0.0
1745465781,8,1483.0,1429.0,1469.0,1435.0,1492.0,1462.0,1506.0,1456.0,0.0,0.0,0.0,0.0,0.0,0.0,0.0,0.0
1745505793,8,1486.0,1429.0,1473.0,1436.0,1495.0,1460.0,1508.0,1453.0,0.0,0.0,0.0,0.0,0.0,0.0,0.0,0.0
1745549838,8,1483.0,1430.0,1470.0,1436.0,1491.0,1461.0,1505.0,1455.0,0.0,0.0,0.0,0.0,0.0,0.0,0.0,0.0
1745590596,8,1488.0,1430.0,1476.0,1435.0,1495.0,1458.0,1508.0,1452.0,0.0,0.0,0.0,0.0,0.0,0.0,0.0,0.0
1745634645,8,1482.0,1425.0,1469.0,1435.0,1496.0,1464.0,1509.0,1453.0,0.0,0.0,0.0,0.0,0.0,0.0,0.0,0.0
1745674644,8,1486.0,1425.0,1471.0,1433.0,1496.0,1461.0,1511.0,1453.0,0.0,0.0,0.0,0.0,0.0,0.0,0.0,0.0
1745718653,8,1486.0,1423.0,1470.0,1432.0,1497.0,1463.0,1514.0,1454.0,0.0,0.0,0.0,0.0,0.0,0.0,0.0,0.0
1745758669,8,1489.0,1428.0,1475.0,1434.0,1498.0,1460.0,1511.0,1453.0,0.0,0.0,0.0,0.0,0.0,0.0,0.0,0.0
1745802674,8,1491.0,1430.0,1480.0,1436.0,1499.0,1458.0,1511.0,1452.0,0.0,0.0,0.0,0.0,0.0,0.0,0.0,0.0
1745842683,8,1494.0,1432.0,1481.0,1435.0,1500.0,1458.0,1513.0,1454.0,0.0,0.0,0.0,0.0,0.0,0.0,0.0,0.0
1745886649,8,1494.0,1431.0,1479.0,1434.0,1498.0,1457.0,1512.0,1455.0,0.0,0.0,0.0,0.0,0.0,0.0,0.0,0.0
1745927461,8,1494.0,1430.0,1478.0,1433.0,1499.0,1459.0,1515.0,1455.0,0.0,0.0,0.0,0.0,0.0,0.0,0.0,0.0
1745971490,8,1494.0,1429.0,1478.0,1432.0,1498.0,1458.0,1515.0,1456.0,0.0,0.0,0.0,0.0,0.0,0.0,0.0,0.0
1746011482,8,1494.0,1429.0,1479.0,1434.0,1501.0,1459.0,1515.0,1454.0,0.0,0.0,0.0,0.0,0.0,0.0,0.0,0.0
1746051471,8,1493.0,1427.0,1483.0,1436.0,1506.0,1460.0,1516.0,1451.0,0.0,0.0,0.0,0.0,0.0,0.0,0.0,0.0
1746095435,8,1494.0,1430.0,1483.0,1438.0,1505.0,1460.0,1515.0,1452.0,0.0,0.0,0.0,0.0,0.0,0.0,0.0,0.0
1746139479,8,1491.0,1425.0,1477.0,1434.0,1504.0,1463.0,1518.0,1454.0,0.0,0.0,0.0,0.0,0.0,0.0,0.0,0.0
1746180216,8,1490.0,1425.0,1475.0,1434.0,1502.0,1464.0,1518.0,1456.0,0.0,0.0,0.0,0.0,0.0,0.0,0.0,0.0
1746220222,8,1489.0,1426.0,1475.0,1436.0,1503.0,1465.0,1517.0,1455.0,0.0,0.0,0.0,0.0,0.0,0.0,0.0,0.0
1746264390,8,1486.0,1420.0,1473.0,1435.0,1506.0,1467.0,1519.0,1452.0,0.0,0.0,0.0,0.0,0.0,0.0,0.0,0.0
1746304238,8,1484.0,1421.0,1472.0,1436.0,1506.0,1469.0,1518.0,1453.0,0.0,0.0,0.0,0.0,0.0,0.0,0.0,0.0
1746348252,8,1484.0,1421.0,1476.0,1439.0,1510.0,1468.0,1517.0,1450.0,0.0,0.0,0.0,0.0,0.0,0.0,0.0,0.0
1746388311,8,1487.0,1427.0,1480.0,1443.0,1510.0,1469.0,1517.0,1452.0,0.0,0.0,0.0,0.0,0.0,0.0,0.0,0.0
1746433042,8,1485.0,1427.0,1476.0,1441.0,1505.0,1467.0,1513.0,1453.0,0.0,0.0,0.0,0.0,0.0,0.0,0.0,0.0
1746473049,8,1488.0,1429.0,1478.0,1438.0,1502.0,1462.0,1512.0,1453.0,0.0,0.0,0.0,0.0,0.0,0.0,0.0,0.0
1746517023,8,1483.0,1426.0,1471.0,1437.0,1499.0,1465.0,1511.0,1454.0,0.0,0.0,0.0,0.0,0.0,0.0,0.0,0.0
1746557021,8,1484.0,1433.0,1475.0,1442.0,1497.0,1464.0,1506.0,1455.0,0.0,0.0,0.0,0.0,0.0,0.0,0.0,0.0
1746600991,8,1483.0,1430.0,1472.0,1439.0,1496.0,1464.0,1507.0,1455.0,0.0,0.0,0.0,0.0,0.0,0.0,0.0,0.0
1746645033,8,1485.0,1429.0,1476.0,1440.0,1501.0,1464.0,1509.0,1453.0,0.0,0.0,0.0,0.0,0.0,0.0,0.0,0.0
1746688994,8,1487.0,1435.0,1480.0,1444.0,1500.0,1463.0,1508.0,1454.0,0.0,0.0,0.0,0.0,0.0,0.0,0.0,0.0
1746729782,8,1486.0,1431.0,1476.0,1442.0,1501.0,1466.0,1511.0,1456.0,0.0,0.0,0.0,0.0,0.0,0.0,0.0,0.0
1746769807,8,1483.0,1428.0,1469.0,1440.0,1501.0,1474.0,1516.0,1461.0,0.0,0.0,0.0,0.0,0.0,0.0,0.0,0.0
1746813811,8,1486.0,1432.0,1475.0,1444.0,1503.0,1472.0,1515.0,1460.0,0.0,0.0,0.0,0.0,0.0,0.0,0.0,0.0
1746853834,8,1488.0,1431.0,1476.0,1442.0,1503.0,1470.0,1515.0,1459.0,0.0,0.0,0.0,0.0,0.0,0.0,0.0,0.0
1746897811,8,1490.0,1437.0,1478.0,1445.0,1501.0,1469.0,1513.0,1461.0,0.0,0.0,0.0,0.0,0.0,0.0,0.0,0.0
1746937818,8,1490.0,1437.0,1479.0,1445.0,1501.0,1469.0,1512.0,1460.0,0.0,0.0,0.0,0.0,0.0,0.0,0.0,0.0
1746981870,8,1491.0,1433.0,1475.0,1439.0,1501.0,1468.0,1517.0,1462.0,0.0,0.0,0.0,0.0,0.0,0.0,0.0,0.0
1747021876,8,1494.0,1433.0,1477.0,1438.0,1502.0,1467.0,1518.0,1462.0,0.0,0.0,0.0,0.0,0.0,0.0,0.0,0.0
1747066639,8,1490.0,1429.0,1473.0,1435.0,1500.0,1467.0,1518.0,1461.0,0.0,0.0,0.0,0.0,0.0,0.0,0.0,0.0
1747106613,8,1495.0,1430.0,1477.0,1436.0,1504.0,1467.0,1522.0,1461.0,0.0,0.0,0.0,0.0,0.0,0.0,0.0,0.0
1747150661,8,1490.0,1426.0,1471.0,1436.0,1504.0,1472.0,1523.0,1463.0,0.0,0.0,0.0,0.0,0.0,0.0,0.0,0.0
1747190685,8,1492.0,1426.0,1473.0,1434.0,1503.0,1468.0,1522.0,1460.0,0.0,0.0,0.0,0.0,0.0,0.0,0.0,0.0
1747234633,8,1490.0,1417.0,1468.0,1428.0,1506.0,1472.0,1529.0,1460.0,0.0,0.0,0.0,0.0,0.0,0.0,0.0,0.0
1747274642,8,1486.0,1419.0,1464.0,1432.0,1504.0,1476.0,1526.0,1463.0,0.0,0.0,0.0,0.0,0.0,0.0,0.0,0.0
1747315382,8,1487.0,1419.0,1467.0,1432.0,1506.0,1474.0,1526.0,1460.0,0.0,0.0,0.0,0.0,0.0,0.0,0.0,0.0
1747355399,8,1487.0,1420.0,1469.0,1434.0,1506.0,1473.0,1524.0,1459.0,0.0,0.0,0.0,0.0,0.0,0.0,0.0,0.0
1747399466,8,1488.0,1424.0,1472.0,1437.0,1505.0,1471.0,1521.0,1459.0,0.0,0.0,0.0,0.0,0.0,0.0,0.0,0.0
1747443370,8,1490.0,1426.0,1472.0,1434.0,1501.0,1467.0,1518.0,1459.0,0.0,0.0,0.0,0.0,0.0,0.0,0.0,0.0
1747483444,8,1488.0,1424.0,1467.0,1430.0,1497.0,1466.0,1518.0,1460.0,0.0,0.0,0.0,0.0,0.0,0.0,0.0,0.0
1747527406,8,1486.0,1422.0,1463.0,1428.0,1495.0,1467.0,1518.0,1461.0,0.0,0.0,0.0,0.0,0.0,0.0,0.0,0.0
1747567452,8,1487.0,1427.0,1469.0,1434.0,1497.0,1466.0,1515.0,1459.0,0.0,0.0,0.0,0.0,0.0,0.0,0.0,0.0
1747612200,8,1485.0,1422.0,1465.0,1431.0,1498.0,1468.0,1518.0,1459.0,0.0,0.0,0.0,0.0,0.0,0.0,0.0,0.0
1747652185,8,1484.0,1422.0,1465.0,1432.0,1499.0,1469.0,1517.0,1459.0,0.0,0.0,0.0,0.0,0.0,0.0,0.0,0.0
1747696235,8,1488.0,1421.0,1471.0,1431.0,1502.0,1466.0,1520.0,1456.0,0.0,0.0,0.0,0.0,0.0,0.0,0.0,0.0
1747736207,8,1487.0,1422.0,1467.0,1432.0,1501.0,1469.0,1521.0,1460.0,0.0,0.0,0.0,0.0,0.0,0.0,0.0,0.0
1747780198,8,1491.0,1430.0,1473.0,1437.0,1500.0,1468.0,1518.0,1461.0,0.0,0.0,0.0,0.0,0.0,0.0,0.0,0.0
1747820979,8,1490.0,1430.0,1473.0,1437.0,1500.0,1468.0,1517.0,1461.0,0.0,0.0,0.0,0.0,0.0,0.0,0.0,0.0
1747865018,8,1490.0,1429.0,1470.0,1435.0,1498.0,1469.0,1519.0,1464.0,0.0,0.0,0.0,0.0,0.0,0.0,0.0,0.0
1747904993,8,1491.0,1431.0,1472.0,1436.0,1498.0,1469.0,1517.0,1463.0,0.0,0.0,0.0,0.0,0.0,0.0,0.0,0.0
1747948959,8,1491.0,1427.0,1471.0,1433.0,1499.0,1467.0,1520.0,1462.0,0.0,0.0,0.0,0.0,0.0,0.0,0.0,0.0
1747988954,8,1491.0,1426.0,1469.0,1433.0,1500.0,1469.0,1521.0,1463.0,0.0,0.0,0.0,0.0,0.0,0.0,0.0,0.0
1748033046,8,1493.0,1428.0,1472.0,1432.0,1499.0,1465.0,1520.0,1461.0,0.0,0.0,0.0,0.0,0.0,0.0,0.0,0.0
1748073064,8,1494.0,1428.0,1474.0,1434.0,1502.0,1468.0,1523.0,1463.0,0.0,0.0,0.0,0.0,0.0,0.0,0.0,0.0
1748113849,8,1490.0,1432.0,1469.0,1436.0,1495.0,1468.0,1515.0,1465.0,0.0,0.0,0.0,0.0,0.0,0.0,0.0,0.0
1748157884,8,1491.0,1424.0,1467.0,1428.0,1496.0,1466.0,1521.0,1463.0,0.0,0.0,0.0,0.0,0.0,0.0,0.0,0.0
1748197858,8,1490.0,1427.0,1464.0,1431.0,1495.0,1470.0,1521.0,1467.0,0.0,0.0,0.0,0.0,0.0,0.0,0.0,0.0
1748241851,8,1491.0,1425.0,1469.0,1430.0,1498.0,1466.0,1520.0,1461.0,0.0,0.0,0.0,0.0,0.0,0.0,0.0,0.0
1748281834,8,1491.0,1423.0,1467.0,1428.0,1498.0,1467.0,1522.0,1461.0,0.0,0.0,0.0,0.0,0.0,0.0,0.0,0.0
1748325796,8,1494.0,1428.0,1475.0,1434.0,1502.0,1467.0,1521.0,1461.0,0.0,0.0,0.0,0.0,0.0,0.0,0.0,0.0
1748366647,8,1488.0,1425.0,1471.0,1435.0,1502.0,1469.0,1519.0,1459.0,0.0,0.0,0.0,0.0,0.0,0.0,0.0,0.0
1748410650,8,1491.0,1431.0,1477.0,1436.0,1499.0,1463.0,1514.0,1457.0,0.0,0.0,0.0,0.0,0.0,0.0,0.0,0.0
1748454627,8,1492.0,1434.0,1477.0,1438.0,1498.0,1463.0,1513.0,1459.0,0.0,0.0,0.0,0.0,0.0,0.0,0.0,0.0
1748498558,8,1492.0,1429.0,1471.0,1433.0,1497.0,1465.0,1517.0,1461.0,0.0,0.0,0.0,0.0,0.0,0.0,0.0,0.0
1748538577,8,1491.0,1432.0,1473.0,1437.0,1498.0,1467.0,1516.0,1462.0,0.0,0.0,0.0,0.0,0.0,0.0,0.0,0.0
1748578591,8,1492.0,1431.0,1473.0,1435.0,1498.0,1466.0,1517.0,1462.0,0.0,0.0,0.0,0.0,0.0,0.0,0.0,0.0
1748618642,8,1492.0,1431.0,1475.0,1437.0,1500.0,1466.0,1516.0,1460.0,0.0,0.0,0.0,0.0,0.0,0.0,0.0,0.0
1748658672,8,1492.0,1429.0,1477.0,1437.0,1504.0,1466.0,1518.0,1458.0,0.0,0.0,0.0,0.0,0.0,0.0,0.0,0.0
1748702675,8,1491.0,1428.0,1473.0,1433.0,1499.0,1464.0,1517.0,1458.0,0.0,0.0,0.0,0.0,0.0,0.0,0.0,0.0
1748746647,8,1492.0,1427.0,1476.0,1432.0,1499.0,1460.0,1516.0,1455.0,0.0,0.0,0.0,0.0,0.0,0.0,0.0,0.0
1748787434,8,1495.0,1429.0,1481.0,1435.0,1503.0,1460.0,1517.0,1454.0,0.0,0.0,0.0,0.0,0.0,0.0,0.0,0.0
1748827486,8,1492.0,1429.0,1478.0,1434.0,1499.0,1459.0,1513.0,1454.0,0.0,0.0,0.0,0.0,0.0,0.0,0.0,0.0
1748871412,8,1496.0,1428.0,1480.0,1432.0,1501.0,1457.0,1517.0,1454.0,0.0,0.0,0.0,0.0,0.0,0.0,0.0,0.0
1748911473,8,1496.0,1427.0,1478.0,1430.0,1500.0,1458.0,1518.0,1455.0,0.0,0.0,0.0,0.0,0.0,0.0,0.0,0.0
1748955436,8,1496.0,1431.0,1480.0,1435.0,1501.0,1460.0,1516.0,1456.0,0.0,0.0,0.0,0.0,0.0,0.0,0.0,0.0
1748996192,8,1496.0,1424.0,1481.0,1432.0,1507.0,1461.0,1522.0,1453.0,0.0,0.0,0.0,0.0,0.0,0.0,0.0,0.0
1749040236,8,1497.0,1432.0,1488.0,1439.0,1508.0,1460.0,1517.0,1453.0,0.0,0.0,0.0,0.0,0.0,0.0,0.0,0.0
1749080195,8,1501.0,1429.0,1489.0,1437.0,1511.0,1460.0,1522.0,1453.0,0.0,0.0,0.0,0.0,0.0,0.0,0.0,0.0
1749124169,8,1497.0,1431.0,1481.0,1436.0,1505.0,1464.0,1521.0,1459.0,0.0,0.0,0.0,0.0,0.0,0.0,0.0,0.0
1749164200,8,1500.0,1428.0,1482.0,1433.0,1506.0,1462.0,1524.0,1457.0,0.0,0.0,0.0,0.0,0.0,0.0,0.0,0.0
1749208236,8,1498.0,1425.0,1477.0,1430.0,1505.0,1465.0,1526.0,1460.0,0.0,0.0,0.0,0.0,0.0,0.0,0.0,0.0
1749248252,8,1500.0,1430.0,1484.0,1435.0,1507.0,1462.0,1522.0,1457.0,0.0,0.0,0.0,0.0,0.0,0.0,0.0,0.0
1749293075,8,1495.0,1423.0,1480.0,1432.0,1509.0,1464.0,1525.0,1454.0,0.0,0.0,0.0,0.0,0.0,0.0,0.0,0.0
1749333024,8,1498.0,1426.0,1483.0,1434.0,1509.0,1463.0,1524.0,1455.0,0.0,0.0,0.0,0.0,0.0,0.0,0.0,0.0
1749377022,8,1497.0,1422.0,1485.0,1433.0,1513.0,1462.0,1525.0,1450.0,0.0,0.0,0.0,0.0,0.0,0.0,0.0,0.0
1749421029,8,1498.0,1428.0,1488.0,1437.0,1510.0,1459.0,1520.0,1451.0,0.0,0.0,0.0,0.0,0.0,0.0,0.0,0.0
1749461037,8,1497.0,1425.0,1486.0,1435.0,1512.0,1461.0,1523.0,1451.0,0.0,0.0,0.0,0.0,0.0,0.0,0.0,0.0
1749505064,8,1492.0,1417.0,1475.0,1428.0,1508.0,1464.0,1525.0,1452.0,0.0,0.0,0.0,0.0,0.0,0.0,0.0,0.0
1749545858,8,1493.0,1419.0,1476.0,1429.0,1508.0,1464.0,1525.0,1454.0,0.0,0.0,0.0,0.0,0.0,0.0,0.0,0.0
1749589815,8,1493.0,1416.0,1479.0,1431.0,1514.0,1466.0,1528.0,1451.0,0.0,0.0,0.0,0.0,0.0,0.0,0.0,0.0
1749629820,8,1493.0,1418.0,1478.0,1433.0,1513.0,1467.0,1527.0,1453.0,0.0,0.0,0.0,0.0,0.0,0.0,0.0,0.0
1749673837,8,1497.0,1429.0,1485.0,1439.0,1511.0,1466.0,1523.0,1456.0,0.0,0.0,0.0,0.0,0.0,0.0,0.0,0.0
1749713819,8,1494.0,1428.0,1480.0,1439.0,1509.0,1469.0,1523.0,1459.0,0.0,0.0,0.0,0.0,0.0,0.0,0.0,0.0
1749757789,8,1493.0,1430.0,1477.0,1438.0,1504.0,1469.0,1521.0,1461.0,0.0,0.0,0.0,0.0,0.0,0.0,0.0,0.0
1749797791,8,1491.0,1432.0,1477.0,1440.0,1503.0,1469.0,1517.0,1461.0,0.0,0.0,0.0,0.0,0.0,0.0,0.0,0.0
1749838634,8,1489.0,1431.0,1476.0,1442.0,1506.0,1473.0,1519.0,1461.0,0.0,0.0,0.0,0.0,0.0,0.0,0.0,0.0
1749882612,8,1484.0,1428.0,1469.0,1440.0,1502.0,1475.0,1517.0,1462.0,0.0,0.0,0.0,0.0,0.0,0.0,0.0,0.0
1749926603,8,1485.0,1428.0,1467.0,1438.0,1500.0,1474.0,1518.0,1464.0,0.0,0.0,0.0,0.0,0.0,0.0,0.0,0.0
1749970639,8,1486.0,1434.0,1469.0,1444.0,1500.0,1477.0,1516.0,1467.0,0.0,0.0,0.0,0.0,0.0,0.0,0.0,0.0
1750010630,8,1488.0,1431.0,1472.0,1441.0,1502.0,1474.0,1518.0,1464.0,0.0,0.0,0.0,0.0,0.0,0.0,0.0,0.0
1750054598,8,1487.0,1434.0,1468.0,1443.0,1499.0,1479.0,1519.0,1470.0,0.0,0.0,0.0,0.0,0.0,0.0,0.0,0.0
1750098647,8,1484.0,1426.0,1459.0,1435.0,1496.0,1479.0,1521.0,1471.0,0.0,0.0,0.0,0.0,0.0,0.0,0.0,0.0
1750143502,8,1483.0,1423.0,1458.0,1431.0,1494.0,1474.0,1519.0,1466.0,0.0,0.0,0.0,0.0,0.0,0.0,0.0,0.0
1750183506,8,1487.0,1428.0,1465.0,1433.0,1495.0,1471.0,1518.0,1465.0,0.0,0.0,0.0,0.0,0.0,0.0,0.0,0.0
1750223443,8,1487.0,1429.0,1465.0,1433.0,1493.0,1469.0,1516.0,1465.0,0.0,0.0,0.0,0.0,0.0,0.0,0.0,0.0
1750267419,8,1486.0,1424.0,1462.0,1429.0,1493.0,1468.0,1516.0,1463.0,0.0,0.0,0.0,0.0,0.0,0.0,0.0,0.0
1750311424,8,1485.0,1423.0,1463.0,1431.0,1496.0,1469.0,1517.0,1461.0,0.0,0.0,0.0,0.0,0.0,0.0,0.0,0.0
1750351353,8,1486.0,1422.0,1463.0,1427.0,1493.0,1464.0,1516.0,1459.0,0.0,0.0,0.0,0.0,0.0,0.0,0.0,0.0
1750395400,8,1487.0,1424.0,1466.0,1431.0,1496.0,1467.0,1517.0,1460.0,0.0,0.0,0.0,0.0,0.0,0.0,0.0,0.0
1750436249,8,1485.0,1424.0,1463.0,1430.0,1494.0,1467.0,1516.0,1461.0,0.0,0.0,0.0,0.0,0.0,0.0,0.0,0.0
1750476255,8,1485.0,1424.0,1464.0,1430.0,1495.0,1467.0,1516.0,1461.0,0.0,0.0,0.0,0.0,0.0,0.0,0.0,0.0
1750520275,8,1484.0,1421.0,1463.0,1431.0,1499.0,1472.0,1521.0,1462.0,0.0,0.0,0.0,0.0,0.0,0.0,0.0,0.0
1750560249,8,1479.0,1421.0,1455.0,1430.0,1492.0,1473.0,1516.0,1464.0,0.0,0.0,0.0,0.0,0.0,0.0,0.0,0.0
1750604248,8,1486.0,1424.0,1467.0,1434.0,1499.0,1469.0,1517.0,1460.0,0.0,0.0,0.0,0.0,0.0,0.0,0.0,0.0
1750644262,8,1481.0,1420.0,1460.0,1429.0,1494.0,1469.0,1516.0,1459.0,0.0,0.0,0.0,0.0,0.0,0.0,0.0,0.0
1750688302,8,1484.0,1428.0,1471.0,1438.0,1498.0,1466.0,1511.0,1456.0,0.0,0.0,0.0,0.0,0.0,0.0,0.0,0.0
1750729048,8,1484.0,1424.0,1469.0,1434.0,1497.0,1464.0,1512.0,1455.0,0.0,0.0,0.0,0.0,0.0,0.0,0.0,0.0
1750773038,8,1484.0,1432.0,1467.0,1436.0,1491.0,1465.0,1508.0,1460.0,0.0,0.0,0.0,0.0,0.0,0.0,0.0,0.0
1750813114,8,1487.0,1430.0,1470.0,1433.0,1492.0,1461.0,1509.0,1457.0,0.0,0.0,0.0,0.0,0.0,0.0,0.0,0.0
1750856998,8,1487.0,1429.0,1465.0,1430.0,1488.0,1463.0,1511.0,1462.0,0.0,0.0,0.0,0.0,0.0,0.0,0.0,0.0
1750900936,8,1490.0,1426.0,1467.0,1425.0,1489.0,1458.0,1513.0,1459.0,0.0,0.0,0.0,0.0,0.0,0.0,0.0,0.0
1750945003,8,1491.0,1429.0,1468.0,1427.0,1488.0,1457.0,1511.0,1459.0,0.0,0.0,0.0,0.0,0.0,0.0,0.0,0.0
1750985812,8,1493.0,1428.0,1469.0,1424.0,1488.0,1455.0,1513.0,1459.0,0.0,0.0,0.0,0.0,0.0,0.0,0.0,0.0
1751025820,8,1492.0,1424.0,1465.0,1423.0,1491.0,1460.0,1517.0,1461.0,0.0,0.0,0.0,0.0,0.0,0.0,0.0,0.0
1751069789,8,1493.0,1427.0,1468.0,1424.0,1488.0,1456.0,1513.0,1459.0,0.0,0.0,0.0,0.0,0.0,0.0,0.0,0.0
1751109781,8,1494.0,1427.0,1469.0,1421.0,1486.0,1451.0,1511.0,1457.0,0.0,0.0,0.0,0.0,0.0,0.0,0.0,0.0
1751153833,8,1490.0,1426.0,1467.0,1425.0,1488.0,1456.0,1511.0,1457.0,0.0,0.0,0.0,0.0,0.0,0.0,0.0,0.0
1751193847,8,1492.0,1427.0,1468.0,1425.0,1489.0,1457.0,1513.0,1459.0,0.0,0.0,0.0,0.0,0.0,0.0,0.0,0.0
1751237781,8,1492.0,1420.0,1465.0,1420.0,1492.0,1458.0,1519.0,1458.0,0.0,0.0,0.0,0.0,0.0,0.0,0.0,0.0
1751278583,8,1493.0,1421.0,1468.0,1422.0,1495.0,1458.0,1520.0,1457.0,0.0,0.0,0.0,0.0,0.0,0.0,0.0,0.0
1751322654,8,1496.0,1416.0,1472.0,1419.0,1500.0,1456.0,1524.0,1453.0,0.0,0.0,0.0,0.0,0.0,0.0,0.0,0.0
1751362633,8,1493.0,1416.0,1467.0,1418.0,1496.0,1457.0,1521.0,1454.0,0.0,0.0,0.0,0.0,0.0,0.0,0.0,0.0
1751406624,8,1493.0,1425.0,1474.0,1427.0,1495.0,1455.0,1514.0,1454.0,0.0,0.0,0.0,0.0,0.0,0.0,0.0,0.0
1751446561,8,1495.0,1426.0,1474.0,1425.0,1495.0,1455.0,1516.0,1456.0,0.0,0.0,0.0,0.0,0.0,0.0,0.0,0.0
1751490636,8,1492.0,1422.0,1470.0,1427.0,1498.0,1462.0,1520.0,1457.0,0.0,0.0,0.0,0.0,0.0,0.0,0.0,0.0
1751530581,8,1493.0,1424.0,1472.0,1427.0,1497.0,1460.0,1518.0,1457.0,0.0,0.0,0.0,0.0,0.0,0.0,0.0,0.0
1751571494,8,1495.0,1429.0,1477.0,1431.0,1497.0,1458.0,1515.0,1456.0,0.0,0.0,0.0,0.0,0.0,0.0,0.0,0.0
1751611446,8,1498.0,1427.0,1476.0,1426.0,1495.0,1454.0,1517.0,1456.0,0.0,0.0,0.0,0.0,0.0,0.0,0.0,0.0
1751655462,8,1495.0,1423.0,1471.0,1424.0,1496.0,1459.0,1520.0,1458.0,0.0,0.0,0.0,0.0,0.0,0.0,0.0,0.0
1751699471,8,1500.0,1429.0,1480.0,1428.0,1499.0,1455.0,1518.0,1455.0,0.0,0.0,0.0,0.0,0.0,0.0,0.0,0.0
1751739442,8,1499.0,1429.0,1479.0,1429.0,1499.0,1457.0,1519.0,1456.0,0.0,0.0,0.0,0.0,0.0,0.0,0.0,0.0
1751783456,8,1499.0,1433.0,1481.0,1430.0,1496.0,1454.0,1514.0,1456.0,0.0,0.0,0.0,0.0,0.0,0.0,0.0,0.0
1751823457,8,1499.0,1433.0,1482.0,1433.0,1499.0,1457.0,1515.0,1456.0,0.0,0.0,0.0,0.0,0.0,0.0,0.0,0.0
1751868308,8,1501.0,1432.0,1483.0,1429.0,1497.0,1453.0,1516.0,1456.0,0.0,0.0,0.0,0.0,0.0,0.0,0.0,0.0
1751908281,8,1500.0,1433.0,1482.0,1429.0,1495.0,1451.0,1513.0,1455.0,0.0,0.0,0.0,0.0,0.0,0.0,0.0,0.0
1751952174,8,1499.0,1431.0,1478.0,1429.0,1495.0,1456.0,1516.0,1458.0,0.0,0.0,0.0,0.0,0.0,0.0,0.0,0.0
1751992221,8,1499.0,1433.0,1476.0,1429.0,1492.0,1456.0,1515.0,1461.0,0.0,0.0,0.0,0.0,0.0,0.0,0.0,0.0
1752036236,8,1498.0,1425.0,1470.0,1422.0,1494.0,1459.0,1522.0,1461.0,0.0,0.0,0.0,0.0,0.0,0.0,0.0,0.0
1752077035,8,1497.0,1429.0,1469.0,1426.0,1493.0,1462.0,1521.0,1465.0,0.0,0.0,0.0,0.0,0.0,0.0,0.0,0.0
1752120981,8,1496.0,1424.0,1473.0,1426.0,1500.0,1462.0,1523.0,1459.0,0.0,0.0,0.0,0.0,0.0,0.0,0.0,0.0
1752160994,8,1495.0,1426.0,1472.0,1428.0,1498.0,1464.0,1522.0,1461.0,0.0,0.0,0.0,0.0,0.0,0.0,0.0,0.0
1752205016,8,1500.0,1428.0,1482.0,1432.0,1505.0,1460.0,1523.0,1457.0,0.0,0.0,0.0,0.0,0.0,0.0,0.0,0.0
1752248977,8,1495.0,1431.0,1476.0,1432.0,1497.0,1461.0,1516.0,1460.0,0.0,0.0,0.0,0.0,0.0,0.0,0.0,0.0
1752288990,8,1497.0,1433.0,1482.0,1437.0,1502.0,1461.0,1517.0,1458.0,0.0,0.0,0.0,0.0,0.0,0.0,0.0,0.0
1752328964,8,1498.0,1430.0,1480.0,1431.0,1499.0,1458.0,1518.0,1457.0,0.0,0.0,0.0,0.0,0.0,0.0,0.0,0.0
1752373105,8,1490.0,1428.0,1471.0,1426.0,1487.0,1451.0,1507.0,1453.0,0.0,0.0,0.0,0.0,0.0,0.0,0.0,0.0
1752413812,8,1489.0,1426.0,1471.0,1423.0,1485.0,1446.0,1503.0,1448.0,0.0,0.0,0.0,0.0,0.0,0.0,0.0,0.0
1752453810,8,1483.0,1421.0,1466.0,1420.0,1483.0,1445.0,1501.0,1445.0,0.0,0.0,0.0,0.0,0.0,0.0,0.0,0.0
