timestamp,rollspeed,pitchspeed,yawspeed,q[0],q[1],q[2],q[3],delta_q_reset[0],delta_q_reset[1],delta_q_reset[2],delta_q_reset[3],quat_reset_counter
1725780098,-0.0019882878,-0.0021295967,-0.0014304321,0.99993694,-0.0025167093,-0.0014659177,0.010848817,1.0,0.0,0.0,0.0,0
1725900061,0.0007030992,-0.00031271856,-0.000102587044,0.9999368,-0.002512367,-0.0015542733,0.010845904,1.0,0.0,0.0,0.0,0
1725944054,-0.0013135194,0.0029691334,-4.823506e-05,0.9999367,-0.0025132636,-0.0014929156,0.010865238,1.0,0.0,0.0,0.0,0
1725984159,0.00028233137,0.0011761063,0.00023970846,0.99993706,-0.0025054514,-0.001449349,0.010844003,1.0,0.0,0.0,0.0,0
1726028886,3.7516584e-05,0.0016082639,-0.0010267112,0.99993706,-0.002491664,-0.0014181815,0.010844839,1.0,0.0,0.0,0.0,0
1726069658,0.000304854,0.0018024363,0.00033269892,0.99993706,-0.0024846192,-0.0014283928,0.010849345,1.0,0.0,0.0,0.0,0
1726109746,0.091274,-0.06398007,0.02748893,0.9999365,-0.0023368844,-0.001521717,0.010920413,1.0,0.0,0.0,0.0,0
1726153631,0.013677961,-0.06440821,0.027874464,0.9999377,-0.0025580102,-0.0015621998,0.010754957,1.0,0.0,0.0,0.0,0
1726193727,0.07415925,0.028592693,-0.007350167,0.99993855,-0.0023521308,-0.0015202785,0.010729363,1.0,0.0,0.0,0.0,0
1726237641,0.014826414,-0.052913092,0.012394397,0.9999338,-0.0020386223,-0.0014001884,0.011238538,1.0,0.0,0.0,0.0,0
1726277777,-0.016076036,-0.0044626445,0.052471165,0.9999263,-0.0021712908,-0.0017607618,0.011814711,1.0,0.0,0.0,0.0,0
1726321422,-0.0075230966,-0.014580125,-0.03511438,0.99993086,-0.0025545403,-0.001992469,0.01130442,1.0,0.0,0.0,0.0,0
1726361669,-0.019329414,0.0013365597,-0.01902108,0.9999316,-0.0028812864,-0.0021784697,0.011134617,1.0,0.0,0.0,0.0,0
1726405612,-0.0018520108,0.0063508116,-0.0030360147,0.9999332,-0.0032384472,-0.0020816512,0.010902499,1.0,0.0,0.0,0.0,0
1726445442,-0.0019245814,0.01803939,-0.0073344735,0.99993485,-0.0034711307,-0.0018785554,0.010716309,1.0,0.0,0.0,0.0,0
1726485736,0.014047951,0.014956059,-0.005245094,0.99993783,-0.0033177466,-0.0016120177,0.010519822,1.0,0.0,0.0,0.0,0
1726529404,-0.004759375,0.018405696,-0.010884921,0.9999403,-0.0031020886,-0.001445339,0.010385569,1.0,0.0,0.0,0.0,0
1726573741,0.010098346,-0.013010005,0.0045912694,0.9999424,-0.0027203658,-0.0014814177,0.0102818245,1.0,0.0,0.0,0.0,0
1726613710,0.016792383,-0.03572225,0.0073322225,0.999942,-0.0025798315,-0.0016721458,0.0103248665,1.0,0.0,0.0,0.0,0
1726657650,-0.024168245,0.0058013257,0.01521034,0.9999401,-0.0026965882,-0.0019204421,0.01043723,1.0,0.0,0.0,0.0,0
1726697323,-0.00067990646,0.012450794,0.0039315694,0.9999388,-0.0027839844,-0.0020146691,0.010527725,1.0,0.0,0.0,0.0,0
1726741670,-0.034008227,0.0058438987,0.015367435,0.9999341,-0.003128966,-0.0019423927,0.010882926,1.0,0.0,0.0,0.0,0
1726789670,0.003932257,0.03476564,0.066012606,0.99991924,-0.0036598865,-0.0013960588,0.012094928,1.0,0.0,0.0,0.0,0
1726830411,-0.14449681,-0.032504123,0.038816735,0.9998883,-0.0049897805,-0.001458848,0.014013013,1.0,0.0,0.0,0.0,0
1726870215,-0.19257425,-0.19091901,0.14147803,0.999835,-0.0075095897,-0.003020057,0.016262429,1.0,0.0,0.0,0.0,0
1726914202,-0.028225677,-0.25050792,0.049449496,0.99974304,-0.010916111,-0.006546389,0.0187586,1.0,0.0,0.0,0.0,0
1726958445,-0.3734885,-0.26304817,0.08753278,0.99959606,-0.014653727,-0.01210077,0.021132052,1.0,0.0,0.0,0.0,0
1726998481,-0.07192142,-0.25340343,0.080255955,0.99949104,-0.0153274415,-0.016448816,0.022632254,1.0,0.0,0.0,0.0,0
1727038479,-0.12655763,0.011194685,0.09263717,0.9994408,-0.0154914,-0.017850276,0.023657845,1.0,0.0,0.0,0.0,0
1727082504,0.045544744,0.1924083,-0.018753577,0.99941415,-0.016472792,-0.016984684,0.024730366,1.0,0.0,0.0,0.0,0
1727123265,-0.06594521,0.20491378,-0.015290994,0.9993965,-0.017797567,-0.015142789,0.025701568,1.0,0.0,0.0,0.0,0
1727163319,0.102742024,0.103465624,0.07696156,0.99945706,-0.015717598,-0.01151955,0.026568128,1.0,0.0,0.0,0.0,0
1727203309,0.18255138,0.2097914,-0.037430502,0.99954224,-0.011521611,-0.006068542,0.027310228,1.0,0.0,0.0,0.0,0
1727247290,-0.06345377,0.1308254,-0.005817705,0.99956423,-0.008417423,-0.0015010539,0.028252803,1.0,0.0,0.0,0.0,0
1727287029,-0.010240621,-0.09274491,0.059500962,0.9995528,-0.0067939092,0.0016762395,0.029073695,1.0,0.0,0.0,0.0,0
1727331236,-0.055091284,0.21288316,0.014147408,0.999527,-0.0053026234,0.0058875587,0.029715685,1.0,0.0,0.0,0.0,0
1727372069,-0.12935337,0.13894372,-0.045258414,0.99949825,-0.0037355109,0.009185713,0.03008404,1.0,0.0,0.0,0.0,0
1727411998,-0.17920102,-0.017725892,-0.10250652,0.99946976,-0.0025481717,0.011219166,0.030460998,1.0,0.0,0.0,0.0,0
1727455826,0.12805294,0.12321612,0.07986351,0.99943745,-0.000839897,0.012567028,0.031083472,1.0,0.0,0.0,0.0,0
1727495825,-0.16130312,-0.08177788,-0.06252414,0.9994245,0.00073006895,0.013145231,0.03126228,1.0,0.0,0.0,0.0,0
1727540124,0.16098326,0.09446808,0.083624154,0.99940217,0.0022311765,0.013539491,0.03173308,1.0,0.0,0.0,0.0,0
1727579832,0.01212321,-0.070146754,0.14796163,0.99940187,0.0022006878,0.012929073,0.032002315,1.0,0.0,0.0,0.0,0
1727624046,0.011117577,0.07837098,-0.14011616,0.99941826,0.0027478375,0.012027298,0.031796582,1.0,0.0,0.0,0.0,0
1727664017,0.082315296,-0.215326,-0.07353749,0.99943244,0.0045143557,0.010220159,0.031780105,1.0,0.0,0.0,0.0,0
1727709021,0.05091692,-0.046118587,-0.028695028,0.9994515,0.006344871,0.007469936,0.031636152,1.0,0.0,0.0,0.0,0
1727752807,0.020855054,-0.04218465,-0.02141743,0.99946314,0.008206743,0.004631452,0.031381648,1.0,0.0,0.0,0.0,0
1727792937,0.06661106,0.046852086,-0.03994113,0.99946207,0.009869879,0.0029264241,0.031137833,1.0,0.0,0.0,0.0,0
1727832585,0.12498903,-0.069342196,-0.022423388,0.99946356,0.010865197,0.0016985968,0.030851994,1.0,0.0,0.0,0.0,0
1727876901,-0.17451961,-0.017461225,-0.124661036,0.9994781,0.011025234,0.0009891669,0.030349027,1.0,0.0,0.0,0.0,0
1727916608,-0.059445865,-0.07566241,-0.105169095,0.99948287,0.011799049,0.0006352538,0.029908847,1.0,0.0,0.0,0.0,0
1727957405,0.31336355,-0.038099553,0.036573138,0.9994874,0.012560111,0.00029060835,0.029448107,1.0,0.0,0.0,0.0,0
1728001634,0.02684837,0.019849783,-0.0755847,0.99951714,0.01200843,-0.00026629242,0.028657667,1.0,0.0,0.0,0.0,0
1728041691,0.12755355,-0.13496192,0.013129386,0.999541,0.011290963,-0.0008174218,0.028101549,1.0,0.0,0.0,0.0,0
1728081733,0.12865259,-0.10040506,0.005781114,0.9995685,0.010368366,-0.0012250658,0.027454713,1.0,0.0,0.0,0.0,0
1728125368,0.102047116,-0.16376354,0.030508287,0.99959576,0.009021121,-0.002419744,0.026853694,1.0,0.0,0.0,0.0,0
1728169654,-0.039907284,-0.15814433,0.023180876,0.9996192,0.0075036543,-0.004101025,0.02623745,1.0,0.0,0.0,0.0,0
1728209399,0.107354715,-0.18476295,-0.06915856,0.99963546,0.0064022387,-0.0054831463,0.02564963,1.0,0.0,0.0,0.0,0
1728254249,-0.108222716,-0.22652088,-0.032335382,0.9996459,0.0050680754,-0.0071742875,0.025118357,1.0,0.0,0.0,0.0,0
1728298503,-0.04669019,-0.12605113,-0.037888806,0.9996496,0.0042478098,-0.008885048,0.024571968,1.0,0.0,0.0,0.0,0
1728342522,0.0766327,0.029241964,-0.024487825,0.9996495,0.0040858244,-0.010226357,0.024074443,1.0,0.0,0.0,0.0,0
1728386443,0.15658765,0.0004703193,0.042283695,0.9996419,0.0042493297,-0.011751824,0.02366243,1.0,0.0,0.0,0.0,0
1728426440,-0.1384253,-0.076568134,-0.04818631,0.9996381,0.0039721513,-0.013215137,0.023095898,1.0,0.0,0.0,0.0,0
1728466544,0.035336953,-0.029105704,-0.020134617,0.99963033,0.0040730955,-0.014358914,0.022730442,1.0,0.0,0.0,0.0,0
1728507184,0.12888928,0.06433363,-0.06288326,0.9996242,0.0041694692,-0.015327469,0.022345131,1.0,0.0,0.0,0.0,0
1728551026,0.022573793,0.03126471,-0.07999587,0.9996194,0.0041119074,-0.016253406,0.021907033,1.0,0.0,0.0,0.0,0
1728591215,0.024326134,0.19451877,-0.12061307,0.99961436,0.0041510235,-0.016964221,0.021591187,1.0,0.0,0.0,0.0,0
1728634984,0.07936132,-0.0066215172,-0.012306666,0.9996071,0.0044901194,-0.017580416,0.021367623,1.0,0.0,0.0,0.0,0
1728674998,0.013152781,0.17114624,-0.012185092,0.9996091,0.004525792,-0.017710347,0.0211542,1.0,0.0,0.0,0.0,0
1728719247,0.11283188,0.009167669,0.04069287,0.9996095,0.004693994,-0.017844234,0.020986259,1.0,0.0,0.0,0.0,0
1728758996,-0.04141145,0.07230291,0.07880296,0.99961746,0.004616195,-0.017570382,0.020853935,1.0,0.0,0.0,0.0,0
1728803298,-0.0454754,0.031966083,-0.051015805,0.9996292,0.004341796,-0.01731297,0.02056448,1.0,0.0,0.0,0.0,0
1728843788,-0.16953936,-0.126071,0.095311895,0.9996383,0.003997344,-0.016905956,0.020529835,1.0,0.0,0.0,0.0,0
1728887723,0.04650291,0.16064829,-0.06925569,0.99965584,0.0039031578,-0.016149651,0.020303989,1.0,0.0,0.0,0.0,0
1728931811,0.117636025,0.1861826,-0.07218167,0.9996683,0.0038918047,-0.015447179,0.020238169,1.0,0.0,0.0,0.0,0
1728976072,0.105450064,0.12458576,0.05804376,0.9996767,0.0038692933,-0.014719297,0.020367429,1.0,0.0,0.0,0.0,0
1729020179,-0.018918231,0.0346648,-0.015910655,0.9996886,0.0036492574,-0.0140346065,0.020307664,1.0,0.0,0.0,0.0,0
1729060634,0.057904366,-0.021626037,0.019804934,0.999698,0.0036193521,-0.013240536,0.020385114,1.0,0.0,0.0,0.0,0
1729104838,-0.018382736,-0.029074848,-0.113797046,0.9997084,0.0032901175,-0.012714791,0.020266889,1.0,0.0,0.0,0.0,0
1729144593,-0.008876554,-0.15167567,-0.03503366,0.9997117,0.0028719981,-0.012308,0.020417254,1.0,0.0,0.0,0.0,0
1729188906,-0.19072491,-0.07492162,-0.17465377,0.9997213,0.0024702423,-0.01178851,0.020306455,1.0,0.0,0.0,0.0,0
1729228790,0.015922068,-0.15478396,-0.07546784,0.9997245,0.0023655135,-0.011296048,0.020439511,1.0,0.0,0.0,0.0,0
1729272892,-0.06384238,-0.17774366,-0.029017173,0.99972767,0.0020637796,-0.010974474,0.020492142,1.0,0.0,0.0,0.0,0
1729312835,0.015129526,-0.023590785,-0.051182013,0.9997381,0.0017871369,-0.0102463,0.020387022,1.0,0.0,0.0,0.0,0
1729357666,-0.20584147,-0.08736006,-0.012198564,0.9997484,0.0014164787,-0.009776696,0.020137493,1.0,0.0,0.0,0.0,0
1729397618,-0.08261699,-0.09869314,-0.01788988,0.9997578,0.0014952025,-0.009139667,0.019963302,1.0,0.0,0.0,0.0,0
1729441647,-0.039569315,-0.09268666,0.043636445,0.99976635,0.0017661819,-0.008554736,0.019776497,1.0,0.0,0.0,0.0,0
1729481600,-0.18015689,-0.1478575,-0.017992942,0.99977785,0.002184011,-0.007878895,0.019431012,1.0,0.0,0.0,0.0,0
1729525724,-0.04481065,0.03352373,-0.017323954,0.9997871,0.0028997704,-0.0072887884,0.019085102,1.0,0.0,0.0,0.0,0
1729565598,-0.053375762,0.038753044,0.012178916,0.9997933,0.0036008377,-0.0070060254,0.018743502,1.0,0.0,0.0,0.0,0
1729609623,0.16231951,0.15452185,-0.046968173,0.9998011,0.0045048003,-0.0066968594,0.018242495,1.0,0.0,0.0,0.0,0
1729650520,-0.0024907752,0.029022051,-0.032221247,0.99980724,0.004817637,-0.0066687292,0.017827418,1.0,0.0,0.0,0.0,0
1729690391,-0.11865741,0.014694437,-0.11020991,0.999818,0.0047491305,-0.0064920913,0.017297791,1.0,0.0,0.0,0.0,0
1729734185,-0.0641346,-0.057517476,-0.0773369,0.99982566,0.0049520205,-0.0064053657,0.016828815,1.0,0.0,0.0,0.0,0
1729774399,0.06259265,0.02860007,-0.086496994,0.9998333,0.005035085,-0.006250581,0.016403118,1.0,0.0,0.0,0.0,0
1729818193,-0.10718753,-0.18948269,-0.088620454,0.99984,0.0047881105,-0.006566352,0.01593759,1.0,0.0,0.0,0.0,0
1729858441,0.22498982,0.083404966,-0.056393947,0.99984515,0.004962979,-0.006436564,0.01560966,1.0,0.0,0.0,0.0,0
1729902244,0.08439081,-0.058800023,-0.030268556,0.99984795,0.0045691114,-0.0071121403,0.015251437,1.0,0.0,0.0,0.0,0
1729943343,0.20608175,-0.00073105027,-0.051243845,0.9998497,0.0041914703,-0.0077428324,0.014934927,1.0,0.0,0.0,0.0,0
1729987306,-0.11312005,-0.06717615,-0.099234894,0.9998507,0.0034882394,-0.008719014,0.0145085035,1.0,0.0,0.0,0.0,0
1730027252,0.14605345,-0.14983878,0.04153866,0.9998483,0.003321555,-0.009283285,0.014364067,1.0,0.0,0.0,0.0,0
1730071266,-0.038324207,-0.045592,-0.08859464,0.99985355,0.0026087826,-0.0095579075,0.013953348,1.0,0.0,0.0,0.0,0
1730110995,0.1438216,-0.08100909,0.053754784,0.99985284,0.0022955183,-0.009804916,0.013889677,1.0,0.0,0.0,0.0,0
1730155204,0.05925272,-0.078432605,-0.013864924,0.99985623,0.001719018,-0.009928711,0.013641164,1.0,0.0,0.0,0.0,0
1730195246,0.012254235,0.07457737,0.022517638,0.99985904,0.0012428317,-0.009864968,0.013534139,1.0,0.0,0.0,0.0,0
1730235969,-0.17982706,9.064167e-05,-0.013852799,0.999857,0.0005735141,-0.010327203,0.013383523,1.0,0.0,0.0,0.0,0
1730275811,-0.28552628,-0.124103904,-0.04094924,0.9998535,0.00012297873,-0.010808426,0.013274746,1.0,0.0,0.0,0.0,0
1730320028,-0.22856751,0.0013959829,0.03346654,0.9998504,-0.00028407865,-0.011014974,0.0133351395,1.0,0.0,0.0,0.0,0
1730364011,0.06257734,0.14127721,-0.014166248,0.9998515,-0.00014045875,-0.011008855,0.013265191,1.0,0.0,0.0,0.0,0
1730404021,0.008395258,0.1872495,0.090699464,0.9998488,-0.00032941002,-0.01117577,0.013325416,1.0,0.0,0.0,0.0,0
1730443805,0.005127604,0.12579471,-0.029122863,0.9998507,-0.00037424118,-0.011014234,0.013313584,1.0,0.0,0.0,0.0,0
1730484821,-0.013272882,0.10798397,-0.083318554,0.99985754,-0.00017405368,-0.010315486,0.013361437,1.0,0.0,0.0,0.0,0
1730528873,0.009416753,0.16522716,-0.05813932,0.99986243,0.00014844543,-0.009478925,0.01361257,1.0,0.0,0.0,0.0,0
1730568928,-0.13579404,-0.031091029,-0.11530299,0.99986666,0.000120794306,-0.0088276705,0.013742248,1.0,0.0,0.0,0.0,0
1730613012,-0.24825649,-0.12953565,-0.0042521697,0.99986833,-0.00016121342,-0.008115209,0.014054464,1.0,0.0,0.0,0.0,0
1730652868,-0.19665807,-0.16081208,-0.12347261,0.9998724,-0.00021928432,-0.0072861817,0.0142165385,1.0,0.0,0.0,0.0,0
1730696614,-0.24045569,-0.15238182,-0.00505055,0.9998709,-0.00076081906,-0.0066315844,0.014616475,1.0,0.0,0.0,0.0,0
1730736834,-0.2193301,-0.09592208,-0.03800825,0.9998715,-0.0010027726,-0.0059354175,0.014858378,1.0,0.0,0.0,0.0,0
1730781835,-0.21799226,0.12771744,-0.019381693,0.9998701,-0.0012134742,-0.0053228787,0.015165204,1.0,0.0,0.0,0.0,0
1730821627,0.0951368,0.12026003,0.046271782,0.9998665,-0.0007720356,-0.0053202226,0.015435468,1.0,0.0,0.0,0.0,0
1730865614,0.04053017,0.17116964,0.08949271,0.99986446,-0.00064183376,-0.0051505533,0.015628349,1.0,0.0,0.0,0.0,0
1730905607,-0.03652865,0.006032181,0.058777437,0.9998613,-0.00056460756,-0.0053753904,0.015760053,1.0,0.0,0.0,0.0,0
1730949591,-0.045140903,-0.12377463,0.12020466,0.9998588,-0.0004271591,-0.00525258,0.015960904,1.0,0.0,0.0,0.0,0
1730989594,-0.12784581,-0.07186443,0.097106464,0.9998587,-0.00019723416,-0.0048575453,0.016094944,1.0,0.0,0.0,0.0,0
1731033668,-0.0806478,-0.0139749795,0.06407139,0.9998607,-0.00012685561,-0.0042339773,0.016146204,1.0,0.0,0.0,0.0,0
1731077663,-0.026830867,0.119169936,-0.06593536,0.9998663,0.0001886076,-0.0031486042,0.016048223,1.0,0.0,0.0,0.0,0
1731118503,0.084510416,0.20224324,-0.020833978,0.9998686,0.0007118785,-0.0020990288,0.016064681,1.0,0.0,0.0,0.0,0
1731162569,0.02486953,0.15438439,-0.11394239,0.9998726,0.0012620508,-0.0012221334,0.015866986,1.0,0.0,0.0,0.0,0
1731202439,0.044837676,0.27899364,-0.047343902,0.9998729,0.0018083788,-0.00072999357,0.01582689,1.0,0.0,0.0,0.0,0
1731246153,-0.10166894,-0.049787685,-0.061214656,0.9998754,0.002228882,-0.0005590701,0.01562119,1.0,0.0,0.0,0.0,0
1731286412,-0.028307144,0.081288695,-0.09106325,0.9998775,0.002670142,-0.00022080138,0.015425063,1.0,0.0,0.0,0.0,0
1731330268,0.012089418,-0.06786098,-0.06917371,0.99987966,0.0027281716,-0.00019159303,0.015270827,1.0,0.0,0.0,0.0,0
1731370996,0.06920078,-0.09806648,-0.018661171,0.9998805,0.0025226504,1.2279924e-05,0.015251426,1.0,0.0,0.0,0.0,0
1731415193,0.041886788,-0.117195934,-0.075761326,0.99988425,0.0021104496,0.000254451,0.015069291,1.0,0.0,0.0,0.0,0
1731455318,0.07897694,0.13913961,-0.029821547,0.999885,0.0016149408,0.0008473499,0.015055745,1.0,0.0,0.0,0.0,0
1731499057,-0.12405414,0.047410123,-0.052182708,0.99988675,0.00093294465,0.001163694,0.014976578,1.0,0.0,0.0,0.0,0
1731538984,0.1257966,0.24739513,-0.085924126,0.999886,0.00062278536,0.0015716848,0.015007875,1.0,0.0,0.0,0.0,0
1731583350,-0.0307693,-0.10139669,0.027083464,0.99988353,-7.071066e-05,0.0017184708,0.015165945,1.0,0.0,0.0,0.0,0
1731623834,0.09585105,0.10531007,-0.0663486,0.999882,-0.00016094896,0.0022785254,0.015199595,1.0,0.0,0.0,0.0,0
1731664058,0.11672827,0.17681366,0.029684696,0.99987686,-0.00027559366,0.0025153984,0.015488803,1.0,0.0,0.0,0.0,0
1731708032,0.06820813,-0.12080232,-0.010881128,0.9998757,-0.00067633676,0.002345059,0.015578847,1.0,0.0,0.0,0.0,0
1731748239,0.18975458,-0.065541126,0.012805324,0.99987316,-0.0006752508,0.002518403,0.015712222,1.0,0.0,0.0,0.0,0
1731787807,-0.04990878,-0.0035825165,0.0004090804,0.9998716,-0.0012582442,0.0023177231,0.015810963,1.0,0.0,0.0,0.0,0
1731832040,0.16028152,-0.002540725,-0.05719804,0.9998711,-0.0013836405,0.002049387,0.015872251,1.0,0.0,0.0,0.0,0
1731876067,0.023503494,-0.036535364,0.09371354,0.9998662,-0.0017046913,0.0018872364,0.016164424,1.0,0.0,0.0,0.0,0
1731916892,-0.11914108,0.05837261,-0.13322219,0.99986666,-0.0021816418,0.0020378202,0.016053831,1.0,0.0,0.0,0.0,0
1731960611,-0.066415735,-0.0061664023,0.042361796,0.99986154,-0.00226501,0.0021560604,0.016346667,1.0,0.0,0.0,0.0,0
1732000835,-0.20411968,-0.1009611,-0.042209305,0.9998608,-0.0023678846,0.0025156504,0.016328815,1.0,0.0,0.0,0.0,0
1732044811,0.1779147,-0.034457266,0.094007984,0.999857,-0.0015880545,0.0030736797,0.016552541,1.0,0.0,0.0,0.0,0
1732084826,0.060301635,-0.21989511,-0.004175268,0.9998563,-0.0014881822,0.003587061,0.016504789,1.0,0.0,0.0,0.0,0
1732128804,0.21410955,-0.0077497587,0.04493026,0.9998521,-0.00084079284,0.00435755,0.016613787,1.0,0.0,0.0,0.0,0
1732169614,-0.047646448,-0.0760611,-0.004071343,0.99985087,-0.00064538035,0.004828446,0.016574573,1.0,0.0,0.0,0.0,0
1732213655,-0.17526512,0.11783458,0.0029865934,0.9998495,-0.000439442,0.00511203,0.016574556,1.0,0.0,0.0,0.0,0
1732253717,-0.046090998,-0.052615874,0.041343518,0.9998523,-0.00017129067,0.004530415,0.01658499,1.0,0.0,0.0,0.0,0
1732297676,-0.059958305,0.21854565,-0.10835389,0.99985737,-8.103301e-05,0.0041507594,0.016372303,1.0,0.0,0.0,0.0,0
1732337424,-0.101280585,-0.008209825,0.0002829437,0.9998614,0.0002869042,0.0029301236,0.016388252,1.0,0.0,0.0,0.0,0
1732381723,-0.12760614,0.14821091,-0.14762853,0.9998694,0.00068075233,0.0019969058,0.016022053,1.0,0.0,0.0,0.0,0
1732421674,0.058330048,-0.0035624604,-0.062607534,0.99987096,0.0014095758,0.00083229545,0.015987417,1.0,0.0,0.0,0.0,0
1732465619,-0.08571073,-0.0427178,-0.047976445,0.99987304,0.0017951039,0.00015323362,0.015835013,1.0,0.0,0.0,0.0,0
1732506477,-0.13310574,-0.025769254,-0.07236204,0.99987596,0.0019380838,-0.00031083837,0.015629046,1.0,0.0,0.0,0.0,0
1732546421,0.032710154,0.035756536,-0.0072034453,0.9998743,0.0025003182,-0.0009056826,0.015634688,1.0,0.0,0.0,0.0,0
1732590264,-0.28198013,-0.03663434,0.050576042,0.9998748,0.0024378297,-0.0016941597,0.015543015,1.0,0.0,0.0,0.0,0
1732630268,-0.14152466,-0.0012142751,-0.0716039,0.9998748,0.0029985313,-0.002290706,0.015374447,1.0,0.0,0.0,0.0,0
1732674184,-0.020188699,0.061320633,0.074323595,0.99987334,0.003248836,-0.0027288634,0.015345446,1.0,0.0,0.0,0.0,0
1732714211,-0.18946475,-0.045545623,0.044969566,0.9998729,0.003185657,-0.0031330907,0.015307235,1.0,0.0,0.0,0.0,0
1732758472,0.05098698,0.11501579,0.04898173,0.99987423,0.0031994935,-0.0030014429,0.015243111,1.0,0.0,0.0,0.0,0
1732798986,0.07239772,0.012576534,0.059010293,0.99987584,0.0030035805,-0.0028773933,0.015202902,1.0,0.0,0.0,0.0,0
1732843410,-0.14143814,0.06374234,-0.08268027,0.9998834,0.0022623711,-0.0021896258,0.014947506,1.0,0.0,0.0,0.0,0
1732883364,-0.037025098,0.05768672,0.016960038,0.9998854,0.0020410218,-0.0013626099,0.014944331,1.0,0.0,0.0,0.0,0
1732923426,0.13274066,-0.064822376,0.1764861,0.9998848,0.002006008,-0.0009122231,0.015019741,1.0,0.0,0.0,0.0,0
1732966995,-0.18739861,0.08322196,-0.040814977,0.99989104,0.001397325,-9.234402e-05,0.01469585,1.0,0.0,0.0,0.0,0
1733011364,-0.09949536,0.27760974,-0.07844267,0.9998937,0.0012823165,0.00087281957,0.014499068,1.0,0.0,0.0,0.0,0
1733051017,-0.08105446,0.2235928,-0.05500584,0.99989504,0.001170539,0.0011919835,0.014392325,1.0,0.0,0.0,0.0,0
1733091998,-0.02865356,0.19512028,-0.008445212,0.9998943,0.001278143,0.0016001902,0.014392953,1.0,0.0,0.0,0.0,0
1733136002,-0.17815518,-0.064430095,-0.008260215,0.9998956,0.0011835158,0.0019116625,0.014276704,1.0,0.0,0.0,0.0,0
1733176019,-0.106230386,0.18825483,-0.111465745,0.99989504,0.0015016786,0.0026940987,0.014159322,1.0,0.0,0.0,0.0,0
1733220065,0.039437592,0.056871284,0.118093155,0.99988985,0.0018567805,0.0031510761,0.014384032,1.0,0.0,0.0,0.0,0
1733259996,-0.1877746,-0.004860484,0.059775498,0.9998905,0.0020156442,0.003460331,0.014250274,1.0,0.0,0.0,0.0,0
1733300590,-0.3018628,-0.12990667,-0.17797387,0.9998939,0.0024965745,0.0033755891,0.013947621,1.0,0.0,0.0,0.0,0
1733340622,-0.024799142,-0.12473879,-0.030641496,0.9998892,0.003570551,0.0032559666,0.014083048,1.0,0.0,0.0,0.0,0
1733384891,-0.18854797,-0.12923563,-0.0053103305,0.99989146,0.004172843,0.0024559384,0.013923134,1.0,0.0,0.0,0.0,0
1733424925,0.083273955,0.09828503,-0.020657348,0.99988943,0.00528802,0.0019860629,0.013757506,1.0,0.0,0.0,0.0,0
1733468878,0.123139836,0.14052866,0.11616286,0.99989015,0.005616454,0.0016649734,0.013614513,1.0,0.0,0.0,0.0,0
1733508890,0.14760214,-0.015970156,0.10761622,0.999895,0.005495602,0.0012776318,0.0133570265,1.0,0.0,0.0,0.0,0
1733552815,0.028731758,0.24407479,-0.013293347,0.9999031,0.004913568,0.0014533029,0.012946606,1.0,0.0,0.0,0.0,0
1733592834,0.06397944,-0.07780804,0.07822447,0.9999096,0.004463502,0.00059496134,0.012672156,1.0,0.0,0.0,0.0,0
1733637678,-0.19350919,-0.016870474,-0.08347117,0.99992037,0.0034127887,4.7606412e-05,0.012149947,1.0,0.0,0.0,0.0,0
1733681674,-0.20288351,-0.010976457,-0.087239094,0.99992776,0.0026250458,-0.0009548893,0.011691785,1.0,0.0,0.0,0.0,0
1733725651,0.052170828,0.13812165,-0.09472555,0.99993163,0.0022953628,-0.0018232124,0.0113228755,1.0,0.0,0.0,0.0,0
1733769714,-0.16276027,0.09306778,-0.17268082,0.9999354,0.0013782048,-0.0029750622,0.010887828,1.0,0.0,0.0,0.0,0
1733809735,-0.31577122,0.10872573,-0.14385217,0.99993527,0.00067428057,-0.0041510523,0.010574657,1.0,0.0,0.0,0.0,0
1733853692,-0.07245829,0.13067695,0.095416434,0.99993277,0.00065093674,-0.004979867,0.010457373,1.0,0.0,0.0,0.0,0
1733894177,-0.21615382,0.12081451,-0.1053541,0.9999348,0.00067233643,-0.005645742,0.009909548,1.0,0.0,0.0,0.0,0
1733938269,0.21983577,0.12831134,-0.04907691,0.9999351,0.0018479489,-0.0058309073,0.009619814,1.0,0.0,0.0,0.0,0
1733978460,0.2998331,-0.023679428,0.15392913,0.99993235,0.0030539627,-0.006012238,0.00948942,1.0,0.0,0.0,0.0,0
1734022558,0.03789615,0.06357775,-0.068937555,0.99993396,0.004297484,-0.005842361,0.008913568,1.0,0.0,0.0,0.0,0
1734066446,-0.089374736,0.0073563103,0.09172942,0.99992955,0.0055284407,-0.0058462652,0.008738371,1.0,0.0,0.0,0.0,0
1734110521,0.05657025,0.18909118,0.05010278,0.9999271,0.0069444105,-0.0052404786,0.008378857,1.0,0.0,0.0,0.0,0
1734150546,0.089887895,-0.002211039,0.008331543,0.9999217,0.008235271,-0.004890373,0.008065184,1.0,0.0,0.0,0.0,0
1734190595,0.00929961,-0.15261388,0.1318805,0.9999197,0.008948789,-0.0041170637,0.00797508,1.0,0.0,0.0,0.0,0
1734231263,-0.10943978,-0.106471755,-0.024759546,0.9999208,0.009538796,-0.0028222234,0.0077110664,1.0,0.0,0.0,0.0,0
1734275226,0.17008103,0.05422791,0.122704074,0.9999154,0.010365733,-0.0011425815,0.0077700648,1.0,0.0,0.0,0.0,0
1734315202,0.0016828271,0.09364287,0.05652956,0.99991447,0.010591885,0.00041819742,0.007661778,1.0,0.0,0.0,0.0,0
1734359065,0.3328335,0.037785668,0.0022146676,0.9999067,0.011172709,0.0020538897,0.007587814,1.0,0.0,0.0,0.0,0
1734399319,0.08158663,0.31657168,0.09145619,0.999903,0.011025699,0.0036654992,0.007686908,1.0,0.0,0.0,0.0,0
1734443251,0.17000867,0.2962251,-0.0552808,0.9998984,0.011092597,0.0049060513,0.0075007803,1.0,0.0,0.0,0.0,0
1734483824,0.17208125,0.27483127,0.09273651,0.9998977,0.010791861,0.005386046,0.0076984647,1.0,0.0,0.0,0.0,0
1734523830,-0.009989055,-0.1081436,0.0772808,0.99990505,0.010194946,0.0050971634,0.007753906,1.0,0.0,0.0,0.0,0
1734567825,-0.055407967,-0.12877664,0.02288706,0.99991393,0.009446388,0.004768443,0.007764043,1.0,0.0,0.0,0.0,0
1734608148,0.13904881,-0.1614482,0.13721502,0.99992126,0.008811703,0.0039005873,0.008044281,1.0,0.0,0.0,0.0,0
1734652025,-0.20881693,-0.13041541,-0.05148803,0.99993485,0.007677151,0.0026718643,0.008019968,1.0,0.0,0.0,0.0,0
1734692055,-0.007886537,-0.10118002,-0.044747714,0.99993527,0.0076879025,0.001805097,0.008194303,1.0,0.0,0.0,0.0,0
1734735868,-0.10290181,-0.04177283,-0.0041712513,0.99993783,0.0071977754,0.0009805082,0.008469438,1.0,0.0,0.0,0.0,0
1734776120,-0.28843564,-0.18245333,-0.060294807,0.9999392,0.0069112256,0.00050780334,0.008582073,1.0,0.0,0.0,0.0,0
1734820816,0.07373975,-0.14177567,0.058064066,0.999934,0.007246827,0.0003724821,0.0089067025,1.0,0.0,0.0,0.0,0
1734860884,-0.058463413,-0.030283071,-0.009135483,0.9999329,0.0070952084,0.0006607147,0.009141425,1.0,0.0,0.0,0.0,0
1734904888,-0.018487055,-0.16566321,0.01608302,0.9999275,0.007405023,0.000604646,0.009478065,1.0,0.0,0.0,0.0,0
1734944828,0.31441072,-0.057588868,0.12881929,0.99992067,0.0077116257,0.0011732272,0.009888944,1.0,0.0,0.0,0.0,0
1734988842,-0.16288613,-0.042937804,-0.06587195,0.99992263,0.0070099835,0.0016830292,0.010137761,1.0,0.0,0.0,0.0,0
1735029871,0.06943246,0.023737947,0.014739285,0.99991953,0.0066435905,0.0024404651,0.010534812,1.0,0.0,0.0,0.0,0
1735069647,-0.12156556,0.17597209,-0.0477751,0.99991953,0.005721264,0.0035812655,0.010744022,1.0,0.0,0.0,0.0,0
1735113684,-0.07482762,0.24151237,-0.08126664,0.99991786,0.004452331,0.0048807794,0.010986463,1.0,0.0,0.0,0.0,0
1735153738,-0.102276444,0.078764655,-0.07185251,0.99991417,0.0031131452,0.00584509,0.011306902,1.0,0.0,0.0,0.0,0
1735197637,0.14228328,-0.20760795,0.13586894,0.9999042,0.002159517,0.00695632,0.011777884,1.0,0.0,0.0,0.0,0
1735237652,0.11458721,0.11452475,0.064372405,0.99989396,0.00083866046,0.008271082,0.011959114,1.0,0.0,0.0,0.0,0
1735281631,0.048577596,-0.15160346,0.052193966,0.9998888,-0.0005139818,0.008665611,0.012130132,1.0,0.0,0.0,0.0,0
1735321711,0.10698028,0.07436391,0.003026694,0.9998799,-0.0014371086,0.009419554,0.012224894,1.0,0.0,0.0,0.0,0
1735366409,0.006339846,0.04197788,-0.08204027,0.99987435,-0.0023583516,0.009771969,0.012258939,1.0,0.0,0.0,0.0,0
1735406475,0.33886734,0.19970058,-0.019217791,0.99986714,-0.00243854,0.01026051,0.012432987,1.0,0.0,0.0,0.0,0
1735450569,0.010532673,0.044456568,0.008027227,0.999862,-0.0021658738,0.010694197,0.012529829,1.0,0.0,0.0,0.0,0
1735490437,0.12463196,0.10858896,-0.082079135,0.9998595,-0.0015913065,0.011015676,0.012534339,1.0,0.0,0.0,0.0,0
1735534196,0.13318276,-0.20835708,0.12331014,0.9998572,-0.0010506691,0.010874708,0.012891576,1.0,0.0,0.0,0.0,0
1735574231,-0.021856988,-0.33098245,0.08946116,0.99985456,-0.0008607867,0.011079746,0.01293846,1.0,0.0,0.0,0.0,0
1735615006,-0.07298971,-0.17587969,-0.0066812783,0.99985164,-0.00057230244,0.011307211,0.012984558,1.0,0.0,0.0,0.0,0
1735654973,-0.1419567,0.054311983,-0.16754647,0.9998485,-0.000281813,0.011540871,0.013035389,1.0,0.0,0.0,0.0,0
1735698976,0.23001806,-0.10321928,0.095175534,0.9998461,0.00043080954,0.011359301,0.013363927,1.0,0.0,0.0,0.0,0
1735739011,0.069523945,0.20161302,-0.055182677,0.9998457,0.00041149,0.011504965,0.013270658,1.0,0.0,0.0,0.0,0
1735783444,0.27728155,0.111304656,0.08426493,0.99984264,0.0011869686,0.011367117,0.01356923,1.0,0.0,0.0,0.0,0
1735827325,-0.1730686,-0.2050452,-0.0831844,0.9998478,0.0014343018,0.010790344,0.0136391325,1.0,0.0,0.0,0.0,0
1735871274,0.07493273,-0.1651234,0.08547604,0.9998463,0.0024563638,0.010187675,0.0140586635,1.0,0.0,0.0,0.0,0
1735916117,0.13912416,0.18851268,0.08679183,0.9998411,0.003255255,0.0099879345,0.014403925,1.0,0.0,0.0,0.0,0
1735955823,0.10016416,-0.032667324,0.05952824,0.99984264,0.0036799803,0.009274761,0.014674603,1.0,0.0,0.0,0.0,0
1736000075,-0.047557063,0.054459136,0.016577065,0.9998403,0.0035085324,0.009183774,0.014924155,1.0,0.0,0.0,0.0,0
1736040107,-0.19349864,-0.068646856,-0.12490705,0.9998414,0.0034090155,0.008913775,0.015037121,1.0,0.0,0.0,0.0,0
1736084015,-0.028611043,0.019656975,0.09093988,0.9998337,0.003293577,0.008652259,0.015711278,1.0,0.0,0.0,0.0,0
1736124200,-0.24928315,-0.2191097,-0.050691303,0.99983674,0.0026219506,0.008332494,0.015817316,1.0,0.0,0.0,0.0,0
1736168188,0.17880136,0.20157202,0.15513471,0.9998263,0.002337145,0.0087747155,0.016274314,1.0,0.0,0.0,0.0,0
1736208875,-0.16075021,0.19504157,-0.010788167,0.9998321,0.0010075351,0.008454032,0.016231878,1.0,0.0,0.0,0.0,0
1736252642,-0.04797585,0.18053594,-0.06371667,0.9998315,-0.00012214329,0.0082072,0.01642285,1.0,0.0,0.0,0.0,0
1736292621,-0.22972205,0.114095375,-0.10627087,0.99983406,-0.0016352591,0.0076797972,0.016441941,1.0,0.0,0.0,0.0,0
1736336585,0.17570667,-0.08465585,0.04495009,0.9998357,-0.0025439316,0.006812777,0.016606186,1.0,0.0,0.0,0.0,0
1736376872,-0.04054418,-0.09217841,-0.044289824,0.9998388,-0.003927099,0.0061316127,0.016411358,1.0,0.0,0.0,0.0,0
1736420886,0.16587202,-0.13338733,0.026810726,0.9998448,-0.004690056,0.005097224,0.016201833,1.0,0.0,0.0,0.0,0
1736460815,0.4086879,-0.09190926,0.15790302,0.9998479,-0.0053800526,0.0040394603,0.016095517,1.0,0.0,0.0,0.0,0
1736501700,-0.021375801,0.041270345,0.028871572,0.999853,-0.006342595,0.002840654,0.015674677,1.0,0.0,0.0,0.0,0
1736545417,0.06561397,0.057584856,-0.02145343,0.9998601,-0.007087765,0.0012002616,0.015102475,1.0,0.0,0.0,0.0,0
1736585366,0.18806756,-0.019377286,-0.0326261,0.99986726,-0.007276418,-0.0005671703,0.014570655,1.0,0.0,0.0,0.0,0
1736629760,0.14651293,-0.08174141,0.060061842,0.9998752,-0.0069596944,-0.0022452406,0.014002814,1.0,0.0,0.0,0.0,0
1736669421,0.16573726,0.1630218,-0.05016894,0.9998834,-0.006596202,-0.003766067,0.0132541405,1.0,0.0,0.0,0.0,0
1736713746,0.44479406,-0.029900003,0.09026774,0.99989,-0.0055691977,-0.0055223657,0.012591492,1.0,0.0,0.0,0.0,0
1736754421,-0.11190467,-0.17330188,-0.03891157,0.9998945,-0.005238484,-0.006646834,0.011809705,1.0,0.0,0.0,0.0,0
1736798459,0.11852747,0.03146772,-0.14993341,0.9999055,-0.004120244,-0.0072590737,0.010923538,1.0,0.0,0.0,0.0,0
1736838443,0.019138541,0.06305803,-0.05697039,0.999913,-0.0034468784,-0.0074461238,0.010337245,1.0,0.0,0.0,0.0,0
1736882434,-0.016421631,0.20618662,-0.16489984,0.99992794,-0.002302055,-0.0069944453,0.0094839055,1.0,0.0,0.0,0.0,0
1736926466,0.19137332,0.17661507,0.071055055,0.99994,-0.0008785983,-0.006321831,0.008906903,1.0,0.0,0.0,0.0,0
1736966461,-0.14430363,-0.011930489,-0.07355286,0.9999488,-8.3522034e-05,-0.006235311,0.007980595,1.0,0.0,0.0,0.0,0
1737010520,-0.08357866,0.06509434,0.0040933387,0.9999548,0.00168139,-0.005844375,0.0073154694,1.0,0.0,0.0,0.0,0
1737054441,0.026420772,0.11748836,-0.11007943,0.9999567,0.0035341643,-0.005641195,0.0065002814,1.0,0.0,0.0,0.0,0
1737095003,0.03406694,0.026259717,0.11273177,0.99995303,0.0050970134,-0.005555503,0.0061001987,1.0,0.0,0.0,0.0,0
1737135001,-0.29718834,-0.03220977,-0.1189588,0.9999498,0.0066622077,-0.0053366804,0.0052487366,1.0,0.0,0.0,0.0,0
1737179336,-0.09121251,-0.06683495,0.06422058,0.99994206,0.008196703,-0.0050978097,0.0047702165,1.0,0.0,0.0,0.0,0
1737219276,-0.22980472,0.017951436,-0.13270983,0.9999378,0.009320546,-0.0046148533,0.004047575,1.0,0.0,0.0,0.0,0
1737259019,0.029438747,-0.085275225,-0.05054628,0.9999304,0.010410042,-0.0042499998,0.0035849088,1.0,0.0,0.0,0.0,0
1737303297,-0.13643835,-0.0769421,-0.054311793,0.9999303,0.01080865,-0.0036949494,0.0029866113,1.0,0.0,0.0,0.0,0
1737343962,0.14707024,0.25831535,-0.025923764,0.9999263,0.011468106,-0.0029990757,0.002644202,1.0,0.0,0.0,0.0,0
1737388034,0.026582563,0.2632676,-0.10807348,0.999929,0.011463904,-0.002523482,0.0020544925,1.0,0.0,0.0,0.0,0
1737432113,-0.00943783,0.084161825,-0.096214466,0.99993324,0.011213638,-0.0023821066,0.0014905235,1.0,0.0,0.0,0.0,0
1737472033,-0.24322794,0.16733581,-0.04439827,0.9999388,0.010766247,-0.0023185126,0.001039352,1.0,0.0,0.0,0.0,0
1737516021,-0.22631812,0.17425892,-0.08086878,0.9999445,0.0102504,-0.0024223763,0.000501841,1.0,0.0,0.0,0.0,0
1737556050,-0.025171103,0.0884845,-0.086596146,0.99994636,0.010010229,-0.002654364,0.00013607439,1.0,0.0,0.0,0.0,0
1737599862,-0.10054497,0.0598784,-0.14542603,0.9999558,0.009037106,-0.0026104264,-0.0002855511,1.0,0.0,0.0,0.0,0
1737641046,0.062216856,0.041803736,0.1345678,0.9999643,0.00810433,-0.0024196594,-0.00025053174,1.0,0.0,0.0,0.0,0
1737684924,0.15863717,0.21454641,-0.014562665,0.9999741,0.006936172,-0.0018743997,-0.0005560043,1.0,0.0,0.0,0.0,0
1737728948,0.13622463,0.15969418,-0.11756846,0.99998206,0.005772437,-0.0014565216,-0.0007682715,1.0,0.0,0.0,0.0,0
1737768916,0.2417251,0.06415326,0.1575298,0.9999883,0.0046555316,-0.0012559113,-0.00045105544,1.0,0.0,0.0,0.0,0
1737812826,0.30323556,0.031548765,0.101983555,0.99999183,0.003953403,-0.00076897885,-0.0003321398,1.0,0.0,0.0,0.0,0
1737852894,0.056335207,0.06993269,0.03564605,0.9999958,0.002895247,-0.00023618541,-0.00020725135,1.0,0.0,0.0,0.0,0
1737897604,0.14617293,-0.08886439,0.075537175,0.9999976,0.0022047118,-0.00012592912,0.00014730742,1.0,0.0,0.0,0.0,0
1737937604,-0.038286507,0.2381048,-0.016664183,0.9999992,0.001178001,8.2177634e-05,0.00043238373,1.0,0.0,0.0,0.0,0
1737981638,0.11466442,0.058321454,0.13079147,0.99999934,0.00044941343,-0.00042322074,0.0009974946,1.0,0.0,0.0,0.0,0
1738021676,-0.35686207,0.011874858,-0.118301496,0.9999984,-0.0008193813,-0.0011565135,0.0011625001,1.0,0.0,0.0,0.0,0
1738065642,-0.223264,-0.15599132,-0.011956601,0.9999952,-0.0015370899,-0.0020525244,0.0017285529,1.0,0.0,0.0,0.0,0
1738105422,-0.24684294,0.17512207,-0.033745665,0.99999213,-0.0022219096,-0.0024284716,0.0022073593,1.0,0.0,0.0,0.0,0
1738145418,-0.11225014,-0.17491291,0.1414239,0.9999857,-0.002761916,-0.0035897843,0.0028463346,1.0,0.0,0.0,0.0,0
1738190585,-0.3794598,-0.111374065,0.06412993,0.9999774,-0.0039641727,-0.004272065,0.003359272,1.0,0.0,0.0,0.0,0
1738230462,-0.021611242,0.119013414,0.047563095,0.9999727,-0.0043726335,-0.0045709033,0.0038174752,1.0,0.0,0.0,0.0,0
1738274494,-0.07329257,0.206292,-0.02655438,0.9999642,-0.0053557316,-0.0049588936,0.0042879605,1.0,0.0,0.0,0.0,0
1738314485,-0.034414344,-0.008164336,0.18865186,0.99995214,-0.0060910014,-0.005895704,0.004896187,1.0,0.0,0.0,0.0,0
1738358397,-0.08178507,0.22119035,0.019590557,0.99994165,-0.007011329,-0.006308402,0.005275189,1.0,0.0,0.0,0.0,0
1738398482,-0.103178985,-0.17342575,0.07504665,0.999923,-0.0077307266,-0.007787244,0.0058074184,1.0,0.0,0.0,0.0,0
1738443323,-0.360303,-0.007154206,-0.011605275,0.9999059,-0.008558438,-0.008730637,0.0062304446,1.0,0.0,0.0,0.0,0
1738486977,0.016418204,0.14608543,0.18148436,0.99989665,-0.008231996,-0.009532592,0.0069326423,1.0,0.0,0.0,0.0,0
1738531000,0.22836508,-0.013922559,0.09181844,0.99989164,-0.0073855217,-0.010363522,0.00739966,1.0,0.0,0.0,0.0,0
1738574957,0.13892603,0.03923114,0.048227467,0.99988633,-0.0064120204,-0.011050398,0.008000991,1.0,0.0,0.0,0.0,0
1738614984,-0.050279714,-0.114376806,-0.04129202,0.99987894,-0.0055318,-0.011794058,0.008516737,1.0,0.0,0.0,0.0,0
1738659344,0.26040667,-0.06657129,0.263869,0.99987525,-0.0038735094,-0.012050426,0.009460224,1.0,0.0,0.0,0.0,0
1738699860,0.28418085,0.10813643,0.0399554,0.99987674,-0.0027555772,-0.011881084,0.009893293,1.0,0.0,0.0,0.0,0
1738740167,0.11337032,0.01758053,0.1631103,0.9998699,-0.0019111978,-0.012009302,0.010598381,1.0,0.0,0.0,0.0,0
1738780088,-0.088921875,0.059705883,-0.0021917045,0.99986726,-0.0004454205,-0.011980547,0.011034163,1.0,0.0,0.0,0.0,0
1738824057,0.13072158,-0.020282622,0.047358166,0.99985677,0.0021439816,-0.011876005,0.011871654,1.0,0.0,0.0,0.0,0
1738864052,0.35385305,0.16677117,0.17591423,0.99984175,0.0048389523,-0.011577713,0.012614426,1.0,0.0,0.0,0.0,0
1738908157,0.06541236,0.0980058,-0.111099616,0.99982494,0.007521356,-0.011096011,0.0130529,1.0,0.0,0.0,0.0,0
1738947802,-0.14304985,-0.07209711,-0.16334009,0.99980325,0.009687635,-0.010700867,0.013608265,1.0,0.0,0.0,0.0,0
1738992151,0.07904072,-0.03243461,0.15821841,0.9997691,0.01222416,-0.009854259,0.014671819,1.0,0.0,0.0,0.0,0
1739032051,0.11377735,0.11985187,0.20158309,0.999741,0.014119071,-0.009147355,0.01533006,1.0,0.0,0.0,0.0,0
1739076886,0.30335617,-0.008874102,0.033509348,0.9997056,0.016112085,-0.008867251,0.015829844,1.0,0.0,0.0,0.0,0
1739116831,0.19118112,0.062087707,-0.011798485,0.99968266,0.017077483,-0.008743294,0.016321683,1.0,0.0,0.0,0.0,0
1739160869,0.30391973,0.009488941,0.041185718,0.99964637,0.01841144,-0.009189905,0.016843079,1.0,0.0,0.0,0.0,0
1739200930,0.16172086,0.017453928,-0.007443502,0.9996254,0.018918188,-0.009842925,0.017157868,1.0,0.0,0.0,0.0,0
1739244823,-0.18494019,-0.26540333,-0.049794473,0.99960166,0.019062126,-0.011241273,0.017518213,1.0,0.0,0.0,0.0,0
1739285606,0.025276233,-0.22147083,0.13128604,0.9995768,0.019338964,-0.012166061,0.01800909,1.0,0.0,0.0,0.0,0
1739325686,0.070862286,0.014712025,0.016631577,0.9995675,0.019378804,-0.012502729,0.01825163,1.0,0.0,0.0,0.0,0
1739365667,-0.14573015,-0.03464636,0.06550091,0.9995683,0.018803122,-0.012919773,0.018514307,1.0,0.0,0.0,0.0,0
1739409647,0.15964314,-0.10116395,-0.012675994,0.9995552,0.018865034,-0.013545564,0.018713742,1.0,0.0,0.0,0.0,0
1739449649,0.2689049,0.05242897,0.007200615,0.9995513,0.01871345,-0.013667254,0.01898464,1.0,0.0,0.0,0.0,0
1739493680,0.1388881,-0.034065507,0.046943195,0.99954826,0.018474896,-0.013917314,0.01919384,1.0,0.0,0.0,0.0,0
1739533712,0.104823574,-0.11233115,-0.05684645,0.9995462,0.018625064,-0.01388766,0.019176196,1.0,0.0,0.0,0.0,0
1739573701,0.14113802,0.21846849,-0.0018015581,0.9995439,0.01895652,-0.01351965,0.01923543,1.0,0.0,0.0,0.0,0
1739618493,-0.144248,-0.25704515,-0.039871108,0.99952966,0.019184265,-0.0143085215,0.019175349,1.0,0.0,0.0,0.0,0
1739658389,-0.15280914,-0.20704094,-0.10420675,0.9995248,0.019340962,-0.014718321,0.018964104,1.0,0.0,0.0,0.0,0
1739702482,0.29243755,-0.028610757,0.10333051,0.99950856,0.019784361,-0.015323045,0.018881103,1.0,0.0,0.0,0.0,0
1739742494,0.27388406,-0.21528834,0.1382009,0.99950933,0.01930091,-0.016312655,0.018510502,1.0,0.0,0.0,0.0,0
1739786432,-0.30522743,-0.29349694,-0.18328163,0.9995302,0.018033136,-0.0174352,0.017612388,1.0,0.0,0.0,0.0,0
1739826390,-0.0019159297,0.0667448,-0.15974098,0.9995434,0.017448826,-0.017854324,0.017024858,1.0,0.0,0.0,0.0,0
1739871417,-0.35602996,-0.0728173,-0.057620257,0.99955523,0.01581114,-0.01911121,0.016557027,1.0,0.0,0.0,0.0,0
1739914963,0.11390706,0.29425704,0.042420134,0.9995623,0.014991912,-0.019682173,0.016223151,1.0,0.0,0.0,0.0,0
1739959336,-0.36116394,0.04786421,-0.26008075,0.99958557,0.013156301,-0.020596914,0.015214317,1.0,0.0,0.0,0.0,0
1740003355,-0.13530262,-0.07287662,-0.009708137,0.9995965,0.011798627,-0.021110378,0.014902333,1.0,0.0,0.0,0.0,0
1740043366,0.120525345,0.22527404,0.124231756,0.9996127,0.010832413,-0.021152278,0.0144843655,1.0,0.0,0.0,0.0,0
1740087292,-0.079148926,0.20510681,-0.1488495,0.99964136,0.00962899,-0.020949803,0.013624529,1.0,0.0,0.0,0.0,0
1740127015,0.016880022,0.24408105,0.03856004,0.99965554,0.009098508,-0.020627666,0.013439534,1.0,0.0,0.0,0.0,0
1740172110,0.017565655,0.1625636,-0.06389305,0.9996771,0.008886808,-0.019967047,0.012961711,1.0,0.0,0.0,0.0,0
1740211991,-0.31860405,-0.11713976,-0.10215993,0.99968696,0.008623011,-0.01986261,0.012536612,1.0,0.0,0.0,0.0,0
1740256047,0.19208732,-0.04454886,0.23380531,0.9996962,0.0094935205,-0.01886979,0.012699596,1.0,0.0,0.0,0.0,0
1740299829,-0.076273784,-0.004689754,-0.094935805,0.99971914,0.009663916,-0.01782499,0.012266932,1.0,0.0,0.0,0.0,0
1740343816,0.2676277,-0.014567452,0.16804016,0.99971807,0.010736922,-0.01701267,0.01261103,1.0,0.0,0.0,0.0,0
1740384011,-0.039366696,-0.1778937,0.0009882996,0.9997301,0.010995422,-0.016256208,0.012433565,1.0,0.0,0.0,0.0,0
1740428179,0.25262034,-0.07640109,0.055905964,0.9997257,0.012332468,-0.015496094,0.012504801,1.0,0.0,0.0,0.0,0
1740468870,0.28549126,0.052276302,0.17269556,0.99972266,0.013256552,-0.014817181,0.012628798,1.0,0.0,0.0,0.0,0
1740508909,0.17977981,-0.061920535,0.16285539,0.9997205,0.013912829,-0.0143303,0.012652169,1.0,0.0,0.0,0.0,0
1740552625,0.07917378,-0.059457052,-0.05360144,0.9997253,0.014357827,-0.013747656,0.012419744,1.0,0.0,0.0,0.0,0
1740592830,0.27261823,0.037032235,0.12265626,0.99972975,0.014501088,-0.013000595,0.012695553,1.0,0.0,0.0,0.0,0
1740636600,-0.085566424,-0.0732748,-0.14008245,0.9997481,0.013987521,-0.012241274,0.012579589,1.0,0.0,0.0,0.0,0
1740676867,-0.13299125,-0.12750477,-0.1884693,0.9997637,0.013484333,-0.011391345,0.0126844235,1.0,0.0,0.0,0.0,0
1740720628,0.060256563,-0.13736294,0.1408805,0.9997745,0.01319131,-0.010366613,0.013019085,1.0,0.0,0.0,0.0,0
1740761605,0.091851205,-0.014321709,0.086283356,0.9997994,0.012135857,-0.009389999,0.012878394,1.0,0.0,0.0,0.0,0
1740805615,-0.24219748,-0.03257229,-0.010348856,0.9998211,0.010848515,-0.008616452,0.012877755,1.0,0.0,0.0,0.0,0
1740845609,-0.2425861,-0.3914892,-0.05461114,0.99983513,0.010039551,-0.00808625,0.012789258,1.0,0.0,0.0,0.0,0
1741816025,-0.32357746,0.031622093,-0.105135754,0.99991155,0.0088999,-0.0015392074,0.009768386,1.0,0.0,0.0,0.0,0
1741856045,-0.31716433,-0.15130007,-0.19118555,0.9999165,0.008291707,-0.002480421,0.009598314,1.0,0.0,0.0,0.0,0
1741900875,0.15789492,-0.12593865,0.30458456,0.9999094,0.008405104,-0.0028128575,0.010137275,1.0,0.0,0.0,0.0,0
1742819228,0.105797544,0.10842247,0.043683887,0.9997991,0.015005155,-0.0032819305,0.012879308,1.0,0.0,0.0,0.0,0
1742863320,-0.2726036,-0.4139566,-0.017993841,0.99980617,0.014151003,-0.0046387273,0.012877828,1.0,0.0,0.0,0.0,0
1742903376,-0.03231172,0.13853803,-0.13756563,0.99980944,0.01389618,-0.005012865,0.012764094,1.0,0.0,0.0,0.0,0
1742948085,0.13929804,-0.005325564,0.07651049,0.9997986,0.013633115,-0.006606901,0.013166446,1.0,0.0,0.0,0.0,0
1742988078,-0.07646532,-0.22424434,0.01581107,0.9998004,0.01296529,-0.00788914,0.013001402,1.0,0.0,0.0,0.0,0
1743032091,-0.15707165,-0.14280653,0.02406379,0.9997963,0.012526427,-0.008932727,0.013067509,1.0,0.0,0.0,0.0,0
1743072078,-0.06364767,-0.18335809,0.029907858,0.9997929,0.012287298,-0.009738504,0.012979949,1.0,0.0,0.0,0.0,0
1743116017,-0.11665223,0.006352063,0.07440713,0.99978954,0.012039338,-0.010396313,0.012956861,1.0,0.0,0.0,0.0,0
1743155811,-0.19420604,-0.035970584,-0.038476005,0.99978757,0.011616704,-0.0112160295,0.012808376,1.0,0.0,0.0,0.0,0
1743200010,0.14099818,-0.13277806,0.13144296,0.99977684,0.011641614,-0.011958631,0.012955379,1.0,0.0,0.0,0.0,0
1743240068,0.005753109,0.24280113,0.07941213,0.9997798,0.01134065,-0.012143013,0.012814741,1.0,0.0,0.0,0.0,0
1743280915,-0.2862867,-0.0802629,0.040849984,0.99977785,0.01071263,-0.013097561,0.012566954,1.0,0.0,0.0,0.0,0
1743324824,-0.059709217,-0.005610854,-0.026875194,0.9997693,0.010891103,-0.01370406,0.012450274,1.0,0.0,0.0,0.0,0
1743364800,0.25697038,0.23006766,-0.03344608,0.9997625,0.011110206,-0.014056333,0.012414664,1.0,0.0,0.0,0.0,0
1743408949,0.077745594,-0.050836645,0.07812649,0.99975276,0.010626639,-0.015030236,0.012473197,1.0,0.0,0.0,0.0,0
1743448884,0.06767078,-0.20081994,0.015327643,0.99974585,0.010191797,-0.015905557,0.012303488,1.0,0.0,0.0,0.0,0
1743492857,0.0018982753,-0.33643356,0.10313145,0.9997304,0.009725271,-0.017029496,0.012431799,1.0,0.0,0.0,0.0,0
1743532851,-0.13044432,-0.18749785,-0.04578836,0.9997276,0.0093078185,-0.017559262,0.0122387335,1.0,0.0,0.0,0.0,0
1743577686,0.07152993,-0.08724876,0.052117657,0.9997087,0.009220749,-0.018551117,0.012392312,1.0,0.0,0.0,0.0,0
1743617635,-0.1613326,-0.20580512,0.010660687,0.9996988,0.008675721,-0.019388268,0.012291732,1.0,0.0,0.0,0.0,0
1743657650,-0.052894063,-0.2715129,-0.11536859,0.99968296,0.008773158,-0.02019263,0.012224195,1.0,0.0,0.0,0.0,0
1743701613,0.052877583,-0.032429848,0.16036732,0.99966115,0.008933904,-0.02094554,0.012617028,1.0,0.0,0.0,0.0,0
1743745669,-0.12931255,0.07584621,-0.14381613,0.99964905,0.00891059,-0.021640455,0.012416608,1.0,0.0,0.0,0.0,0
1743785745,-0.29851905,-0.25241712,0.013092051,0.99962306,0.009129921,-0.022543157,0.01273918,1.0,0.0,0.0,0.0,0
1743829625,-0.023599226,0.0513118,0.050784443,0.99960953,0.009709175,-0.022748418,0.013005495,1.0,0.0,0.0,0.0,0
1743870462,0.40671027,0.31655523,0.079702534,0.9995951,0.010580696,-0.022865659,0.013225726,1.0,0.0,0.0,0.0,0
1743910231,0.22741894,-0.00053374516,0.20086716,0.999579,0.010676743,-0.02338241,0.013456287,1.0,0.0,0.0,0.0,0
1743950422,0.26457936,0.3391792,0.14499032,0.9995786,0.010888514,-0.023209365,0.013624535,1.0,0.0,0.0,0.0,0
1743994213,0.129193,0.15355462,-0.1981323,0.9995843,0.010909568,-0.023070186,0.013416033,1.0,0.0,0.0,0.0,0
1744038573,0.0963337,-0.12630804,0.16024236,0.99957645,0.011036837,-0.023047723,0.01392477,1.0,0.0,0.0,0.0,0
1744078504,-0.025994902,-0.06801603,0.1124879,0.99958324,0.011115446,-0.022570778,0.014156669,1.0,0.0,0.0,0.0,0
1744122206,0.048885383,-0.10606783,-0.09297224,0.9995916,0.01159234,-0.021911466,0.014218279,1.0,0.0,0.0,0.0,0
1744163355,0.15247376,-0.21730658,0.14156309,0.9995927,0.012196564,-0.021169638,0.014744838,1.0,0.0,0.0,0.0,0
1744207221,-0.11071294,-0.07785877,0.059339758,0.9996129,0.01236322,-0.020010749,0.014860361,1.0,0.0,0.0,0.0,0
1744247016,-0.032831497,-0.12604195,-0.0010329189,0.9996298,0.01263675,-0.018861346,0.014998351,1.0,0.0,0.0,0.0,0
1744291327,-0.22280549,0.18920699,-0.06947862,0.9996594,0.01225748,-0.017427683,0.015070574,1.0,0.0,0.0,0.0,0
1744331025,-0.12374322,0.038100656,-0.024534198,0.9996778,0.012026674,-0.016475657,0.015108848,1.0,0.0,0.0,0.0,0
1744375202,-0.12040514,0.16436177,-0.081340484,0.99970716,0.011380489,-0.015132086,0.015069859,1.0,0.0,0.0,0.0,0
1744415235,-0.1539893,0.062100843,-0.046759576,0.9997272,0.010620375,-0.014326182,0.015085881,1.0,0.0,0.0,0.0,0
1744460012,0.0103323385,-0.05907705,0.15856886,0.99974656,0.009996777,-0.013245658,0.015216898,1.0,0.0,0.0,0.0,0
1744504073,-0.07259368,-0.22816148,-0.06499374,0.9997704,0.009140185,-0.01248498,0.01482243,1.0,0.0,0.0,0.0,0
1744544031,-0.06151009,-0.090170175,-0.025015902,0.9997906,0.008678096,-0.011279873,0.014705006,1.0,0.0,0.0,0.0,0
1744588230,0.25956944,0.16954249,0.09052672,0.99980474,0.008763663,-0.010127295,0.01452866,1.0,0.0,0.0,0.0,0
1744628107,0.06868751,0.0077775014,0.069560796,0.9998194,0.008580141,-0.009246909,0.01421316,1.0,0.0,0.0,0.0,0
1744672069,-0.19052131,0.18649127,-0.21909256,0.99983877,0.008305023,-0.008201334,0.013648628,1.0,0.0,0.0,0.0,0
1744712038,-0.04012588,-0.0023261132,-0.051670592,0.99984384,0.008337102,-0.007848618,0.013463186,1.0,0.0,0.0,0.0,0
1744752627,-0.047003374,-0.03382243,0.11002077,0.99985486,0.007926468,-0.0072963513,0.01319965,1.0,0.0,0.0,0.0,0
1744793072,-0.06953434,0.18637155,-0.015173281,0.99986553,0.0077137793,-0.0068937265,0.012732088,1.0,0.0,0.0,0.0,0
1744836868,-0.27967063,0.033263884,-0.12460213,0.9998784,0.007015939,-0.0066731423,0.012229853,1.0,0.0,0.0,0.0,0
1744876915,-0.26883352,0.24298385,-0.13488705,0.99988747,0.0068172636,-0.006109032,0.011885696,1.0,0.0,0.0,0.0,0
1744920782,0.021580795,0.19017063,0.022181045,0.99989384,0.006715525,-0.0055649932,0.011675415,1.0,0.0,0.0,0.0,0
1744960774,-0.3944857,0.050014034,-0.14704345,0.9999059,0.006024094,-0.0053959186,0.011084226,1.0,0.0,0.0,0.0,0
1745005402,0.13013944,0.19160725,-0.105596185,0.99991137,0.006053453,-0.0049043708,0.0107968,1.0,0.0,0.0,0.0,0
1745045634,0.19284087,0.1591499,0.038338672,0.99991524,0.005613203,-0.0051504285,0.010559317,1.0,0.0,0.0,0.0,0
1745089447,0.0927187,0.11055998,0.0047203293,0.9999215,0.0049390025,-0.0054965573,0.010117885,1.0,0.0,0.0,0.0,0
1745129425,0.33485743,-0.15719418,0.12020078,0.99992174,0.00448181,-0.0062061236,0.009898544,1.0,0.0,0.0,0.0,0
1745173780,-0.22117688,-0.20972922,-0.15175077,0.9999256,0.0035019314,-0.007017443,0.0093413405,1.0,0.0,0.0,0.0,0
1745213702,0.21600053,-0.18279374,0.04643479,0.9999195,0.0035141008,-0.0077803237,0.00939463,1.0,0.0,0.0,0.0,0
1745253708,-0.095083095,-0.20123282,0.060095724,0.99991727,0.0029667295,-0.008429053,0.00925353,1.0,0.0,0.0,0.0,0
1745297703,-0.10666451,-0.21828665,-0.07755986,0.9999088,0.002645074,-0.009749886,0.008972233,1.0,0.0,0.0,0.0,0
1745338228,-0.2239671,-0.15340011,-0.042159867,0.9998998,0.0021397283,-0.010805888,0.008892912,1.0,0.0,0.0,0.0,0
1745378421,0.1148801,-0.18881302,-0.012034334,0.99988806,0.0020777483,-0.011856349,0.008894062,1.0,0.0,0.0,0.0,0
1745422250,-0.14649871,-0.19896926,-0.13186403,0.9998756,0.001659416,-0.013063293,0.008693206,1.0,0.0,0.0,0.0,0
1745466566,0.020373918,-0.028818808,0.13936654,0.9998613,0.0019830167,-0.013881014,0.00899159,1.0,0.0,0.0,0.0,0
1745510119,-0.059005857,0.05620316,-0.058963887,0.9998507,0.0021716934,-0.014660519,0.008890983,1.0,0.0,0.0,0.0,0
1745550535,-0.09012807,-0.04756665,0.12575725,0.99983674,0.0027667873,-0.015315705,0.0091805225,1.0,0.0,0.0,0.0,0
1745591026,-0.09783563,-0.14921956,0.21692038,0.9998223,0.0035651636,-0.015907282,0.009468904,1.0,0.0,0.0,0.0,0
1745635282,0.10460684,0.139851,0.09231959,0.99982095,0.00427377,-0.015823191,0.009460624,1.0,0.0,0.0,0.0,0
1745675005,0.017487084,0.04939845,0.103268996,0.9998141,0.004528049,-0.016038153,0.009708805,1.0,0.0,0.0,0.0,0
1745719245,0.11615117,0.1806875,-0.13053624,0.9998109,0.005251462,-0.01597155,0.009775347,1.0,0.0,0.0,0.0,0
1745759335,0.003189873,-0.044176772,0.03381379,0.9997963,0.0055427803,-0.01650977,0.01021317,1.0,0.0,0.0,0.0,0
1745803334,0.012253727,-0.109239615,-0.009870075,0.9997825,0.006297808,-0.016893176,0.01049235,1.0,0.0,0.0,0.0,0
1745843398,0.07466626,0.013012797,0.025023261,0.9997668,0.0070037306,-0.017308336,0.010847245,1.0,0.0,0.0,0.0,0
1745887290,0.14501269,-0.064833395,0.109384745,0.9997446,0.0074668475,-0.018122116,0.011258472,1.0,0.0,0.0,0.0,0
1745928014,0.15705498,-0.0049730917,0.00697531,0.9997367,0.007625087,-0.018369872,0.011443033,1.0,0.0,0.0,0.0,0
1745972115,0.28266814,0.03747586,0.03538851,0.99972445,0.007967492,-0.0186528,0.01182333,1.0,0.0,0.0,0.0,0
1746012022,0.26198334,-0.10401732,0.0741117,0.99972403,0.0076140505,-0.018636592,0.012107472,1.0,0.0,0.0,0.0,0
1746052048,0.1752864,-0.047428027,0.032985926,0.99973726,0.007098601,-0.017971544,0.012332804,1.0,0.0,0.0,0.0,0
1746096106,-0.048931424,-0.17892846,0.015929144,0.99974644,0.0065076444,-0.01750868,0.012580879,1.0,0.0,0.0,0.0,0
1746139989,-0.4766863,-0.02520246,-0.10646672,0.9997689,0.005195574,-0.016635727,0.012589698,1.0,0.0,0.0,0.0,0
1746180938,-0.16574226,0.07639997,0.04173971,0.9997869,0.004405113,-0.015709363,0.012653443,1.0,0.0,0.0,0.0,0
1746220793,-0.028221028,-0.0076939976,0.097463414,0.99979955,0.0037328086,-0.014927373,0.012815775,1.0,0.0,0.0,0.0,0
1746264954,-0.124563105,0.30699152,-0.10854157,0.99982613,0.0027547162,-0.013396527,0.01268002,1.0,0.0,0.0,0.0,0
1746304887,-0.09006297,0.15841994,-0.1384363,0.9998395,0.0021330614,-0.012487813,0.012679448,1.0,0.0,0.0,0.0,0
1746348964,-0.032840624,0.20525627,-0.114096254,0.9998571,0.001603985,-0.011037561,0.0127054695,1.0,0.0,0.0,0.0,0
1746388953,-0.16108088,0.005837161,-0.037482537,0.99986506,0.0011749038,-0.010330429,0.012723561,1.0,0.0,0.0,0.0,0
1746433655,-0.044778213,0.019965786,0.0062020896,0.999872,0.000938643,-0.009724412,0.012666684,1.0,0.0,0.0,0.0,0
1746473671,0.03227206,-0.11151455,0.06207906,0.9998711,0.0010804127,-0.009723883,0.012734444,1.0,0.0,0.0,0.0,0
1746517462,-0.02790305,0.17349096,-0.07402299,0.9998787,0.001141103,-0.009300359,0.012446471,1.0,0.0,0.0,0.0,0
1746557431,0.19107477,-0.011517904,0.13090268,0.9998775,0.0015069611,-0.009366077,0.012454886,1.0,0.0,0.0,0.0,0
1746601702,-0.10400631,0.12714103,-0.09660094,0.9998835,0.0015997478,-0.009253119,0.012038775,1.0,0.0,0.0,0.0,0
1746645781,-0.08195978,-0.020588227,-0.062446788,0.9998837,0.0020933312,-0.009412809,0.011819433,1.0,0.0,0.0,0.0,0
1746689589,0.16536374,-0.099959925,0.08778945,0.9998804,0.0030257718,-0.009589563,0.011752076,1.0,0.0,0.0,0.0,0
1746730395,0.14159474,0.0013692584,0.0035921957,0.99987996,0.0034465634,-0.009884255,0.011431982,1.0,0.0,0.0,0.0,0
1746770259,0.16593884,0.1722331,-0.09181785,0.9998837,0.003204909,-0.009972368,0.011088572,1.0,0.0,0.0,0.0,0
1746814444,0.3505815,0.008797551,-0.010129839,0.9998809,0.0030706618,-0.010410173,0.010977648,1.0,0.0,0.0,0.0,0
1746854541,0.109902374,-0.0390711,-0.024094738,0.99987966,0.002297584,-0.010904996,0.010796911,1.0,0.0,0.0,0.0,0
1746898458,0.014451398,-0.28681472,0.044749055,0.99987334,0.001983658,-0.011604757,0.010711833,1.0,0.0,0.0,0.0,0
1746938495,0.08070488,-0.16161484,0.046902362,0.9998724,0.0019576268,-0.011769783,0.0106314635,1.0,0.0,0.0,0.0,0
1746982473,-0.06211002,-0.23980066,0.06729175,0.99986416,0.0016175233,-0.012496593,0.010629418,1.0,0.0,0.0,0.0,0
1747022447,0.1085274,-0.13027847,0.13357165,0.99985826,0.0016021935,-0.012846863,0.010772369,1.0,0.0,0.0,0.0,0
1747067295,0.1149614,0.13841483,0.11006684,0.999856,0.0010437032,-0.013100864,0.010743235,1.0,0.0,0.0,0.0,0
1747111248,-0.14720814,0.008274946,-0.11326624,0.99985164,0.00023574986,-0.013526006,0.010666067,1.0,0.0,0.0,0.0,0
1747155025,-0.17154762,-0.21087055,0.015301888,0.9998414,-0.00043733075,-0.013989742,0.011012162,1.0,0.0,0.0,0.0,0
1747199421,-0.0096679395,-0.063937105,0.09149327,0.9998402,-0.000650278,-0.0138521055,0.011285449,1.0,0.0,0.0,0.0,0
1747239260,0.16420093,0.13006426,0.12096395,0.99984056,-0.0009918045,-0.013601257,0.0115303565,1.0,0.0,0.0,0.0,0
1747283293,-0.1132968,0.05651087,0.009960889,0.9998387,-0.0019984448,-0.013614419,0.01154216,1.0,0.0,0.0,0.0,0
1747323785,-0.20429839,0.20222566,0.0150593845,0.99984115,-0.0027080344,-0.013194496,0.011678497,1.0,0.0,0.0,0.0,0
1747368046,0.103659615,0.29374063,-0.07855778,0.99984694,-0.0030431305,-0.01271348,0.011632158,1.0,0.0,0.0,0.0,0
1747408036,-0.0849944,0.05263193,-0.053436823,0.9998443,-0.003262161,-0.012848068,0.011650696,1.0,0.0,0.0,0.0,0
1747447838,-0.22508314,0.20749001,-0.16778207,0.99985266,-0.0028911382,-0.012304601,0.011618255,1.0,0.0,0.0,0.0,0
1747488044,-0.21392936,-0.005675539,-0.12569846,0.9998545,-0.0019985284,-0.012290147,0.011659692,1.0,0.0,0.0,0.0,0
1747531999,-0.08548718,0.093785316,0.12333221,0.9998581,-0.00075878605,-0.011860901,0.01194083,1.0,0.0,0.0,0.0,0
1747572015,-0.23288523,0.20485817,-0.021938449,0.9998619,0.0004148636,-0.011639271,0.011855806,1.0,0.0,0.0,0.0,0
1747616589,0.44578546,0.30544806,0.18690634,0.9998658,0.0024279165,-0.010872488,0.012022162,1.0,0.0,0.0,0.0,0
1747656865,0.19466642,0.23550144,0.079552874,0.99986905,0.0033272244,-0.010546432,0.011815607,1.0,0.0,0.0,0.0,0
1747700866,0.36994648,0.058666956,-0.0036302612,0.9998674,0.0052390792,-0.010040337,0.011707141,1.0,0.0,0.0,0.0,0
1747740615,0.12402095,0.042163413,0.042774916,0.9998653,0.006321159,-0.009615328,0.0117083825,1.0,0.0,0.0,0.0,0
1747784854,-0.081728116,-0.26744223,-0.09326416,0.9998562,0.0075421487,-0.00989915,0.011526355,1.0,0.0,0.0,0.0,0
1747825679,0.01157582,-0.0911747,0.014914076,0.9998465,0.008953911,-0.0096417405,0.011571604,1.0,0.0,0.0,0.0,0
1747865728,-0.11828276,-0.04495668,-0.09846455,0.99983853,0.010001305,-0.009700518,0.011355836,1.0,0.0,0.0,0.0,0
1747905374,0.08482864,-0.051982787,0.06271443,0.9998238,0.011344517,-0.009625429,0.011452454,1.0,0.0,0.0,0.0,0
1747949408,-0.10753533,0.017871533,-0.08316918,0.9998139,0.012508343,-0.009435086,0.011254904,1.0,0.0,0.0,0.0,0
1747989396,0.036293782,0.054151274,-0.17794822,0.9998004,0.013831711,-0.009073435,0.011204807,1.0,0.0,0.0,0.0,0
1748033705,-0.15266512,0.017116975,-0.11790336,0.99978846,0.014714958,-0.008920378,0.011267738,1.0,0.0,0.0,0.0,0
1748073364,-0.31707788,-0.0684054,-0.15664044,0.9997788,0.015453258,-0.008793374,0.011244513,1.0,0.0,0.0,0.0,0
1748114531,0.17570226,0.070757605,0.018245194,0.99975574,0.016872365,-0.008578049,0.011416022,1.0,0.0,0.0,0.0,0
1748158659,-0.17553517,0.06684466,-0.10511279,0.99975336,0.01716453,-0.008518929,0.011231744,1.0,0.0,0.0,0.0,0
1748198528,-0.15227623,0.11694473,-0.17589569,0.9997434,0.017900147,-0.008334484,0.011101328,1.0,0.0,0.0,0.0,0
1748242461,-0.004607292,0.24620685,-0.11077355,0.9997306,0.018675055,-0.007989294,0.011232991,1.0,0.0,0.0,0.0,0
1748282406,-0.19901048,0.06807284,-0.16916512,0.99972415,0.018982291,-0.008115525,0.011200355,1.0,0.0,0.0,0.0,0
1748326191,-0.1978905,-0.15268624,0.09463289,0.9997188,0.019181592,-0.007965226,0.011444948,1.0,0.0,0.0,0.0,0
1748367026,-0.25950035,0.083100036,-0.141508,0.9997179,0.019592768,-0.0073564625,0.0112391515,1.0,0.0,0.0,0.0,0
1748411214,0.1434587,0.0047781896,0.1422403,0.9996964,0.02061767,-0.0069452375,0.011573452,1.0,0.0,0.0,0.0,0
1748455263,0.17454565,-0.18829133,0.044164583,0.99967587,0.021593189,-0.006935548,0.011569764,1.0,0.0,0.0,0.0,0
1748499204,-0.2901689,-0.26698008,-0.11940845,0.9996801,0.021528587,-0.006856251,0.011366403,1.0,0.0,0.0,0.0,0
1748539013,-0.015723677,-0.15391643,-0.012388788,0.99966836,0.022164088,-0.006436416,0.011428463,1.0,0.0,0.0,0.0,0
1748579228,-0.041532762,-0.17469783,0.017857322,0.9996691,0.02214958,-0.006335402,0.011453141,1.0,0.0,0.0,0.0,0
1748619214,0.033073407,-0.18027236,0.1431252,0.99967533,0.021896644,-0.0059564286,0.011592525,1.0,0.0,0.0,0.0,0
1748659261,-0.14999636,-0.15503877,-0.011285955,0.9996849,0.021644264,-0.005437412,0.0114998445,1.0,0.0,0.0,0.0,0
1748703394,-0.033753533,-0.111392975,-0.06768354,0.99968094,0.021856839,-0.0052105533,0.011546195,1.0,0.0,0.0,0.0,0
1748747214,0.006571244,-0.030410081,-0.035307135,0.9996751,0.02210944,-0.0047306316,0.011772573,1.0,0.0,0.0,0.0,0
1748788199,-0.26238325,-0.15291932,-0.033595446,0.99967164,0.02224658,-0.004274911,0.01198122,1.0,0.0,0.0,0.0,0
1748828115,0.011966154,0.07556401,-0.040753838,0.9996563,0.022926226,-0.0037107784,0.012163217,1.0,0.0,0.0,0.0,0
1748872019,-0.09760087,0.0060314843,0.083436884,0.99965227,0.02295758,-0.0035159423,0.0124902185,1.0,0.0,0.0,0.0,0
1748912088,-0.22112928,-0.059643146,0.008660305,0.99964887,0.023086393,-0.0033628007,0.0125679895,1.0,0.0,0.0,0.0,0
1748956061,0.14429905,0.08927059,0.16418578,0.99963367,0.023608921,-0.002996701,0.012895786,1.0,0.0,0.0,0.0,0
1748996799,-0.05789341,0.16796419,-0.08430373,0.99963915,0.023427097,-0.0026971104,0.012864232,1.0,0.0,0.0,0.0,0
1749040884,0.17074154,0.032282494,0.1348721,0.99963015,0.023601502,-0.0025100564,0.013279187,1.0,0.0,0.0,0.0,0
1749080810,-0.06701075,0.09196599,0.06745345,0.99963963,0.023100033,-0.0023843918,0.013463211,1.0,0.0,0.0,0.0,0
1749124823,0.124873094,-0.020787546,0.10432444,0.9996479,0.022561317,-0.0028133942,0.0136824725,1.0,0.0,0.0,0.0,0
1749164910,0.065620124,-0.04152191,0.11203292,0.99966747,0.021533584,-0.0030998187,0.013847324,1.0,0.0,0.0,0.0,0
1749208973,0.029708084,0.07302996,-0.07313148,0.99968964,0.020405978,-0.003435718,0.013875736,1.0,0.0,0.0,0.0,0
1749248987,0.0514439,-0.17873204,0.08234306,0.999701,0.019500623,-0.0039255572,0.014217868,1.0,0.0,0.0,0.0,0
1749289789,-0.02483381,-0.07541954,0.16653547,0.99971175,0.018738184,-0.0037062953,0.014551015,1.0,0.0,0.0,0.0,0
1749329401,-0.033178,0.0992493,0.070065886,0.9997168,0.018480876,-0.0034282352,0.014598096,1.0,0.0,0.0,0.0,0
1749373682,-0.16370128,0.048835933,0.12229808,0.9997253,0.01776501,-0.0032051946,0.0149543,1.0,0.0,0.0,0.0,0
1749413755,-0.08049128,0.069592424,0.1053501,0.9997324,0.01727704,-0.0028512678,0.015119348,1.0,0.0,0.0,0.0,0
1749457709,0.18628253,0.108160555,-0.0044991006,0.9997404,0.016776463,-0.0024770838,0.015220422,1.0,0.0,0.0,0.0,0
1749501408,0.003684666,-0.2452413,0.09697017,0.99975795,0.015451698,-0.002699331,0.015430538,1.0,0.0,0.0,0.0,0
1749542215,-0.056216612,-0.21380761,0.037558194,0.9997818,0.013832439,-0.0025146445,0.015448657,1.0,0.0,0.0,0.0,0
1749586441,-0.22920316,0.01524052,0.07260529,0.9998052,0.011982604,-0.002311869,0.01551115,1.0,0.0,0.0,0.0,0
1749626225,0.05733784,0.08594762,0.13104098,0.99981546,0.010982785,-0.0024561635,0.015565801,1.0,0.0,0.0,0.0,0
1749670460,-0.012392001,0.31129116,-0.1401695,0.99983275,0.009709099,-0.0024487642,0.015308159,1.0,0.0,0.0,0.0,0
1749710178,-0.25298515,0.18385825,-0.14495578,0.99984497,0.008537111,-0.0031581144,0.015072731,1.0,0.0,0.0,0.0,0
1749754220,0.010950711,-0.0040734755,0.0007737742,0.99984854,0.007980483,-0.004071478,0.014923217,1.0,0.0,0.0,0.0,0
1749794395,0.022879882,0.033750493,-0.1241948,0.9998564,0.007477549,-0.0046883076,0.014467106,1.0,0.0,0.0,0.0,0
1749839238,0.07245884,-0.10637021,-0.05103587,0.9998616,0.0070745545,-0.0054568197,0.014036185,1.0,0.0,0.0,0.0,0
1749883278,-0.45192778,-0.026581466,-0.11106912,0.9998769,0.0056744656,-0.005899853,0.013386161,1.0,0.0,0.0,0.0,0
1749927227,-0.08941794,0.0014330071,0.024817374,0.99988073,0.0051578525,-0.0066202297,0.012964922,1.0,0.0,0.0,0.0,0
