timestamp,time_utc_usec,lat,lon,alt,alt_ellipsoid,s_variance_m_s,c_variance_rad,eph,epv,hdop,vdop,noise_per_ms,jamming_indicator,vel_m_s,vel_n_m_s,vel_e_m_s,vel_d_m_s,cog_rad,timestamp_time_relative,fix_type,vel_ned_valid,satellites_used
1725621812,1686681541199522,371025701,-763881210,4038,-31732,0.24000001,0.47660506,0.62100005,0.89100003,0.62,1.03,96,33,0.013,-0.013,0.001,-0.003,0.58510256,0,4,1,19
1725994491,1686681541599521,371025701,-763881209,4074,-31696,0.252,0.47663367,0.62100005,0.89000005,0.62,1.03,96,33,0.019000001,-0.015000001,0.013,-0.086,0.58510256,0,4,1,19
1726199519,1686681541799521,371025701,-763881209,4095,-31675,0.25,0.47664818,0.62200004,0.89000005,0.62,1.03,96,33,0.027,-0.026,0.0050000004,-0.042000003,0.58510256,0,4,1,19
1726395623,1686681541999522,371025701,-763881208,4118,-31652,0.252,0.47666267,0.62200004,0.88900006,0.62,1.03,96,33,0.016,-0.016,0.003,-0.069000006,0.58510256,0,4,1,19
1726595494,1686681542199521,371025701,-763881208,4128,-31642,0.24200001,0.4766766,0.62200004,0.88900006,0.62,1.03,96,33,0.059000004,-0.058000002,0.008,-0.033,0.58510256,0,4,1,19
1726812494,1686681542399521,371025701,-763881208,4168,-31602,0.23300001,0.47668988,0.62100005,0.8880001,0.62,1.03,96,28,0.022000002,-0.020000001,-0.009000001,0.044000003,0.58510256,0,4,1,19
1726996484,1686681542599521,371025703,-763881208,4166,-31604,0.16700001,0.47669947,0.62,0.8880001,0.62,1.03,96,28,0.045,0.037,0.026,0.003,0.58510256,0,4,1,19
1727197978,1686681542799521,371025706,-763881209,4245,-31525,0.24700001,0.6903267,0.62,0.89000005,0.62,1.03,96,28,0.21900001,0.164,-0.14500001,-0.41700003,0.16298686,0,4,1,19
1727394487,1686681542999522,371025707,-763881212,4487,-31283,0.25100002,0.69037557,0.61700004,0.88900006,0.62,1.03,96,28,0.22600001,-0.18400002,-0.133,-1.2090001,0.16298686,0,4,1,19
1727590485,1686681543199521,371025706,-763881214,4776,-30994,0.26200002,0.69041663,0.61600006,0.892,0.62,1.03,96,28,0.15100001,0.008,-0.15100001,-1.023,0.16298686,0,4,1,19
1727790772,1686681543399521,371025706,-763881215,5040,-30730,0.261,0.6904557,0.614,0.89100003,0.62,1.03,96,51,0.021000002,-0.021000002,0.001,-0.98100007,0.16298686,0,4,1,19
1727991489,1686681543599521,371025706,-763881217,5258,-30512,0.259,0.69049776,0.61300004,0.89300007,0.62,1.03,96,51,0.193,-0.14600001,-0.127,-1.0400001,0.16298686,0,4,1,19
1728192483,1686681543799521,371025705,-763881219,5470,-30300,0.25800002,0.6905308,0.611,0.89400005,0.62,1.03,96,51,0.15900001,-0.15900001,0.004,-0.81900007,0.16298686,0,4,1,19
1728395593,1686681543999522,371025702,-763881219,5664,-30106,0.25100002,0.56113434,0.609,0.89400005,0.62,1.03,96,51,0.287,-0.287,-0.014,-0.80700004,1.9859184,0,4,1,19
1728592941,1686681544199521,371025695,-763881215,5893,-29878,0.24300002,0.4385391,0.60400003,0.89100003,0.62,1.03,96,51,0.32200003,-0.31100002,0.083000004,-0.823,2.5422766,0,4,1,19
1728789614,1686681544399521,371025693,-763881215,6078,-29693,0.25300002,0.43859512,0.60300004,0.89300007,0.62,1.03,96,31,0.031000001,-0.028,-0.015000001,-0.89500004,2.5422766,0,4,1,19
1728994505,1686681544599520,371025691,-763881214,6292,-29478,0.252,0.60737556,0.60200006,0.89300007,0.62,1.03,96,31,0.26200002,-0.25800002,0.043,-0.77300006,2.6906185,0,4,1,19
1729194633,1686681544799520,371025691,-763881214,6477,-29293,0.26200002,0.60741764,0.60200006,0.89500004,0.62,1.03,96,31,0.16800001,0.162,-0.044000003,-0.915,2.6906185,0,4,1,19
1729396052,1686681544999521,371025689,-763881213,6681,-29089,0.26200002,0.6050784,0.601,0.89500004,0.62,1.03,96,31,0.268,-0.268,0.015000001,-0.78400004,2.889135,0,4,1,19
1729596483,1686681545199520,371025688,-763881213,6908,-28862,0.26000002,0.60511696,0.601,0.897,0.65999997,1.03,96,34,0.101,0.08800001,-0.051000003,-0.845,2.889135,0,4,1,18
1729796508,1686681545399520,371025683,-763881210,7191,-28579,0.257,0.60515326,0.595,0.892,0.62,1.03,96,34,0.11000001,-0.07700001,-0.078,-0.794,2.889135,0,4,1,19
1729993630,1686681545599520,371025683,-763881212,7403,-28367,0.261,0.6051939,0.59400004,0.89400005,0.62,1.03,96,34,0.108,-0.035,-0.102000006,-0.892,2.889135,0,4,1,19
1730193648,1686681545799520,371025682,-763881213,7619,-28152,0.26000002,0.6052292,0.59400004,0.89500004,0.62,1.03,96,34,0.059000004,-0.023000002,-0.054,-0.776,2.889135,0,4,1,19
1730398490,1686681545999521,371025682,-763881214,7827,-27943,0.26000002,0.6052683,0.59400004,0.89800006,0.65999997,1.03,96,34,0.029000001,0.028,-0.008,-0.86200005,2.889135,0,4,1,18
1730598527,1686681546199520,371025683,-763881213,8039,-27732,0.26000002,0.60531014,0.59300005,0.89800006,0.62,1.03,96,34,0.133,0.132,0.007,-0.919,2.889135,0,4,1,19
1730796481,1686681546399520,371025684,-763881212,8180,-27590,0.263,0.605343,0.59300005,0.89800006,0.62,1.03,96,38,0.117000006,0.117000006,-0.0050000004,-0.711,2.889135,0,4,1,19
1730992479,1686681546599520,371025686,-763881211,8390,-27380,0.256,0.7828403,0.592,0.89900005,0.62,1.03,96,38,0.22200002,0.21400002,0.057000004,-0.96000004,1.9053725,0,4,1,19
1731192852,1686681546799520,371025689,-763881210,8596,-27175,0.25500003,0.7828702,0.592,0.90000004,0.62,1.03,96,38,0.18900001,0.18900001,0.017,-0.83000004,1.9053725,0,4,1,19
1731389765,1686681546999521,371025690,-763881206,8818,-26952,0.256,0.5413557,0.588,0.89500004,0.62,1.03,96,38,0.28,0.27800003,0.037,-0.84400004,0.70532626,0,4,1,19
1731597614,1686681547199520,371025693,-763881205,9016,-26754,0.25300002,0.5413997,0.588,0.897,0.62,1.03,96,21,0.133,0.12900001,-0.033,-0.86,0.70532626,0,4,1,19
1731794486,1686681547399520,371025697,-763881206,9217,-26553,0.26000002,0.7368577,0.588,0.89800006,0.62,1.03,96,21,0.22000001,0.209,-0.069000006,-0.878,0.34687528,0,4,1,19
1731998494,1686681547599519,371025700,-763881205,9416,-26354,0.25500003,0.73688793,0.588,0.89900005,0.62,1.03,96,21,0.12200001,0.120000005,0.025,-0.80200005,0.34687528,0,4,1,19
1732196525,1686681547799519,371025702,-763881205,9613,-26157,0.257,0.6838252,0.588,0.89900005,0.62,1.03,96,21,0.231,0.209,-0.098000005,-0.87700003,6.206641,0,4,1,19
1732396503,1686681547999520,371025706,-763881206,9784,-25986,0.263,0.6838606,0.588,0.901,0.62,1.03,96,21,0.133,0.127,-0.037,-0.87500006,6.206641,0,4,1,19
1732599462,1686681548199519,371025709,-763881208,9969,-25801,0.25800002,0.73212755,0.588,0.901,0.62,1.03,96,33,0.20500001,0.16700001,-0.11800001,-1.0480001,5.9564686,0,4,1,19
1732789625,1686681548399519,371025711,-763881209,10146,-25624,0.254,0.7321579,0.587,0.90200007,0.62,1.03,96,33,0.113000005,0.07700001,-0.083000004,-0.799,5.9564686,0,4,1,19
1732996607,1686681548599519,371025713,-763881211,10340,-25430,0.26500002,0.73219526,0.587,0.901,0.62,1.03,96,33,0.149,0.014,-0.149,-0.98800004,5.9564686,0,4,1,19
1733194485,1686681548799519,371025713,-763881214,10518,-25253,0.259,0.73223066,0.586,0.90200007,0.62,1.03,96,33,0.07300001,-0.003,-0.07300001,-0.943,5.9564686,0,4,1,19
1733395489,1686681548999520,371025710,-763881213,10738,-25032,0.263,0.7322682,0.58400005,0.90000004,0.62,1.03,96,33,0.16700001,-0.15900001,-0.051000003,-0.99100006,5.9564686,0,4,1,19
1733593862,1686681549199519,371025710,-763881214,10935,-24835,0.261,0.7323055,0.58400005,0.901,0.62,1.03,96,33,0.102000006,0.085,-0.056,-0.99000007,5.9564686,0,4,1,19
1733795489,1686681549399519,371025711,-763881216,11185,-24585,0.259,0.7323476,0.583,0.90000004,0.62,1.03,97,17,0.19900002,0.019000001,-0.19800001,-1.105,5.9564686,0,4,1,19
1733996474,1686681549599519,371025711,-763881218,11367,-24403,0.26200002,0.73238355,0.583,0.90200007,0.62,1.03,97,17,0.10700001,-0.087000005,-0.063,-0.95500004,5.9564686,0,4,1,19
1734192610,1686681549799519,371025710,-763881217,11548,-24222,0.261,0.7324174,0.583,0.90200007,0.62,1.03,97,17,0.10700001,-0.051000003,0.095000006,-0.90000004,5.9564686,0,4,1,19
1734396633,1686681549999520,371025709,-763881216,11754,-24016,0.268,0.7324532,0.583,0.90200007,0.62,1.03,97,17,0.15300001,-0.128,-0.08400001,-0.943,5.9564686,0,4,1,19
1734598508,1686681550199519,371025710,-763881218,11980,-23791,0.268,0.7217151,0.583,0.90400004,0.62,1.03,97,16,0.23300001,0.147,-0.18100001,-1.1270001,5.671395,0,4,1,19
1734798525,1686681550399519,371025711,-763881220,12206,-23564,0.27100003,0.72175384,0.583,0.90500003,0.62,1.03,97,16,0.067,0.002,-0.067,-1.019,5.671395,0,4,1,19
1734994487,1686681550599519,371025714,-763881220,12419,-23351,0.266,0.755745,0.58400005,0.906,0.62,1.03,97,16,0.216,0.21200001,-0.046000004,-1.082,5.8614826,0,4,1,19
1735196506,1686681550799518,371025718,-763881221,12610,-23160,0.263,0.7557841,0.58400005,0.906,0.62,1.03,97,16,0.1,0.098000005,-0.020000001,-1.0730001,5.8614826,0,4,1,19
1735404517,1686681550999519,371025720,-763881222,12818,-22952,0.266,0.7558233,0.58500004,0.90800005,0.62,1.03,97,16,0.095000006,0.047000002,-0.082,-1.0780001,5.8614826,0,4,1,19
1735595475,1686681551199518,371025719,-763881220,13086,-22684,0.26200002,0.75586486,0.583,0.906,0.62,1.03,97,16,0.17600001,-0.16700001,0.057000004,-1.1340001,5.8614826,0,4,1,19
1735796119,1686681551399518,371025718,-763881220,13258,-22512,0.26000002,0.7559024,0.583,0.90700006,0.62,1.03,97,29,0.052,-0.051000003,0.010000001,-1.033,5.8614826,0,4,1,19
1735998771,1686681551599518,371025719,-763881219,13447,-22323,0.26200002,0.7559406,0.583,0.90800005,0.62,1.03,97,29,0.061000004,-0.022000002,0.057000004,-1.051,5.8614826,0,4,1,19
1736197840,1686681551799518,371025715,-763881216,13689,-22081,0.264,0.4731905,0.583,0.90800005,0.62,1.03,97,29,0.34100002,-0.33900002,0.032,-0.98600006,3.8394113,0,4,1,19
1736407516,1686681551999519,371025711,-763881216,13892,-21878,0.264,0.47325456,0.58400005,0.90900004,0.62,1.03,97,29,0.208,-0.20700002,-0.020000001,-1.0830001,3.8394113,0,4,1,19
1736596482,1686681552199518,371025710,-763881217,14109,-21661,0.26500002,0.47332367,0.58400005,0.90900004,0.62,1.03,97,24,0.104,0.086,-0.059000004,-1.19,3.8394113,0,4,1,19
1736800562,1686681552399518,371025709,-763881219,14354,-21416,0.263,0.7203022,0.58400005,0.9110001,0.62,1.03,97,24,0.263,-0.25,-0.081,-1.225,3.7228541,0,4,1,19
1736991558,1686681552599518,371025706,-763881221,14619,-21152,0.26200002,0.7203483,0.58400005,0.9110001,0.62,1.03,97,24,0.132,-0.126,-0.041,-1.2030001,3.7228541,0,4,1,19
1737197140,1686681552799518,371025704,-763881222,14878,-20892,0.263,0.720397,0.58400005,0.91200006,0.62,1.03,97,24,0.12900001,-0.12100001,-0.043,-1.2750001,3.7228541,0,4,1,19
1737394533,1686681552999519,371025702,-763881224,15114,-20656,0.264,0.720445,0.58400005,0.91300005,0.62,1.03,97,24,0.17500001,-0.16900001,-0.046000004,-1.248,3.7228541,0,4,1,19
1737594775,1686681553199518,371025699,-763881224,15352,-20418,0.26000002,0.7204963,0.58400005,0.91400003,0.62,1.03,97,19,0.179,-0.16700001,0.065000005,-1.337,3.7228541,0,4,1,19
1737799479,1686681553399518,371025696,-763881223,15588,-20182,0.26200002,0.7205441,0.58500004,0.915,0.62,1.03,97,19,0.07300001,-0.065000005,0.032,-1.2570001,3.7228541,0,4,1,19
1737996490,1686681553599518,371025694,-763881222,15838,-19932,0.26000002,0.72059214,0.586,0.91600007,0.62,1.03,97,19,0.080000006,-0.060000002,0.053000003,-1.2550001,3.7228541,0,4,1,19
1738200412,1686681553799518,371025691,-763881221,16063,-19708,0.26000002,0.5811789,0.586,0.91600007,0.62,1.03,97,19,0.266,-0.264,0.034,-1.153,3.2925858,0,4,1,19
1738395477,1686681553999518,371025688,-763881222,16233,-19537,0.261,0.5812325,0.586,0.91600007,0.62,1.03,97,19,0.07700001,-0.013,-0.076000005,-1.133,3.2925858,0,4,1,19
1738593863,1686681554199517,371025687,-763881224,16456,-19314,0.26000002,0.5812918,0.587,0.91600007,0.62,1.03,97,19,0.09900001,-0.061000004,-0.078,-1.2540001,3.2925858,0,4,1,19
1738794517,1686681554399517,371025683,-763881225,16756,-19014,0.26000002,0.66170454,0.587,0.915,0.62,1.03,97,47,0.275,-0.263,-0.080000006,-1.3540001,3.355507,0,4,1,19
1738994520,1686681554599517,371025678,-763881226,17017,-18753,0.26200002,0.6617623,0.587,0.915,0.62,1.03,97,47,0.177,-0.17,-0.05,-1.383,3.355507,0,4,1,19
1739195549,1686681554799517,371025677,-763881229,17275,-18495,0.263,0.66181767,0.587,0.91400003,0.62,1.03,97,47,0.164,0.030000001,-0.16100001,-1.325,3.355507,0,4,1,19
1739395995,1686681554999518,371025677,-763881232,17522,-18248,0.26200002,0.6618691,0.586,0.91400003,0.62,1.03,97,47,0.123,-0.079,-0.094000004,-1.24,3.355507,0,4,1,19
1739592492,1686681555199517,371025674,-763881234,17792,-17978,0.257,0.73899716,0.586,0.91300005,0.62,1.03,97,47,0.22900002,-0.22800002,-0.022000002,-1.3510001,3.3030334,0,4,1,19
1739795409,1686681555399517,371025672,-763881236,17988,-17782,0.259,0.7390462,0.586,0.91200006,0.62,1.03,97,26,0.163,-0.15900001,0.032,-1.3100001,3.3030334,0,4,1,19
1739997647,1686681555599517,371025670,-763881236,18210,-17560,0.26000002,0.7390926,0.587,0.91200006,0.62,1.03,97,26,0.148,-0.13900001,0.051000003,-1.2440001,3.3030334,0,4,1,19
1740198557,1686681555799517,371025670,-763881235,18424,-17346,0.256,0.7391406,0.587,0.9110001,0.62,1.03,97,26,0.15100001,0.051000003,0.143,-1.284,3.3030334,0,4,1,19
1740397637,1686681555999518,371025671,-763881233,18637,-17133,0.25800002,0.7391869,0.588,0.91200006,0.62,1.03,97,26,0.076000005,0.017,0.074,-1.248,3.3030334,0,4,1,19
1740599554,1686681556199517,371025674,-763881233,18881,-16889,0.257,0.7392373,0.588,0.91200006,0.62,1.03,97,23,0.113000005,0.106000006,0.039,-1.355,3.3030334,0,4,1,19
1740795534,1686681556399517,371025678,-763881232,19092,-16678,0.254,0.73928267,0.588,0.91200006,0.62,1.03,97,23,0.186,0.13900001,0.124000005,-1.205,3.3030334,0,4,1,19
1741794555,1686681557399516,371025693,-763881219,20405,-15365,0.25800002,0.73953766,0.58400005,0.91300005,0.62,1.03,97,36,0.068,0.059000004,0.034,-1.4360001,3.3030334,0,4,1,19
1742797629,1686681558399516,371025706,-763881215,21696,-14075,0.26700002,0.73978484,0.58400005,0.91400003,0.62,1.03,97,22,0.106000006,-0.044000003,0.097,-1.297,3.3030334,0,4,1,19
1742997661,1686681558599516,371025705,-763881211,21987,-13783,0.266,0.73983717,0.58400005,0.91400003,0.62,1.03,97,22,0.18200001,-0.120000005,0.13700001,-1.4020001,3.3030334,0,4,1,19
1743198492,1686681558799516,371025703,-763881209,22236,-13535,0.26200002,0.4967954,0.583,0.91300005,0.62,1.03,97,22,0.29900002,-0.279,0.108,-1.381,2.935976,0,4,1,19
1743399534,1686681558999517,371025701,-763881206,22494,-13276,0.26200002,0.4968645,0.583,0.91300005,0.62,1.03,97,22,0.15300001,-0.11000001,0.106000006,-1.2440001,2.935976,0,4,1,19
1743596485,1686681559199516,371025700,-763881204,22751,-13019,0.26200002,0.7416675,0.583,0.91300005,0.62,1.03,97,19,0.2,-0.164,0.11400001,-1.296,2.8112578,0,4,1,19
1743795490,1686681559399516,371025699,-763881202,22985,-12785,0.26000002,0.7417155,0.582,0.91200006,0.62,1.03,97,19,0.07300001,-0.05,0.053000003,-1.296,2.8112578,0,4,1,19
1743999381,1686681559599516,371025698,-763881200,23245,-12525,0.25800002,0.74176085,0.582,0.9110001,0.62,1.03,97,19,0.134,-0.11400001,0.07,-1.2190001,2.8112578,0,4,1,19
1744200115,1686681559799516,371025696,-763881197,23509,-12261,0.256,0.74180853,0.582,0.91,0.62,1.03,97,19,0.163,-0.072000004,0.14600001,-1.279,2.8112578,0,4,1,19
1744400508,1686681559999517,371025696,-763881193,23746,-12024,0.25800002,0.7418588,0.58100003,0.90900004,0.62,1.03,97,19,0.11100001,0.002,0.11100001,-1.3570001,2.8112578,0,4,1,19
1744597660,1686681560199515,371025697,-763881191,24020,-11750,0.261,0.741909,0.58100003,0.90800005,0.62,1.03,97,32,0.061000004,0.003,0.061000004,-1.358,2.8112578,0,4,1,19
1744798497,1686681560399515,371025697,-763881189,24291,-11479,0.261,0.741959,0.58100003,0.90800005,0.62,1.03,97,32,0.115,-0.030000001,0.11100001,-1.348,2.8112578,0,4,1,19
1744995486,1686681560599515,371025696,-763881186,24587,-11183,0.26000002,0.7035341,0.58000004,0.90800005,0.62,1.03,97,32,0.21200001,-0.18900001,0.095000006,-1.3950001,2.7387812,0,4,1,19
1745196484,1686681560799515,371025695,-763881184,24857,-10913,0.26000002,0.70358723,0.57900006,0.90700006,0.62,1.03,97,32,0.112,-0.082,0.07700001,-1.36,2.7387812,0,4,1,19
1745408148,1686681560999516,371025694,-763881181,25147,-10623,0.259,0.70364183,0.57900006,0.90700006,0.62,1.03,97,32,0.13800001,-0.07300001,0.11800001,-1.393,2.7387812,0,4,1,19
1745601634,1686681561199515,371025694,-763881180,25409,-10361,0.259,0.70369524,0.57900006,0.90700006,0.62,1.03,97,28,0.086,-0.07300001,0.045,-1.366,2.7387812,0,4,1,19
1745800550,1686681561399515,371025694,-763881179,25697,-10073,0.26000002,0.70375055,0.57900006,0.90700006,0.62,1.03,97,28,0.047000002,-0.046000004,0.012,-1.422,2.7387812,0,4,1,19
1745998515,1686681561599515,371025694,-763881179,25933,-9837,0.25800002,0.70380294,0.578,0.906,0.62,1.03,97,28,0.076000005,-0.065000005,0.040000003,-1.3410001,2.7387812,0,4,1,19
1746198493,1686681561799515,371025694,-763881178,26186,-9584,0.257,0.7038504,0.577,0.90500003,0.62,1.03,97,28,0.07,-0.07,0.0,-1.218,2.7387812,0,4,1,19
1746403480,1686681561999516,371025695,-763881179,26427,-9343,0.25500003,0.70389944,0.577,0.90400004,0.62,1.03,97,28,0.079,0.07,-0.037,-1.2540001,2.7387812,0,4,1,19
1746592485,1686681562199515,371025696,-763881180,26647,-9123,0.25500003,0.7039459,0.577,0.90300006,0.62,1.03,97,28,0.095000006,-0.08400001,0.044000003,-1.19,2.7387812,0,4,1,19
1746799475,1686681562399515,371025697,-763881181,26895,-8875,0.256,0.7039974,0.57600003,0.90300006,0.62,1.03,97,22,0.039,-0.026,-0.028,-1.319,2.7387812,0,4,1,19
1747004149,1686681562599515,371025698,-763881183,27160,-8610,0.256,0.704045,0.57600003,0.90300006,0.62,1.03,97,22,0.060000002,0.021000002,-0.057000004,-1.225,2.7387812,0,4,1,19
1747200900,1686681562799515,371025699,-763881186,27390,-8380,0.25800002,0.7040937,0.57600003,0.90200007,0.62,1.03,97,22,0.132,0.016,-0.13100001,-1.2420001,2.7387812,0,4,1,19
1747398509,1686681562999516,371025700,-763881189,27652,-8118,0.259,0.7041438,0.57600003,0.90300006,0.62,1.03,97,22,0.116000004,0.043,-0.10700001,-1.2820001,2.7387812,0,4,1,19
1747598482,1686681563199515,371025703,-763881194,27888,-7882,0.256,0.4833581,0.57600003,0.90200007,0.62,1.03,97,27,0.349,0.17600001,-0.30100003,-1.274,4.4402843,0,4,1,19
1747799783,1686681563399514,371025706,-763881201,28190,-7580,0.257,0.74858093,0.57600003,0.90200007,0.62,1.03,97,27,0.26000002,0.037,-0.25800002,-1.404,4.5622773,0,4,1,19
1747992486,1686681563599514,371025705,-763881205,28512,-7258,0.25500003,0.7486326,0.57500005,0.90000004,0.62,1.03,97,27,0.18,-0.109000005,-0.143,-1.399,4.5622773,0,4,1,19
1748204946,1686681563799514,371025705,-763881210,28781,-6989,0.257,0.74868566,0.57500005,0.901,0.62,1.03,97,27,0.16700001,-0.043,-0.16100001,-1.44,4.5622773,0,4,1,19
1748416230,1686681563999515,371025707,-763881214,29036,-6734,0.26200002,0.7487361,0.57500005,0.90000004,0.62,1.03,97,27,0.135,0.008,-0.134,-1.3690001,4.5622773,0,4,1,19
1748600214,1686681564199514,371025709,-763881218,29294,-6477,0.264,0.748786,0.57500005,0.901,0.62,1.03,97,22,0.20300001,0.104,-0.17400001,-1.3470001,4.5622773,0,4,1,19
1748798499,1686681564399514,371025711,-763881222,29564,-6206,0.26200002,0.74883294,0.57500005,0.901,0.62,1.03,97,22,0.15900001,0.019000001,-0.157,-1.2770001,4.5622773,0,4,1,19
1748999503,1686681564599514,371025713,-763881224,29827,-5943,0.26500002,0.74888235,0.57600003,0.901,0.62,1.03,97,22,0.044000003,0.044000003,-0.0050000004,-1.3460001,4.5622773,0,4,1,19
1749199786,1686681564799514,371025713,-763881223,30106,-5664,0.26200002,0.748927,0.57600003,0.901,0.62,1.03,97,22,0.098000005,-0.052,0.08400001,-1.2160001,4.5622773,0,4,1,19
1749396534,1686681564999515,371025713,-763881220,30384,-5386,0.261,0.7489764,0.577,0.90200007,0.62,1.03,97,22,0.17600001,-0.053000003,0.16800001,-1.3360001,4.5622773,0,4,1,19
1749599401,1686681565199514,371025712,-763881218,30672,-5098,0.266,0.7490277,0.577,0.90300006,0.62,1.03,97,34,0.046000004,-0.043,-0.014,-1.4020001,4.5622773,0,4,1,19
1749799462,1686681565399514,371025712,-763881217,30939,-4831,0.26500002,0.7490764,0.578,0.90300006,0.62,1.03,97,34,0.12200001,-0.082,0.091000006,-1.322,4.5622773,0,4,1,19
1749997643,1686681565599514,371025710,-763881215,31208,-4562,0.264,0.7491246,0.57900006,0.90400004,0.62,1.03,97,34,0.18900001,-0.179,0.059000004,-1.3060001,4.5622773,0,4,1,19
1750198498,1686681565799514,371025708,-763881213,31469,-4301,0.26200002,0.74917454,0.57900006,0.90400004,0.62,1.03,97,34,0.15400001,-0.14500001,0.05,-1.3520001,4.5622773,0,4,1,19
1750398485,1686681565999515,371025706,-763881213,31730,-4041,0.259,0.7492232,0.57900006,0.90400004,0.62,1.03,97,34,0.13800001,-0.13800001,0.016,-1.3260001,4.5622773,0,4,1,19
1750594491,1686681566199514,371025704,-763881212,32004,-3766,0.254,0.76053536,0.57900006,0.90400004,0.62,1.03,97,34,0.209,-0.208,0.025,-1.312,3.8033822,0,4,1,19
1750788515,1686681566399514,371025702,-763881212,32267,-3503,0.256,0.7605846,0.57900006,0.90400004,0.62,1.03,97,39,0.133,-0.132,-0.019000001,-1.3560001,3.8033822,0,4,1,19
1750999537,1686681566599513,371025702,-763881214,32534,-3236,0.257,0.7606326,0.57900006,0.90500003,0.65999997,1.03,97,39,0.112,-0.013,-0.11100001,-1.3280001,3.8033822,0,4,1,18
1751204548,1686681566799513,371025701,-763881216,32812,-2958,0.257,0.7606797,0.57900006,0.90500003,0.62,1.03,97,39,0.054,-0.051000003,-0.017,-1.3080001,3.8033822,0,4,1,19
1751404400,1686681566999514,371025702,-763881216,33064,-2706,0.25800002,0.7607275,0.58000004,0.906,0.62,1.03,97,39,0.017,-0.0050000004,0.016,-1.322,3.8033822,0,4,1,19
1751598508,1686681567199513,371025702,-763881216,33326,-2444,0.25800002,0.7607745,0.58100003,0.90700006,0.62,1.03,97,21,0.080000006,0.074,0.032,-1.302,3.8033822,0,4,1,19
1751798481,1686681567399513,371025705,-763881216,33565,-2205,0.26200002,0.76081884,0.58100003,0.90800005,0.62,1.03,97,21,0.066,0.065000005,-0.003,-1.2290001,3.8033822,0,4,1,19
1751999778,1686681567599513,371025708,-763881215,33783,-1987,0.259,0.76086295,0.582,0.90900004,0.62,1.03,97,21,0.177,0.13900001,0.11000001,-1.212,3.8033822,0,4,1,19
1752196490,1686681567799513,371025710,-763881213,34060,-1710,0.259,0.760908,0.582,0.90900004,0.62,1.03,97,21,0.075,0.007,0.075,-1.248,3.8033822,0,4,1,19
1752405010,1686681567999514,371025709,-763881211,34322,-1448,0.26200002,0.7609513,0.582,0.91,0.62,1.03,97,21,0.13100001,-0.063,0.115,-1.192,3.8033822,0,4,1,19
1752608260,1686681568199513,371025710,-763881209,34577,-1193,0.26500002,0.76099753,0.583,0.91,0.62,1.03,97,17,0.064,-0.0050000004,0.063,-1.2800001,3.8033822,0,4,1,19
1752804348,1686681568399513,371025710,-763881207,34858,-912,0.26500002,0.76103926,0.583,0.9110001,0.62,1.03,97,17,0.041,-0.023000002,0.034,-1.156,3.8033822,0,4,1,19
1753006646,1686681568599513,371025711,-763881206,35125,-645,0.26500002,0.7610792,0.58400005,0.91200006,0.62,1.03,97,17,0.042000003,0.022000002,0.037,-1.11,3.8033822,0,4,1,19
1753206601,1686681568799513,371025709,-763881204,35335,-435,0.26500002,0.55294997,0.58500004,0.91300005,0.62,1.03,97,17,0.30800003,-0.24100001,0.19100001,-1.2060001,2.932813,0,4,1,19
1753406024,1686681568999514,371025701,-763881199,35497,-273,0.252,0.2082778,0.586,0.9110001,0.62,1.03,97,17,0.76600003,-0.71400005,0.275,-0.82000005,2.793935,0,4,1,19
1753600523,1686681569199513,371025687,-763881189,35661,-109,0.231,0.14152578,0.586,0.90900004,0.62,1.03,97,30,1.1190001,-0.95500004,0.582,-0.86500007,2.6572785,0,4,1,19
1753800489,1686681569399513,371025669,-763881171,35781,11,0.21400002,0.11248856,0.586,0.90700006,0.62,1.03,97,30,1.4030001,-1.108,0.86100006,-0.35500002,2.549001,0,4,1,19
1753984372,1686681569599513,371025646,-763881150,35808,37,0.20300001,0.08291081,0.58500004,0.90500003,0.62,1.03,97,30,1.8970001,-1.5230001,1.131,-0.24100001,2.5189717,0,4,1,19
1754205659,1686681569799512,371025615,-763881119,35810,40,0.19600001,0.06737738,0.583,0.90300006,0.62,1.03,97,30,2.285,-1.6240001,1.6070001,-0.16100001,2.4233408,0,4,1,19
1754422568,1686681569999513,371025585,-763881081,35832,62,0.21900001,0.07956397,0.582,0.901,0.62,1.03,97,30,2.2310002,-1.5050001,1.6470001,-0.39200002,2.375837,0,4,1,19
1754598485,1686681570199512,371025554,-763881045,35817,47,0.24800001,0.073665805,0.58000004,0.89900005,0.62,1.03,97,31,2.305,-1.531,1.7240001,-0.344,2.333072,0,4,1,19
1754802480,1686681570399512,371025523,-763881004,35833,63,0.26500002,0.084665395,0.58100003,0.90000004,0.62,1.03,97,31,2.377,-1.5530001,1.7990001,-0.35200003,2.3111756,0,4,1,19
1755008507,1686681570599512,371025490,-763880965,35860,90,0.256,0.07639899,0.582,0.901,0.62,1.03,97,31,2.371,-1.585,1.764,-0.259,2.3065884,0,4,1,19
1755200487,1686681570799512,371025457,-763880928,35831,61,0.26500002,0.08245197,0.583,0.90300006,0.62,1.03,97,31,2.2770002,-1.5890001,1.6320001,-0.07300001,2.3235278,0,4,1,19
1755404846,1686681570999513,371025425,-763880889,35774,4,0.25800002,0.0885601,0.58500004,0.906,0.62,1.03,97,31,2.341,-1.5760001,1.7310001,0.046000004,2.3168423,0,4,1,19
1755609641,1686681571199512,371025393,-763880851,35708,-62,0.25100002,0.081596404,0.586,0.90800005,0.62,1.03,97,40,2.269,-1.5220001,1.6840001,0.05,2.3107758,0,4,1,19
1755808974,1686681571399512,371025360,-763880811,35661,-109,0.25100002,0.08337106,0.587,0.91,0.62,1.03,97,40,2.4310002,-1.6880001,1.7500001,0.027,2.3242195,0,4,1,19
1755981780,1686681571599512,371025327,-763880772,35601,-169,0.22800002,0.07603963,0.588,0.91300005,0.62,1.03,97,40,2.3850002,-1.552,1.8110001,0.21900001,2.299575,0,4,1,19
1756182848,1686681571799512,371025298,-763880731,35525,-245,0.24700001,0.08494796,0.58900005,0.91600007,0.62,1.03,97,40,2.328,-1.455,1.817,0.16700001,2.2754457,0,4,1,19
1756399490,1686681571999513,371025273,-763880688,35423,-347,0.28300002,0.1112478,0.592,0.919,0.62,1.03,97,40,2.15,-1.0300001,1.8870001,0.128,2.1991396,0,4,1,19
1756606826,1686681572199512,371025257,-763880642,35356,-414,0.254,0.13533805,0.596,0.92,0.62,1.03,97,25,2.0800002,-0.507,2.0170002,0.108,2.0441782,0,4,1,19
1756799524,1686681572399512,371025250,-763880594,35265,-505,0.22000001,0.14474922,0.6,0.92100006,0.62,1.03,97,25,2.0670002,0.0,2.0670002,0.067,1.8226326,0,4,1,19
1757004895,1686681572599512,371025253,-763880544,35164,-607,0.186,0.13031884,0.60300004,0.92,0.62,1.03,97,25,2.1880002,0.517,2.1260002,0.094000004,1.551205,0,4,1,19
1757188488,1686681572799511,371025265,-763880495,35052,-718,0.179,0.12792599,0.605,0.92,0.62,1.03,97,25,2.2810001,0.98100007,2.0600002,0.194,1.3341008,0,4,1,19
1757381603,1686681572999512,371025283,-763880448,34963,-807,0.2,0.117292926,0.60800004,0.92200005,0.62,1.03,97,25,2.3920002,1.3260001,1.991,0.12200001,1.1426691,0,4,1,19
1757606750,1686681573199511,371025308,-763880403,34868,-902,0.216,0.10974577,0.611,0.92200005,0.62,1.03,97,28,2.522,1.69,1.8720001,0.215,0.9785519,0,4,1,19
1757807058,1686681573399511,371025339,-763880359,34735,-1036,0.201,0.107526764,0.61300004,0.92100006,0.62,1.03,97,28,2.5830002,1.8310001,1.8220001,0.097,0.8781062,0,4,1,19
1758003831,1686681573599511,371025370,-763880320,34655,-1115,0.185,0.106386535,0.614,0.92,0.62,1.03,97,28,2.5430002,1.9310001,1.654,0.028,0.79174745,0,4,1,19
1758204337,1686681573799511,371025406,-763880283,34583,-1187,0.22200002,0.100240014,0.61600006,0.92100006,0.62,1.03,97,28,2.6990001,2.1820002,1.5890001,0.24200001,0.7052507,0,4,1,19
1758402234,1686681573999512,371025443,-763880248,34542,-1228,0.22200002,0.10387885,0.619,0.924,0.62,1.03,97,28,2.6000001,2.1190002,1.506,0.10700001,0.6628196,0,4,1,19
1758601944,1686681574199511,371025477,-763880215,34506,-1264,0.2,0.098818615,0.62,0.92600006,0.62,1.03,97,21,2.581,2.128,1.46,0.011000001,0.6303122,0,4,1,19
1758801804,1686681574399511,371025514,-763880184,34455,-1315,0.20300001,0.09853273,0.62100005,0.929,0.62,1.03,97,21,2.6820002,2.269,1.4300001,0.057000004,0.59594595,0,4,1,19
1759002707,1686681574599511,371025554,-763880154,34412,-1358,0.21100001,0.094911695,0.62200004,0.93100005,0.62,1.03,97,21,2.72,2.357,1.3570001,0.061000004,0.55751765,0,4,1,19
1759190461,1686681574799511,371025594,-763880123,34337,-1433,0.20400001,0.092708394,0.623,0.93100005,0.62,1.03,97,21,2.716,2.3790002,1.312,-0.007,0.5298901,0,4,1,19
1759406906,1686681574999512,371025634,-763880093,34279,-1491,0.201,0.09696141,0.624,0.93100005,0.62,1.03,97,21,2.673,2.3030002,1.3570001,0.09900001,0.53113854,0,4,1,19
1759604193,1686681575199511,371025674,-763880061,34246,-1525,0.2,0.09559028,0.625,0.933,0.62,1.03,97,26,2.638,2.2570002,1.365,0.013,0.5376375,0,4,1,19
1759804476,1686681575399511,371025715,-763880029,34231,-1539,0.209,0.08544294,0.625,0.933,0.62,1.03,97,26,2.7450001,2.417,1.3010001,-0.027,0.5132011,0,4,1,19
1760001177,1686681575599511,371025755,-763879996,34204,-1566,0.20500001,0.08424302,0.62600005,0.933,0.62,1.03,97,26,2.6850002,2.266,1.439,0.049000002,0.5401436,0,4,1,19
1760185393,1686681575799511,371025794,-763879963,34199,-1571,0.202,0.08427217,0.62600005,0.93500006,0.62,1.03,97,26,2.7,2.298,1.4180001,-0.008,0.5465205,0,4,1,19
1760402920,1686681575999511,371025831,-763879929,34216,-1554,0.201,0.08740277,0.62600005,0.938,0.62,1.03,97,26,2.6360002,2.1650002,1.503,-0.10700001,0.5758366,0,4,1,19
1760599487,1686681576199510,371025868,-763879894,34221,-1549,0.19900002,0.08811818,0.62600005,0.94000006,0.62,1.03,97,36,2.6980002,2.2150002,1.5400001,0.008,0.5917388,0,4,1,19
1760787033,1686681576399510,371025906,-763879858,34209,-1562,0.194,0.08883027,0.62700003,0.943,0.62,1.03,97,36,2.683,2.16,1.5920001,0.054,0.61350083,0,4,1,19
1761000843,1686681576599510,371025943,-763879822,34178,-1592,0.19000001,0.0892317,0.629,0.94600004,0.62,1.03,97,36,2.697,2.115,1.6730001,0.062000003,0.6415167,0,4,1,19
1761196487,1686681576799510,371025981,-763879784,34151,-1619,0.20300001,0.08915037,0.63000005,0.95000005,0.62,1.03,97,36,2.742,2.1790001,1.664,0.093,0.6469553,0,4,1,19
1761393974,1686681576999511,371026019,-763879745,34184,-1586,0.22100002,0.09482618,0.633,0.95500004,0.62,1.03,97,36,2.719,2.1030002,1.723,0.097,0.6657034,0,4,1,19
1761597650,1686681577199510,371026057,-763879705,34193,-1577,0.21800001,0.09557161,0.63600004,0.961,0.62,1.03,97,36,2.7630002,2.121,1.771,0.113000005,0.6806731,0,4,1,19
1761794510,1686681577399510,371026094,-763879664,34197,-1574,0.21400002,0.094022974,0.63900006,0.96500003,0.62,1.03,110,31,2.739,2.079,1.7830001,-0.030000001,0.6950047,0,4,1,19
1761995640,1686681577599510,371026130,-763879624,34214,-1556,0.21200001,0.09656121,0.64100003,0.96900004,0.62,1.03,110,31,2.67,2.048,1.7140001,0.018000001,0.6958367,0,4,1,19
1762195277,1686681577799510,371026167,-763879585,34244,-1526,0.202,0.09339239,0.64400005,0.97300005,0.62,1.03,110,31,2.6920002,2.032,1.7670001,0.1,0.70617694,0,4,1,19
1762392551,1686681577999511,371026203,-763879545,34219,-1551,0.20700002,0.09484485,0.647,0.97800004,0.62,1.03,110,31,2.69,2.01,1.789,-0.010000001,0.7166552,0,4,1,19
1762600432,1686681578199510,371026238,-763879506,34228,-1542,0.19500001,0.09814527,0.64900005,0.98300004,0.62,1.03,110,31,2.6560001,1.9930001,1.7570001,0.106000006,0.71950114,0,4,1,19
1762796504,1686681578399510,371026272,-763879467,34246,-1525,0.20300001,0.095244005,0.651,0.9850001,0.62,1.03,102,31,2.6130002,1.9740001,1.7110001,0.054,0.716696,0,4,1,19
1762998515,1686681578599510,371026306,-763879428,34262,-1508,0.19900002,0.099927425,0.652,0.98800004,0.62,1.03,102,31,2.525,1.8520001,1.7170001,0.004,0.7315666,0,4,1,19
1763198610,1686681578799510,371026339,-763879389,34259,-1511,0.20500001,0.09756128,0.65400004,0.99200004,0.62,1.03,102,31,2.5760002,1.9380001,1.697,0.054,0.72522736,0,4,1,19
1763399511,1686681578999511,371026373,-763879352,34264,-1506,0.20400001,0.100703046,0.657,0.99600005,0.62,1.03,102,31,2.5080001,1.8900001,1.6470001,0.039,0.7211262,0,4,1,19
1763592578,1686681579199509,371026406,-763879315,34262,-1508,0.20600002,0.102231435,0.65900004,1.0,0.62,1.02,102,31,2.4850001,1.8520001,1.6570001,-0.017,0.7254073,0,4,1,19
1763795775,1686681579399509,371026437,-763879280,34255,-1515,0.179,0.09519304,0.66,1.003,0.62,1.02,102,42,2.5670002,1.9290001,1.6930001,0.038000003,0.72276384,0,4,1,19
1763995738,1686681579599509,371026468,-763879244,34259,-1512,0.17300001,0.093503565,0.65900004,1.005,0.62,1.02,102,42,2.535,1.8510001,1.7320001,-0.065000005,0.7379028,0,4,1,19
1764197054,1686681579799509,371026499,-763879207,34239,-1531,0.17500001,0.09123237,0.65800005,1.0070001,0.62,1.02,102,42,2.5860002,1.9230001,1.7290001,-0.076000005,0.7350197,0,4,1,19
1764394484,1686681579999510,371026533,-763879167,34292,-1478,0.18100001,0.088678256,0.65800005,1.0090001,0.62,1.02,102,42,2.6000001,1.8930001,1.7820001,-0.112,0.74552065,0,4,1,19
1764594561,1686681580199509,371026567,-763879127,34292,-1478,0.192,0.09156764,0.65900004,1.0120001,0.62,1.02,102,30,2.6520002,1.9120001,1.8370001,-0.09,0.7552887,0,4,1,19
1764799514,1686681580399509,371026600,-763879085,34290,-1480,0.194,0.08753471,0.65900004,1.014,0.62,1.02,102,30,2.7280002,1.9490001,1.909,-0.022000002,0.765675,0,4,1,19
1764992529,1686681580599509,371026633,-763879042,34245,-1525,0.208,0.09485149,0.66,1.0170001,0.62,1.02,102,30,2.736,1.9650002,1.904,0.09900001,0.7674844,0,4,1,19
1765192485,1686681580799509,371026666,-763878999,34233,-1537,0.20400001,0.09543617,0.661,1.021,0.62,1.02,102,30,2.719,1.9490001,1.8960001,-0.071,0.76946324,0,4,1,19
1765404406,1686681580999510,371026699,-763878957,34204,-1566,0.20500001,0.09855909,0.66200006,1.024,0.62,1.02,102,30,2.6520002,1.9030001,1.848,-0.101,0.7701507,0,4,1,19
1765597676,1686681581199509,371026734,-763878916,34180,-1590,0.19900002,0.09078731,0.66300005,1.0270001,0.62,1.02,102,18,2.7280002,1.991,1.866,0.08800001,0.76072687,0,4,1,19
1765798507,1686681581399509,371026768,-763878875,34146,-1624,0.201,0.09763214,0.66300005,1.0300001,0.62,1.02,102,18,2.6460001,1.9430001,1.7960001,-0.006,0.7538314,0,4,1,19
1766006571,1686681581599509,371026802,-763878835,34102,-1668,0.202,0.09473193,0.66400003,1.033,0.62,1.02,102,18,2.7140002,2.0670002,1.7580001,0.020000001,0.72838676,0,4,1,19
1766194950,1686681581799509,371026839,-763878795,34114,-1656,0.18900001,0.090367556,0.665,1.0350001,0.62,1.02,102,18,2.7400002,2.055,1.8130001,-0.141,0.72551554,0,4,1,19
1766403494,1686681581999510,371026876,-763878754,34088,-1682,0.201,0.09532342,0.666,1.0380001,0.62,1.02,102,18,2.73,2.066,1.7850001,-0.012,0.7194432,0,4,1,19
1766592487,1686681582199508,371026913,-763878714,34051,-1719,0.201,0.09326865,0.66700006,1.041,0.62,1.02,102,18,2.7870002,2.1260002,1.8030001,0.067,0.71113294,0,4,1,19
1766795463,1686681582399508,371026950,-763878674,34020,-1750,0.19800001,0.09670398,0.669,1.0430001,0.62,1.02,102,31,2.732,2.081,1.7700001,-0.0050000004,0.7080385,0,4,1,19
1766996336,1686681582599508,371026987,-763878633,34014,-1756,0.19700001,0.095826425,0.67,1.046,0.62,1.02,102,31,2.7580001,2.0540001,1.8390001,0.007,0.7193194,0,4,1,19
1767196336,1686681582799508,371027025,-763878593,34001,-1769,0.19700001,0.09424742,0.67200005,1.049,0.62,1.02,102,31,2.792,2.1390002,1.794,-0.049000002,0.70845145,0,4,1,19
1767394487,1686681582999509,371027063,-763878553,33994,-1777,0.19800001,0.0986734,0.674,1.052,0.62,1.02,102,31,2.71,2.068,1.7520001,-0.074,0.7058785,0,4,1,19
1767599521,1686681583199508,371027100,-763878516,33945,-1825,0.19800001,0.103519484,0.67600006,1.0550001,0.62,1.02,102,31,2.5800002,1.945,1.695,-0.032,0.7111335,0,4,1,19
1767792572,1686681583399508,371027136,-763878477,33950,-1821,0.19800001,0.094924964,0.67700005,1.0580001,0.62,1.02,102,32,2.765,2.1090002,1.789,0.036000002,0.7069532,0,4,1,19
1767992495,1686681583599508,371027174,-763878438,33912,-1858,0.19900002,0.09193207,0.67700005,1.059,0.62,1.02,102,32,2.697,2.108,1.682,0.023000002,0.6894972,0,4,1,19
1768180509,1686681583799508,371027211,-763878400,33917,-1853,0.208,0.093635686,0.67800003,1.0600001,0.62,1.02,102,32,2.663,2.066,1.6800001,0.031000001,0.6861861,0,4,1,19
1768381206,1686681583999509,371027248,-763878361,33922,-1848,0.202,0.09107738,0.67800003,1.0600001,0.65999997,1.03,102,32,2.7380002,2.151,1.6940001,-0.002,0.6763114,0,4,1,18
1768600319,1686681584199508,371027286,-763878321,33903,-1867,0.2,0.093548074,0.67800003,1.0600001,0.62,1.02,102,20,2.693,2.058,1.7360001,0.0050000004,0.6883486,0,4,1,19
1768802484,1686681584399508,371027323,-763878282,33859,-1911,0.2,0.0919593,0.67800003,1.0600001,0.62,1.02,102,20,2.6880002,2.049,1.7390001,0.064,0.69625175,0,4,1,19
1768998835,1686681584599508,371027361,-763878243,33842,-1928,0.20500001,0.09187832,0.67800003,1.0610001,0.62,1.02,102,20,2.8290002,2.2250001,1.748,0.044000003,0.6809177,0,4,1,19
1769199988,1686681584799508,371027399,-763878204,33799,-1971,0.20600002,0.09542343,0.679,1.062,0.62,1.02,102,20,2.723,2.0970001,1.7360001,0.136,0.6860723,0,4,1,19
1769395597,1686681584999509,371027438,-763878165,33752,-2018,0.215,0.097473316,0.68,1.064,0.62,1.02,102,20,2.736,2.131,1.7160001,0.11100001,0.6820303,0,4,1,19
1769599601,1686681585199508,371027474,-763878127,33707,-2063,0.18900001,0.089742035,0.68,1.065,0.62,1.02,102,19,2.7930002,2.1320002,1.8050001,0.053000003,0.6932006,0,4,1,19
1769796780,1686681585399507,371027511,-763878088,33716,-2054,0.19100001,0.08839237,0.68,1.067,0.62,1.02,102,19,2.8160002,2.213,1.741,0.064,0.6796071,0,4,1,19
1769997681,1686681585599507,371027549,-763878049,33730,-2040,0.18300001,0.08732772,0.679,1.0660001,0.62,1.02,102,19,2.845,2.187,1.8190001,-0.085,0.68676746,0,4,1,19
1770198572,1686681585799507,371027587,-763878009,33732,-2038,0.186,0.0906962,0.679,1.0660001,0.62,1.02,102,19,2.7710001,2.1750002,1.7170001,-0.055000003,0.67775357,0,4,1,19
1770399491,1686681585999508,371027625,-763877970,33757,-2013,0.187,0.09047106,0.67800003,1.065,0.62,1.02,102,19,2.785,2.207,1.6980001,-0.049000002,0.6666072,0,4,1,19
1770600478,1686681586199507,371027663,-763877932,33765,-2005,0.2,0.096215636,0.67800003,1.065,0.62,1.02,102,29,2.733,2.151,1.6850001,-0.034,0.6656129,0,4,1,19
1770795364,1686681586399507,371027701,-763877895,33768,-2002,0.21100001,0.09586517,0.679,1.065,0.62,1.02,102,29,2.7350001,2.1680002,1.6680001,-0.045,0.66066086,0,4,1,19
1771000320,1686681586599507,371027737,-763877857,33787,-1984,0.20700002,0.0969101,0.679,1.064,0.62,1.02,102,29,2.641,2.059,1.654,-0.123,0.6685956,0,4,1,19
1771197626,1686681586799507,371027773,-763877820,33765,-2006,0.2,0.09207571,0.679,1.065,0.62,1.02,102,29,2.651,2.052,1.6790001,-0.019000001,0.677722,0,4,1,19
1771400844,1686681586999508,371027809,-763877782,33799,-1971,0.193,0.091143005,0.67800003,1.064,0.62,1.02,102,29,2.6660001,2.056,1.697,-0.193,0.68388873,0,4,1,19
1771598570,1686681587199507,371027844,-763877743,33818,-1952,0.19100001,0.09400535,0.67800003,1.0630001,0.62,1.02,102,28,2.6100001,1.9790001,1.7010001,-0.16600001,0.6966347,0,4,1,19
1771799507,1686681587399507,371027879,-763877704,33824,-1947,0.193,0.09261886,0.67700005,1.0630001,0.62,1.02,102,28,2.6360002,1.9490001,1.774,-0.068,0.71796346,0,4,1,19
1771999593,1686681587599507,371027916,-763877663,33831,-1939,0.171,0.085233495,0.67600006,1.0610001,0.62,1.02,102,28,2.7150002,2.01,1.8260001,-0.11400001,0.72859603,0,4,1,19
1772199514,1686681587799507,371027952,-763877621,33863,-1907,0.18,0.09075869,0.674,1.0600001,0.62,1.02,102,28,2.6550002,1.8820001,1.8730001,-0.018000001,0.7542768,0,4,1,19
1772412100,1686681587999508,371027985,-763877579,33860,-1910,0.19100001,0.095266,0.674,1.0600001,0.62,1.02,102,28,2.6590002,1.9650002,1.7910001,0.014,0.7471054,0,4,1,19
1772605595,1686681588199507,371028021,-763877538,33844,-1926,0.192,0.09200311,0.674,1.0610001,0.62,1.02,102,28,2.753,2.036,1.853,-0.045,0.74257976,0,4,1,19
1772797628,1686681588399507,371028057,-763877497,33846,-1925,0.19100001,0.09287944,0.675,1.062,0.62,1.02,102,28,2.789,2.0760002,1.863,-0.086,0.737041,0,4,1,19
1773005981,1686681588599506,371028096,-763877456,33853,-1917,0.18800001,0.08962597,0.67600006,1.064,0.62,1.02,102,28,2.7670002,2.055,1.853,-0.14400001,0.73532254,0,4,1,19
1773198551,1686681588799506,371028132,-763877413,33885,-1885,0.17300001,0.08459418,0.675,1.064,0.62,1.02,102,28,2.7180002,1.8830001,1.96,-0.22100002,0.77271044,0,4,1,19
1773398829,1686681588999507,371028165,-763877370,33918,-1852,0.17500001,0.088606,0.67300004,1.0630001,0.62,1.02,102,28,2.5560002,1.8320001,1.7820001,-0.158,0.7721687,0,4,1,19
1773592513,1686681589199506,371028198,-763877330,33886,-1884,0.18100001,0.09107773,0.67200005,1.064,0.62,1.02,102,28,2.5700002,1.7780001,1.8570001,-0.002,0.7893237,0,4,1,19
1773800602,1686681589399506,371028231,-763877289,33840,-1930,0.18300001,0.091556996,0.671,1.065,0.62,1.02,102,34,2.5500002,1.8160001,1.7910001,0.014,0.7839549,0,4,1,19
1774000309,1686681589599506,371028264,-763877251,33782,-1988,0.185,0.09371999,0.671,1.065,0.62,1.02,102,34,2.4780002,1.8280001,1.6730001,0.135,0.7629441,0,4,1,19
1774196648,1686681589799506,371028294,-763877214,33718,-2052,0.19000001,0.10402528,0.671,1.0660001,0.62,1.02,102,34,2.4020002,1.6800001,1.7160001,0.047000002,0.7778021,0,4,1,19
1774398667,1686681589999507,371028324,-763877176,33654,-2116,0.193,0.10317199,0.671,1.067,0.62,1.02,102,34,2.41,1.7420001,1.664,0.080000006,0.7700689,0,4,1,19
1774595816,1686681590199506,371028355,-763877139,33601,-2169,0.19700001,0.109378204,0.67200005,1.069,0.62,1.02,102,24,2.3990002,1.7040001,1.6880001,0.062000003,0.7751668,0,4,1,19
1774796486,1686681590399506,371028387,-763877103,33541,-2229,0.19800001,0.1034029,0.67300004,1.0710001,0.62,1.02,102,24,2.423,1.807,1.6140001,0.11000001,0.7506521,0,4,1,19
1774995626,1686681590599506,371028420,-763877068,33505,-2266,0.21200001,0.10670908,0.675,1.0730001,0.62,1.02,102,24,2.426,1.871,1.5450001,0.065000005,0.72114295,0,4,1,19
1775195559,1686681590799506,371028455,-763877035,33448,-2322,0.216,0.10731645,0.67700005,1.074,0.62,1.02,102,24,2.3960001,1.9080001,1.45,0.14400001,0.6855459,0,4,1,19
1775403610,1686681590999507,371028489,-763877003,33435,-2336,0.21000001,0.106668405,0.679,1.0760001,0.62,1.02,102,24,2.41,1.9210001,1.4560001,-0.056,0.6669231,0,4,1,19
1775604919,1686681591199506,371028525,-763876970,33418,-2352,0.209,0.10306413,0.68,1.0780001,0.62,1.02,102,30,2.4490001,1.9800001,1.4410001,-0.093,0.6472021,0,4,1,19
1775797673,1686681591399506,371028561,-763876938,33395,-2375,0.209,0.09987908,0.68100005,1.0780001,0.62,1.02,102,30,2.5040002,2.0470002,1.442,-0.021000002,0.62992316,0,4,1,19
1775999492,1686681591599505,371028596,-763876906,33431,-2340,0.208,0.092182875,0.68200004,1.0780001,0.62,1.02,102,30,2.4780002,2.042,1.4020001,-0.10300001,0.6145934,0,4,1,19
1776195517,1686681591799505,371028633,-763876872,33398,-2372,0.20400001,0.08930657,0.68200004,1.077,0.62,1.02,102,30,2.585,2.0990002,1.5090001,-0.080000006,0.61903423,0,4,1,19
1776396503,1686681591999506,371028671,-763876837,33334,-2437,0.20300001,0.08849779,0.68200004,1.075,0.62,1.02,102,30,2.618,2.1000001,1.5640001,-0.026,0.6297895,0,4,1,19
1776600229,1686681592199505,371028710,-763876801,33251,-2519,0.201,0.087737344,0.68200004,1.072,0.62,1.02,102,22,2.6660001,2.0870001,1.659,-0.021000002,0.6510837,0,4,1,19
1776800156,1686681592399505,371028747,-763876764,33250,-2521,0.201,0.08707168,0.68200004,1.07,0.62,1.02,102,22,2.6450002,2.108,1.598,-0.07300001,0.6498609,0,4,1,19
1776997612,1686681592599505,371028784,-763876726,33237,-2533,0.19800001,0.08595589,0.68200004,1.0680001,0.62,1.02,102,22,2.7120001,2.078,1.7420001,-0.086,0.6742573,0,4,1,19
1777198671,1686681592799505,371028821,-763876686,33236,-2534,0.19800001,0.08675106,0.68200004,1.0660001,0.62,1.02,102,22,2.7140002,2.02,1.812,-0.026,0.7028214,0,4,1,19
1777402581,1686681592999506,371028857,-763876646,33207,-2563,0.19500001,0.088758014,0.683,1.065,0.62,1.02,102,22,2.6580002,1.9610001,1.7930001,-0.13700001,0.7214641,0,4,1,19
1777599487,1686681593199505,371028892,-763876607,33192,-2578,0.2,0.088371776,0.683,1.0630001,0.62,1.02,102,19,2.67,1.973,1.7990001,0.029000001,0.73045146,0,4,1,19
1777796103,1686681593399505,371028927,-763876567,33181,-2589,0.18900001,0.09408389,0.683,1.062,0.62,1.02,102,19,2.7250001,1.95,1.9050001,-0.024,0.75093067,0,4,1,19
1778000543,1686681593599505,371028960,-763876527,33180,-2590,0.187,0.095787674,0.683,1.0610001,0.62,1.02,102,19,2.6590002,1.8840001,1.8770001,-0.095000006,0.76702225,0,4,1,19
1778195706,1686681593799505,371028993,-763876487,33187,-2583,0.192,0.10265398,0.683,1.0600001,0.62,1.02,102,19,2.4840002,1.7500001,1.764,-0.078,0.7774998,0,4,1,19
1778413610,1686681593999506,371029025,-763876450,33163,-2608,0.185,0.10123799,0.68200004,1.057,0.62,1.02,102,19,2.492,1.7910001,1.7320001,0.059000004,0.77298164,0,4,1,19
1778598558,1686681594199505,371029056,-763876413,33117,-2653,0.19900002,0.10556518,0.683,1.0580001,0.62,1.02,102,33,2.4350002,1.6890001,1.7540001,0.032,0.7881104,0,4,1,19
1778798852,1686681594399505,371029087,-763876375,33059,-2712,0.19100001,0.09501572,0.683,1.056,0.62,1.02,102,33,2.522,1.8090001,1.7570001,0.13700001,0.7786165,0,4,1,19
1778995512,1686681594599505,371029119,-763876338,33063,-2707,0.186,0.093773045,0.683,1.0530001,0.62,1.02,102,33,2.5370002,1.8410001,1.7450001,0.063,0.76841205,0,4,1,19
1779199998,1686681594799504,371029155,-763876299,32971,-2799,0.20400001,0.0876239,0.683,1.051,0.62,1.02,102,33,2.732,2.049,1.807,0.30100003,0.7437701,0,4,1,19
1779399487,1686681594999505,371029191,-763876258,32899,-2871,0.21100001,0.08813022,0.684,1.051,0.62,1.02,102,33,2.709,2.003,1.8240001,0.109000005,0.7412273,0,4,1,19
1779607698,1686681595199504,371029227,-763876218,32832,-2939,0.21000001,0.087889016,0.684,1.0480001,0.62,1.02,102,35,2.7140002,1.9890001,1.8470001,0.305,0.74483943,0,4,1,19
1779797036,1686681595399504,371029262,-763876179,32787,-2983,0.18900001,0.08814069,0.683,1.046,0.62,1.02,102,35,2.779,2.107,1.8130001,0.193,0.72753835,0,4,1,19
1779998584,1686681595599504,371029299,-763876142,32772,-2998,0.18900001,0.09080686,0.68200004,1.044,0.62,1.02,102,35,2.6940002,2.0630002,1.733,0.136,0.71343243,0,4,1,19
1780198485,1686681595799504,371029335,-763876105,32709,-3061,0.194,0.09147707,0.68100005,1.0430001,0.62,1.02,102,35,2.6940002,2.042,1.7570001,0.18400002,0.7120414,0,4,1,19
1780399483,1686681595999505,371029372,-763876066,32685,-3085,0.18800001,0.08669119,0.68100005,1.042,0.62,1.02,102,35,2.8300002,2.144,1.8470001,0.15100001,0.71149004,0,4,1,19
1780595774,1686681596199504,371029410,-763876027,32622,-3148,0.193,0.085264914,0.68,1.0400001,0.62,1.02,102,35,2.867,2.19,1.8510001,0.374,0.7064258,0,4,1,19
1780800487,1686681596399504,371029450,-763875988,32550,-3220,0.19700001,0.08221879,0.679,1.0380001,0.62,1.02,102,17,2.946,2.334,1.7980001,0.37100002,0.6801628,0,4,1,19
1780999771,1686681596599504,371029490,-763875947,32517,-3253,0.194,0.084870294,0.67800003,1.0370001,0.62,1.02,102,17,2.903,2.21,1.8830001,0.18,0.6925515,0,4,1,19
1781197626,1686681596799504,371029527,-763875906,32422,-3349,0.194,0.084783725,0.67800003,1.0370001,0.62,1.02,102,17,2.8040001,2.052,1.9100001,0.39900002,0.72134155,0,4,1,19
1781398550,1686681596999505,371029566,-763875865,32334,-3436,0.187,0.08197113,0.67600006,1.036,0.62,1.02,102,17,2.848,2.1420002,1.876,0.36900002,0.7202214,0,4,1,19
1781594557,1686681597199504,371029605,-763875822,32268,-3502,0.187,0.079800636,0.675,1.036,0.62,1.02,102,17,2.953,2.1490002,2.026,0.279,0.7387947,0,4,1,19
1781795574,1686681597399504,371029644,-763875779,32191,-3580,0.17600001,0.07853475,0.67300004,1.034,0.62,1.02,102,20,2.9770002,2.1090002,2.1000001,0.286,0.7616698,0,4,1,19
1781983414,1686681597599504,371029684,-763875732,32113,-3658,0.19000001,0.073345535,0.671,1.031,0.62,1.02,102,20,3.3490002,2.4510002,2.2810001,0.476,0.75508314,0,4,1,19
1782199429,1686681597799504,371029730,-763875676,32134,-3636,0.22800002,0.06553519,0.67200005,1.0300001,0.62,1.02,102,20,3.9190001,2.825,2.716,-0.39000002,0.76110333,0,4,1,19
1782384414,1686681597999504,371029786,-763875608,32270,-3500,0.23400001,0.053954583,0.674,1.028,0.62,1.02,102,20,4.8190002,3.496,3.3170002,-0.78300005,0.75997585,0,4,1,19
1782597670,1686681598199503,371029854,-763875526,32471,-3299,0.23600002,0.04195806,0.67700005,1.028,0.62,1.02,102,25,5.6860003,4.2250004,3.805,-1.021,0.7426564,0,4,1,19
1782781161,1686681598399503,371029931,-763875437,32635,-3135,0.35900003,0.062236167,0.67800003,1.0270001,0.62,1.02,102,25,6.01,4.381,4.1150002,-0.93100005,0.74665564,0,4,1,19
1782998483,1686681598599503,371030008,-763875345,32702,-3068,0.47900003,0.08332166,0.68,1.028,0.62,1.02,102,25,5.8380003,4.1600003,4.096,-0.804,0.7583054,0,4,1,19
1783195672,1686681598799503,371030084,-763875250,32793,-2977,0.46600002,0.07901472,0.679,1.0270001,0.62,1.02,102,25,6.0350003,4.2260003,4.309,-0.808,0.7781604,0,4,1,19
1783399532,1686681598999504,371030158,-763875148,32918,-2852,0.44200003,0.07757534,0.67800003,1.0270001,0.62,1.02,102,25,6.032,3.9380002,4.57,-0.726,0.82067156,0,4,1,19
1783600510,1686681599199503,371030227,-763875040,33061,-2709,0.39600003,0.066021435,0.67700005,1.026,0.62,1.02,102,30,6.084,3.7010002,4.829,-0.83400005,0.8776878,0,4,1,19
1783800080,1686681599399503,371030291,-763874926,33227,-2544,0.34500003,0.059320945,0.67600006,1.0270001,0.62,1.02,102,30,6.1260004,3.3920002,5.1010003,-0.84700006,0.9384701,0,4,1,19
1783981211,1686681599599503,371030350,-763874804,33378,-2393,0.29500002,0.04993282,0.67600006,1.028,0.62,1.02,102,30,6.2960005,3.1710002,5.439,-0.75000006,1.0019783,0,4,1,19
1784205429,1686681599799503,371030404,-763874674,33516,-2255,0.245,0.039981477,0.67600006,1.0300001,0.62,1.02,102,30,6.5990005,2.8690002,5.9420004,-0.832,1.0782983,0,4,1,19
1784413951,1686681599999504,371030453,-763874533,33702,-2068,0.21800001,0.034360122,0.67600006,1.031,0.62,1.02,102,30,6.8150005,2.6200001,6.2920003,-0.869,1.1396277,0,4,1,19
1784598150,1686681600199503,371030499,-763874386,33898,-1872,0.246,0.037509043,0.67600006,1.031,0.62,1.02,102,19,7.0390005,2.467,6.5920005,-1.006,1.1781989,0,4,1,19
1784799482,1686681600399503,371030542,-763874232,34152,-1618,0.303,0.044939257,0.67600006,1.031,0.62,1.02,102,19,7.1990004,2.4610002,6.7660003,-1.182,1.1988704,0,4,1,19
1785000494,1686681600599503,371030586,-763874077,34406,-1364,0.33,0.048855253,0.67600006,1.031,0.62,1.02,102,19,7.2750006,2.273,6.9110003,-1.386,1.2261848,0,4,1,19
1785200035,1686681600799503,371030625,-763873917,34711,-1059,0.386,0.061579227,0.67600006,1.031,0.62,1.02,102,19,7.4630003,2.1780002,7.1380005,-1.4790001,1.2467762,0,4,1,19
1785384509,1686681600999504,371030664,-763873756,34972,-799,0.381,0.062178224,0.67600006,1.0300001,0.62,1.02,102,19,7.4140005,2.102,7.109,-1.5020001,1.2657896,0,4,1,19
1785600824,1686681601199502,371030701,-763873595,35270,-501,0.41500002,0.06687246,0.67700005,1.029,0.62,1.02,102,29,7.4920006,2.135,7.181,-1.5230001,1.2736232,0,4,1,19
1785802703,1686681601399502,371030739,-763873435,35566,-204,0.402,0.065195896,0.67700005,1.028,0.62,1.02,102,29,7.2290006,2.102,6.9170003,-1.501,1.2747805,0,4,1,19
1785999556,1686681601599502,371030778,-763873281,35775,5,0.33100003,0.058337625,0.67700005,1.029,0.63,1.03,102,29,7.13,2.019,6.8380003,-1.473,1.2799428,0,4,1,18
1786198862,1686681601799502,371030817,-763873128,36017,247,0.273,0.04841316,0.67800003,1.028,0.63,1.03,102,29,7.1180005,2.148,6.787,-1.516,1.2702885,0,4,1,18
1786398930,1686681601999503,371030857,-763872977,36275,504,0.22600001,0.04068746,0.67800003,1.028,0.63,1.03,102,29,7.0650005,2.2050002,6.7120004,-1.4210001,1.2597282,0,4,1,18
1786600274,1686681602199502,371030898,-763872827,36497,726,0.193,0.03418297,0.67800003,1.028,0.63,1.03,102,39,7.0690002,2.283,6.6900005,-1.4490001,1.2483753,0,4,1,18
1786796980,1686681602399502,371030941,-763872676,36753,983,0.186,0.032774664,0.67800003,1.028,0.63,1.03,102,39,7.1210003,2.459,6.683,-1.302,1.2305169,0,4,1,18
1787000628,1686681602599502,371030985,-763872526,36998,1228,0.186,0.032995448,0.67800003,1.026,0.63,1.03,102,39,7.0730004,2.4150002,6.6480002,-1.3520001,1.2257836,0,4,1,18
1787198113,1686681602799502,371031030,-763872376,37245,1474,0.186,0.03269368,0.679,1.026,0.63,1.03,102,39,7.129,2.4810002,6.6840005,-1.393,1.219752,0,4,1,18
1787401942,1686681602999503,371031075,-763872226,37527,1756,0.186,0.03298777,0.679,1.026,0.63,1.03,102,39,7.0550003,2.5110002,6.5930004,-1.6110001,1.212405,0,4,1,18
1787595485,1686681603199502,371031119,-763872077,37811,2040,0.18300001,0.03126321,0.679,1.024,0.63,1.03,102,25,7.0360003,2.492,6.5790005,-1.47,1.2101746,0,4,1,18
1787807691,1686681603399502,371031163,-763871927,38063,2293,0.18300001,0.03117315,0.67800003,1.023,0.62,1.02,102,25,7.0670004,2.3790002,6.655,-1.3740001,1.220262,0,4,1,19
1787999810,1686681603599502,371031205,-763871776,38305,2535,0.186,0.031043122,0.67800003,1.0220001,0.62,1.02,102,25,7.11,2.334,6.7160006,-1.386,1.2296727,0,4,1,19
1788196625,1686681603799502,371031247,-763871623,38572,2802,0.185,0.030743623,0.67800003,1.021,0.62,1.02,102,25,7.1710005,2.3950002,6.76,-1.3840001,1.2300649,0,4,1,19
1788400529,1686681603999503,371031289,-763871469,38832,3061,0.18300001,0.03040346,0.67800003,1.021,0.62,1.02,102,25,7.2560005,2.352,6.8650002,-1.4260001,1.2363867,0,4,1,19
1788594557,1686681604199501,371031332,-763871314,39091,3321,0.18,0.032225758,0.67800003,1.021,0.62,1.02,102,25,7.2180004,2.4120002,6.8030005,-1.416,1.2328278,0,4,1,19
1788791528,1686681604399501,371031375,-763871162,39379,3609,0.172,0.03251269,0.67800003,1.0200001,0.62,1.02,102,30,7.123,2.4220002,6.6990004,-1.3900001,1.2276869,0,4,1,19
1788991519,1686681604599501,371031420,-763871010,39651,3881,0.17600001,0.03199607,0.67800003,1.019,0.62,1.02,102,30,7.2450004,2.526,6.7910004,-1.4300001,1.2200586,0,4,1,19
1789196489,1686681604799501,371031466,-763870857,39931,4161,0.18,0.032252286,0.67800003,1.018,0.62,1.02,102,30,7.188,2.5570002,6.7180004,-1.508,1.2125558,0,4,1,19
1789396517,1686681604999502,371031513,-763870706,40209,4439,0.18200001,0.0322289,0.67800003,1.018,0.62,1.02,102,30,7.188,2.6130002,6.696,-1.429,1.2045021,0,4,1,19
1789596598,1686681605199501,371031560,-763870556,40456,4686,0.18,0.032224186,0.679,1.018,0.62,1.02,102,30,7.1740003,2.621,6.6780005,-1.353,1.2000302,0,4,1,19
1789800392,1686681605399501,371031607,-763870405,40706,4935,0.18100001,0.03244305,0.679,1.018,0.62,1.02,102,26,7.1470003,2.505,6.6930003,-1.399,1.2072988,0,4,1,19
1789994531,1686681605599501,371031654,-763870254,40952,5182,0.177,0.031962037,0.679,1.0170001,0.62,1.02,102,26,7.2380004,2.604,6.754,-1.335,1.2046669,0,4,1,19
1790189711,1686681605799501,371031700,-763870103,41234,5464,0.177,0.032250542,0.679,1.016,0.62,1.02,102,26,7.169,2.6000001,6.6800003,-1.4280001,1.2017218,0,4,1,19
1790403612,1686681605999502,371031747,-763869952,41514,5743,0.18,0.032334317,0.679,1.0150001,0.62,1.02,102,26,7.1610003,2.551,6.6910005,-1.4530001,1.2044841,0,4,1,19
1790595478,1686681606199501,371031792,-763869801,41799,6028,0.18,0.032444097,0.68,1.014,0.62,1.02,102,26,7.1470003,2.4680002,6.7070003,-1.485,1.2124106,0,4,1,19
1790795578,1686681606399501,371031837,-763869649,42088,6318,0.18,0.032069203,0.68,1.014,0.62,1.02,102,20,7.2310004,2.4850001,6.7910004,-1.567,1.2168765,0,4,1,19
1790995542,1686681606599501,371031880,-763869495,42370,6599,0.179,0.030438889,0.68,1.013,0.62,1.02,102,20,7.2000003,2.3530002,6.8050003,-1.4720001,1.2296696,0,4,1,19
1791196516,1686681606799501,371031922,-763869341,42617,6846,0.18,0.030721284,0.679,1.0120001,0.62,1.02,102,20,7.2200003,2.259,6.8580003,-1.3850001,1.2431102,0,4,1,19
1791397070,1686681606999502,371031961,-763869188,42885,7114,0.179,0.031461127,0.679,1.011,0.62,1.02,102,20,7.044,2.1560001,6.7060003,-1.3360001,1.2526592,0,4,1,19
1791598481,1686681607199501,371032000,-763869035,43146,7375,0.179,0.031074539,0.679,1.01,0.62,1.02,102,20,7.1270003,2.216,6.7730002,-1.3310001,1.2538013,0,4,1,19
1791791529,1686681607399500,371032040,-763868882,43397,7626,0.179,0.032430835,0.679,1.01,0.62,1.02,102,19,7.1710005,2.232,6.814,-1.371,1.2540541,0,4,1,19
1791992481,1686681607599500,371032081,-763868729,43645,7874,0.18100001,0.03262753,0.68,1.01,0.62,1.02,102,19,7.176,2.301,6.7970004,-1.3160001,1.2484378,0,4,1,19
1792195390,1686681607799500,371032124,-763868577,43892,8121,0.18200001,0.032561034,0.68,1.01,0.62,1.02,102,19,7.175,2.4610002,6.7400002,-1.366,1.2323526,0,4,1,19
1792395699,1686681607999501,371032170,-763868425,44157,8386,0.18100001,0.032391388,0.68,1.01,0.62,1.02,102,19,7.2060003,2.542,6.7430005,-1.3950001,1.2195023,0,4,1,19
1792596419,1686681608199500,371032216,-763868274,44423,8653,0.18100001,0.032629974,0.68100005,1.0090001,0.62,1.02,101,24,7.149,2.5560002,6.676,-1.468,1.2112064,0,4,1,19
1792794566,1686681608399500,371032263,-763868123,44687,8916,0.18,0.03238057,0.68100005,1.008,0.62,1.02,101,24,7.2040005,2.572,6.729,-1.4660001,1.208023,0,4,1,19
1792998490,1686681608599500,371032310,-763867972,44934,9164,0.18100001,0.028818002,0.68100005,1.0070001,0.62,1.02,101,24,7.1970005,2.7080002,6.668,-1.445,1.1934278,0,4,1,19
1793199574,1686681608799500,371032358,-763867820,45222,9451,0.18200001,0.032054365,0.68100005,1.0070001,0.62,1.02,101,24,7.274,2.5900002,6.7970004,-1.549,1.2007328,0,4,1,19
1793399518,1686681608999501,371032406,-763867667,45501,9730,0.18100001,0.031959247,0.68100005,1.0070001,0.62,1.02,101,24,7.294,2.654,6.794,-1.4660001,1.1994112,0,4,1,19
1793600537,1686681609199500,371032454,-763867513,45783,10013,0.18400002,0.031910375,0.68100005,1.0070001,0.62,1.02,102,27,7.3250003,2.5860002,6.853,-1.501,1.2055961,0,4,1,19
1793780445,1686681609399500,371032500,-763867359,46056,10285,0.18400002,0.032150183,0.68200004,1.0070001,0.62,1.02,102,27,7.2780004,2.496,6.8370004,-1.442,1.2143987,0,4,1,19
1794000460,1686681609599500,371032545,-763867204,46300,10529,0.18400002,0.03022526,0.68200004,1.006,0.62,1.02,102,27,7.3090005,2.476,6.8760004,-1.3540001,1.2210145,0,4,1,19
1794194619,1686681609799500,371032590,-763867048,46517,10747,0.18400002,0.029997146,0.68200004,1.006,0.62,1.02,102,27,7.3630004,2.505,6.9230003,-1.2620001,1.2225858,0,4,1,19
1794402165,1686681609999501,371032636,-763866893,46732,10961,0.18400002,0.030275002,0.68200004,1.006,0.62,1.02,102,27,7.2900004,2.5140002,6.8430004,-1.2320001,1.2202959,0,4,1,19
1794599783,1686681610199500,371032681,-763866738,46986,11216,0.18400002,0.032022774,0.683,1.0070001,0.62,1.02,102,25,7.3100004,2.4950001,6.8700004,-1.302,1.2214861,0,4,1,19
1794800507,1686681610399500,371032726,-763866583,47219,11448,0.18400002,0.03207688,0.683,1.0070001,0.62,1.02,102,25,7.3080006,2.403,6.9020004,-1.3510001,1.2297865,0,4,1,19
1794995486,1686681610599499,371032769,-763866427,47465,11694,0.18300001,0.032118246,0.684,1.0070001,0.62,1.02,102,25,7.3020005,2.3830001,6.9020004,-1.4100001,1.2347696,0,4,1,19
1795200116,1686681610799499,371032812,-763866272,47734,11963,0.18,0.03202592,0.684,1.0070001,0.62,1.02,102,25,7.261,2.404,6.8510003,-1.4430001,1.2338918,0,4,1,19
1795400891,1686681611000499,371032856,-763866117,48019,12249,0.185,0.032402735,0.684,1.0070001,0.62,1.02,102,25,7.2300005,2.4280002,6.8110003,-1.4120001,1.2306806,0,4,1,19
1795598481,1686681611200499,371032900,-763865963,48295,12525,0.18200001,0.032277595,0.684,1.006,0.62,1.02,102,23,7.2460003,2.4610002,6.8160005,-1.457,1.2269528,0,4,1,19
1795798484,1686681611400499,371032945,-763865812,48574,12803,0.18,0.032903295,0.68500006,1.006,0.62,1.02,102,23,7.103,2.4780002,6.6570005,-1.389,1.2197847,0,4,1,19
1795999485,1686681611600499,371032989,-763865662,48866,13095,0.18,0.033064913,0.68500006,1.006,0.62,1.02,102,23,7.0670004,2.4480002,6.629,-1.4770001,1.2182436,0,4,1,19
1796200487,1686681611800499,371033034,-763865511,49163,13392,0.18200001,0.03264638,0.68500006,1.006,0.62,1.02,102,23,7.1520004,2.536,6.6870003,-1.483,1.2124397,0,4,1,19
1796412528,1686681612000499,371033080,-763865360,49442,13672,0.185,0.03234636,0.68500006,1.006,0.62,1.02,102,23,7.2250004,2.575,6.7500005,-1.4640001,1.2088717,0,4,1,19
1796599654,1686681612200499,371033126,-763865208,49727,13956,0.18100001,0.03244951,0.68600005,1.006,0.62,1.02,102,32,7.1930003,2.5470002,6.727,-1.5830001,1.2088455,0,4,1,19
1796800497,1686681612400499,371033173,-763865055,50002,14231,0.186,0.032159086,0.68600005,1.006,0.62,1.02,102,32,7.2880006,2.555,6.8250003,-1.5100001,1.2110647,0,4,1,19
1796996860,1686681612600499,371033218,-763864901,50262,14491,0.185,0.030371519,0.68600005,1.005,0.62,1.02,102,32,7.2850003,2.5110002,6.839,-1.4440001,1.2158078,0,4,1,19
1797198529,1686681612800499,371033263,-763864746,50535,14765,0.185,0.03223082,0.68700004,1.005,0.62,1.02,102,32,7.2890005,2.41,6.879,-1.4260001,1.2258772,0,4,1,19
1797395521,1686681613000499,371033306,-763864591,50767,14996,0.18400002,0.03041969,0.68700004,1.005,0.62,1.02,102,32,7.2970004,2.365,6.9030004,-1.3950001,1.2349528,0,4,1,19
1797599455,1686681613200499,371033349,-763864435,51039,15269,0.186,0.030456169,0.68700004,1.0040001,0.62,1.02,102,34,7.2890005,2.401,6.8820004,-1.3790001,1.2350452,0,4,1,19
1797796487,1686681613400499,371033392,-763864280,51317,15546,0.186,0.03057869,0.68700004,1.0040001,0.62,1.02,102,34,7.2570004,2.398,6.8500004,-1.3900001,1.2344902,0,4,1,19
