timestamp,lat,lon,alt,delta_alt,vel_n,vel_e,vel_d,yaw,eph,epv,terrain_alt,lat_lon_reset_counter,alt_reset_counter,terrain_alt_valid,dead_reckoning
1725780098,37.10256866022046,-76.38811758739241,2.953488,-0.0,0.05401972,-0.002267818,-0.0020817232,0.02170544,1.0846026,1.5553623,0.0,2,0,0,0
1725979826,37.10256870543628,-76.38811756029331,2.9346938,-0.0,0.052811746,-0.00047869625,0.004141176,0.021695055,1.0845873,1.5553912,0.0,2,0,0,0
1726185434,37.10256874428824,-76.38811752181694,2.9340746,-0.0,0.027450906,-0.010777744,0.00013110282,0.021483757,1.0849031,1.5552603,0.0,2,0,0,0
1726389624,37.102568767144845,-76.38811748030804,2.9422781,-0.0,0.03362247,0.01013127,0.0063924883,0.02184623,1.0848066,1.5552523,0.0,2,0,0,0
1726589400,37.102568782857155,-76.38811745621999,2.9502842,-0.0,0.041805577,0.0012601765,-0.0060183173,0.020663347,1.0848513,1.5552876,0.0,2,0,0,0
1726794187,37.102568780790165,-76.38811742212036,2.9522548,-0.0,0.028390277,0.011134621,-0.012849735,0.024586786,1.0851611,1.555419,0.0,2,0,0,0
1726994452,37.10256878832901,-76.38811742502381,2.9651155,-0.0,0.10081156,-0.08584763,-0.1955652,0.045425948,1.0851033,1.555206,0.0,2,0,0,0
1727195011,37.10256890338424,-76.3881176241694,3.1034827,-0.0,0.11258589,-0.11845365,-0.9072447,0.054603413,1.0850809,1.5552464,0.0,2,0,0,0
1727400009,37.10256904905802,-76.38811794838993,3.3444417,-0.0,0.03892422,-0.15110901,-1.0499947,0.061293542,1.0854208,1.5551368,0.0,2,0,0,0
1727600033,37.102568981577605,-76.38811829499971,3.584527,-0.0,-0.032486252,-0.13888355,-1.0049946,0.06381514,1.0853409,1.5551527,0.0,2,0,0,0
1727800845,37.10256879907638,-76.38811860420863,3.8508153,-0.0,-0.09431853,-0.12411802,-0.971548,0.06222221,1.085362,1.5552044,0.0,2,0,0,0
1728005637,37.10256856685652,-76.38811877427693,4.097375,-0.0,-0.13310209,-0.09104352,-0.9579892,0.057349753,1.0855042,1.5550625,0.0,2,0,0,0
1728209399,37.1025683169345,-76.38811888426494,4.2937694,-0.0,-0.13867831,-0.057522807,-0.93780655,0.051236026,1.0854656,1.5551326,0.0,2,0,0,0
1728410528,37.10256808294773,-76.38811889519086,4.45166,-0.0,-0.12929235,-0.03995412,-0.92120725,0.046604306,1.0853944,1.5551965,0.0,2,0,0,0
1728611215,37.102567863875635,-76.38811886085492,4.617758,-0.0,-0.08255537,-0.029136056,-0.91077983,0.043055233,1.0852687,1.5552546,0.0,2,0,0,0
1728811242,37.10256764506933,-76.38811873117764,4.787467,-0.0,-0.055216152,-0.009367186,-0.89218485,0.041080114,1.0850939,1.5550689,0.0,2,0,0,0
1729015845,37.10256754740749,-76.38811858450956,4.970746,-0.0,-0.010738092,0.006758903,-0.8939924,0.04058738,1.0852396,1.5552319,0.0,2,0,0,0
1729216611,37.10256744550022,-76.38811842564691,5.138853,-0.0,0.0073982123,0.008604254,-0.9017651,0.041118708,1.0850718,1.5553029,0.0,2,0,0,0
1729417739,37.10256747827131,-76.38811830677669,5.296631,-0.0,0.017518988,0.021593217,-0.8771676,0.03981084,1.0849373,1.5551044,0.0,2,0,0,0
1729621695,37.10256741941002,-76.38811818149746,5.449852,-0.0,0.020952117,0.040023435,-0.8792184,0.03591977,1.0847995,1.5551733,0.0,2,0,0,0
1729822219,37.10256741890391,-76.3881180710796,5.6143866,-0.0,0.021840677,0.0368839,-0.88076496,0.03202833,1.0846779,1.5552438,0.0,2,0,0,0
1730023301,37.10256738139836,-76.38811795442471,5.7877097,-0.0,0.032413814,0.0652781,-0.8538416,0.028509593,1.0847126,1.5551438,0.0,2,0,0,0
1730223820,37.1025673470919,-76.38811786963271,5.9673395,-0.0,0.04799505,0.06259103,-0.84962153,0.0268767,1.0844212,1.5551696,0.0,2,0,0,0
1730428136,37.102567343738386,-76.38811780612203,6.1448812,-0.0,0.0693131,0.052832425,-0.87261623,0.026554486,1.0842746,1.5552318,0.0,2,0,0,0
1730628935,37.10256737494002,-76.38811775911805,6.302803,-0.0,0.085152484,0.0487624,-0.86836976,0.028269514,1.0841208,1.5552775,0.0,2,0,0,0
1730829620,37.102567473819605,-76.38811772097493,6.470953,-0.0,0.1083843,0.03609353,-0.88280225,0.030902639,1.0840018,1.5553337,0.0,2,0,0,0
1731033668,37.10256760097624,-76.38811769410157,6.637029,-0.0,0.09838941,0.019525252,-0.8780564,0.032295752,1.0841753,1.5552192,0.0,2,0,0,0
1731234423,37.10256777766272,-76.38811763907523,6.8055153,-0.0,0.10541105,0.02236881,-0.88308734,0.031598035,1.0840873,1.5552574,0.0,2,0,0,0
1731435000,37.102567965824676,-76.38811757019828,6.9766707,-0.0,0.08882954,0.014420508,-0.8864905,0.030365363,1.0840462,1.555303,0.0,2,0,0,0
1731635832,37.102568170616635,-76.38811746565163,7.1504083,-0.0,0.075616255,0.024428546,-0.8567468,0.030623468,1.0839437,1.5553424,0.0,2,0,0,0
1731836125,37.10256830736187,-76.38811739509715,7.3313956,-0.0,0.05359297,-0.005540401,-0.8929118,0.032063127,1.0836922,1.5553356,0.0,2,0,0,0
1732040808,37.102568442348975,-76.3881174043881,7.5156937,-0.0,0.033674583,-0.006991985,-0.8874285,0.03272084,1.0838509,1.555458,0.0,2,0,0,0
1732241610,37.10256852912701,-76.38811741726003,7.6936107,-0.0,-0.0061364467,-0.03267742,-0.8760021,0.033116393,1.0837897,1.5552435,0.0,2,0,0,0
1732441775,37.10256862218317,-76.38811748685715,7.8545585,-0.0,-0.016757382,-0.04454334,-0.90269333,0.03206228,1.0837415,1.5552921,0.0,2,0,0,0
1732642420,37.10256872055681,-76.38811754677604,8.005817,-0.0,-0.019963406,-0.045190196,-0.91720307,0.030958446,1.0836787,1.5553279,0.0,2,0,0,0
1732843410,37.10256886629902,-76.38811763967611,8.164446,-0.0,-0.018435817,-0.030714363,-0.9061117,0.029886356,1.0836486,1.5553762,0.0,2,0,0,0
1733043287,37.102569002023785,-76.38811773573777,8.335023,-0.0,-0.012826806,-0.041903574,-0.93252593,0.02902626,1.0836515,1.5551727,0.0,2,0,0,0
1733244139,37.10256909417946,-76.3881178834167,8.515232,-0.0,-0.036065724,-0.05548358,-0.9555789,0.028697813,1.0836594,1.5552304,0.0,2,0,0,0
1733444886,37.102569131599274,-76.38811802951491,8.702309,-0.0,-0.04362082,-0.04009825,-0.9655627,0.027248595,1.0836287,1.555278,0.0,2,0,0,0
1733645413,37.10256905392966,-76.38811812708232,8.883526,-0.0,-0.05657096,-0.03000982,-0.98369575,0.024008453,1.0835924,1.5553248,0.0,2,0,0,0
1733849599,37.102569047806035,-76.38811820796008,9.061041,-0.0,-0.050331134,-0.036550008,-1.0006069,0.020526346,1.0835694,1.5553747,0.0,2,0,0,0
1734050478,37.10256909172693,-76.38811836737123,9.251005,-0.0,-0.024126213,-0.048586763,-1.0224999,0.01770915,1.0835097,1.5554198,0.0,2,0,0,0
1734251250,37.10256914286926,-76.38811847388548,9.431847,-0.0,-0.0027320562,-0.021234682,-1.0363561,0.015430187,1.0774572,1.5551233,0.0,2,0,0,0
1734455051,37.10256918129238,-76.3881184168699,9.621649,-0.0,-0.009766502,0.027368158,-1.0075923,0.015238089,1.0773467,1.5551327,0.0,2,0,0,0
1734656176,37.102569148203784,-76.38811831301177,9.819227,-0.0,-0.021085056,0.057930462,-1.0147693,0.016337479,1.0836158,1.555117,0.0,2,0,0,0
1734856834,37.102569193994206,-76.38811824428552,10.03276,-0.0,-0.016048992,0.080348715,-1.0330018,0.018326622,1.0835617,1.5551736,0.0,2,0,0,0
1735057743,37.102569256766266,-76.3881181671392,10.24727,-0.0,-0.0020309263,0.089714654,-1.0589368,0.021702297,1.0775416,1.5549055,0.0,2,0,0,0
1735257614,37.10256940772292,-76.38811808102429,10.459938,-0.0,-0.010168549,0.093160704,-1.050313,0.023850413,1.077438,1.5549257,0.0,2,0,0,0
1735458473,37.10256954840483,-76.38811801992222,10.67602,-0.0,-0.0348255,0.08582086,-1.0443038,0.025088616,1.0837041,1.5551587,0.0,2,0,0,0
1735663321,37.10256963891369,-76.38811803814944,10.887838,-0.0,-0.0581896,0.06870553,-1.0673031,0.026106065,1.077545,1.5550874,0.0,2,0,0,0
1735863275,37.102569578748835,-76.3881180102762,11.089525,-0.0,-0.09433025,0.061332196,-1.0968355,0.028097019,1.0775553,1.5551467,0.0,2,0,0,0
1736064107,37.102569462913245,-76.3881179595194,11.296543,-0.0,-0.12100403,0.071927756,-1.1130549,0.030687952,1.0775481,1.5552001,0.0,2,0,0,0
1736268872,37.10256930688769,-76.38811787406082,11.524405,-0.0,-0.14949577,0.072618954,-1.133103,0.033027288,1.0775626,1.5550038,0.0,2,0,0,0
1736469068,37.102569001346296,-76.38811781721772,11.773273,-0.0,-0.18391462,0.026137665,-1.157727,0.031922013,1.0775616,1.5550553,0.0,2,0,0,0
1736669421,37.10256868124192,-76.38811785675905,12.037304,-0.0,-0.18262099,0.008285753,-1.1625475,0.026558708,1.0775906,1.5551065,0.0,2,0,0,0
1736874524,37.102568499538194,-76.38811799762053,12.295964,-0.0,-0.15282382,-0.023024779,-1.1799885,0.019264206,1.077828,1.5552351,0.0,2,0,0,0
1737075026,37.10256832050183,-76.38811817884023,12.554797,-0.0,-0.1286983,-0.031442035,-1.2132143,0.012196833,1.0778824,1.5550337,0.0,2,0,0,0
1737275027,37.10256818566063,-76.38811831448616,12.817677,-0.0,-0.1078767,-0.008572975,-1.2566134,0.006569446,1.0779027,1.5550888,0.0,2,0,0,0
1737480037,37.10256806239781,-76.38811837852394,13.07302,-0.0,-0.11142797,0.027443452,-1.2736096,0.001855307,1.0781629,1.5552195,0.0,2,0,0,0
1737681012,37.10256791534343,-76.38811836931905,13.319217,-0.0,-0.110017926,0.04272149,-1.2461396,-0.0010955146,1.0780739,1.5552241,0.0,2,0,0,0
1737885312,37.10256774002054,-76.38811829976505,13.587579,-0.0,-0.11677165,0.049961418,-1.2601798,-0.00010668593,1.0781142,1.5552769,0.0,2,0,0,0
1738089694,37.10256756829983,-76.38811825597664,13.871691,-0.0,-0.12856238,0.02583742,-1.2585921,0.004093997,1.078398,1.5551602,0.0,2,0,0,0
1738290431,37.102567372144435,-76.38811826631107,14.129432,-0.0,-0.1300178,-0.0061951056,-1.2493849,0.009057922,1.0784172,1.5552033,0.0,2,0,0,0
1738491048,37.10256713392092,-76.3881183886657,14.393477,-0.0,-0.112380326,-0.05119995,-1.2690549,0.013502906,1.078586,1.5550485,0.0,2,0,0,0
1738692323,37.10256696462764,-76.38811866381798,14.641164,-0.0,-0.098155744,-0.128404,-1.2940608,0.01960939,1.0785413,1.5550617,0.0,2,0,0,0
1738896114,37.10256680932285,-76.38811902366551,14.893195,-0.0,-0.07081648,-0.15770534,-1.3082895,0.026235778,1.0786093,1.555117,0.0,2,0,0,0
1739096812,37.102566596726355,-76.3881193540913,15.140992,-0.0,-0.06992069,-0.13691081,-1.294622,0.0319751,1.0786444,1.5551581,0.0,2,0,0,0
1739297719,37.10256638308346,-76.38811960075199,15.403086,-0.0,-0.06107098,-0.09109028,-1.2944435,0.03546768,1.0786942,1.5552114,0.0,2,0,0,0
1739497647,37.10256623481136,-76.38811979026268,15.665174,-0.0,-0.051557675,-0.062497072,-1.2963083,0.037736993,1.0787213,1.5552627,0.0,2,0,0,0
1739702482,37.10256608467807,-76.38811989534155,15.93899,-0.0,-0.028903812,-0.03131624,-1.292423,0.03716418,1.0789591,1.5551353,0.0,2,0,0,0
1739903331,37.10256593138851,-76.3881198953471,16.19674,-0.0,0.0009644587,0.0171267,-1.29209,0.031804975,1.0789789,1.5551813,0.0,2,0,0,0
1740103347,37.102565831402465,-76.388119831772,16.456648,-0.0,0.04578552,0.031701293,-1.2767999,0.026742967,1.0790088,1.5552317,0.0,2,0,0,0
1740304011,37.10256582584477,-76.38811974368399,16.703457,-0.0,0.08526766,0.010987421,-1.2892014,0.024766598,1.0790135,1.55527,0.0,2,0,0,0
1740504618,37.10256592633669,-76.38811962760963,16.942991,-0.0,0.10608635,0.044333585,-1.2596865,0.024261137,1.0790547,1.5550653,0.0,2,0,0,0
1740704876,37.102566078425426,-76.38811950458302,17.188974,-0.0,0.13353024,0.035688605,-1.283443,0.025782567,1.0790877,1.5551115,0.0,2,0,0,0
1741916853,37.10256724379588,-76.38811859728519,18.638975,-0.0,0.016406266,0.009666763,-1.3219123,0.020153625,1.0793334,1.5552455,0.0,2,0,0,0
1742923421,37.10256755110373,-76.38811823066271,19.967659,-0.0,-0.11584016,0.016510127,-1.2777877,0.025694117,1.0793196,1.5552311,0.0,2,0,0,0
1743123839,37.10256752326396,-76.38811805276612,20.242493,-0.0,-0.12186035,0.022357807,-1.2736952,0.025582513,1.0793223,1.5552783,0.0,2,0,0,0
1743328846,37.10256745339881,-76.38811782952169,20.525352,-0.0,-0.109314956,0.021657605,-1.279262,0.024638241,1.0795286,1.5551565,0.0,2,0,0,0
1743528849,37.102567367864204,-76.38811761017008,20.788485,-0.0,-0.096967265,0.03089478,-1.2617075,0.024353052,1.0795177,1.5552125,0.0,2,0,0,0
1743729421,37.10256732574437,-76.38811739813086,21.025755,-0.0,-0.064905286,0.033174016,-1.2672715,0.024196796,1.0794879,1.5550109,0.0,2,0,0,0
1743930273,37.10256735756341,-76.38811721112592,21.26114,-0.0,-0.012826072,0.017506067,-1.2723563,0.026035726,1.0794673,1.5550653,0.0,2,0,0,0
1744131255,37.102567470963066,-76.38811704078893,21.500181,-0.0,0.033370916,0.019392353,-1.2578416,0.028510606,1.0794523,1.555123,0.0,2,0,0,0
1744331025,37.10256761806874,-76.38811683484677,21.738533,-0.0,0.0635165,0.028486995,-1.2604508,0.029832635,1.079443,1.555184,0.0,2,0,0,0
1744531809,37.10256777870825,-76.38811658178234,21.974165,-0.0,0.07768773,0.026348915,-1.2603807,0.029415308,1.0793946,1.55523,0.0,2,0,0,0
1744732864,37.10256792864415,-76.38811631730839,22.217567,-0.0,0.06774187,0.04214297,-1.2349267,0.026264679,1.0794079,1.5552797,0.0,2,0,0,0
1744932604,37.10256803537115,-76.38811606844871,22.464571,-0.0,0.041990906,0.035806116,-1.2413689,0.022801502,1.0793923,1.5550776,0.0,2,0,0,0
1745133722,37.102568041426046,-76.38811582620258,22.72044,-0.0,0.018917728,0.024832917,-1.2476783,0.019213943,1.0793716,1.5551181,0.0,2,0,0,0
1745334452,37.10256796995707,-76.38811562161564,22.984785,-0.0,0.0051023546,0.0038524135,-1.2560263,0.017909568,1.0793593,1.5551687,0.0,2,0,0,0
1745534380,37.10256789388252,-76.38811546291427,23.250818,-0.0,0.0068436298,-0.029376198,-1.269734,0.018102936,1.0792897,1.5552158,0.0,2,0,0,0
1745735021,37.102567841736686,-76.38811532511784,23.501959,-0.0,0.020688571,-0.024702653,-1.2330462,0.019748071,1.0792607,1.555265,0.0,2,0,0,0
1745936115,37.102567832859826,-76.38811521464623,23.753647,-0.0,0.03425483,-0.033534084,-1.2196448,0.022680143,1.0792463,1.55531,0.0,2,0,0,0
1746139989,37.10256786050211,-76.38811511089557,24.010368,-0.0,0.05407396,-0.026897036,-1.2266462,0.025017269,1.0793641,1.5551459,0.0,2,0,0,0
1746340833,37.10256790216718,-76.3881150414596,24.266922,-0.0,0.05832601,-0.04090915,-1.2215375,0.02543851,1.0793283,1.5551941,0.0,2,0,0,0
1746545634,37.10256796449332,-76.38811502910363,24.538017,-0.0,0.04938185,-0.053799473,-1.2340995,0.024557594,1.0795214,1.555323,0.0,2,0,0,0
1746746152,37.10256802006112,-76.38811505339592,24.79487,-0.0,0.05232668,-0.06721054,-1.2365177,0.02231732,1.0794241,1.5553231,0.0,2,0,0,0
1746950572,37.10256806098013,-76.38811512606864,25.036663,-0.0,0.04950183,-0.08381394,-1.1982343,0.020908518,1.0794028,1.5551152,0.0,2,0,0,0
1747151273,37.10256812601659,-76.38811525981093,25.27973,-0.0,0.05455552,-0.113353044,-1.2052691,0.021978898,1.0793623,1.555159,0.0,2,0,0,0
1747351802,37.10256822728069,-76.38811549472297,25.525017,-0.0,0.05490989,-0.13909987,-1.2256789,0.023236405,1.0795952,1.5552965,0.0,2,0,0,0
1747555820,37.10256836297134,-76.38811585010741,25.780819,-0.0,0.06682666,-0.19556056,-1.2483314,0.02379793,1.0794797,1.5553,0.0,2,0,0,0
1747756928,37.10256854266004,-76.38811632389958,26.041637,-0.0,0.074308574,-0.22036575,-1.2532154,0.02321174,1.0794928,1.5550964,0.0,2,0,0,0
1747957418,37.10256874398756,-76.38811688084924,26.29332,-0.0,0.076592565,-0.20718214,-1.2288002,0.022341976,1.0794824,1.5551369,0.0,2,0,0,0
1748158659,37.102568886093636,-76.38811739348343,26.546917,-0.0,0.061040252,-0.18117589,-1.2269008,0.022170676,1.0795094,1.5551802,0.0,2,0,0,0
1748359014,37.102568969835865,-76.3881178085396,26.78869,-0.0,0.0613974,-0.14331965,-1.2271652,0.022214696,1.0794711,1.5552248,0.0,2,0,0,0
1748559212,37.10256903388615,-76.3881181203076,27.035988,-0.0,0.045074023,-0.101164855,-1.2236713,0.02247404,1.0794075,1.5552733,0.0,2,0,0,0
1748763265,37.102569122851385,-76.38811835620898,27.308367,-0.0,0.03098491,-0.069727145,-1.2419603,0.02364453,1.0796382,1.555153,0.0,2,0,0,0
1748964035,37.10256920315422,-76.38811852197546,27.568441,-0.0,0.016505215,-0.032539025,-1.2428032,0.025691742,1.0795298,1.5551598,0.0,2,0,0,0
1749164910,37.102569262907416,-76.38811857071065,27.81524,-0.0,-0.010901822,0.02466753,-1.2232854,0.027556058,1.0795738,1.5552092,0.0,2,0,0,0
1749369605,37.102569276415494,-76.38811847230454,28.073002,-0.0,-0.035691522,0.07432262,-1.2252,0.02929206,1.0798343,1.5550878,0.0,2,0,0,0
1749570453,37.1025692276402,-76.3881182453716,28.323664,-0.0,-0.06226572,0.08161142,-1.243574,0.030977925,1.0798866,1.5551443,0.0,2,0,0,0
1749774482,37.10256912859746,-76.38811801783652,28.585518,-0.0,-0.09374823,0.08739206,-1.2242522,0.029455874,1.0799358,1.5552006,0.0,2,0,0,0
1749974995,37.102568994347806,-76.38811784267146,28.848051,-0.0,-0.107206635,0.08369896,-1.2308619,0.023982953,1.0802199,1.5550817,0.0,2,0,0,0
1750176074,37.10256882903377,-76.38811773321088,29.112597,-0.0,-0.10397257,0.042228904,-1.2539941,0.019966276,1.0801785,1.5550922,0.0,2,0,0,0
1750380007,37.102568674329056,-76.38811769321848,29.3937,-0.0,-0.09368272,0.013843519,-1.25099,0.018907974,1.0802563,1.5551426,0.0,2,0,0,0
1750580851,37.10256856327069,-76.38811771376871,29.65532,-0.0,-0.055938546,-0.018282268,-1.2822746,0.018337168,1.0803243,1.5551946,0.0,2,0,0,0
1750781688,37.10256846065171,-76.3881177620632,29.910524,-0.0,-0.037665628,-0.040069945,-1.2788163,0.017864509,1.0803896,1.5552411,0.0,2,0,0,0
1750986248,37.10256837588921,-76.3881178072499,30.18845,-0.0,-0.013769519,-0.029330436,-1.286146,0.017901726,1.0807264,1.5551261,0.0,2,0,0,0
1751190497,37.102568373170485,-76.38811787065306,30.465174,-0.0,0.021407112,0.00027562305,-1.2870111,0.01942204,1.0807649,1.5551804,0.0,2,0,0,0
1751391254,37.10256842647407,-76.3881179027202,30.728214,-0.0,0.035975657,0.009625917,-1.2640693,0.022798678,1.0809913,1.555311,0.0,2,0,0,0
1751592127,37.102568518569576,-76.38811787302943,30.984032,-0.0,0.05407306,0.049687102,-1.2666612,0.02409527,1.0808914,1.5550674,0.0,2,0,0,0
1751796112,37.10256864659241,-76.38811778693604,31.246738,-0.0,0.07020666,0.0656226,-1.2733653,0.025325308,1.0809677,1.555122,0.0,2,0,0,0
1751996793,37.10256879296914,-76.3881176725822,31.490847,-0.0,0.06216973,0.09250531,-1.2378767,0.026011923,1.0810064,1.555169,0.0,2,0,0,0
1752197699,37.10256898252899,-76.38811749932013,31.723713,-0.0,0.057612162,0.09440116,-1.2659194,0.026091104,1.0813301,1.5550638,0.0,2,0,0,0
1752398554,37.10256913697625,-76.38811730478751,31.972359,-0.0,0.053648807,0.09318617,-1.2450944,0.025440631,1.081279,1.5550767,0.0,2,0,0,0
1752602483,37.10256920996296,-76.38811710872798,32.206554,-0.0,0.022189345,0.078937806,-1.1178637,0.023199143,1.0813137,1.5551299,0.0,2,0,0,0
1752803323,37.10256924113878,-76.38811695987675,32.40606,-0.0,0.008677757,0.06389007,-0.952854,0.021004528,1.0813277,1.5551772,0.0,2,0,0,0
1753004084,37.102569235889824,-76.3881168554164,32.577644,-0.0,-0.05527661,0.08757364,-0.76170987,0.018159442,1.0813469,1.5552343,0.0,2,0,0,0
1753207792,37.102568981722094,-76.38811659913716,32.722534,-0.0,-0.300895,0.20419228,-0.69882464,0.024098236,1.0816265,1.5553775,0.0,2,0,0,0
1753408881,37.102568029890605,-76.3881159364269,32.86213,-0.0,-0.8408347,0.4283237,-0.71459526,0.04030645,1.0816551,1.5554225,0.0,2,0,0,0
1753613776,37.102565965202,-76.38811466897918,32.993332,-0.0,-1.3703448,0.6898696,-0.51666063,0.1162621,1.0816714,1.555195,0.0,2,0,0,0
1753817588,37.102563129665285,-76.38811276956565,33.070305,-0.0,-1.6802001,0.9901987,-0.37537506,0.21738216,1.0819904,1.5553285,0.0,2,0,0,0
1754026890,37.102559937898874,-76.38811011200323,33.13491,-0.0,-1.744295,1.2985522,-0.34250382,0.35931242,1.0821681,1.5551653,0.0,2,0,0,0
1754227191,37.10255684705284,-76.388106987832,33.21836,-0.0,-1.6911104,1.5188597,-0.33946812,0.5040652,1.082263,1.555196,0.0,2,0,0,0
1754427805,37.102553858679556,-76.38810344548614,33.306747,-0.0,-1.6065977,1.6484009,-0.31574863,0.6211319,1.0822458,1.5552354,0.0,2,0,0,0
1754628093,37.102551032309435,-76.38809977966764,33.384995,-0.0,-1.5484746,1.6790943,-0.2604648,0.7027311,1.0821495,1.5552686,0.0,2,0,0,0
1754832881,37.10254817758057,-76.38809599029074,33.46251,-0.0,-1.5240891,1.7009493,-0.1994245,0.75284,1.082404,1.5553786,0.0,2,0,0,0
1755037649,37.10254528073183,-76.38809214089842,33.515144,-0.0,-1.5320879,1.6926252,-0.0890868,0.776654,1.082404,1.5553927,0.0,2,0,0,0
1755237629,37.10254237842405,-76.38808835641505,33.549667,-0.0,-1.5324297,1.6999406,-0.043662645,0.78544855,1.0824285,1.5554206,0.0,2,0,0,0
1755438495,37.10253936981778,-76.3880845924715,33.576416,-0.0,-1.5550151,1.7172793,-0.012880868,0.7855806,1.0825311,1.5554434,0.0,2,0,0,0
1755639240,37.10253629993582,-76.38808077117949,33.590363,-0.0,-1.5906923,1.740794,0.020846719,0.77928656,1.0826303,1.5554577,0.0,2,0,0,0
1755840042,37.10253320507436,-76.38807691790666,33.605305,-0.0,-1.5751011,1.756926,0.052191716,0.77237034,1.0830749,1.5553123,0.0,2,0,0,0
1756039801,37.10253017707149,-76.38807292580526,33.615444,-0.0,-1.4290243,1.8264868,0.01138816,0.76512635,1.0770113,1.5551201,0.0,2,0,0,0
1756244805,37.102527472199995,-76.38806855790887,33.625084,-0.0,-1.0715348,1.9433486,-0.03199551,0.75846666,1.0772673,1.5551407,0.0,2,0,0,0
1756445904,37.10252555667974,-76.38806402291134,33.6371,-0.0,-0.588481,2.0310757,-0.017077178,0.7464144,1.0839173,1.555342,0.0,2,0,0,0
1756654418,37.10252457736761,-76.38805918374709,33.651123,-0.0,-0.04872819,2.0614815,0.035534225,0.73080397,1.0845855,1.5554565,0.0,2,0,0,0
1756854613,37.10252462277902,-76.38805452019763,33.641476,-0.0,0.46328792,2.0511487,0.09989783,0.7184688,1.0849696,1.5552268,0.0,2,0,0,0
1757055273,37.102525514357524,-76.38804985656034,33.608494,-0.0,0.9020968,2.013555,0.13909963,0.710831,1.0857115,1.5553427,0.0,2,0,0,0
1757259796,37.102527172254895,-76.38804513502402,33.559433,-0.0,1.254931,1.9468284,0.17525175,0.708304,1.079301,1.5551512,0.0,2,0,0,0
1757460204,37.10252940119521,-76.38804062429944,33.530014,-0.0,1.5264852,1.8775942,0.13434437,0.70547086,1.0797627,1.5551769,0.0,2,0,0,0
1757660807,37.10253213839775,-76.3880362743933,33.516014,-0.0,1.7223426,1.7879778,0.09579963,0.70295453,1.087064,1.5553776,0.0,2,0,0,0
1757861595,37.10253522664496,-76.38803217504453,33.4935,-0.0,1.8573141,1.7027466,0.083938025,0.70226705,1.0874866,1.5554173,0.0,2,0,0,0
1758061670,37.10253853760947,-76.38802826485048,33.47592,-0.0,1.9738613,1.6141245,0.031178642,0.70482886,1.0878718,1.5554535,0.0,2,0,0,0
1758262498,37.10254199077416,-76.38802454728469,33.457962,-0.0,2.0421126,1.5410805,0.022260271,0.70456284,1.0812745,1.5551338,0.0,2,0,0,0
1758463347,37.10254565190441,-76.38802102485263,33.445225,-0.0,2.0991592,1.4876511,0.020856014,0.7021042,1.0814358,1.5553726,0.0,2,0,0,0
1758663301,37.102549382874074,-76.38801767596142,33.441757,-0.0,2.1430502,1.4273779,-0.0020108512,0.70053405,1.081684,1.5553951,0.0,2,0,0,0
1758868061,37.10255321620543,-76.38801436535239,33.427467,-0.0,2.160141,1.3921701,-0.029287633,0.7012287,1.0819263,1.5551621,0.0,2,0,0,0
1759069643,37.10255703583154,-76.38801119860457,33.431618,-0.0,2.168144,1.3740458,-0.02159453,0.7037107,1.0820658,1.5554292,0.0,2,0,0,0
1759269756,37.102560915210844,-76.38800810872291,33.433357,-0.0,2.174391,1.3528333,-0.04421943,0.7088212,1.0822672,1.5554296,0.0,2,0,0,0
1759477419,37.10256497335201,-76.38800494756568,33.434753,-0.0,2.1667352,1.3511498,-0.06632092,0.7137827,1.0826286,1.5555279,0.0,2,0,0,0
1759678497,37.10256884118707,-76.38800186867357,33.43219,-0.0,2.1297474,1.4028453,-0.036639683,0.71769077,1.0826943,1.5555356,0.0,2,0,0,0
1759883350,37.10257273230726,-76.38799863510144,33.422413,-0.0,2.095033,1.4471289,-0.033067726,0.72296953,1.082995,1.5553606,0.0,2,0,0,0
1760087231,37.10257662979952,-76.38799527448606,33.409695,-0.0,2.0559,1.5202905,-0.052402824,0.72501236,1.0830337,1.555369,0.0,2,0,0,0
1760288018,37.10258042147341,-76.38799179383905,33.41972,-0.0,2.03049,1.5755635,-0.087479725,0.724688,1.0831106,1.5553842,0.0,2,0,0,0
1760488886,37.10258417759694,-76.38798817862136,33.4346,-0.0,1.9898422,1.6424037,-0.05488923,0.72510165,1.0830595,1.5553882,0.0,2,0,0,0
1760689639,37.10258783589544,-76.38798444670562,33.447533,-0.0,1.955568,1.7084063,-0.042704128,0.72649556,1.0830145,1.5554007,0.0,2,0,0,0
1760889666,37.10259146872118,-76.38798063968649,33.464622,-0.0,1.9577963,1.733601,-0.03669116,0.7285979,1.083033,1.5554127,0.0,2,0,0,0
1761094461,37.1025951787873,-76.38797664475848,33.488453,-0.0,1.9599876,1.7641295,-0.043043878,0.7319833,1.0832316,1.5552481,0.0,2,0,0,0
1761295013,37.10259880843056,-76.38797267951024,33.505768,-0.0,1.9417688,1.815729,-0.0085420525,0.7329657,1.0832325,1.5552717,0.0,2,0,0,0
1761495198,37.102602461899494,-76.38796871774572,33.50905,-0.0,1.9519217,1.8102729,-0.018366985,0.73406804,1.0831528,1.555252,0.0,2,0,0,0
1761696010,37.10260615068665,-76.3879647221499,33.50856,-0.0,1.9793134,1.8043506,0.014664025,0.73192924,1.0833308,1.5553191,0.0,2,0,0,0
1761896853,37.102609831428715,-76.38796067166736,33.519608,-0.0,1.9543421,1.8401711,0.007981243,0.72967607,1.0833995,1.5553387,0.0,2,0,0,0
1762097690,37.10261349935711,-76.3879565817833,33.53714,-0.0,1.9704415,1.8474561,0.009018429,0.7295958,1.0834998,1.5553654,0.0,2,0,0,0
1762301632,37.10261721649787,-76.38795247484347,33.556496,-0.0,1.9594014,1.8240111,0.010359116,0.7312672,1.0837679,1.5551865,0.0,2,0,0,0
1762502402,37.10262085062589,-76.3879485059797,33.55841,-0.0,1.9563466,1.7616446,0.022160474,0.7329068,1.0839056,1.5552112,0.0,2,0,0,0
1762703305,37.10262441675008,-76.38794461692899,33.56345,-0.0,1.9325925,1.7163082,-0.00097512454,0.7360148,1.0840371,1.55524,0.0,2,0,0,0
1762904078,37.10262790057324,-76.38794078330226,33.56388,-0.0,1.8878227,1.7036784,-0.025540465,0.7348023,1.0842077,1.5552694,0.0,2,0,0,0
1763104052,37.10263128842421,-76.38793699161454,33.536026,-0.0,1.8349968,1.72353,-0.0058889054,0.7288218,1.0843669,1.5552982,0.0,2,0,0,0
1763304605,37.102634646548566,-76.38793319392607,33.51801,-0.0,1.8638484,1.6811379,-0.024661887,0.72398317,1.0845073,1.5553249,0.0,2,0,0,0
1763505633,37.10263804614927,-76.38792941458277,33.481247,-0.0,1.9028665,1.6775835,-0.01743382,0.7202557,1.0846953,1.555358,0.0,2,0,0,0
1763705635,37.10264147202857,-76.38792563440025,33.448345,-0.0,1.9127625,1.725257,-0.029954094,0.71818036,1.0849147,1.555387,0.0,2,0,0,0
1763906262,37.10264493101322,-76.38792177328565,33.43214,-0.0,1.9158816,1.7544202,-0.040861756,0.7185997,1.0850614,1.5554084,0.0,2,0,0,0
1764107411,37.102648366120384,-76.38791786859723,33.42744,-0.0,1.9295921,1.7829726,-0.08278471,0.7171586,1.0852293,1.5554386,0.0,2,0,0,0
1764311253,37.102651810901556,-76.38791386344826,33.43956,-0.0,1.9419671,1.7869347,-0.10938621,0.7160242,1.0853596,1.5554657,0.0,2,0,0,0
1764512103,37.1026551653711,-76.3879098870329,33.455193,-0.0,1.9261239,1.82004,-0.078741714,0.7151365,1.0854484,1.5554805,0.0,2,0,0,0
1764712804,37.10265849709522,-76.38790585796764,33.471287,-0.0,1.9174908,1.8360614,-0.07320638,0.71462345,1.0858308,1.555332,0.0,2,0,0,0
1764913714,37.10266184809922,-76.38790175029312,33.491318,-0.0,1.9110007,1.8561692,-0.050552577,0.71141386,1.0857772,1.5553107,0.0,2,0,0,0
1765113690,37.10266522358057,-76.38789760898088,33.494873,-0.0,1.9439937,1.8439066,-0.0594089,0.7079412,1.0858929,1.5553354,0.0,2,0,0,0
1765318416,37.10266872235876,-76.38789337699338,33.500374,-0.0,1.969257,1.7959226,-0.014893781,0.7086054,1.0859855,1.5553459,0.0,2,0,0,0
1765519019,37.10267215710425,-76.38788928215719,33.487083,-0.0,1.9742295,1.7914293,-0.031634726,0.70954674,1.086039,1.5553586,0.0,2,0,0,0
1765719236,37.102675560888315,-76.38788526917722,33.48818,-0.0,1.9829531,1.7874558,-0.045026116,0.71237075,1.0861282,1.5553691,0.0,2,0,0,0
1765920041,37.102679008807414,-76.3878812553364,33.490456,-0.0,1.9973066,1.7766471,-0.018500961,0.7162371,1.0864522,1.555467,0.0,2,0,0,0
1766120975,37.102682494978026,-76.38787724575349,33.494225,-0.0,2.0232167,1.7722473,-0.07310356,0.72013766,1.0863874,1.5554411,0.0,2,0,0,0
1766320799,37.10268600258998,-76.38787322943834,33.503464,-0.0,2.0195954,1.785298,-0.048598766,0.7215574,1.0864962,1.5554668,0.0,2,0,0,0
1766525597,37.10268962912458,-76.38786909401534,33.502823,-0.0,2.0188372,1.8104274,-0.032146104,0.71960145,1.0867144,1.5552725,0.0,2,0,0,0
1766726478,37.10269323648205,-76.38786505339584,33.500786,-0.0,2.0399258,1.7925563,-0.058584288,0.7196398,1.0868208,1.5552917,0.0,2,0,0,0
1766927021,37.102696896825606,-76.38786101778688,33.501755,-0.0,2.0362544,1.7931676,-0.031934857,0.7183827,1.0869689,1.5553164,0.0,2,0,0,0
1767131190,37.10270062785723,-76.38785693271062,33.494755,-0.0,2.0452352,1.7708089,-0.05310596,0.71622,1.0871183,1.5553437,0.0,2,0,0,0
1767332119,37.10270431130596,-76.38785292815719,33.500603,-0.0,2.0411277,1.7569627,-0.05320403,0.71351165,1.0872538,1.5553546,0.0,2,0,0,0
1767532800,37.102708009197734,-76.38784897861878,33.50833,-0.0,2.0386732,1.7372253,-0.02657624,0.71031934,1.0874237,1.5553762,0.0,2,0,0,0
1767736803,37.102711746747595,-76.38784503901611,33.501144,-0.0,2.065009,1.6974984,-0.0125799365,0.7085464,1.0878848,1.5554875,0.0,2,0,0,0
1767937364,37.102715438858816,-76.38784120094887,33.49852,-0.0,2.070071,1.6882443,-0.03907516,0.7077363,1.0880867,1.5552491,0.0,2,0,0,0
1768138537,37.10271918383611,-76.38783737604341,33.49454,-0.0,2.0813832,1.6803516,-0.041399784,0.7072813,1.0882386,1.555267,0.0,2,0,0,0
1768339015,37.10272294629248,-76.38783357935498,33.48943,-0.0,2.0790956,1.6762707,-0.010983588,0.70616424,1.0884436,1.5552955,0.0,2,0,0,0
1768538990,37.102726735439134,-76.38782979135493,33.488884,-0.0,2.1015813,1.6712877,0.006663086,0.70579344,1.0886214,1.5553207,0.0,2,0,0,0
1768740062,37.10273054209895,-76.38782596029696,33.490356,-0.0,2.099396,1.6752001,-0.0038893428,0.7060393,1.0886809,1.5553432,0.0,2,0,0,0
1768940623,37.10273430892877,-76.38782208403063,33.48187,-0.0,2.0937266,1.710248,0.024567591,0.7072162,1.0887545,1.5553727,0.0,2,0,0,0
1769140611,37.102738081521736,-76.38781814707048,33.472935,-0.0,2.1248827,1.7230943,0.014905113,0.71020037,1.0888108,1.5553979,0.0,2,0,0,0
1769341661,37.10274190746074,-76.38781412859727,33.468826,-0.0,2.120909,1.7629634,0.032345884,0.7102893,1.0888766,1.5554261,0.0,2,0,0,0
1769542210,37.10274576863228,-76.38781010913414,33.46974,-0.0,2.1812084,1.7369975,-0.013282501,0.7107864,1.0889509,1.5551877,0.0,2,0,0,0
1769746444,37.10274973671945,-76.38780605465625,33.468952,-0.0,2.1909587,1.7488042,-0.036648776,0.71269304,1.0891634,1.5552664,0.0,2,0,0,0
1769947019,37.10275365573162,-76.3878021262536,33.46543,-0.0,2.1976047,1.7069585,-0.04218507,0.7174272,1.0890864,1.5552554,0.0,2,0,0,0
1770148002,37.102757555635144,-76.38779823923055,33.4669,-0.0,2.1804128,1.7055011,-0.06094613,0.7204027,1.0891138,1.5552778,0.0,2,0,0,0
1770348835,37.102761402346566,-76.38779438507045,33.457657,-0.0,2.1527867,1.6779143,-0.024083713,0.72320575,1.0891609,1.5553032,0.0,2,0,0,0
1770548883,37.10276517294934,-76.38779058880785,33.45141,-0.0,2.1129284,1.6662508,-0.044364706,0.7243918,1.0891876,1.555322,0.0,2,0,0,0
1770753408,37.10276897240346,-76.38778673563657,33.436684,-0.0,2.0737243,1.6720394,-0.04123199,0.723642,1.0894932,1.555429,0.0,2,0,0,0
1770958526,37.102772739952584,-76.3877828991547,33.42075,-0.0,2.0703766,1.653579,-0.07044484,0.7241769,1.089782,1.5552698,0.0,2,0,0,0
1771158523,37.1027763749077,-76.38777915846643,33.412926,-0.0,2.0315216,1.674089,-0.0789463,0.7219615,1.0896847,1.5552481,0.0,2,0,0,0
1771363287,37.102780051853344,-76.38777531260718,33.40593,-0.0,2.0258675,1.6680998,-0.085126236,0.7193239,1.0897272,1.5552703,0.0,2,0,0,0
1771564171,37.10278362437032,-76.38777150288031,33.42156,-0.0,2.0048084,1.6948671,-0.06954288,0.7160094,1.0897183,1.5552884,0.0,2,0,0,0
1771764621,37.102787155547794,-76.38776764833224,33.437088,-0.0,2.0009556,1.702404,-0.06832284,0.7147237,1.0897342,1.5553136,0.0,2,0,0,0
1771968864,37.10279068854289,-76.38776365519112,33.444344,-0.0,1.9896574,1.7232893,-0.06827917,0.71428216,1.0900197,1.5554266,0.0,2,0,0,0
1772169687,37.102794174812416,-76.3877596337894,33.444927,-0.0,1.9720564,1.7499167,-0.020913027,0.71067137,1.090001,1.5551984,0.0,2,0,0,0
1772370387,37.10279766334563,-76.38775551048599,33.445763,-0.0,1.9928089,1.7832221,-0.025313161,0.7079957,1.0899205,1.5552237,0.0,2,0,0,0
1772571026,37.10280116834564,-76.38775134752272,33.44918,-0.0,2.0168028,1.7904716,-0.015924135,0.70899665,1.0898377,1.5552566,0.0,2,0,0,0
1772771256,37.10280469917813,-76.38774716485827,33.46614,-0.0,2.0135813,1.8280743,-0.029265871,0.7128029,1.0897707,1.5552882,0.0,2,0,0,0
1772972038,37.10280827124656,-76.38774292980153,33.49543,-0.0,2.012427,1.8031002,-0.038056828,0.7207517,1.0897315,1.555315,0.0,2,0,0,0
1773172622,37.1028118075677,-76.38773872446762,33.52313,-0.0,1.9359848,1.8147781,-0.023206187,0.72723585,1.089741,1.5553565,0.0,2,0,0,0
1773372936,37.10281519980191,-76.38773454421168,33.546837,-0.0,1.8753253,1.7807354,-0.011879566,0.73016757,1.0897359,1.5553875,0.0,2,0,0,0
1773573706,37.10281845570266,-76.38773043609156,33.571125,-0.0,1.8102996,1.7560774,0.002882611,0.7313641,1.0896698,1.555406,0.0,2,0,0,0
1773774476,37.1028216216178,-76.3877263833313,33.579872,-0.0,1.7944812,1.7088212,0.041488316,0.7301422,1.0898145,1.5552216,0.0,2,0,0,0
1773978631,37.10282484595656,-76.38772232145125,33.578255,-0.0,1.7699713,1.7069211,0.06561513,0.72620404,1.0896258,1.5552104,0.0,2,0,0,0
1774179231,37.102828049609045,-76.38771840969162,33.57689,-0.0,1.772816,1.6772829,0.06326007,0.7233617,1.0895739,1.5552377,0.0,2,0,0,0
1774384331,37.102831283691124,-76.38771448489807,33.58799,-0.0,1.7779838,1.6615659,0.061889425,0.72007287,1.0898424,1.5553619,0.0,2,0,0,0
1774584887,37.10283444470115,-76.38771072906563,33.59623,-0.0,1.7768971,1.6364466,0.044296794,0.7181702,1.0898334,1.5554007,0.0,2,0,0,0
1774785423,37.102837621629696,-76.38770708180142,33.59674,-0.0,1.8147464,1.5768933,0.037363365,0.715839,1.0898443,1.5554367,0.0,2,0,0,0
1774985695,37.10284086816633,-76.38770355996675,33.57463,-0.0,1.8639716,1.5136315,0.024280775,0.71481484,1.0898705,1.5554669,0.0,2,0,0,0
1775186546,37.10284424088232,-76.3877001595609,33.547874,-0.0,1.9259415,1.4626955,-0.0060547516,0.71259564,1.0899348,1.5552274,0.0,2,0,0,0
1775390232,37.1028478041363,-76.38769684638687,33.52792,-0.0,1.9766828,1.4064692,-0.011638334,0.71027285,1.0902001,1.5553018,0.0,2,0,0,0
1775591230,37.102851406191334,-76.38769367163302,33.524883,-0.0,2.0422342,1.3893297,-0.009513817,0.7077506,1.0902586,1.5553114,0.0,2,0,0,0
1775792131,37.102855069791964,-76.38769049911518,33.517265,-0.0,2.0515404,1.4176819,0.019043572,0.7056446,1.0903485,1.5553291,0.0,2,0,0,0
1775996626,37.10285888001742,-76.38768718439002,33.505295,-0.0,2.08126,1.4567056,0.014872077,0.7058876,1.0906259,1.5553962,0.0,2,0,0,0
1776196878,37.102862639880954,-76.3876838555561,33.505863,-0.0,2.1274211,1.5174177,0.022919286,0.7050274,1.0907377,1.55542,0.0,2,0,0,0
1776397649,37.10286647463457,-76.38768037638557,33.495903,-0.0,2.1563733,1.5720178,0.02536945,0.7055106,1.0908394,1.5554335,0.0,2,0,0,0
1776598550,37.10287034403673,-76.38767671775784,33.50918,-0.0,2.1700785,1.6441306,0.007974718,0.70810413,1.090952,1.5554484,0.0,2,0,0,0
1776802626,37.10287424129458,-76.38767283420654,33.50671,-0.0,2.1351542,1.7001711,0.031999044,0.71271306,1.0910176,1.5554649,0.0,2,0,0,0
1777003324,37.102877995220105,-76.38766893301991,33.514557,-0.0,2.086145,1.7517805,0.011957139,0.7139014,1.0910782,1.5554727,0.0,2,0,0,0
1777204057,37.10288166903964,-76.38766494373971,33.530296,-0.0,2.0471625,1.7794245,0.03377311,0.71498394,1.0911559,1.5552386,0.0,2,0,0,0
1777408144,37.10288532282342,-76.3876608033922,33.54128,-0.0,2.0196495,1.7823207,0.018495902,0.7206405,1.0915221,1.5553619,0.0,2,0,0,0
1777608879,37.1028888363626,-76.38765668296105,33.532578,-0.0,1.9911926,1.811446,0.0042435294,0.7269632,1.0915564,1.5551443,0.0,2,0,0,0
1777809415,37.10289226314073,-76.38765255513167,33.53473,-0.0,1.924342,1.8172162,-0.040330723,0.73327744,1.0915933,1.5551714,0.0,2,0,0,0
1778009849,37.10289556909174,-76.3876484630909,33.55106,-0.0,1.859321,1.7884372,-0.02495392,0.7350314,1.0916536,1.5552132,0.0,2,0,0,0
1778210589,37.102898773427334,-76.38764442554995,33.58275,-0.0,1.7822268,1.7667931,-0.022558417,0.7313645,1.0917059,1.5552515,0.0,2,0,0,0
1778411021,37.10290191268412,-76.38764050492269,33.61926,-0.0,1.7959225,1.7338337,-0.003043374,0.7292907,1.0917534,1.5552768,0.0,2,0,0,0
1778612110,37.10290508734542,-76.38763667858274,33.622154,-0.0,1.8275272,1.720171,0.096407704,0.7236259,1.0916896,1.5553161,0.0,2,0,0,0
1778816021,37.10290838399981,-76.38763278199876,33.607944,-0.0,1.9063865,1.7434894,0.14701186,0.71800923,1.0917175,1.5551071,0.0,2,0,0,0
1779016930,37.10291172775658,-76.38762884928187,33.58837,-0.0,1.9488521,1.8015362,0.19839366,0.71303964,1.0917342,1.5551579,0.0,2,0,0,0
1779217869,37.10291516544375,-76.38762483694396,33.561478,-0.0,1.9870833,1.8320895,0.23797427,0.7158757,1.0917525,1.5552055,0.0,2,0,0,0
1779418532,37.10291873147088,-76.38762080120478,33.53875,-0.0,2.0335178,1.8293027,0.19846828,0.7165117,1.0920569,1.5550915,0.0,2,0,0,0
1779622224,37.10292245585597,-76.38761671793289,33.538754,-0.0,2.062932,1.828099,0.16601545,0.7120942,1.0919694,1.5550989,0.0,2,0,0,0
1779823317,37.10292618459838,-76.38761274219695,33.542747,-0.0,2.1382015,1.7921642,0.15075262,0.7104088,1.0919424,1.5551357,0.0,2,0,0,0
1780024077,37.10292999951866,-76.38760883446598,33.551895,-0.0,2.1646411,1.7549117,0.1475257,0.70769763,1.0922661,1.5552669,0.0,2,0,0,0
1780228019,37.10293393399715,-76.38760503186124,33.56601,-0.0,2.2229655,1.6742077,0.12632361,0.70510983,1.0921216,1.5552598,0.0,2,0,0,0
1780428881,37.10293781362023,-76.38760135700983,33.576447,-0.0,2.2290065,1.6865131,0.18293868,0.7004339,1.0921015,1.555289,0.0,2,0,0,0
1780629710,37.10294169674187,-76.38759756933078,33.57541,-0.0,2.2205424,1.7237991,0.20611879,0.6995647,1.0921109,1.5553225,0.0,2,0,0,0
1780834642,37.102945645558954,-76.3875935501464,33.546196,-0.0,2.2233467,1.7594928,0.19109176,0.6993313,1.0923996,1.5554502,0.0,2,0,0,0
1781038566,37.102949622815586,-76.38758947168728,33.51623,-0.0,2.1876996,1.8015829,0.21834871,0.7003454,1.0923796,1.5554849,0.0,2,0,0,0
1781239225,37.10295348181774,-76.3875853569244,33.49379,-0.0,2.1674502,1.8357178,0.17478253,0.7035908,1.0923148,1.5555038,0.0,2,0,0,0
1781440072,37.10295721800234,-76.38758114391683,33.459618,-0.0,2.1304405,1.8838632,0.18931173,0.70175606,1.092293,1.5555285,0.0,2,0,0,0
1781640905,37.102960935523626,-76.3875768400192,33.404945,-0.0,2.1122432,1.9469354,0.20438385,0.70028347,1.0922452,1.5555508,0.0,2,0,0,0
1781840596,37.102964726424894,-76.38757230409986,33.365803,-0.0,2.244049,2.0777493,-0.03828275,0.7615896,1.0922092,1.5555698,0.0,2,0,0,0
1782046616,37.10296914845771,-76.3875672012425,33.402615,-0.0,2.6900816,2.3797019,-0.5950913,0.8867949,1.0853816,1.5552306,0.0,2,0,0,0
1782245811,37.102974687365055,-76.38756130643344,33.527763,-0.0,3.4249318,2.8894536,-0.94990075,1.0062754,1.09228,1.5553819,0.0,2,0,0,0
1782450399,37.102981539136,-76.38755402813385,33.685642,-0.0,4.0369716,3.4403954,-0.95546883,1.0934086,1.0855697,1.5553042,0.0,2,0,0,0
1782651712,37.10298911167747,-76.38754559656232,33.805832,-0.0,4.3830614,3.9275618,-0.7747128,1.1475772,1.0927387,1.5554786,0.0,2,0,0,0
1782852400,37.10299708642085,-76.3875361561211,33.895653,-0.0,4.461327,4.3242345,-0.70366096,1.183821,1.0856819,1.5552632,0.0,2,0,0,0
1783052058,37.10300499491392,-76.3875260365209,33.990044,-0.0,4.305155,4.5518765,-0.86708933,1.2111225,1.0928993,1.5554487,0.0,2,0,0,0
1783252850,37.103012362976465,-76.3875157458114,34.118793,-0.0,4.0021405,4.674789,-1.0494527,1.2219422,1.0930495,1.5554668,0.0,2,0,0,0
1783453648,37.103019155410664,-76.38750538116314,34.28164,-0.0,3.65316,4.812387,-1.1167817,1.2206731,1.0931329,1.5552244,0.0,2,0,0,0
1783659391,37.10302548514963,-76.3874943559419,34.461052,-0.0,3.3633277,5.079757,-1.1386862,1.2149693,1.0862595,1.5551726,0.0,2,0,0,0
1783866780,37.10303142255341,-76.38748231544852,34.628265,-0.0,3.0638597,5.4466915,-1.0110364,1.2149053,1.0864346,1.5552343,0.0,2,0,0,0
1784067179,37.103036737806214,-76.38746974790115,34.77076,-0.0,2.819731,5.805532,-0.87334836,1.2198774,1.0865085,1.5552427,0.0,2,0,0,0
1784268961,37.10304173317879,-76.38745622508638,34.91169,-0.0,2.628575,6.1400356,-0.91099274,1.2260385,1.0864935,1.5552601,0.0,2,0,0,0
1784476812,37.10304655241294,-76.38744148005395,35.08597,-0.0,2.4676726,6.393182,-1.0056958,1.2267358,1.0867193,1.5551119,0.0,2,0,0,0
1784681017,37.10305098089321,-76.38742640492941,35.272434,-0.0,2.3421261,6.57614,-1.0651726,1.2281053,1.0870303,1.5552225,0.0,2,0,0,0
1784885626,37.10305521941357,-76.38741080838172,35.490288,-0.0,2.268195,6.7167697,-1.1811637,1.2336586,1.0870457,1.5552336,0.0,2,0,0,0
1785085642,37.10305925751395,-76.38739521510354,35.738934,-0.0,2.1986623,6.802323,-1.2025287,1.237215,1.0870901,1.5552523,0.0,2,0,0,0
1785286512,37.103063220616534,-76.38737934231541,36.004505,-0.0,2.1565967,6.8564796,-1.2636535,1.2366345,1.0871378,1.5552703,0.0,2,0,0,0
1785487418,37.10306708052188,-76.38736326021754,36.269688,-0.0,2.135439,6.8492055,-1.2382586,1.2399378,1.0872188,1.5552816,0.0,2,0,0,0
1785687994,37.103070874076316,-76.38734715325631,36.544655,-0.0,2.1193845,6.84293,-1.2254889,1.2402022,1.0872576,1.5553036,0.0,2,0,0,0
1785895977,37.10307481623997,-76.38733051557708,36.819904,-0.0,2.146383,6.8357744,-1.2911364,1.2384162,1.0875591,1.5554049,0.0,2,0,0,0
1786096830,37.103078695146195,-76.38731466377443,37.105534,-0.0,2.2420743,6.774845,-1.3294469,1.2412488,1.0875494,1.5551527,0.0,2,0,0,0
1786297791,37.10308267628516,-76.38729904571055,37.41511,-0.0,2.2822785,6.742346,-1.2907422,1.240154,1.0875775,1.555166,0.0,2,0,0,0
1786501425,37.10308688096176,-76.3872833234608,37.73143,-0.0,2.374567,6.7290616,-1.2903334,1.2383982,1.0879028,1.5552684,0.0,2,0,0,0
1786702401,37.103091182589026,-76.38726796296136,38.02108,-0.0,2.473214,6.7211013,-1.2666799,1.2363583,1.0877689,1.5552282,0.0,2,0,0,0
1786911629,37.1030958165703,-76.38725206004115,38.301853,-0.0,2.5536277,6.7206283,-1.269716,1.2328002,1.088032,1.555323,0.0,2,0,0,0
1787112410,37.103100412406214,-76.38723682410478,38.584553,-0.0,2.6077218,6.6868496,-1.3767185,1.2367396,1.0880361,1.5550903,0.0,2,0,0,0
1787316000,37.10310506216863,-76.38722144501307,38.91161,-0.0,2.5518897,6.684779,-1.497929,1.2428639,1.0883296,1.5552051,0.0,2,0,0,0
1787516592,37.103109541908786,-76.38720633097807,39.252453,-0.0,2.5004947,6.704803,-1.5031655,1.2440021,1.0883228,1.5552157,0.0,2,0,0,0
1787725605,37.103114134235135,-76.38719057490287,39.58543,-0.0,2.498667,6.7432704,-1.4548296,1.2439575,1.0886521,1.5553217,0.0,2,0,0,0
1787929456,37.1031185759566,-76.38717508078715,39.877857,-0.0,2.468769,6.8154387,-1.427457,1.2431843,1.0887625,1.5553852,0.0,2,0,0,0
1788130228,37.10312288086319,-76.38715970814494,40.13572,-0.0,2.442164,6.8868904,-1.4554117,1.238772,1.0887694,1.5554005,0.0,2,0,0,0
1788331203,37.10312717622975,-76.38714423570708,40.397095,-0.0,2.4495077,6.8882365,-1.4158592,1.2358254,1.088747,1.555152,0.0,2,0,0,0
1788532045,37.10313150137177,-76.3871287131119,40.66569,-0.0,2.501193,6.891318,-1.4064574,1.2338853,1.0887471,1.5551699,0.0,2,0,0,0
1788732045,37.10313588497052,-76.38711325830526,40.929516,-0.0,2.5374022,6.869899,-1.4164579,1.2334161,1.0887792,1.5551842,0.0,2,0,0,0
1788933135,37.10314038658158,-76.3870978389392,41.191986,-0.0,2.570674,6.838505,-1.4193989,1.236228,1.0887756,1.555188,0.0,2,0,0,0
1789137607,37.10314503158951,-76.38708222213177,41.46856,-0.0,2.5861242,6.781735,-1.4441111,1.2387447,1.088795,1.5554539,0.0,2,0,0,0
1789338553,37.10314961052475,-76.38706696638869,41.740944,-0.0,2.5764115,6.7969255,-1.4034829,1.236665,1.0890939,1.5552914,0.0,2,0,0,0
1789542265,37.10315430939104,-76.38705148903027,41.995415,-0.0,2.582805,6.7776976,-1.3812487,1.236443,1.0889654,1.5555063,0.0,2,0,0,0
1789743311,37.10315898904642,-76.3870362848135,42.23721,-0.0,2.6130505,6.7629113,-1.3890398,1.2366405,1.088946,1.5554938,0.0,2,0,0,0
1789944102,37.10316368235427,-76.38702112584612,42.48757,-0.0,2.636513,6.765239,-1.3888736,1.2365121,1.0889498,1.5552374,0.0,2,0,0,0
1790148035,37.10316844886715,-76.38700568254853,42.752808,-0.0,2.6196852,6.7852,-1.3975992,1.2355156,1.0892725,1.5553405,0.0,2,0,0,0
1790348896,37.10317314477737,-76.3869904242994,43.00722,-0.0,2.624437,6.778682,-1.4111973,1.2350397,1.0893123,1.5553509,0.0,2,0,0,0
1790553656,37.103177886447284,-76.3869748682138,43.28051,-0.0,2.5639293,6.794295,-1.3562397,1.2342836,1.0895852,1.5552027,0.0,2,0,0,0
1790754481,37.103182410615425,-76.38695958088573,43.548786,-0.0,2.513282,6.81987,-1.3699894,1.237962,1.089498,1.5551804,0.0,2,0,0,0
1790954231,37.10318671734751,-76.38694428013888,43.815216,-0.0,2.3812406,6.841575,-1.3450176,1.2400182,1.0894082,1.5551585,0.0,2,0,0,0
1791158985,37.10319091031318,-76.38692856524658,44.067814,-0.0,2.2729466,6.8617554,-1.2777854,1.2342459,1.0896865,1.5552571,0.0,2,0,0,0
1791360014,37.10319491178158,-76.3869131370919,44.309193,-0.0,2.2456055,6.857248,-1.2563634,1.2276739,1.0896859,1.5552785,0.0,2,0,0,0
1791560049,37.10319888827413,-76.38689781767721,44.550644,-0.0,2.2797797,6.834343,-1.2443401,1.2218201,1.0896893,1.5553021,0.0,2,0,0,0
1791764628,37.1032030356762,-76.38688223148064,44.789215,-0.0,2.3757927,6.789629,-1.242958,1.2165747,1.089662,1.5553138,0.0,2,0,0,0
1791965418,37.10320723200069,-76.38686695842866,45.01834,-0.0,2.4362595,6.7896037,-1.2631853,1.2128088,1.0899812,1.5551645,0.0,2,0,0,0
1792166414,37.10321156239237,-76.38685166403728,45.25671,-0.0,2.500033,6.7680736,-1.2421925,1.2108963,1.0898939,1.5551423,0.0,2,0,0,0
1792370415,37.103216119338974,-76.38683614820025,45.495556,-0.0,2.592569,6.7578487,-1.2694693,1.2114296,1.0899259,1.5551684,0.0,2,0,0,0
1792571213,37.10322074133144,-76.38682088692131,45.73212,-0.0,2.6302392,6.777452,-1.293828,1.2119387,1.0899258,1.5551915,0.0,2,0,0,0
1792771022,37.10322542452557,-76.3868057086578,45.97092,-0.0,2.6561139,6.7843947,-1.270392,1.2143648,1.0899726,1.5552207,0.0,2,0,0,0
1792975829,37.10323024782081,-76.38679017302341,46.229004,-0.0,2.648649,6.803311,-1.2970616,1.215445,1.090306,1.5553367,0.0,2,0,0,0
1793176835,37.103234995849604,-76.38677495397691,46.490265,-0.0,2.669192,6.7993445,-1.3246585,1.2174313,1.0903175,1.5550951,0.0,2,0,0,0
1793377621,37.10323970744277,-76.38675970972255,46.75068,-0.0,2.6083598,6.8160043,-1.3102494,1.2179694,1.0903585,1.5551261,0.0,2,0,0,0
1793577715,37.10324435371485,-76.3867444868889,47.00164,-0.0,2.6002362,6.8046913,-1.2933152,1.2205539,1.0903953,1.5551537,0.0,2,0,0,0
1793778538,37.10324897857619,-76.38672913449341,47.255653,-0.0,2.5440729,6.821473,-1.2262172,1.2187312,1.0904299,1.5551811,0.0,2,0,0,0
1793979226,37.10325354065334,-76.38671366286039,47.49253,-0.0,2.5152447,6.8483963,-1.1917259,1.2139965,1.0905173,1.5552021,0.0,2,0,0,0
1794183044,37.10325809339315,-76.38669787515332,47.710262,-0.0,2.473162,6.87694,-1.1885991,1.2116008,1.0905442,1.5552261,0.0,2,0,0,0
1794384074,37.10326251638618,-76.38668225365598,47.92055,-0.0,2.437421,6.8785295,-1.1699352,1.2100915,1.090753,1.5552914,0.0,2,0,0,0
1794584826,37.10326692551832,-76.38666670287336,48.143715,-0.0,2.4382303,6.8545485,-1.2154385,1.2113181,1.0907265,1.5552934,0.0,2,0,0,0
1794785623,37.103271351939895,-76.38665123295628,48.38368,-0.0,2.4562798,6.8233967,-1.2714863,1.2150767,1.0907847,1.5553029,0.0,2,0,0,0
1794989674,37.10327584051993,-76.38663555742559,48.644424,-0.0,2.4458327,6.8112245,-1.2987583,1.2172437,1.0908448,1.5553082,0.0,2,0,0,0
1795190506,37.10328022652443,-76.38662008148367,48.91827,-0.0,2.4258082,6.8089886,-1.2899071,1.2197874,1.091099,1.555111,0.0,2,0,0,0
1795391316,37.103284567997704,-76.38660464029684,49.20505,-0.0,2.4006732,6.766939,-1.2714688,1.2223115,1.0911472,1.5551202,0.0,2,0,0,0
1795592097,37.103288898766415,-76.38658927515857,49.478397,-0.0,2.4059286,6.7381306,-1.2876623,1.2187014,1.0912143,1.5551358,0.0,2,0,0,0
1795795805,37.103293339243166,-76.38657377735862,49.755184,-0.0,2.434357,6.661826,-1.3536923,1.223485,1.0912768,1.5551547,0.0,2,0,0,0
1795996634,37.103297764560004,-76.3865586773578,50.041492,-0.0,2.438788,6.6357946,-1.3710406,1.2279718,1.0913184,1.5551621,0.0,2,0,0,0
1796197710,37.103302240580405,-76.38654362294974,50.327705,-0.0,2.4471343,6.673838,-1.333765,1.228084,1.0913839,1.555178,0.0,2,0,0,0
1796401616,37.10330687268825,-76.3865282318168,50.615227,-0.0,2.4707139,6.7055907,-1.3682865,1.2291595,1.0917368,1.5552843,0.0,2,0,0,0
1796602457,37.103311440987035,-76.38651303803518,50.9019,-0.0,2.4671288,6.7350235,-1.3677089,1.2327101,1.0917103,1.5553038,0.0,2,0,0,0
1796803276,37.10331598540602,-76.38649780244192,51.181435,-0.0,2.4396503,6.7502484,-1.2781645,1.2326728,1.0917462,1.5553182,0.0,2,0,0,0
1797003307,37.10332048131321,-76.38648252572581,51.43215,-0.0,2.416946,6.77322,-1.2575966,1.229822,1.0917983,1.5550843,0.0,2,0,0,0
1797203824,37.10332494709433,-76.38646703651551,51.694077,-0.0,2.3856523,6.7904997,-1.2548188,1.2263482,1.0918746,1.5551051,0.0,2,0,0,0
1797404968,37.1033293267644,-76.38645154902599,51.964558,-0.0,2.3716702,6.764466,-1.2958363,1.2263279,1.0918896,1.555119,0.0,2,0,0,0
1797609779,37.10333373202054,-76.38643576077466,52.235943,-0.0,2.317912,6.7297726,-1.2693814,1.2294458,1.0919703,1.5551434,0.0,2,0,0,0
1797813712,37.103338077514806,-76.38642010259963,52.494934,-0.0,2.3104343,6.7215614,-1.3130324,1.2315704,1.0923036,1.5550103,0.0,2,0,0,0
1798014471,37.10334234492969,-76.38640471146053,52.750706,-0.0,2.2784166,6.698184,-1.2911859,1.2294648,1.0923411,1.5550333,0.0,2,0,0,0
1798215340,37.10334663066279,-76.38638935782815,53.0306,-0.0,2.296241,6.664324,-1.3729824,1.230008,1.0923996,1.5550689,0.0,2,0,0,0
1798416038,37.1033508954692,-76.38637414734781,53.306507,-0.0,2.3448899,6.616997,-1.3443003,1.2270875,1.0924523,1.555102,0.0,2,0,0,0
1798619830,37.103355270874296,-76.38635873039199,53.589836,-0.0,2.3829536,6.6071024,-1.2969751,1.226087,1.0926493,1.5551857,0.0,2,0,0,0
1798820893,37.10335962981528,-76.38634362950759,53.860924,-0.0,2.4086492,6.589729,-1.3267698,1.2260647,1.0926368,1.5549649,0.0,2,0,0,0
1799021694,37.10336405977004,-76.38632862067138,54.124935,-0.0,2.4424574,6.5550437,-1.3417631,1.2295096,1.0925148,1.5549616,0.0,2,0,0,0
1799221698,37.10336853898891,-76.38631373984428,54.399372,-0.0,2.4696882,6.5483446,-1.3513744,1.2319376,1.0925496,1.5550022,0.0,2,0,0,0
1799426238,37.10337317264822,-76.38629853984158,54.664818,-0.0,2.4500601,6.5657988,-1.291371,1.2303803,1.092849,1.5551169,0.0,2,0,0,0
1799627239,37.103377678278655,-76.3862836202969,54.9135,-0.0,2.451562,6.56455,-1.2686847,1.2267282,1.0928806,1.5551505,0.0,2,0,0,0
1799826908,37.10338211762706,-76.3862686893962,55.155796,-0.0,2.44988,6.611054,-1.2680492,1.2223778,1.0929121,1.5551851,0.0,2,0,0,0
1800032028,37.103386682802494,-76.38625333367615,55.402424,-0.0,2.4633853,6.6294622,-1.209696,1.2204093,1.0930927,1.5550146,0.0,2,0,0,0
1800232609,37.10339114828532,-76.38623820473099,55.652634,-0.0,2.4629824,6.679373,-1.2116119,1.2200658,1.0930989,1.555042,0.0,2,0,0,0
1800433839,37.103395661450804,-76.38622299870022,55.892704,-0.0,2.4544122,6.7060604,-1.1902441,1.219611,1.0931342,1.5550748,0.0,2,0,0,0
1800637415,37.10340018695875,-76.38620744063395,56.130535,-0.0,2.3722942,6.744372,-1.1636473,1.2197161,1.0931627,1.5551084,0.0,2,0,0,0
1800838530,37.103404457982606,-76.3861920472334,56.366077,-0.0,2.2781236,6.7896786,-1.2213829,1.222713,1.0933378,1.5551838,0.0,2,0,0,0
1801039250,37.10340852453676,-76.38617656161276,56.625984,-0.0,2.168646,6.8058777,-1.2185222,1.2259248,1.0933498,1.5552065,0.0,2,0,0,0
1801240080,37.10341245475524,-76.38616107341326,56.900486,-0.0,2.0998936,6.8185062,-1.2476306,1.2274096,1.0933945,1.5552346,0.0,2,0,0,0
1801440065,37.10341624575725,-76.38614563683376,57.172318,-0.0,2.0722573,6.8228884,-1.2539198,1.2287006,1.0934347,1.5552593,0.0,2,0,0,0
1801644856,37.103420087799755,-76.38612989054447,57.46479,-0.0,2.0816388,6.8058214,-1.3078052,1.2317394,1.0934048,1.5552781,0.0,2,0,0,0
1801845670,37.10342381546926,-76.38611451900205,57.739826,-0.0,2.0875287,6.7841773,-1.3314711,1.231811,1.0937513,1.5551343,0.0,2,0,0,0
1802045720,37.10342759803016,-76.38609932519392,58.00336,-0.0,2.13117,6.7179475,-1.354079,1.2305274,1.0936353,1.5551172,0.0,2,0,0,0
1802250482,37.10343156412437,-76.38608390942251,58.254753,-0.0,2.2281833,6.679273,-1.3440996,1.2316954,1.0936202,1.5551368,0.0,2,0,0,0
1802451287,37.10343555211063,-76.3860688575545,58.503967,-0.0,2.2577727,6.6647997,-1.3717504,1.2294002,1.0936303,1.5551665,0.0,2,0,0,0
1802651213,37.103439590596174,-76.38605392664124,58.76659,-0.0,2.3363156,6.6753917,-1.4040918,1.2291969,1.0935876,1.5551965,0.0,2,0,0,0
1802851846,37.103443773987884,-76.38603887562476,59.044697,-0.0,2.3841054,6.7064734,-1.4407159,1.229658,1.093593,1.5552227,0.0,2,0,0,0
1803052863,37.103448102013154,-76.38602380808473,59.34087,-0.0,2.4750443,6.706952,-1.4082526,1.2287489,1.0936413,1.5550026,0.0,2,0,0,0
1803253783,37.103452550587384,-76.38600864229353,59.62664,-0.0,2.4796398,6.753171,-1.3925263,1.2247367,1.0937275,1.5552859,0.0,2,0,0,0
1803458399,37.10345714515977,-76.38599305030506,59.902245,-0.0,2.5135164,6.797984,-1.3315846,1.2213526,1.0869675,1.5549781,0.0,2,0,0,0
1803662394,37.103461793384376,-76.38597740789966,60.142952,-0.0,2.5499754,6.840718,-1.3138914,1.2194763,1.0870246,1.5550101,0.0,2,0,0,0
1803863477,37.103466397902984,-76.38596189281766,60.389004,-0.0,2.5938694,6.8694935,-1.3414158,1.2195292,1.0870625,1.5550343,0.0,2,0,0,0
1804064179,37.103471002418324,-76.38594631217912,60.661995,-0.0,2.6028435,6.8822603,-1.4250423,1.223117,1.0871044,1.5550618,0.0,2,0,0,0
1804267994,37.10347564459619,-76.38593052936764,60.94432,-0.0,2.5836291,6.884396,-1.4499742,1.2291168,1.0874084,1.5549234,0.0,2,0,0,0
1804472859,37.103480285193385,-76.38591472212184,61.239502,-0.0,2.580831,6.872647,-1.4462292,1.2357471,1.0873759,1.5551839,0.0,2,0,0,0
1804673675,37.10348482397438,-76.38589928962281,61.54832,-0.0,2.581765,6.867628,-1.5077369,1.2418866,1.0874016,1.5551983,0.0,2,0,0,0
1804873704,37.103489368930425,-76.38588395519567,61.854214,-0.0,2.57632,6.8548303,-1.4556867,1.2429805,1.0874221,1.5549612,0.0,2,0,0,0
1805074482,37.103493935085254,-76.38586859013944,62.140686,-0.0,2.5594354,6.846381,-1.3950621,1.2401752,1.0876876,1.555055,0.0,2,0,0,0
1805275282,37.103498486416996,-76.3858531877449,62.42625,-0.0,2.5686274,6.8761373,-1.3286479,1.2349694,1.0875677,1.555028,0.0,2,0,0,0
1805475336,37.103502997951466,-76.38583779223212,62.702366,-0.0,2.5835075,6.889828,-1.3882506,1.2308248,1.0876032,1.5550425,0.0,2,0,0,0
1805676058,37.10350755483501,-76.38582229743773,62.97288,-0.0,2.6039937,6.8759446,-1.3107574,1.226625,1.0876113,1.5550574,0.0,2,0,0,0
1805876970,37.103512144788176,-76.385806815889,63.23204,-0.0,2.6085641,6.879865,-1.2455829,1.2200263,1.0874918,1.5550398,0.0,2,0,0,0
1806080632,37.1035168347728,-76.38579113818729,63.470303,-0.0,2.6299858,6.854603,-1.2325753,1.2152545,1.087765,1.5549014,0.0,2,0,0,0
1806281751,37.103521550217394,-76.38577578808427,63.692863,-0.0,2.7001638,6.8355794,-1.2301203,1.2123353,1.0877681,1.5549271,0.0,2,0,0,0
1806482196,37.103526382918915,-76.38576042025342,63.92172,-0.0,2.7268987,6.8220253,-1.2003328,1.2121489,1.0877614,1.5549433,0.0,2,0,0,0
1806683345,37.10353121328549,-76.38574504657065,64.173325,-0.0,2.7289808,6.8247657,-1.2940545,1.2177806,1.0878108,1.5549669,0.0,2,0,0,0
1806887009,37.103536099015436,-76.38572942425796,64.46332,-0.0,2.6786013,6.831423,-1.3112757,1.2199478,1.0878569,1.5549895,0.0,2,0,0,0
1807087828,37.10354085232439,-76.38571398123375,64.74974,-0.0,2.673511,6.8453875,-1.2513913,1.2169982,1.0880383,1.555057,0.0,2,0,0,0
1807288821,37.10354560014007,-76.38569843170286,65.010315,-0.0,2.6800919,6.880662,-1.1926998,1.2122524,1.0880373,1.5550674,0.0,2,0,0,0
1807493379,37.10355045662899,-76.38568253271323,65.27284,-0.0,2.70248,6.9187317,-1.207949,1.2164892,1.0880699,1.5550883,0.0,2,0,0,0
1807697629,37.10355528574065,-76.38566669807281,65.533905,-0.0,2.7254863,6.9359303,-1.2310933,1.2181598,1.0883677,1.5549474,0.0,2,0,0,0
1807898246,37.10355999999673,-76.38565106629261,65.78878,-0.0,2.6873355,6.9573646,-1.2592868,1.2194806,1.0883547,1.5549589,0.0,2,0,0,0
1808099222,37.10356467850224,-76.3856353758393,66.05363,-0.0,2.657669,6.965483,-1.2900926,1.2202109,1.0883996,1.554983,0.0,2,0,0,0
1808298991,37.103569300674685,-76.3856196908919,66.31701,-0.0,2.596042,6.9810214,-1.2599866,1.2195549,1.0884255,1.5550076,0.0,2,0,0,0
1808504105,37.10357398060825,-76.385603603665,66.57034,-0.0,2.5781004,6.993565,-1.1586016,1.2173826,1.0885401,1.5550734,0.0,2,0,0,0
1808708771,37.103578510276826,-76.38558748048084,66.79013,-0.0,2.4874058,7.0286536,-1.091732,1.2119789,1.0885383,1.5550865,0.0,2,0,0,0
1808909425,37.103582812427575,-76.38557155448312,67.02391,-0.0,2.4030626,7.0303397,-1.20622,1.2131745,1.0888327,1.5549468,0.0,2,0,0,0
1809113701,37.10358703134504,-76.38555545763117,67.29474,-0.0,2.2927194,6.9608774,-1.3359506,1.2225897,1.0887023,1.5549299,0.0,2,0,0,0
1809314407,37.10359103201226,-76.38553977097558,67.59635,-0.0,2.274575,6.854521,-1.4751145,1.2339482,1.0886921,1.5549465,0.0,2,0,0,0
1809515441,37.10359497724307,-76.38552429750233,67.93551,-0.0,2.2683687,6.7627115,-1.5757407,1.2397653,1.0887187,1.5549691,0.0,2,0,0,0
1809719051,37.10359896068944,-76.38550883486589,68.28006,-0.0,2.243257,6.6612134,-1.559251,1.2393382,1.0890285,1.5550799,0.0,2,0,0,0
1809920012,37.10360284547771,-76.38549377141003,68.607544,-0.0,2.2008076,6.6364765,-1.4703166,1.238991,1.0890611,1.5550979,0.0,2,0,0,0
1810120863,37.10360667468727,-76.38547868902805,68.88936,-0.0,2.157799,6.651158,-1.3698882,1.2400074,1.0890563,1.55511,0.0,2,0,0,0
1810321654,37.10361050766719,-76.38546354401464,69.159164,-0.0,2.1683025,6.667412,-1.3148662,1.2384956,1.0890701,1.5551366,0.0,2,0,0,0
1810525475,37.10361447662934,-76.38544812301083,69.425705,-0.0,2.2283146,6.6618605,-1.3291744,1.2322831,1.0891114,1.5551617,0.0,2,0,0,0
1810726217,37.10361857273469,-76.38543294598156,69.68695,-0.0,2.3340533,6.642092,-1.38949,1.2270795,1.0892698,1.5549712,0.0,2,0,0,0
1810927210,37.10362288387192,-76.38541782555039,69.96534,-0.0,2.4224584,6.60697,-1.4302552,1.2256601,1.0893148,1.5549839,0.0,2,0,0,0
1811127800,37.10362736749985,-76.38540270717584,70.25407,-0.0,2.5421865,6.6111484,-1.4753548,1.2265226,1.0893776,1.555001,0.0,2,0,0,0
1811327810,37.10363195493967,-76.38538770097864,70.535484,-0.0,2.5627491,6.6135406,-1.4444615,1.2280769,1.0894412,1.555015,0.0,2,0,0,0
1811528857,37.10363660131551,-76.3853726743023,70.804825,-0.0,2.593863,6.5990133,-1.4047781,1.2309729,1.0894681,1.5550208,0.0,2,0,0,0
1811729623,37.10364126950854,-76.3853576574307,71.05457,-0.0,2.6140873,6.6086235,-1.3729556,1.2319127,1.0895146,1.5550336,0.0,2,0,0,0
1811929669,37.103645953070114,-76.38534268890551,71.316666,-0.0,2.6168323,6.638815,-1.3245043,1.2300631,1.0895717,1.5550513,0.0,2,0,0,0
1812134200,37.10365077810046,-76.38532735147668,71.56505,-0.0,2.599193,6.656738,-1.3209418,1.2293134,1.0895885,1.555066,0.0,2,0,0,0
1812335202,37.10365552230967,-76.38531228986099,71.81533,-0.0,2.5957682,6.666621,-1.3285513,1.2275119,1.0896279,1.5550883,0.0,2,0,0,0
1812535018,37.10366021999814,-76.38529725439832,72.0496,-0.0,2.5952985,6.680696,-1.1708478,1.2187288,1.0896276,1.5551095,0.0,2,0,0,0
1812739818,37.10366510457425,-76.38528174232059,72.242455,-0.0,2.6644979,6.7622113,-1.0473262,1.2048928,1.0899374,1.5549644,0.0,2,0,0,0
1812940852,37.10367003951034,-76.38526623918601,72.41604,-0.0,2.7244906,6.9027214,-1.0476403,1.1969768,1.0899241,1.5549772,0.0,2,0,0,0
1813140903,37.10367509478677,-76.38525055572589,72.59478,-0.0,2.7968285,6.986174,-1.1572485,1.1981778,1.0899193,1.5550013,0.0,2,0,0,0
1813345601,37.10368036165352,-76.385234492347,72.78907,-0.0,2.8480866,6.9304805,-1.2457454,1.2030456,1.0899115,1.5550332,0.0,2,0,0,0
1813546234,37.10368553604024,-76.38521891452274,72.992584,-0.0,2.799512,6.860567,-1.2268916,1.2060003,1.0898849,1.5550559,0.0,2,0,0,0
1813747007,37.10369065471621,-76.38520353009399,73.19286,-0.0,2.7380705,6.774374,-1.2186185,1.2101161,1.0901728,1.5549263,0.0,2,0,0,0
1813947026,37.10369561215548,-76.385188356271,73.38609,-0.0,2.6516006,6.7372813,-1.2094611,1.2135528,1.0900398,1.5549148,0.0,2,0,0,0
1814147812,37.10370040053056,-76.38517316972037,73.58577,-0.0,2.5097136,6.7214327,-1.1358228,1.2176684,1.0900484,1.5549488,0.0,2,0,0,0
1814348849,37.10370495754117,-76.38515797526237,73.78459,-0.0,2.3815556,6.7331023,-1.1385704,1.2202587,1.0900269,1.5549656,0.0,2,0,0,0
1814553659,37.103709318308915,-76.38514245733766,73.969154,-0.0,2.2109425,6.7702694,-1.185477,1.2242697,1.0900865,1.5550344,0.0,2,0,0,0
1814753716,37.10371338404841,-76.38512727838143,74.158394,-0.0,2.1552494,6.764362,-1.1964155,1.2289416,1.0900885,1.5550653,0.0,2,0,0,0
1814954199,37.10371739036562,-76.3851120357638,74.36233,-0.0,2.125143,6.721954,-1.200405,1.2316957,1.0901027,1.5550885,0.0,2,0,0,0
1815155015,37.10372134659507,-76.38509685095876,74.56779,-0.0,2.075736,6.693747,-1.2356126,1.2306483,1.0901432,1.554874,0.0,2,0,0,0
1815356005,37.10372528018045,-76.3850816699384,74.79904,-0.0,2.1028605,6.672694,-1.1914462,1.2272072,1.0901842,1.5549141,0.0,2,0,0,0
