timestamp,rollspeed,pitchspeed,yawspeed,rollspeed_integ,pitchspeed_integ,yawspeed_integ,additional_integ1
1725779372,-0.00046562136,-0.0027887896,-0.00084982,7.653024e-05,0.0003250977,-3.979633e-06,0.0
1725907346,0.00062322523,0.000374896,-0.00016047829,0.00012425108,0.0006259083,-1.2295759e-05,0.0
1725939367,-0.0006004985,0.002742524,0.0004922657,0.00014498239,0.0007543615,-2.4913197e-05,0.0
1725971420,-5.22607e-05,0.0016286714,-0.00071914773,0.00016393248,0.00087997236,-2.7610475e-05,0.0
1726000155,0.0007025895,0.0013121779,7.3452946e-05,0.00017887115,0.00099528,-2.4806706e-05,0.0
1726033069,0.00049018615,0.00053368113,-0.0001918904,0.00019562387,0.0011262575,-2.9950575e-05,0.0
1726064901,0.00045128737,-0.0016408935,0.00015571504,0.00021218634,0.0012555422,-3.471406e-05,0.0
1726096889,0.0053025708,-0.0046107424,0.0050240946,0.0002216844,0.001388184,-5.3156087e-05,0.0
1726128902,-0.0077675013,0.01774817,-0.010982643,0.0002514349,0.0014891041,-3.478819e-05,0.0
1726160909,0.012296579,-0.011139567,-0.0012178039,0.00022684433,0.0016655979,-2.2580118e-06,0.0
1726192903,-0.004904669,-0.0019711845,-0.0041815345,0.00028508285,0.001779974,-1.47413075e-05,0.0
1726224907,0.021156916,0.011929079,0.02910332,0.00022800846,0.0018268888,-0.0001129081,0.0
1726256927,-0.011757537,-0.038399976,0.0082859695,0.0002549659,0.0020965124,-0.00023728407,0.0
1726288955,0.015401373,-0.005178843,0.04491348,0.00024450512,0.0021750245,-0.00049445056,0.0
1726320924,-0.042951617,-0.019957747,-0.053317852,0.00032994544,0.0022772895,-0.00040491947,0.0
1726352927,-0.020345371,-0.0129423505,0.0013900856,0.000294263,0.0024926367,-0.00027978374,0.0
1726385007,-0.033986807,0.0051470245,-0.018192315,0.0003740009,0.0026290806,-0.00021418018,0.0
1726416967,-0.00982138,0.008413976,-0.00080366037,0.0004250841,0.0027162267,-0.00018698238,0.0
1726449001,-0.004877102,0.00870979,-0.010142319,0.00049186905,0.0028297305,-0.00014127785,0.0
1726480918,0.01547782,0.007553951,-0.0086186975,0.00046330906,0.0029363579,-8.211628e-05,0.0
1726513046,0.011318809,0.005114537,-0.0039046442,0.00044293614,0.0030572691,-3.564295e-05,0.0
1726544933,0.012535149,0.005548769,-0.004495862,0.0004629483,0.0031555567,-1.3819131e-06,0.0
1726576987,0.011695096,-0.0060750935,-0.0008502328,0.00045826889,0.0032744245,3.098274e-05,0.0
1726608910,0.007859475,-0.0052866153,0.0011169435,0.0004517296,0.0034083184,1.8937819e-05,0.0
1726640984,0.009490307,-0.01987534,0.0053697694,0.00041899236,0.0035580278,2.0438729e-05,0.0
1726673008,-0.0018219985,-0.005887108,0.008441008,0.00044979856,0.003691511,-2.8293518e-05,0.0
1726704998,-0.014958837,-0.007714063,0.010546916,0.0004824713,0.0038207858,-5.948368e-05,0.0
1726736899,-0.01192306,0.01270224,0.015904939,0.00052123854,0.0039349184,-0.00015944376,0.0
1726768911,-0.015186022,0.022254182,0.041761912,0.00054440106,0.004036511,-0.0003355745,0.0
1726801812,-0.028841456,0.03739301,0.0769165,0.00059799594,0.004100976,-0.00078429794,0.0
1726833767,-0.08729756,-0.035738938,0.09642007,0.00072190247,0.0042023063,-0.0014622245,0.0
1726865729,-0.12620457,-0.08930316,0.11488449,0.0009476255,0.00440449,-0.0022337576,0.0
1726897689,-0.19728772,-0.15933616,0.11466002,0.001279478,0.0047414773,-0.0030973,0.0
1726929758,-0.17094989,-0.23935165,0.11089717,0.0016667801,0.005244787,-0.0040386217,0.0
1726961746,-0.14674446,-0.25511944,0.08642457,0.002089906,0.005879852,-0.0049169534,0.0
1726993685,-0.037447542,-0.18867192,0.066731624,0.002480682,0.006568947,-0.0056641554,0.0
1727025695,0.005408503,-0.10897849,0.048663784,0.0028422282,0.007221169,-0.006293071,0.0
1727057792,-0.017033108,-0.0012450649,0.05226191,0.003172387,0.007719592,-0.0068711797,0.0
1727089755,-0.08122347,0.07516625,0.04732566,0.0034809578,0.007978287,-0.007497584,0.0
1727122564,-0.028502852,0.10620879,0.047353793,0.0037995358,0.008116171,-0.008169933,0.0
1727154554,0.112314686,0.19371177,0.037726995,0.004033701,0.008198645,-0.008770321,0.0
1727186530,0.21367548,0.26307487,0.043194585,0.0041120145,0.008193207,-0.00936568,0.0
1727218619,0.22005518,0.24344604,0.041361596,0.0040626554,0.008101518,-0.010015714,0.0
1727250572,0.115436785,0.18398908,0.032326587,0.004021056,0.007972709,-0.010637489,0.0
1727282572,0.08340371,0.17390513,0.0358687,0.004089621,0.0078536505,-0.011246928,0.0
1727314514,0.08195409,0.1703858,0.029818743,0.0042488836,0.007761109,-0.01187053,0.0
1727346590,0.07086789,0.17778994,0.025578834,0.004404632,0.007621964,-0.012468983,0.0
1727379477,0.07511059,0.15407653,0.023041662,0.004501095,0.0074333246,-0.013043332,0.0
1727411383,0.04901982,0.079219386,0.009489644,0.0045942883,0.0072717117,-0.013580224,0.0
1727443372,0.05461193,0.040543832,0.019926557,0.0046929237,0.007164866,-0.014143986,0.0
1727475332,0.085933656,0.053467557,0.015247947,0.004768168,0.0070850607,-0.014714496,0.0
1727507365,0.083249934,0.030655196,0.010670496,0.0048243375,0.007000969,-0.015273558,0.0
1727539306,0.024954207,-0.013499729,0.0064523704,0.0049015153,0.006915388,-0.015819762,0.0
1727571318,-0.00019676145,-0.03299299,0.008733466,0.005033084,0.006838771,-0.016360372,0.0
1727603372,0.015911648,-0.03423337,0.0049011325,0.0052187243,0.0068051014,-0.016882684,0.0
1727635382,0.061353017,-0.07799596,-0.0030386914,0.005364498,0.0068092733,-0.01735943,0.0
1727667344,0.089875005,-0.10562458,-0.00427638,0.0053931437,0.0068471576,-0.017788535,0.0
1727700160,0.07610262,-0.14290617,-0.009155468,0.005372889,0.006953336,-0.01822671,0.0
1727732175,0.0715266,-0.15347381,-0.011034416,0.005365652,0.0071266564,-0.018623775,0.0
1727764160,0.09149804,-0.119728364,-0.00874274,0.0053618643,0.007296281,-0.01902237,0.0
1727796201,0.07603911,-0.06626594,-0.008584697,0.0053648693,0.00738672,-0.019404896,0.0
1727828171,0.036324438,-0.046212327,-0.01208666,0.005366967,0.007418359,-0.019765947,0.0
1727860166,0.023546739,-0.043183204,-0.013818155,0.005387588,0.007432728,-0.020105377,0.0
1727892135,0.023492148,-0.028716415,-0.020366978,0.0054326593,0.0074307253,-0.02041293,0.0
1727924947,0.009330086,-0.0073810983,-0.031259518,0.0054710032,0.0074170534,-0.02069296,0.0
1727956952,0.018272322,-0.023085255,-0.031326678,0.005486725,0.007403946,-0.02093064,0.0
1727988916,0.002219296,-0.03211469,-0.028666949,0.005523278,0.0073903925,-0.021148477,0.0
1728020924,-0.038729846,-0.01789573,-0.028319294,0.005623213,0.0073715933,-0.021346288,0.0
1728052924,-0.044880353,-0.013326397,-0.030993769,0.005762336,0.0073579103,-0.021524128,0.0
1728084972,-0.041569155,-0.027325908,-0.033926867,0.005906262,0.0073504443,-0.02169009,0.0
1728116885,-0.059022438,-0.0625985,-0.02741468,0.0060668457,0.007360011,-0.021865128,0.0
1728148931,-0.09092602,-0.07577115,-0.026745923,0.006253766,0.0074051246,-0.022043934,0.0
1728180961,-0.06621061,-0.07113314,-0.029356271,0.0064438987,0.0074843266,-0.022211831,0.0
1728213048,-0.042622674,-0.07403275,-0.024201054,0.00664103,0.007567038,-0.022384558,0.0
1728245786,-0.05600196,-0.0764474,-0.02232074,0.0068452302,0.0076437825,-0.022559568,0.0
1728277718,-0.045090795,-0.063855566,-0.025364786,0.007027033,0.0077401875,-0.022712804,0.0
1728309736,-0.023289802,-0.07130851,-0.023401013,0.0071911537,0.007871291,-0.022861715,0.0
1728341777,-0.012680239,-0.0800122,-0.023366638,0.0073338454,0.008012054,-0.023005836,0.0
1728373792,-0.00024148973,-0.0717775,-0.02151689,0.0074522737,0.008148057,-0.023152053,0.0
1728405726,-0.0073509235,-0.063547656,-0.02733371,0.0075677265,0.0082980925,-0.023282154,0.0
1728437789,-0.0019327449,-0.063468136,-0.022317395,0.00769333,0.0084711965,-0.023408119,0.0
1728469757,0.006874078,-0.05426504,-0.025234912,0.007823106,0.008652727,-0.023541918,0.0
1728501784,0.0057806442,-0.056601625,-0.021340864,0.007942459,0.008830822,-0.023676798,0.0
1728534518,-0.010578346,-0.04861452,-0.013399406,0.008061125,0.009003897,-0.023825794,0.0
1728566527,0.005583694,-0.022702418,-0.015036667,0.008167755,0.009174492,-0.023971627,0.0
1728598554,0.0025610246,-0.033251353,-0.015642354,0.008277379,0.009357798,-0.024122566,0.0
1728630542,-0.00048616214,-0.035863213,-0.014253201,0.008374651,0.009532646,-0.024264457,0.0
1728662492,0.0048680278,-0.0041302405,-0.013077919,0.008459007,0.009685602,-0.024419207,0.0
1728694500,0.0017401377,-0.010188509,-0.014326596,0.008540426,0.00983387,-0.024575103,0.0
1728726524,0.008184283,-0.0038873972,-0.011656106,0.008622644,0.009972218,-0.024744136,0.0
1728758535,0.005726333,0.015433311,-0.0074162935,0.008708236,0.0100910105,-0.024917856,0.0
1728790526,-0.016623793,0.018196916,-0.0063520484,0.008799744,0.010204479,-0.02508453,0.0
1728823332,-0.019314844,0.0045533665,-0.0066315783,0.008910417,0.010318072,-0.025258882,0.0
1728855324,-0.01042578,0.024352893,-0.009564096,0.009018369,0.010419647,-0.02543264,0.0
1728887357,-0.026080124,0.028452978,-0.0059397016,0.009132628,0.010520822,-0.025613578,0.0
1728919359,0.003752941,0.04642136,-0.0054418184,0.009223552,0.010607813,-0.025802942,0.0
1728951321,0.0029578344,0.04243056,-0.0026549688,0.009303245,0.010684893,-0.026002841,0.0
1728983338,-0.010216258,0.023221154,-0.0031040085,0.009377125,0.010761555,-0.026213972,0.0
1729015350,0.0018985209,0.037130058,0.004466772,0.009451835,0.010824433,-0.026433123,0.0
1729048197,1.0155956e-05,0.044824123,0.0015241269,0.009528362,0.010882043,-0.026662085,0.0
1729080151,-0.004163077,0.020322967,0.0054714293,0.009603434,0.010940676,-0.026889477,0.0
1729112113,-0.016224975,0.028580073,0.0031167688,0.009692624,0.010997017,-0.027121367,0.0
1729144176,-0.032765742,0.030094124,-0.0028103124,0.009791871,0.011056689,-0.027351318,0.0
1729176172,-0.02206172,0.01687564,-0.0049895626,0.009885182,0.011118145,-0.02757985,0.0
1729208230,-0.01637655,0.011645518,0.0043790797,0.009977512,0.01116809,-0.027812425,0.0
1729240168,-0.027564742,0.033874705,0.00088605995,0.010068391,0.011211924,-0.028039984,0.0
1729272115,0.0013713529,0.021781972,0.0073168743,0.010157163,0.01126708,-0.0282661,0.0
1729304115,-0.0030756835,0.0121321175,-0.00022292254,0.010252225,0.011320773,-0.02848092,0.0
1729336929,-0.020354051,0.03298576,-0.011509238,0.010347559,0.011357383,-0.028663808,0.0
1729368947,0.016421542,0.032882284,-0.010566974,0.010414619,0.011384172,-0.028819235,0.0
1729400929,0.0045654033,0.019137166,-0.010822412,0.010489618,0.011403783,-0.028975584,0.0
1729433046,0.010014128,0.04420833,-0.014911622,0.0105443215,0.011419121,-0.029113147,0.0
1729464961,0.03870742,0.041496683,-0.013342407,0.010570604,0.011440876,-0.029224394,0.0
1729496949,0.026537856,0.01675298,-0.014849062,0.010579278,0.011459621,-0.029325,0.0
1729528907,0.02015514,0.010801271,-0.014921155,0.010572383,0.011472852,-0.029412245,0.0
1729560936,0.031277757,0.017610518,-0.019077284,0.010556518,0.011492378,-0.029474914,0.0
1729593048,0.027978279,-0.002740477,-0.022631414,0.010536706,0.011524486,-0.029517962,0.0
1729624920,0.03159805,0.00596546,-0.025392924,0.010502639,0.011550286,-0.02954439,0.0
1729657783,0.014466546,0.006094112,-0.017309029,0.010479744,0.011573017,-0.02956947,0.0
1729689714,-0.004040141,0.007883582,-0.020147178,0.010469695,0.011590921,-0.02958756,0.0
1729721782,-0.002048714,0.008792473,-0.028768526,0.0104628755,0.011607628,-0.029585542,0.0
1729753751,0.012473376,0.00676577,-0.02286417,0.01045,0.011632222,-0.029580113,0.0
1729785771,-0.0049115005,0.0027930008,-0.017999481,0.010442536,0.01166712,-0.029567827,0.0
1729817684,-0.007214692,0.0039738836,-0.016616711,0.010435394,0.011709318,-0.029568681,0.0
1729849787,-0.010155258,-0.025035301,-0.024327446,0.010435722,0.011767416,-0.029548984,0.0
1729881739,-0.025030658,-0.03912506,-0.01752276,0.010441973,0.011839522,-0.029540272,0.0
1729913692,-0.028245738,-0.022270098,-0.016161373,0.01045461,0.011925582,-0.029546104,0.0
1729946558,-0.0050366325,-0.030989572,-0.013609011,0.010465662,0.012038043,-0.029540116,0.0
1729978524,-0.025836166,-0.053471606,-0.01092764,0.01048553,0.012159556,-0.02953027,0.0
1730010686,-0.028989092,-0.016345846,-0.018444404,0.01049623,0.012274778,-0.029532703,0.0
1730042524,-0.016175088,-0.012369441,-0.017477907,0.010508306,0.0123852035,-0.029530492,0.0
1730074607,-0.017400833,-0.012378549,-0.009752631,0.010537397,0.012485861,-0.029533872,0.0
1730106542,-0.017332528,-0.006208198,-0.008019308,0.010570136,0.0125752445,-0.029536586,0.0
1730138589,-0.028534945,-0.001674098,-0.009464005,0.010596095,0.012668958,-0.029538184,0.0
1730170549,-0.03082202,-0.011759617,-0.0063303793,0.010626349,0.012764074,-0.02955588,0.0
1730203341,-0.0114847785,-0.0027343032,-0.0062968433,0.01066171,0.012863826,-0.029579585,0.0
1730235376,-0.02427653,-0.030484196,-0.0012505548,0.010708152,0.012984341,-0.029606389,0.0
1730267366,-0.024681006,-0.018920422,-0.0011761587,0.010750206,0.013118117,-0.029645069,0.0
1730299398,-0.0131182,-0.016114017,-0.0032658603,0.010789957,0.013260811,-0.029687526,0.0
1730331305,-0.011319212,-0.025031539,-0.003513724,0.010830498,0.013409473,-0.029737595,0.0
1730363376,-0.014210801,0.00093442574,-0.0028224518,0.010871813,0.013550137,-0.029789714,0.0
1730395354,0.0032641185,0.019020334,-0.0013838601,0.010898727,0.0136849955,-0.029825954,0.0
1730427448,-0.0042992923,0.00053628907,0.008584127,0.010932426,0.013809296,-0.029904246,0.0
1730459310,0.0034934331,0.019450461,0.004832125,0.010956732,0.013900635,-0.02999456,0.0
1730492117,0.002846255,0.036437795,0.00258557,0.01097273,0.013979316,-0.030085443,0.0
1730524135,0.012560608,0.034481,0.008707332,0.010971261,0.014049865,-0.030194735,0.0
1730556161,0.007651165,0.03800053,0.0070841117,0.010979419,0.014102326,-0.030308645,0.0
1730588226,-0.012696967,0.029907208,0.0137995435,0.011002306,0.014150576,-0.030446816,0.0
1730620151,-0.007057733,0.0435359,0.01776106,0.011036901,0.014190904,-0.03059329,0.0
1730648191,-0.015640292,0.0443366,0.01437494,0.011071462,0.014229369,-0.030737678,0.0
1730680125,0.0006932032,0.04651103,0.013916827,0.011118337,0.014270199,-0.030902816,0.0
1730712132,-0.022117384,0.012883126,0.017580431,0.011179085,0.014314628,-0.031069975,0.0
1730744163,-0.016663838,0.032284,0.011485632,0.011235882,0.01435253,-0.03125146,0.0
1730777010,0.0064425035,0.006607756,0.008350823,0.011278153,0.01442112,-0.031431414,0.0
1730808916,0.0074736187,-0.0051966943,0.010581645,0.011313242,0.014505489,-0.031599246,0.0
1730840967,0.006025358,0.023543391,0.003340946,0.011341537,0.014581923,-0.031769924,0.0
1730873003,0.010022644,0.0026855785,0.010670338,0.011360253,0.014676163,-0.031929582,0.0
1730904998,0.019089427,-0.0062174504,0.011997235,0.011376454,0.014777289,-0.03209836,0.0
1730936914,-0.0043677613,0.0044873445,0.007839228,0.011400798,0.0148742795,-0.03225812,0.0
1730968927,0.006046559,0.013692621,0.009239579,0.011415588,0.014954343,-0.032421216,0.0
1731000960,0.017032154,0.030119212,0.00043961895,0.011436634,0.015013934,-0.032572348,0.0
1731032937,0.007352934,0.02486684,0.0037306421,0.0114634195,0.015060896,-0.03271428,0.0
1731064895,0.00644601,0.037640627,0.00029668421,0.011488278,0.0150934905,-0.032845717,0.0
1731097730,0.01618413,0.042614345,-0.0005899414,0.011493139,0.015114076,-0.03297518,0.0
1731129750,0.017756848,0.022039652,0.0006921033,0.011482483,0.015129053,-0.03308875,0.0
1731161769,0.027002547,0.048126988,-0.0030928988,0.0114568295,0.015141019,-0.033178348,0.0
1731193807,0.030186135,0.036287084,-0.0062370654,0.011418262,0.015169964,-0.033265214,0.0
1731225744,0.038469043,0.0040467633,-0.009648132,0.011372769,0.015216631,-0.03334185,0.0
1731257722,0.027837899,0.025999572,-0.010033124,0.011327282,0.015253936,-0.033406533,0.0
1731289771,0.008235377,0.012432691,-0.00569091,0.011294745,0.0153005365,-0.033469256,0.0
1731321744,0.008401587,0.008776263,-0.0058433507,0.011278471,0.015353256,-0.03352681,0.0
1731353709,-0.0129539985,0.024980439,-0.0066589145,0.011276062,0.015399876,-0.03358489,0.0
1731386515,-0.029758358,0.0058379304,-0.0060792444,0.011281393,0.015451844,-0.033652704,0.0
1731418585,-0.017223636,0.008535316,-0.004298839,0.01129959,0.015499672,-0.03372498,0.0
1731450580,-0.022367543,-0.00032925187,0.00015076669,0.011340161,0.015543538,-0.033802327,0.0
1731482592,-0.023255112,0.01311081,0.0011487145,0.011386645,0.015584396,-0.033882365,0.0
1731514531,-0.01514884,0.03025961,0.0037239967,0.011428347,0.015620131,-0.033981197,0.0
1731546593,-0.03837633,0.011692783,-0.0030636746,0.011478866,0.015660942,-0.034082826,0.0
1731578559,-0.036303096,0.009580591,-0.0015824521,0.011532101,0.015690178,-0.034194138,0.0
1731610504,-0.0054970956,0.039719466,-0.0028003159,0.011567523,0.015710212,-0.034306955,0.0
1731643384,0.007816901,0.015137832,0.010273238,0.011592315,0.015739474,-0.034437392,0.0
1731675319,-0.008587018,0.00908848,0.0077038547,0.011618161,0.01576403,-0.03458308,0.0
1731707398,-0.030522682,0.014466643,0.001416201,0.011657972,0.01579642,-0.034717828,0.0
1731739384,-0.0065580434,-0.019761363,0.0006154862,0.011697841,0.015847085,-0.03485288,0.0
1731771383,-0.012068921,-0.010425191,0.0041280016,0.011746145,0.015900403,-0.034991756,0.0
1731803392,-0.036412656,-0.0024738216,0.0033347602,0.011802864,0.015958166,-0.035141475,0.0
1731835416,-0.0030874624,-0.010033584,0.0061984872,0.01186406,0.016022544,-0.035289142,0.0
1731867365,-0.01732791,-0.013332599,0.009386329,0.011947022,0.016085396,-0.035448138,0.0
1731899358,-0.019673461,-0.000783738,0.01049386,0.012029432,0.016133796,-0.035605773,0.0
1731932161,-0.0045384574,0.019626731,0.0027474114,0.012098121,0.01616356,-0.035759836,0.0
1731964153,-0.011751541,0.009607801,0.0008586274,0.012165912,0.016186653,-0.035907164,0.0
1731992139,0.004749867,0.010298599,0.009275185,0.012219262,0.016194817,-0.036042836,0.0
1732024171,0.018482102,0.035076026,0.0053928904,0.012269428,0.016184986,-0.036197186,0.0
1732056162,0.008104598,0.032385778,0.002074576,0.012308673,0.01616473,-0.03634349,0.0
1732088208,0.019457538,0.019605152,-0.0015155848,0.012344786,0.016137285,-0.03649364,0.0
1732120160,0.014134644,0.028468968,-0.0009860545,0.012385498,0.016092295,-0.036638312,0.0
1732152150,0.026671993,0.036827043,0.002149787,0.012415916,0.016046539,-0.03678378,0.0
1732184972,0.03159454,0.008747298,0.0010559777,0.012438481,0.016014932,-0.03692497,0.0
1732216948,-0.010719148,0.010621846,0.0014020033,0.01247734,0.015996616,-0.03705705,0.0
1732248923,0.0069018314,-0.0046956437,-0.0005344895,0.012519554,0.016001914,-0.03718038,0.0
1732280938,0.010854751,-0.05260275,-0.0015892019,0.012567849,0.016036792,-0.037295394,0.0
1732313055,-0.0068280515,-0.046353824,-0.006692958,0.012604613,0.016094945,-0.037402935,0.0
1732344958,0.023107473,-0.05069615,-0.010207608,0.012619906,0.016189504,-0.037505127,0.0
1732376917,0.034413375,-0.062906906,-0.00817547,0.01263953,0.016301878,-0.037564922,0.0
1732408945,0.020947503,-0.048375532,-0.0040610335,0.012659414,0.016405564,-0.037651353,0.0
1732440969,0.030371629,-0.0346358,-0.0042918343,0.012669019,0.016500736,-0.037724093,0.0
1732473067,0.0028365315,-0.032781836,-0.0059987814,0.012691937,0.01659195,-0.03779239,0.0
1732505788,0.016006362,-0.019424971,-0.006090005,0.012711123,0.016677186,-0.037857376,0.0
1732537771,0.006111366,-0.0172233,-0.0077967895,0.012734681,0.016767988,-0.037923303,0.0
1732569723,0.018556494,-0.022824183,-0.006476359,0.0127433175,0.016875744,-0.03799497,0.0
1732601788,0.026781695,-0.037916776,-0.012171989,0.0127502205,0.017005533,-0.038062137,0.0
1732633765,0.0049624154,-0.031426348,-0.0050499677,0.012761207,0.0171283,-0.03814698,0.0
1732665729,0.022866413,-0.008829167,-0.01163396,0.012760227,0.017248217,-0.03821569,0.0
1732697746,0.025185803,-0.016514704,0.00088165875,0.012769745,0.01738066,-0.038276304,0.0
1732729736,-0.012725122,-0.011167351,0.0058545405,0.012806735,0.017507963,-0.038397104,0.0
1732761746,-0.023029963,0.009733604,-0.004952734,0.012858275,0.01762314,-0.038478144,0.0
1732790578,-0.020089664,0.018378668,-0.0059699193,0.0129099125,0.017711166,-0.03855251,0.0
1732822613,-0.021643475,0.03233564,-0.004365884,0.012982897,0.01778453,-0.038632095,0.0
1732854515,-0.0029685432,0.04145686,-0.00053798035,0.013061362,0.017828956,-0.038699277,0.0
1732886560,-0.017043602,0.04183497,0.0029992382,0.013147957,0.01786258,-0.038770568,0.0
1732918570,-0.007852058,0.044016782,0.0021546958,0.013222251,0.017894536,-0.03883954,0.0
1732950574,-0.0015901183,0.023052467,-0.009485561,0.013284705,0.017939849,-0.038903546,0.0
1732982533,-0.029962001,0.011572037,-0.007815107,0.013359384,0.017981244,-0.038957924,0.0
1733014621,-0.0037201096,0.0465597,-0.008730771,0.013433458,0.01801024,-0.039003395,0.0
1733046563,-0.0022985134,0.014049286,-0.007537429,0.013522677,0.018053228,-0.039055813,0.0
1733079372,-0.008000843,0.016852506,-0.0026857639,0.013610315,0.018095462,-0.039087955,0.0
1733111396,0.0043579326,0.026483601,-0.001391955,0.0136847515,0.018134367,-0.0391543,0.0
1733143315,0.00881118,0.006848235,0.0023967247,0.0137642175,0.018171415,-0.0392145,0.0
1733175382,0.016198851,0.034677763,0.0006813557,0.013836903,0.018187681,-0.0392853,0.0
1733207351,0.003250389,0.03799694,-0.00049758074,0.013900766,0.018193005,-0.03936181,0.0
1733239399,0.013979815,0.02079423,-0.0062959464,0.013957691,0.018193578,-0.039429236,0.0
1733271328,0.026175104,0.011799264,-0.010973899,0.013999996,0.018201366,-0.03949411,0.0
1733304094,0.03612409,0.00020368933,-0.0043900763,0.014031647,0.01823128,-0.039552297,0.0
1733336102,0.062679216,0.0013770335,0.0013530103,0.014052752,0.01827911,-0.039623223,0.0
1733364144,0.058401994,-0.013142951,-0.0103047155,0.014063339,0.018344766,-0.039646946,0.0
1733396156,0.04390569,-0.039878607,-0.011704873,0.01406419,0.01845297,-0.039670203,0.0
1733428234,0.026330141,-0.028527237,-0.010065318,0.014073147,0.018558897,-0.03968971,0.0
1733460133,0.007356454,0.0013235491,-0.019573836,0.014098609,0.01864286,-0.039680436,0.0
1733492112,-0.0052654212,-0.018669717,-0.010833804,0.014151349,0.018718772,-0.039670717,0.0
1733524174,-0.002514078,-0.011599202,-0.011141934,0.014223648,0.018783035,-0.039646864,0.0
1733556163,-0.029304072,0.0025816916,-0.0074726297,0.014321603,0.018846443,-0.03962325,0.0
1733588160,-0.027794,-0.02146875,-0.013800415,0.014429167,0.018929191,-0.039553,0.0
1733620926,-0.019450707,-0.04284821,-0.017492138,0.014544123,0.019035844,-0.03948938,0.0
1733653029,-0.051195752,-0.05453481,-0.021348234,0.01467632,0.019155629,-0.03941656,0.0
1733684962,-0.031604875,-0.03490047,-0.02183004,0.014815803,0.019297007,-0.039331615,0.0
1733717007,-0.040346444,-0.042984184,-0.018155593,0.014979832,0.019464098,-0.03923911,0.0
1733748910,-0.04175818,-0.06310718,-0.023800673,0.015141426,0.019647634,-0.03914272,0.0
1733780980,-0.023563117,-0.061013587,-0.016067913,0.015295313,0.019844702,-0.039056756,0.0
1733813031,-0.02243132,-0.037293077,-0.014192519,0.015450472,0.02004942,-0.03895986,0.0
1733844999,0.011172969,-0.030257437,-0.008919716,0.015592775,0.020259162,-0.038856223,0.0
1733876912,0.019401677,-0.042628236,-0.014214713,0.015721008,0.020470481,-0.0387521,0.0
1733909697,0.006509436,-0.02371947,-0.018358322,0.015835421,0.020669777,-0.03863589,0.0
1733941789,0.058309954,0.0037652443,-0.013140118,0.015899405,0.020850442,-0.0385054,0.0
1733973749,0.058479864,-0.006490526,-0.014531887,0.015945455,0.021031534,-0.038370192,0.0
1734005769,0.059313532,0.00030125165,-0.01900702,0.015967706,0.021213084,-0.038237378,0.0
1734037730,0.067860804,0.00043856306,-0.018080276,0.015969638,0.021398509,-0.038099587,0.0
1734069792,0.04263303,0.013529868,-0.019993164,0.015965456,0.021581065,-0.03795916,0.0
1734101789,0.06459604,0.04474064,-0.017721577,0.015940636,0.021745374,-0.037825193,0.0
1734133752,0.06780665,0.02639367,-0.016568176,0.01591226,0.021904316,-0.037683327,0.0
1734165720,0.046788163,0.024505787,-0.021391371,0.015886137,0.022051226,-0.037530795,0.0
1734197803,0.050532423,0.061338726,-0.0044394815,0.01585835,0.022164982,-0.037422277,0.0
1734230611,0.038552236,0.064649045,-0.0050433716,0.01583486,0.02226119,-0.037311554,0.0
1734262575,0.017379805,0.07025955,-5.3388998e-05,0.0158156,0.022335138,-0.037217032,0.0
1734294558,0.023181276,0.072092526,-0.006687393,0.015781881,0.022378337,-0.03712161,0.0
1734326527,0.005786072,0.07017541,-0.004275798,0.015748542,0.022400402,-0.037045747,0.0
1734358582,-0.0098503,0.083071396,-0.0049258485,0.01571875,0.02240947,-0.03697106,0.0
1734390551,0.017082173,0.06761529,-0.004232954,0.015680203,0.022422735,-0.03690317,0.0
1734422559,0.008940592,0.042523336,0.00080053485,0.015652861,0.022438321,-0.036838997,0.0
1734454519,-0.016387993,0.028626971,0.0061256457,0.015639484,0.022451285,-0.036769114,0.0
1734487334,-0.007959699,0.038801856,0.0020186147,0.015615459,0.022472812,-0.036711264,0.0
1734519371,-0.029336581,0.0044724187,0.0019264633,0.015609648,0.0225332,-0.036666747,0.0
1734551295,-0.03650454,-0.0128956055,-0.0021424403,0.015612799,0.022622699,-0.036621355,0.0
1734583384,-0.04653892,-0.039268203,0.00032994873,0.015639931,0.022745479,-0.036585428,0.0
1734615329,-0.04265207,-0.040464148,0.0038237968,0.015672315,0.022892175,-0.03656561,0.0
1734647398,-0.010748708,-0.041856315,0.009987076,0.015695808,0.023063086,-0.036556814,0.0
1734679363,-0.00019112218,-0.06062579,0.010053156,0.015699703,0.023257786,-0.036547825,0.0
1734711356,-0.02699982,-0.045728788,0.010830291,0.015699407,0.023446329,-0.03655789,0.0
1734743355,-0.00635712,-0.009708498,0.01023194,0.015676258,0.023609146,-0.036568765,0.0
1734775468,0.0038341102,-0.01798037,0.0145836845,0.015646856,0.023775624,-0.036592554,0.0
1734808222,-0.0038447687,-0.016037295,0.0040361704,0.015597477,0.023946991,-0.036605127,0.0
1734840157,-0.008243746,-0.009996533,0.0070239,0.015544513,0.024100045,-0.03664022,0.0
1734872162,-0.010504142,0.009311677,0.010051079,0.015491209,0.024232535,-0.03669602,0.0
1734904139,0.02164453,0.02261699,0.0143229095,0.015427715,0.02436108,-0.036753267,0.0
1734936189,0.005817299,0.008725729,0.013137046,0.015364709,0.024491187,-0.036842097,0.0
1734968159,-0.021288028,0.02920251,0.018114619,0.015308836,0.02459828,-0.036917076,0.0
1735000172,-0.012687842,0.034780465,0.01673007,0.0152605465,0.024694027,-0.037033215,0.0
1735032909,-0.025126781,0.033562034,0.021244103,0.015242888,0.02478199,-0.037145324,0.0
1735064932,-0.01812975,0.042076495,0.019397728,0.01523648,0.024843682,-0.037251506,0.0
1735096968,-0.058881864,0.043485563,0.018706024,0.015268153,0.024890214,-0.03735498,0.0
1735128883,-0.067297265,0.061781056,0.018811075,0.015322119,0.024918353,-0.037476975,0.0
1735160921,-0.04427587,0.0526545,0.015965378,0.01539216,0.02493901,-0.03758867,0.0
1735193031,-0.0757543,0.054174628,0.009288337,0.015483822,0.024950013,-0.03768866,0.0
1735224995,-0.061660886,0.071544595,0.009216567,0.015575063,0.024948485,-0.037785854,0.0
1735256921,-0.066099316,0.03556489,0.006439953,0.015682664,0.024962582,-0.03787898,0.0
1735288962,-0.06713216,0.02553441,0.0057685394,0.015800506,0.024986012,-0.037956584,0.0
1735320952,-0.045450494,0.036924068,-0.0013432503,0.015914204,0.02501654,-0.038032766,0.0
1735353048,-0.023748819,0.024985796,0.005323141,0.016013073,0.025049234,-0.0381087,0.0
1735385714,0.005762308,0.018120741,0.0061823707,0.016091583,0.025082292,-0.038176026,0.0
1735417720,-0.0016721676,0.011480408,0.008987213,0.01615495,0.025111211,-0.038255055,0.0
1735449757,0.03434366,0.037149515,0.0065230755,0.016166925,0.025128363,-0.038324937,0.0
1735481771,0.027660822,0.01686755,0.0056188824,0.016174339,0.025154267,-0.03839387,0.0
1735513786,0.0065303636,0.007959222,0.010662457,0.016189046,0.025174243,-0.03847279,0.0
1735545713,0.020223374,0.027000466,0.0011978871,0.016189197,0.025188833,-0.038552884,0.0
1735577778,0.018141037,0.0015968175,0.0028310148,0.016182922,0.025214722,-0.03862754,0.0
1735610542,0.019243974,0.0034974494,0.004880096,0.016187388,0.025230357,-0.038716856,0.0
1735642600,0.009026891,0.011004571,0.0026128313,0.016205393,0.025249302,-0.038798314,0.0
1735674567,0.02785283,-0.010357324,0.007846434,0.016221153,0.025278078,-0.038888887,0.0
1735706481,0.014185597,-0.007566559,0.006549188,0.016232371,0.025293808,-0.038965214,0.0
1735738499,-0.0053255735,-0.018290818,0.0053139734,0.016244056,0.025314566,-0.03904123,0.0
1735770546,0.033835635,0.007255804,0.012463851,0.016234135,0.025328035,-0.039139137,0.0
1735802516,0.033693507,-0.014382472,0.01210002,0.016207142,0.025349276,-0.039258555,0.0
1735834522,0.033465892,-0.02735942,0.01384729,0.016155995,0.025367722,-0.039408613,0.0
1735866574,0.022361774,-0.011056951,0.006273659,0.016094748,0.025392877,-0.039537087,0.0
1735898552,0.027263086,-0.03809327,0.005101449,0.016028898,0.025436368,-0.039689608,0.0
1735931376,0.03836061,-0.009253881,0.016656669,0.015962645,0.025472201,-0.039873615,0.0
1735963327,0.010737823,-0.0024578208,0.010328991,0.01591371,0.025487604,-0.04005087,0.0
1735995403,0.017672956,-0.011360888,0.013755812,0.015866885,0.025495842,-0.040229976,0.0
1736027353,-0.004900938,-0.011459567,0.010771798,0.015837843,0.025494259,-0.04041747,0.0
1736059381,-0.0070444266,-0.01217637,0.021854682,0.015818397,0.025488347,-0.040611554,0.0
1736091310,0.0038047773,0.009861327,0.025652412,0.015807662,0.025476797,-0.040853847,0.0
1736123386,-0.026747178,-0.008606294,0.020950852,0.015825642,0.025460932,-0.041044533,0.0
1736155376,-0.03296277,0.00022804574,0.016170638,0.015865576,0.025426324,-0.041250322,0.0
1736188172,-0.053301644,-0.003513948,0.0059020114,0.015908891,0.02538721,-0.041438095,0.0
1736220166,-0.045012023,-0.027643332,0.010586769,0.015966495,0.025355393,-0.04161219,0.0
1736252094,-0.07272149,-0.0039534215,0.0044981707,0.016055692,0.025319278,-0.04179684,0.0
1736284105,-0.06918944,-0.018349636,0.0031811406,0.016172316,0.02529238,-0.04196641,0.0
1736316133,-0.055876065,-0.037157666,-0.0011914035,0.01631379,0.025271274,-0.04210993,0.0
1736348213,-0.08640944,-0.02798675,-0.0059412452,0.016464623,0.025251633,-0.042228285,0.0
1736380181,-0.050261296,-0.032654427,-0.01254722,0.01660373,0.025240585,-0.042325035,0.0
1736412142,-0.06770084,-0.061829112,-0.013590064,0.01677295,0.025238452,-0.042389337,0.0
1736444160,-0.06132166,-0.04314304,-0.017847573,0.016949015,0.025241107,-0.042405624,0.0
1736472919,-0.047701772,-0.044602122,-0.019705622,0.017107422,0.025257291,-0.042431265,0.0
1736504999,-0.042613152,-0.06587621,-0.019468898,0.017277557,0.025299404,-0.04242925,0.0
1736536949,-0.03783343,-0.07304027,-0.02927088,0.01745834,0.025359454,-0.04238702,0.0
1736568951,-0.030898832,-0.08589479,-0.027027167,0.017643105,0.025437273,-0.042323258,0.0
1736600911,-0.0010374238,-0.08059346,-0.029368794,0.017808035,0.025527257,-0.042226717,0.0
1736633065,0.020937039,-0.07337983,-0.033235557,0.017942827,0.025634313,-0.04210984,0.0
1736664957,0.0109503055,-0.101322226,-0.035794854,0.0180654,0.025764056,-0.041978326,0.0
1736696939,0.016903585,-0.07072226,-0.04754687,0.018172426,0.025891846,-0.041797075,0.0
1736728899,0.041219804,-0.054108188,-0.038247187,0.018267289,0.026012443,-0.041598316,0.0
1736761752,0.05499897,-0.054008007,-0.03443867,0.01836091,0.02612308,-0.041400924,0.0
1736793731,0.047775604,-0.023255663,-0.035581417,0.018436784,0.026213953,-0.041174836,0.0
1736825709,0.025493631,-0.01143631,-0.0333233,0.018513555,0.026289426,-0.04094176,0.0
1736857691,0.05833662,0.012883394,-0.027948005,0.0185823,0.026325999,-0.040712968,0.0
1736889719,0.057916734,0.03259836,-0.03672125,0.018646479,0.026336374,-0.04046221,0.0
1736921780,0.043907885,0.008156278,-0.0380222,0.018701801,0.026339551,-0.0401877,0.0
1736953709,0.05394835,0.018231966,-0.045749307,0.018745441,0.026334573,-0.039898276,0.0
1736985772,0.08165141,0.033961073,-0.04210219,0.018759854,0.02633611,-0.03958621,0.0
1737017728,0.09073605,0.013698407,-0.03305237,0.018736487,0.02635074,-0.03929363,0.0
1737053713,0.058926787,0.00023531518,-0.035869773,0.018681671,0.02637549,-0.03895443,0.0
1737086548,0.084084734,0.010754285,-0.028714253,0.018615255,0.026387352,-0.03865077,0.0
1737118560,0.1068596,0.012470091,-0.028929908,0.018548833,0.026389629,-0.038343266,0.0
1737150584,0.070042565,0.0031458328,-0.03294709,0.018468812,0.026385918,-0.03800195,0.0
1737182558,0.037445515,0.018157922,-0.034499213,0.018382499,0.026375566,-0.037672214,0.0
1737214590,0.05967244,0.030768266,-0.032936983,0.018291578,0.026358142,-0.03734781,0.0
1737246515,0.054941956,0.023562672,-0.02705602,0.018218577,0.026342733,-0.037016675,0.0
1737278590,0.03645425,0.020760085,-0.026348135,0.018156886,0.026320497,-0.036680773,0.0
1737310579,0.02400067,0.007910912,-0.024199136,0.018097581,0.02627708,-0.03633418,0.0
1737343322,-0.0033737791,0.028234182,-0.034664717,0.018043332,0.02621519,-0.03596245,0.0
1737375351,-0.00058286684,0.030500531,-0.021224031,0.017986398,0.02616543,-0.035610814,0.0
1737407318,-0.0035852604,0.0067979437,-0.019782044,0.017946599,0.02612662,-0.035271313,0.0
1737439358,0.001140477,-0.0021273845,-0.026734276,0.017913658,0.026083957,-0.0349005,0.0
1737471309,-0.0101384055,-0.0042118225,-0.024661658,0.017895091,0.026040515,-0.034530323,0.0
1737503358,-0.035949342,0.010834564,-0.027026068,0.017883148,0.026010312,-0.034154795,0.0
1737535293,-0.028761929,0.012977803,-0.025047882,0.017871648,0.025980206,-0.0337847,0.0
1737567395,-0.025403496,-0.0030586275,-0.013616385,0.017875493,0.025941841,-0.03342415,0.0
1737599347,-0.04893971,-0.00465278,-0.014746087,0.017902365,0.02589195,-0.03307432,0.0
1737632145,-0.047917645,-0.0020547593,-0.013569039,0.017946165,0.025833746,-0.032734163,0.0
1737664133,-0.05296973,0.011102611,-0.005122247,0.018007401,0.025768321,-0.03242747,0.0
1737696174,-0.064710714,0.011310289,0.0018738757,0.018092167,0.025683593,-0.03214822,0.0
1737728227,-0.05870133,0.030767791,-0.0100189475,0.018175421,0.025578493,-0.031869367,0.0
1737760122,-0.026896916,0.031531367,0.001091974,0.018252842,0.025465691,-0.031612273,0.0
1737792171,-0.04306581,0.014363911,0.009004387,0.018344536,0.025346754,-0.031394023,0.0
1737824179,-0.05694337,0.021701237,0.008018082,0.01843216,0.025211519,-0.03118452,0.0
1737856214,-0.032237716,0.030195426,0.008135611,0.018509721,0.02506426,-0.030998431,0.0
1737888918,-0.02848781,-0.0067910813,0.014707588,0.018603902,0.024920478,-0.03084043,0.0
1737920925,-0.048596248,-0.017652664,0.018428706,0.018726107,0.024788437,-0.030695863,0.0
1737953015,-0.043053534,0.0047508874,0.018113675,0.018856987,0.024669921,-0.03056847,0.0
1737984949,-0.046364635,-0.013149269,0.015754255,0.019000124,0.024567667,-0.0304563,0.0
1738016924,-0.035179757,-0.033082712,0.016688185,0.019143624,0.024482008,-0.030363692,0.0
1738048899,-0.02409079,-0.029175436,0.022565857,0.019294446,0.024404127,-0.030287167,0.0
1738080952,-0.043640763,-0.025465168,0.021898318,0.019459313,0.024331013,-0.0302113,0.0
1738112938,-0.040591102,-0.035534173,0.01799001,0.019632442,0.024258258,-0.03016246,0.0
1738144974,-0.01865648,-0.03921121,0.02370549,0.019814638,0.02418441,-0.030124297,0.0
1738177734,-0.05764987,-0.03336994,0.022858953,0.02003059,0.024113841,-0.030098146,0.0
1738209720,-0.024346218,-0.014477233,0.022216314,0.02022758,0.024038114,-0.030080196,0.0
1738241763,-0.033463873,-0.03295864,0.021662837,0.020457203,0.023960933,-0.030062474,0.0
1738273774,-0.061355125,-0.03982173,0.023207733,0.020714736,0.023879372,-0.030058878,0.0
1738305710,-0.050375838,-0.011637585,0.014707457,0.02098438,0.023793282,-0.030049205,0.0
1738337740,-0.03918171,-0.03319072,0.028269708,0.02127502,0.023725573,-0.030054156,0.0
1738369750,-0.033984892,-0.063026875,0.02790949,0.021583954,0.023678597,-0.030081982,0.0
1738401738,-0.03701128,-0.04350962,0.02168313,0.021897342,0.023637176,-0.030107709,0.0
1738434600,-0.010631604,-0.028311102,0.023510717,0.022208925,0.023598602,-0.030151693,0.0
1738466545,0.015917122,-0.04347864,0.019715562,0.02250545,0.02357066,-0.030183826,0.0
1738498514,0.0015545426,-0.055150636,0.017898565,0.022806296,0.02354908,-0.030249488,0.0
1738530566,0.032943543,-0.019894157,0.018946009,0.023085145,0.02351717,-0.030333212,0.0
1738562515,0.056391098,-0.017844392,0.02723089,0.023335233,0.023491135,-0.03041456,0.0
1738594497,0.057369646,-0.039997995,0.026209792,0.02357355,0.02346228,-0.030552795,0.0
1738626494,0.059152957,-0.012069905,0.01902183,0.02379278,0.023418223,-0.030675977,0.0
1738658544,0.05990043,-0.005177441,0.027094629,0.024016103,0.023362203,-0.03080629,0.0
1738691388,0.07498997,-0.010571026,0.029974524,0.024250878,0.02329262,-0.030958408,0.0
1738723384,0.049922932,0.0034135208,0.035016872,0.024490422,0.023215408,-0.031116586,0.0
1738755316,0.06528757,0.008438301,0.031190854,0.024716185,0.023139102,-0.031280898,0.0
1738787411,0.107149586,-0.005899133,0.039903264,0.024898324,0.023068706,-0.031471107,0.0
1738819355,0.104453385,-0.010013415,0.036884304,0.025036292,0.02299638,-0.0316875,0.0
1738851320,0.12283999,0.011118729,0.03200529,0.025132824,0.022898946,-0.031894427,0.0
1738883345,0.13677657,0.02095833,0.037042003,0.025208874,0.022791123,-0.03211642,0.0
1738915329,0.13500154,0.018199762,0.031705443,0.025257325,0.022666767,-0.032353245,0.0
1738947359,0.11405407,0.032439783,0.032686245,0.025301041,0.022518894,-0.03258795,0.0
1738979380,0.08940364,0.041139387,0.029240476,0.025350722,0.022348734,-0.03284875,0.0
1739011320,0.11030121,0.023920787,0.028156774,0.025388662,0.022170395,-0.03311127,0.0
1739044140,0.07382618,0.016605848,0.021509288,0.025434665,0.021984043,-0.033373777,0.0
1739076200,0.06659401,0.012117852,0.02569318,0.025484968,0.021814818,-0.033635665,0.0
1739108204,0.07720306,-0.0055567264,0.019891663,0.025541361,0.021662205,-0.033900335,0.0
1739140122,0.039181862,-0.020716906,0.019378781,0.025610989,0.021518635,-0.03416426,0.0
1739172120,0.03157858,-0.024039965,0.015810918,0.02567649,0.021396713,-0.034406032,0.0
1739204136,0.04169293,-0.040917903,0.01605465,0.025745397,0.02130553,-0.03464366,0.0
1739236141,0.0066013173,-0.06314929,0.015761988,0.025836857,0.021233106,-0.034887895,0.0
1739268966,0.0042953985,-0.03518474,0.010329224,0.025931405,0.021152416,-0.035134617,0.0
1739300937,-0.0006878399,-0.055509787,0.015578881,0.026039267,0.02108445,-0.03537927,0.0
1739332916,-0.005251488,-0.030872624,0.0102587985,0.026159264,0.02099613,-0.035622567,0.0
1739364997,-0.02559361,-0.014212903,0.010511258,0.02629612,0.020896481,-0.035856925,0.0
1739396949,-0.013140488,-0.018663898,0.010833197,0.026435077,0.02079977,-0.036089025,0.0
1739428976,-0.007758284,-0.013849191,0.007702861,0.026571874,0.020700106,-0.036319558,0.0
1739460906,-0.039226826,-0.0146899065,0.0051801875,0.026711434,0.020594522,-0.03655114,0.0
1739493052,-0.0072408384,0.0043801237,0.0016434789,0.026839502,0.02047659,-0.036762666,0.0
1739524945,0.002690298,-0.02212819,0.0013423717,0.026958311,0.02035636,-0.03697259,0.0
1739556908,0.003026133,-0.0037621683,-0.006694456,0.027048001,0.020223198,-0.037144355,0.0
1739588915,0.02050635,0.014379095,-0.006755104,0.027111106,0.020086091,-0.037310142,0.0
1739621767,0.0038634485,-0.020873792,-0.010916424,0.027188012,0.019971782,-0.03745286,0.0
1739653816,0.008941408,-0.0010390778,-0.01622906,0.027257746,0.019865632,-0.037577763,0.0
1739685738,-0.006983165,-0.026045963,-0.017535608,0.027330777,0.019792374,-0.03765867,0.0
1739717769,-0.013898165,-0.049708754,-0.024024526,0.027417904,0.01974518,-0.037715267,0.0
1739749693,-0.03712383,-0.041673496,-0.01498451,0.027541067,0.01970838,-0.037766103,0.0
1739781773,-0.03962696,-0.033210993,-0.02656307,0.027681656,0.019686805,-0.03777346,0.0
1739813712,-0.020863647,-0.03150423,-0.02723314,0.02783539,0.019675907,-0.037741695,0.0
1739845734,-0.055681612,-0.045862343,-0.017504368,0.028015189,0.0196734,-0.037694428,0.0
1739878609,-0.055365425,-0.03442108,-0.022556873,0.028207768,0.01967562,-0.037666835,0.0
1739910559,-0.039137565,-0.04350811,-0.018112622,0.028411413,0.019686658,-0.03761791,0.0
1739942563,-0.063242204,-0.047759965,-0.027175667,0.028630376,0.019702792,-0.037553437,0.0
1739974520,-0.07183498,-0.017661117,-0.02490415,0.028861757,0.019711327,-0.037470262,0.0
1740006572,-0.07872061,-0.0079867765,-0.026155148,0.029117046,0.019721244,-0.03742698,0.0
1740038550,-0.054965317,-0.02409813,-0.025027297,0.029384935,0.019723454,-0.03733376,0.0
1740070607,-0.056320585,-0.010068606,-0.034041516,0.029645907,0.019709652,-0.03722933,0.0
1740102527,-0.05333311,0.012359096,-0.024237182,0.029893935,0.019674351,-0.03714972,0.0
1740134552,-0.013529159,0.037435535,-0.028292667,0.030117178,0.019625548,-0.037085544,0.0
1740167344,-0.025088938,0.009624895,-0.018622557,0.030345602,0.019580355,-0.037028097,0.0
1740199384,-0.0061719636,0.02209989,-0.023858868,0.03053983,0.019522673,-0.03696054,0.0
1740231420,0.021350287,0.044402145,-0.014240833,0.03070286,0.019457117,-0.036913984,0.0
1740263329,0.040701825,0.04124054,-0.008488531,0.030845772,0.019382041,-0.03688855,0.0
1740295357,0.03098533,0.043864,-0.00090245577,0.030986158,0.019290911,-0.03686421,0.0
1740327321,0.022240905,0.04338653,-0.002444143,0.031125154,0.019200062,-0.03689435,0.0
1740359360,0.05270282,0.039803866,0.011273342,0.031246249,0.019118046,-0.036930423,0.0
1740391309,0.04858413,0.015620807,-0.00786908,0.03135247,0.019035272,-0.036924962,0.0
1740423358,0.031304087,0.024721151,0.011132246,0.031447664,0.018956626,-0.036953025,0.0
1740455357,0.052676395,0.04438448,0.004443071,0.031519283,0.01888561,-0.03699553,0.0
1740488184,0.04551408,0.019111741,-0.0084260935,0.031589065,0.018808737,-0.036978595,0.0
1740520214,0.02007333,0.026438028,-0.00090336055,0.03164144,0.018724784,-0.037061643,0.0
1740552113,0.008213262,0.030878171,-0.006927869,0.031705603,0.018646888,-0.037108686,0.0
1740584179,0.0038180517,0.03648857,-0.009705264,0.031796344,0.01856451,-0.037144106,0.0
1740616162,-0.0028607326,0.048870806,0.003594246,0.031908546,0.01845429,-0.0372125,0.0
1740648233,-0.030504245,0.0523082,-0.00297408,0.032031175,0.018338302,-0.037287794,0.0
1740680130,-0.016793836,0.050038997,0.0015699633,0.03214994,0.018229607,-0.037370265,0.0
1740712181,-0.029568486,0.031383846,0.006837223,0.03228815,0.018111829,-0.037399493,0.0
1740744961,-0.04359579,0.061117083,0.008300925,0.032454062,0.017965578,-0.03749146,0.0
1740776973,-0.026037361,0.052035436,0.0023738903,0.032629453,0.017819922,-0.037525456,0.0
1740808935,-0.052760966,0.02817158,0.009382979,0.032823514,0.017676003,-0.0375678,0.0
1740840932,-0.042118732,0.059137426,-0.0018217596,0.033011306,0.017518697,-0.037603974,0.0
1740873068,-0.021782301,0.04207059,0.007170691,0.033189733,0.017371764,-0.03764718,0.0
1741799443,-0.019450411,-0.03333255,-0.005964651,0.037514705,0.013289396,-0.03597126,0.0
1741831388,-0.026989482,-0.020208456,0.002024739,0.03769445,0.013158869,-0.035914864,0.0
1741864153,-0.026079003,-0.035735816,-0.006272928,0.03788036,0.013033929,-0.035844635,0.0
1741896166,-0.051631033,-0.037549518,-0.022893582,0.038067833,0.012899935,-0.035748243,0.0
1741928223,-0.040858466,-0.03523802,-0.0069248993,0.038260374,0.01277429,-0.035688408,0.0
1742790546,-0.033212017,-0.03836797,0.008504817,0.040706612,0.007607857,-0.036498763,0.0
1742822604,-0.021684257,-0.02131448,0.0037161096,0.040795486,0.0073858155,-0.03656235,0.0
1742854532,-0.019688137,-0.04903445,0.006827278,0.0408882,0.007182497,-0.03661151,0.0
1742886561,-0.03552526,-0.05119985,0.0065122396,0.040987335,0.006983406,-0.03664195,0.0
1742918562,-0.0087933475,-0.03539659,0.011056077,0.041084763,0.0068000336,-0.036692582,0.0
1742951341,-0.022854455,-0.06432059,0.0066452962,0.04118475,0.0066438797,-0.03675041,0.0
1742983414,-0.02167966,-0.026399344,0.004043207,0.04126745,0.006482155,-0.036784817,0.0
1743015347,-0.008541431,-0.04828751,0.014242094,0.041348618,0.0063322876,-0.03685776,0.0
1743047383,-0.007951615,-0.05149998,0.0037543268,0.041434176,0.0061800373,-0.036896795,0.0
1743079358,-0.0056545935,-0.038638867,0.011271311,0.04151205,0.0060267746,-0.03692242,0.0
1743111396,-0.0079753045,-0.04268017,0.0030577367,0.041575324,0.005880901,-0.036918778,0.0
1743143329,-0.019477095,-0.03270637,0.001647296,0.041643705,0.005733888,-0.036937207,0.0
1743175378,-0.015062611,-0.017195426,0.0030480379,0.041719068,0.0055834507,-0.036962237,0.0
1743207358,0.020728769,-0.029409496,0.0006850433,0.0417861,0.0054373373,-0.03698438,0.0
1743239398,-0.02787046,-0.027632523,-0.0042562224,0.041856743,0.0052900654,-0.036962815,0.0
1743271329,-0.015541138,-0.014104947,0.0090682125,0.04192619,0.0051480914,-0.036954455,0.0
1743304108,-0.00781255,-0.04890276,-0.004787786,0.041997783,0.0050269356,-0.036963943,0.0
1743336170,-0.014968384,-0.027986728,-0.0055605224,0.042068522,0.0049077794,-0.036930624,0.0
1743368202,0.0005805036,-0.0063335164,0.0012191838,0.042129405,0.0047772946,-0.03691731,0.0
1743400215,-0.019272152,-0.033007555,0.006128842,0.042207684,0.004659014,-0.03692856,0.0
1743432132,-0.029078156,-0.028438644,-0.00091408426,0.042294946,0.0045535276,-0.03691178,0.0
1743464153,-9.170733e-06,-0.033813585,0.009274754,0.042380087,0.004463661,-0.0369115,0.0
1743496148,-0.02868988,-0.06406627,0.012820532,0.04247813,0.0043963045,-0.036942646,0.0
1743528198,-0.026038663,-0.02588466,-0.00065534655,0.042555183,0.004322706,-0.03697243,0.0
1743560127,-0.0071368804,-0.032353576,0.0024527719,0.04262624,0.0042645605,-0.03696834,0.0
1743592920,0.005786935,-0.04492015,0.010628123,0.04269601,0.004214219,-0.0370018,0.0
1743624999,0.007080006,-0.020012543,0.017763317,0.042766888,0.0041662115,-0.03705969,0.0
1743656955,0.00024542504,-0.044205066,0.008214538,0.042822152,0.0041404646,-0.03709672,0.0
1743688956,0.0008031366,-0.050860185,0.010384326,0.042877574,0.0041363924,-0.03715243,0.0
1743720912,-0.0032196743,-0.0405388,0.011133283,0.042930752,0.0041451124,-0.037210602,0.0
1743753044,0.029082727,-0.02559676,0.005885564,0.04296239,0.0041544465,-0.037258588,0.0
1743784945,0.027323242,-0.024966808,0.014294937,0.042981602,0.0041690455,-0.03734043,0.0
1743816965,0.00013300171,-0.01277543,0.009772111,0.04299698,0.004190766,-0.03744366,0.0
1743848926,0.039604146,-0.01595356,0.0041671135,0.042996492,0.0042160572,-0.03751988,0.0
1743881696,0.0056030406,-0.023841638,0.009642657,0.04300341,0.0042379783,-0.03759518,0.0
1743913774,0.012800969,0.0024783679,0.0067891134,0.042997036,0.004253627,-0.0376798,0.0
1743945768,0.017490482,-0.013211674,0.013523677,0.043000493,0.004288367,-0.037793938,0.0
1743977766,-0.01326739,-0.0052252617,0.007168703,0.043017462,0.0043211523,-0.03788526,0.0
1744009721,0.004290078,0.03197186,0.005333928,0.04301624,0.0043338076,-0.038000498,0.0
1744041791,-0.0010539622,0.0038898126,-0.0053510363,0.043012127,0.004361674,-0.03810086,0.0
1744073768,0.0070983577,0.0080065075,0.010710452,0.043000527,0.004381989,-0.038224384,0.0
1744105780,0.007490442,0.045576155,0.005297944,0.042974893,0.004382903,-0.038375173,0.0
1744138525,0.025263073,0.03884125,0.00046163867,0.0429351,0.0043759295,-0.038507737,0.0
1744170538,0.008869986,0.04049469,0.007860707,0.04289093,0.004352649,-0.038641676,0.0
1744202563,0.010986072,0.05642994,0.0025671744,0.042832144,0.0043248213,-0.03876469,0.0
1744234538,0.02046488,0.048802365,0.00301575,0.042769596,0.0042939195,-0.03889238,0.0
1744266560,-0.015809944,0.03746448,0.0031211525,0.04272438,0.0042536184,-0.0390182,0.0
1744298525,-0.009056343,0.0626272,-0.002537621,0.0426754,0.0041977516,-0.039135154,0.0
1744330602,-0.028540287,0.04345706,-0.009834439,0.042642955,0.004146785,-0.039241176,0.0
1744362528,-0.041874807,0.059022054,-0.010722617,0.042624343,0.004090949,-0.03933756,0.0
1744394557,-0.0113813095,0.053383112,-0.007876391,0.042610727,0.0040344787,-0.039427396,0.0
1744427295,-0.044025,0.045786336,-0.0041483706,0.042617027,0.0039793192,-0.03952291,0.0
1744459326,-0.03605383,0.067881204,-0.006544954,0.042630192,0.003905967,-0.039598484,0.0
1744491327,-0.03375409,0.029769203,-0.008694458,0.0426416,0.003837772,-0.039653856,0.0
1744523334,-0.042006563,0.036992647,-0.010117994,0.04264636,0.0037565944,-0.03968513,0.0
1744555339,-0.017568847,0.058386024,-0.016494188,0.042629667,0.0036619592,-0.039703812,0.0
1744587376,-0.00024217204,0.044802602,-0.019479245,0.042589735,0.003566967,-0.039691813,0.0
1744619421,0.0074187545,0.045949865,-0.013687503,0.042532213,0.0034604908,-0.03967785,0.0
1744651338,-0.0070236176,0.051925663,-0.018879648,0.042468853,0.0033548682,-0.039646875,0.0
1744683397,0.012330884,0.022108681,-0.012942325,0.042402953,0.003260517,-0.039641753,0.0
1744715360,-0.008047625,0.01712614,-0.01527346,0.042345036,0.003171086,-0.03957345,0.0
1744748234,-0.011545404,0.020443073,-0.017780103,0.042297266,0.0030899423,-0.039498843,0.0
1744780191,-0.009992361,0.02026226,-0.022724897,0.042258456,0.0030079514,-0.039420635,0.0
1744812146,-0.022567358,0.02617623,-0.017926352,0.042222537,0.002924815,-0.039333697,0.0
1744844169,-0.0029643676,0.014337808,-0.015841573,0.042177748,0.0028359431,-0.039247833,0.0
1744876204,-0.015157529,0.012043903,-0.024918126,0.042133685,0.002732751,-0.039152265,0.0
1744908190,-0.03523381,0.025284447,-0.020618428,0.042084802,0.002611702,-0.039051715,0.0
1744940124,-0.022680555,0.018479632,-0.029989932,0.04203186,0.0024927333,-0.03894333,0.0
1744972162,-0.012522337,0.0051615075,-0.021959169,0.041986544,0.00238444,-0.038815998,0.0
1745004920,-0.03342764,0.021524575,-0.013316258,0.04196304,0.002265326,-0.03869401,0.0
1745036973,-0.012111581,0.007935869,-0.02115372,0.04193452,0.0021631133,-0.03855873,0.0
1745068890,-0.054899648,-0.0227431,-0.017910529,0.041931942,0.0020857053,-0.03842741,0.0
1745100905,-0.03202615,-0.018248875,-0.01480229,0.041927762,0.0020099175,-0.038291104,0.0
1745132915,-0.011140599,-0.029508185,-0.01202257,0.041920323,0.0019479777,-0.038167585,0.0
1745164946,-0.035550065,-0.03942968,-0.01199414,0.041911464,0.0018933151,-0.03805212,0.0
1745196922,-0.031091597,-0.026193863,-0.016023982,0.041891135,0.0018459858,-0.03795024,0.0
1745228920,-0.004998596,-0.044623427,-0.0076713595,0.041866407,0.0018206433,-0.037873402,0.0
1745260933,-0.023679914,-0.073186904,-0.009989167,0.04184571,0.0018116805,-0.037787147,0.0
1745293007,-0.007487545,-0.0405014,-0.0086149005,0.04181701,0.0018026534,-0.037700053,0.0
1745325792,-0.020006416,-0.05539487,-0.006339557,0.04180325,0.001812497,-0.03761558,0.0
1745357727,-0.009138728,-0.05697767,-0.0007247224,0.041797407,0.0018256105,-0.03755536,0.0
1745389776,-0.015313686,-0.03622816,0.00024919608,0.041793883,0.001844904,-0.03749179,0.0
1745421767,-0.0034190125,-0.061665177,0.00033055502,0.041785408,0.0018805597,-0.03743119,0.0
1745453784,0.0062965686,-0.050868776,-0.0017357045,0.04176298,0.0019159716,-0.03737535,0.0
1745485718,-0.012027543,-0.04350852,0.0006160055,0.041728083,0.0019475839,-0.037345473,0.0
1745517729,0.020843998,-0.027528895,-0.0035517279,0.041667014,0.0019795191,-0.037320532,0.0
1745549777,0.03728191,-0.031968553,0.00052101,0.04157736,0.0020135292,-0.037305627,0.0
1745582520,0.033355758,-0.024084294,0.0125070345,0.0414643,0.0020423217,-0.037313435,0.0
1745614589,0.04104354,-0.010671494,0.015182251,0.041345783,0.0020634856,-0.03734249,0.0
1745646504,0.010309394,-0.018103335,0.012910183,0.04125804,0.00207748,-0.037370745,0.0
1745678558,0.017804503,0.010493689,0.011966672,0.041168652,0.00207764,-0.03741734,0.0
1745710565,0.039897483,-0.0045848573,0.014257539,0.041062582,0.0020909554,-0.037472665,0.0
1745742606,0.018986402,-0.01712516,0.00930212,0.04094924,0.002121916,-0.037528627,0.0
1745774516,0.020877557,-0.009740951,0.011165927,0.040822368,0.0021594728,-0.0375976,0.0
1745806517,0.02898876,-0.03342994,0.0106083285,0.040686272,0.0022144956,-0.03767527,0.0
1745838579,0.021149768,-0.046423458,0.012759687,0.040541377,0.0022860668,-0.037762333,0.0
1745870565,0.015585589,-0.019307215,0.009924893,0.04039354,0.0023651712,-0.03784609,0.0
1745903439,0.020668391,-0.02849006,0.017906006,0.04025029,0.002457872,-0.037938513,0.0
1745935355,0.015731588,-0.017215272,0.01303474,0.04011726,0.0025389302,-0.03803099,0.0
1745967394,-0.011076935,-0.001942545,0.015001502,0.039979734,0.0026096196,-0.0381385,0.0
1745999388,-0.007432305,-0.0037944952,0.011991905,0.039854832,0.0026737622,-0.03824203,0.0
1746031432,-0.020656172,0.010778685,0.011555527,0.039754614,0.0027174861,-0.03834958,0.0
1746063335,-0.040817793,0.036747932,0.011530527,0.03966853,0.002737438,-0.038457736,0.0
1746095369,-0.0033894475,0.042502616,0.010352895,0.03957323,0.0027439352,-0.0385731,0.0
1746127360,-0.044017725,0.032827087,0.0021483037,0.03949988,0.0027473455,-0.0386671,0.0
1746160140,-0.041254252,0.053774633,0.008673636,0.039435133,0.0027300797,-0.038742807,0.0
1746192145,-0.02804042,0.029266022,0.008712973,0.039392557,0.0027160838,-0.038829137,0.0
1746224101,-0.04897079,0.0390068,0.009309383,0.03935894,0.0026838048,-0.03890875,0.0
1746256178,-0.021043027,0.073067196,0.008242132,0.03931117,0.002626318,-0.03898032,0.0
1746288172,-0.03712092,0.043573834,-0.0015343453,0.039274447,0.0025684265,-0.03903521,0.0
1746320218,-0.045966666,0.054575756,-0.0038699915,0.03924037,0.0024882131,-0.03909023,0.0
1746352110,-0.022442551,0.053330634,-0.0038662471,0.039204072,0.002395906,-0.03914088,0.0
1746384209,-0.022508001,0.020088736,-0.0057115634,0.039169904,0.002313527,-0.039174404,0.0
1746416158,-0.0112421755,0.036880355,-0.0031716204,0.039130192,0.002232831,-0.039202027,0.0
1746448965,-0.0058400217,0.021748506,-0.0072903177,0.039092027,0.0021694636,-0.039208576,0.0
1746480982,0.0034320825,0.01697062,-0.006939578,0.03903957,0.0021185512,-0.039204862,0.0
1746512936,0.010043836,0.012634562,-0.006173846,0.03896672,0.0020721278,-0.039187368,0.0
1746544978,0.0129154045,-0.009509914,-0.0023624224,0.03889825,0.0020315228,-0.039178077,0.0
1746576968,-0.004308149,-0.003435222,-0.0125851715,0.03883573,0.0019899472,-0.039134238,0.0
1746608948,0.012983125,0.0024839947,-0.016392166,0.038747147,0.0019656385,-0.039106507,0.0
1746640921,0.04032672,-0.016055018,-0.014445413,0.038632084,0.0019503155,-0.039056122,0.0
1746673048,0.022071255,0.00040285895,-0.011700169,0.038509008,0.001927413,-0.03901058,0.0
1746704971,0.027603071,-0.005003427,-0.007881842,0.03837856,0.0019102002,-0.038965005,0.0
1746737685,0.018156173,-0.02941757,-0.00955236,0.038265646,0.0019109588,-0.03891132,0.0
1746769742,-0.03411105,-0.011397648,-0.012890935,0.03820558,0.0019134901,-0.038853664,0.0
1746801720,-0.008748241,-0.0018970321,-0.008433306,0.038161553,0.0019189266,-0.03880675,0.0
1746833751,-0.018772049,-0.033767857,-0.009376442,0.038142394,0.0019324796,-0.038758315,0.0
1746865715,-0.036596622,-0.018235242,-0.0064861663,0.038127087,0.0019456322,-0.038718827,0.0
1746897746,-0.0019073905,-0.0078518465,-0.008124414,0.03809454,0.001966899,-0.03867416,0.0
1746929755,-0.009163575,-0.03719525,-0.008516014,0.03806039,0.0019999372,-0.038634133,0.0
1746961826,1.5536323e-05,-0.02579032,0.0025273892,0.03801918,0.0020343082,-0.03859847,0.0
1746993717,0.0035963312,-0.011705386,0.0065979296,0.037990876,0.0020788268,-0.03860351,0.0
1747025778,-0.02367721,-0.032381628,0.002023139,0.037989452,0.0021406808,-0.038618527,0.0
1747058532,-0.02731165,-0.01229491,-0.0006840697,0.037997015,0.0021990861,-0.038641322,0.0
1747090543,-0.025234854,-0.016719082,0.004963486,0.03801981,0.0022585806,-0.038679257,0.0
1747122610,-0.016817689,-0.013050828,0.013642999,0.038053766,0.0023181739,-0.03872866,0.0
1747154522,-0.021696601,0.00033242302,0.01981347,0.03810142,0.0023821434,-0.038795833,0.0
1747186581,-0.021936191,0.00068767986,0.01230647,0.038160548,0.0024443294,-0.038861122,0.0
1747218563,-0.044614136,-0.004997456,0.010263665,0.038240198,0.00249426,-0.03893595,0.0
1747250606,-0.039844017,-0.0027106972,0.005953284,0.038332593,0.0025376356,-0.039011765,0.0
1747282509,-0.014791923,0.010515356,0.000726579,0.038436923,0.0025805042,-0.039057374,0.0
1747315314,-0.048832934,0.015147836,0.0025233687,0.038579475,0.0026242968,-0.039111048,0.0
1747347323,-0.012976186,0.017564273,-0.0029618037,0.038708497,0.0026587276,-0.039140705,0.0
1747379347,-0.03081422,-0.01422572,0.0012161831,0.038856924,0.0026983488,-0.039175835,0.0
1747411356,0.0022532805,0.017868854,-0.0057368367,0.03897334,0.0027317188,-0.039192468,0.0
1747443309,0.040503323,0.021359637,0.000259032,0.039064273,0.002772105,-0.03922611,0.0
1747475329,0.042307794,0.00542162,-0.0016258594,0.039142713,0.002813554,-0.039255593,0.0
1747507348,0.053091258,0.028271364,-0.0032362307,0.039205115,0.002853919,-0.039264645,0.0
1747539397,0.07581269,-0.001964969,0.009023828,0.03925363,0.002909975,-0.039286718,0.0
1747571332,0.076653674,-0.0022856882,0.0048944866,0.03928403,0.0029571832,-0.03932468,0.0
1747604117,0.061879274,0.03583474,-0.0009740079,0.03929462,0.002980336,-0.03933473,0.0
1747636167,0.080400966,0.028295798,-0.0054332595,0.039289564,0.0029924866,-0.039323144,0.0
1747668244,0.051027853,0.014076158,-0.0070825554,0.039302435,0.0029996843,-0.039324712,0.0
1747700206,0.06555046,0.037208963,-0.00905305,0.039306648,0.0030039512,-0.039327085,0.0
1747728211,0.0744302,0.034062516,-0.0034493103,0.03931327,0.003016599,-0.039319213,0.0
1747760124,0.062275536,-0.0077403635,-0.0036302432,0.03932228,0.003056165,-0.03931295,0.0
1747792926,0.06099703,0.0015416264,-0.0076987054,0.039329875,0.003108289,-0.03930645,0.0
1747825000,0.07629511,0.013987566,-0.008436582,0.039326,0.0031670646,-0.03928369,0.0
1747856960,0.06623063,-0.0074840887,-0.0045081964,0.039310746,0.0032259417,-0.039263487,0.0
1747888967,0.064481996,0.015856715,-0.010461625,0.03928488,0.0032833747,-0.03924043,0.0
1747920896,0.052255746,0.0050230054,-0.0054777344,0.03926677,0.0033520549,-0.03922556,0.0
1747952919,0.060149603,0.012714377,-0.007787496,0.039254412,0.0034177287,-0.039212186,0.0
1747984918,0.0561318,0.03047112,0.00079120393,0.039242674,0.0034773573,-0.03921851,0.0
1748016967,0.06377509,0.009179281,0.00766661,0.039230637,0.0035370148,-0.03922851,0.0
1748048889,0.04753024,0.0029654414,0.00014590798,0.039220773,0.0036084114,-0.039230254,0.0
1748081722,0.015037316,0.0004703435,-0.010008712,0.03922905,0.003690875,-0.039231885,0.0
1748113788,0.05334487,0.006321067,-0.013352398,0.039218552,0.0037657456,-0.039195716,0.0
1748145766,0.034732975,-0.0068008387,-0.0029548353,0.039206024,0.0038399056,-0.039196387,0.0
1748177775,0.047366124,0.014530984,-0.00067798747,0.039176494,0.00391376,-0.039198175,0.0
1748209712,0.04327218,-0.0050047915,0.004177235,0.039156187,0.0039991667,-0.039205804,0.0
1748241789,0.01971339,-0.0060698246,0.0013844179,0.039147664,0.0040787077,-0.03921993,0.0
1748273762,0.024272656,0.024027154,-0.0008346294,0.039135743,0.00414679,-0.0392272,0.0
1748305763,0.015858427,-0.00200281,-0.00324905,0.039135475,0.0042210384,-0.03923412,0.0
1748337713,0.019268055,0.022744188,-0.008999905,0.039135784,0.0042880992,-0.039240286,0.0
1748370569,0.004025859,0.029718483,-0.0044926233,0.03912541,0.0043411343,-0.03923739,0.0
1748402553,0.046103574,0.01503562,-0.0010170587,0.039089076,0.004383044,-0.039245293,0.0
1748434581,0.015823673,0.006327592,0.0049812756,0.039053515,0.0044247634,-0.03924506,0.0
1748466563,0.024774764,0.030176735,0.0018964505,0.039006785,0.004473121,-0.039257683,0.0
1748498497,0.03221036,0.008254826,-0.0035479516,0.03895991,0.004530163,-0.03925901,0.0
1748530575,-0.015150803,-0.00267373,-0.008271628,0.038934167,0.004584105,-0.03922762,0.0
1748562533,0.006351362,0.016353264,-0.0043022614,0.038900048,0.004628952,-0.039234452,0.0
1748594523,-0.0026247865,-0.0040207314,-0.0030812835,0.038881805,0.004685405,-0.03925235,0.0
1748626501,-0.0035329084,0.013364695,0.0050538164,0.038871355,0.004721036,-0.03927655,0.0
1748658611,-0.0002831472,0.033872686,0.0028146,0.03885518,0.0047429292,-0.039309543,0.0
1748690565,0.0066559245,0.009306377,0.0005495793,0.03882485,0.0047720526,-0.039339114,0.0
1748722569,0.0063688764,0.010618544,0.0067068273,0.03878672,0.004792936,-0.039385173,0.0
1748754520,0.0038361843,0.038925815,0.004600703,0.038734905,0.0047979895,-0.039453667,0.0
1748787367,0.040372193,0.021447375,0.009958026,0.038667,0.0047998596,-0.039532218,0.0
1748819409,0.0008313819,0.019476926,0.0063542565,0.038601022,0.004799508,-0.039608393,0.0
1748851315,0.010914704,0.024247821,0.006492844,0.038506947,0.004802982,-0.039692253,0.0
1748883375,0.012217829,0.0023404667,0.0010533596,0.03840372,0.0048155007,-0.03977468,0.0
1748915343,-0.0068377433,-0.00057722046,0.0082425065,0.03830594,0.004818549,-0.039865904,0.0
1748947387,0.02275982,0.021299256,0.00049345405,0.03819641,0.004820554,-0.03995324,0.0
1748980195,0.00035172654,-0.007007284,0.015304401,0.038102813,0.00483701,-0.04004603,0.0
1749012169,-0.006468022,0.026916184,0.0107631665,0.03800798,0.0048315926,-0.04014948,0.0
1749044136,-0.013018464,0.0040417467,0.007884919,0.037916824,0.004826879,-0.04025978,0.0
