timestamp,roll_body,pitch_body,yaw_body,yaw_sp_move_rate,q_d[0],q_d[1],q_d[2],q_d[3],thrust,landing_gear,q_d_valid,roll_reset_integral,pitch_reset_integral,yaw_reset_integral,fw_control_yaw,disable_mc_yaw_control,apply_flaps
1725781009,-0.0011896763,0.020527342,0.021332871,0.0,0.9998902,-0.00070424576,0.0102565605,0.010671775,0.49132782,-1.0,1,0,0,0,0,0,0
1725985035,-0.0018743457,0.020386523,0.021332871,0.0,0.9998906,-0.0010457925,0.010182505,0.010675225,0.53386205,-1.0,1,0,0,0,0,0,0
1726086166,-0.002656425,0.020654425,0.021332871,0.0,0.9998888,-0.001438216,0.010312266,0.010679371,0.55479604,-1.0,1,0,0,0,0,0,0
1726190372,-0.0002806621,-0.0047852714,0.021332871,0.0,0.9999403,-0.00011480226,-0.002393994,0.010665866,0.5762732,-1.0,1,0,0,0,0,0,0
1726290821,-0.005546169,-0.0033246332,0.021332871,0.0,0.9999379,-0.0027551888,-0.0016917932,0.010661568,0.5973861,-1.0,1,0,0,0,0,0,0
1726390226,-0.0057358523,0.009616885,0.021332871,0.0,0.9999273,-0.0029190136,0.0047775414,0.010679855,0.6188813,-1.0,1,0,0,0,0,0,0
1726494513,-0.008698215,0.021914624,0.021332871,0.0,0.99987316,-0.004465455,0.010909979,0.010713142,0.6397894,-1.0,1,0,0,0,0,0,0
1726594692,-0.0055504004,0.01602826,0.021332871,0.0,0.99990696,-0.002860429,0.007983958,0.010688089,0.66081995,-1.0,1,0,0,0,0,0,0
1726698786,-0.0013294582,0.019581437,0.021332871,0.0,0.9998949,-0.0007690878,0.009782913,0.010672229,0.68408966,-1.0,1,0,0,0,0,0,0
1726798994,-0.0068506417,0.012190607,0.021332871,0.0,0.99991846,-0.0034900685,0.0060583483,0.01068685,0.6947763,-1.0,1,0,0,0,0,0,0
1726899646,-0.0049806437,0.016631613,0.021332871,0.0,0.9999052,-0.0025787884,0.008288649,0.010686538,0.6900595,-1.0,1,0,0,0,0,0,0
1726999266,0.0354847,0.03444841,0.021332871,0.0,0.9996407,0.0175541,0.01740887,0.010357423,0.6558217,-1.0,1,0,0,0,0,0,0
1727103329,-0.0015203,0.014122708,0.021332871,0.0,0.99991786,-0.00083540514,0.0070527834,0.010671332,0.57661223,-1.0,1,0,0,0,0,0,0
1727204968,0.028910995,0.049697507,0.021332871,0.0,0.9995338,0.014184721,0.02499632,0.0103026945,0.5200637,-1.0,1,0,0,0,0,0,0
1727304015,0.03777867,0.036083557,0.021332871,0.0,0.99960566,0.018691668,0.018237988,0.010321855,0.4940142,-1.0,1,0,0,0,0,0,0
1727409762,0.037465017,0.024888085,0.021332871,0.0,0.99969274,0.018596191,0.0126406085,0.01043046,0.49451327,-1.0,1,0,0,0,0,0,0
1727513299,0.029809134,0.011739978,0.021332871,0.0,0.99981576,0.014840309,0.0060279355,0.010577383,0.5008181,-1.0,1,0,0,0,0,0,0
1727612873,0.049065772,0.010451019,0.021332871,0.0,0.99963,0.024472974,0.00548526,0.010534702,0.50625426,-1.0,1,0,0,0,0,0,0
1727713617,0.032601498,0.0035531141,0.021332871,0.0,0.99980897,0.016280128,0.0019500786,0.0106358435,0.5078828,-1.0,1,0,0,0,0,0,0
1727817432,0.03413682,-0.0065739783,0.021332871,0.0,0.99979144,0.017101573,-0.0031042716,0.01072072,0.5096184,-1.0,1,0,0,0,0,0,0
1727918056,0.038226977,-0.005168501,0.021332871,0.0,0.99975663,0.019138737,-0.002379773,0.010713637,0.5104734,-1.0,1,0,0,0,0,0,0
1728018194,0.038272392,-0.012454189,0.021332871,0.0,0.99973935,0.019199977,-0.006021465,0.010783222,0.5131389,-1.0,1,0,0,0,0,0,0
1728122193,0.018633977,-0.017685214,0.021332871,0.0,0.99985975,0.009410272,-0.008742233,0.0107477335,0.5175133,-1.0,1,0,0,0,0,0,0
1728222621,0.028679641,-0.012569548,0.021332871,0.0,0.9998196,0.014405259,-0.006130786,0.01075504,0.51732624,-1.0,1,0,0,0,0,0,0
1728323260,0.031487938,-0.00926102,0.021332871,0.0,0.9998077,0.015791636,-0.004461736,0.010737692,0.5172555,-1.0,1,0,0,0,0,0,0
1728424105,0.030914126,-0.013402207,0.021332871,0.0,0.9998001,0.015526686,-0.0065350127,0.010768287,0.52193207,-1.0,1,0,0,0,0,0,0
1728528460,0.028844092,-0.013220277,0.021332871,0.0,0.99981624,0.014490908,-0.0064552072,0.010760213,0.52059746,-1.0,1,0,0,0,0,0,0
1728628119,0.031814605,-0.009612415,0.021332871,0.0,0.99980426,0.0159568,-0.004635645,0.010741205,0.52123713,-1.0,1,0,0,0,0,0,0
1728732030,0.016040033,-0.010377992,0.021332871,0.0,0.99989706,0.008074711,-0.00510297,0.01070736,0.52733266,-1.0,1,0,0,0,0,0,0
1728833346,0.009858797,-0.008452149,0.021332871,0.0,0.99992186,0.00497413,-0.0041731927,0.01068684,0.52455986,-1.0,1,0,0,0,0,0,0
1728937618,0.024984809,-0.003602068,0.021332871,0.0,0.9998632,0.012510558,-0.0016675469,0.01068788,0.52420324,-1.0,1,0,0,0,0,0,0
1729036611,0.020063164,-0.0060103564,0.021332871,0.0,0.99988794,0.01006285,-0.0028978547,0.010695794,0.5234043,-1.0,1,0,0,0,0,0,0
1729137746,0.019324325,-0.0088599175,0.021332871,0.0,0.9998862,0.009708618,-0.0043264297,0.01070843,0.52681434,-1.0,1,0,0,0,0,0,0
1729241930,0.01602409,-0.00564328,0.021332871,0.0,0.9999068,0.008041567,-0.0027359284,0.010688454,0.52744806,-1.0,1,0,0,0,0,0,0
1729342165,0.023877284,-0.002339627,0.021332871,0.0,0.999871,0.011950149,-0.0010423261,0.01067943,0.52745575,-1.0,1,0,0,0,0,0,0
1729442844,0.02103028,-0.007992374,0.021332871,0.0,0.9998794,0.010556887,-0.0038835746,0.010707575,0.5252624,-1.0,1,0,0,0,0,0,0
1729546760,0.006730781,-0.006785238,0.021332871,0.0,0.99993163,0.00340136,-0.0033565047,0.010677528,0.5312142,-1.0,1,0,0,0,0,0,0
1729646983,0.0052912957,-0.0068531195,0.021332871,0.0,0.99993366,0.0026820272,-0.0033981274,0.010675198,0.5311238,-1.0,1,0,0,0,0,0,0
1729747414,0.011263987,-0.0073898323,0.021332871,0.0,0.9999202,0.005671016,-0.003634568,0.0106868,0.53212065,-1.0,1,0,0,0,0,0,0
1729852550,0.006048834,-0.008821096,0.021332871,0.0,0.99992865,0.0030712546,-0.0043780045,0.010679419,0.53198135,-1.0,1,0,0,0,0,0,0
1729956003,-0.0014740538,-0.005926372,0.021332871,0.0,0.9999385,-0.00070537574,-0.0029708736,0.010663999,0.5352899,-1.0,1,0,0,0,0,0,0
1730056262,0.00072310644,-0.0024502059,0.021332871,0.0,0.99994224,0.0003745996,-0.0012211765,0.0106666675,0.5350765,-1.0,1,0,0,0,0,0,0
1730160905,0.003896415,-0.0058056465,0.021332871,0.0,0.99993694,0.0019790493,-0.0028818685,0.010671823,0.53752977,-1.0,1,0,0,0,0,0,0
1730265033,0.0021906262,-0.004832895,0.021332871,0.0,0.99993956,0.0011210217,-0.0024046232,0.010668842,0.53502184,-1.0,1,0,0,0,0,0,0
1730369664,0.0022030426,0.0038335894,0.021332871,0.0,0.9999407,0.0010810115,0.0019284325,0.010664097,0.5328283,-1.0,1,0,0,0,0,0,0
1730468988,0.0009872976,0.0012287466,0.021332871,0.0,0.9999428,0.00048706756,0.0006196036,0.010665926,0.53493965,-1.0,1,0,0,0,0,0,0
1730570139,4.7168203e-05,0.0031659554,0.021332871,0.0,0.9999419,6.698329e-06,0.0015831386,0.010666183,0.5336662,-1.0,1,0,0,0,0,0,0
1730674457,0.0047966484,0.0010046336,0.021332871,0.0,0.9999401,0.0023928275,0.00052786793,0.010664998,0.53718305,-1.0,1,0,0,0,0,0,0
1730774495,0.0032137253,0.010494726,0.021332871,0.0,0.9999282,0.0015507792,0.005264173,0.010657643,0.5342895,-1.0,1,0,0,0,0,0,0
1730874643,0.009780287,0.008017713,0.021332871,0.0,0.9999233,0.0048470474,0.004060729,0.010646418,0.5328117,-1.0,1,0,0,0,0,0,0
1730978719,0.0014492882,0.008269986,0.021332871,0.0,0.9999343,0.0006804919,0.0041424735,0.010663142,0.5361874,-1.0,1,0,0,0,0,0,0
1731078639,0.0015370903,0.008106248,0.021332871,0.0,0.9999346,0.0007252636,0.004061079,0.010663028,0.53714275,-1.0,1,0,0,0,0,0,0
1731180276,0.0018667929,0.016354498,0.021332871,0.0,0.99990934,0.00084609265,0.008186645,0.010658239,0.5360654,-1.0,1,0,0,0,0,0,0
1731283760,0.0071474244,0.008126823,0.021332871,0.0,0.99992865,0.003530131,0.004101261,0.010651558,0.5359954,-1.0,1,0,0,0,0,0,0
1731384072,-0.0020344853,0.015196102,0.021332871,0.0,0.99991363,-0.0010981971,0.007586692,0.01067365,0.5362356,-1.0,1,0,0,0,0,0,0
1731484474,0.00083990546,0.012467141,0.021332871,0.0,0.9999236,0.00035343235,0.0062376535,0.010663408,0.53936434,-1.0,1,0,0,0,0,0,0
1731588357,0.0052729514,0.012859058,0.021332871,0.0,0.9999192,0.00256769,0.0064572166,0.010649025,0.53449976,-1.0,1,0,0,0,0,0,0
1731689157,0.010445591,0.013032579,0.021332871,0.0,0.9999086,0.0051528616,0.00657149,0.010631831,0.5366713,-1.0,1,0,0,0,0,0,0
1731788820,-0.0033166488,0.014001362,0.021332871,0.0,0.99991715,-0.0017328586,0.0069825277,0.010677565,0.53648573,-1.0,1,0,0,0,0,0,0
1731889329,0.006826483,0.014052424,0.021332871,0.0,0.99991286,0.0033380142,0.007062118,0.010641929,0.5377589,-1.0,1,0,0,0,0,0,0
1731994553,0.0054902923,0.009138897,0.021332871,0.0,0.9999291,0.0026962194,0.004598435,0.010653538,0.5365458,-1.0,1,0,0,0,0,0,0
1732097974,0.005938623,0.01319111,0.021332871,0.0,0.99991715,0.0028987245,0.006626773,0.010646371,0.5338535,-1.0,1,0,0,0,0,0,0
1732198656,0.0146571845,0.0072307535,0.021332871,0.0,0.99991006,0.0072895004,0.0036932335,0.010639383,0.53497756,-1.0,1,0,0,0,0,0,0
1732298683,-0.00019131166,0.002032606,0.021332871,0.0,0.9999426,-0.00010649047,0.0010152247,0.010666325,0.5386218,-1.0,1,0,0,0,0,0,0
1732402836,0.019629648,0.01003439,0.021332871,0.0,0.9998829,0.009760474,0.005121331,0.010616347,0.5321768,-1.0,1,0,0,0,0,0,0
1732503371,0.0133502735,0.005894451,0.021332871,0.0,0.9999167,0.0066432436,0.0030181855,0.010646276,0.53544974,-1.0,1,0,0,0,0,0,0
1732603753,0.018724032,0.0079684425,0.021332871,0.0,0.99989176,0.009318776,0.004083664,0.010628384,0.5339506,-1.0,1,0,0,0,0,0,0
1732707560,0.011610673,0.012868489,0.021332871,0.0,0.999906,0.0057362258,0.0064956453,0.010628483,0.53589284,-1.0,1,0,0,0,0,0,0
1732807996,0.01851244,0.013736659,0.021332871,0.0,0.9998774,0.009182088,0.006966316,0.010601955,0.53619343,-1.0,1,0,0,0,0,0,0
1732908243,0.022851527,0.0157434,0.021332871,0.0,0.9998478,0.011340556,0.007992521,0.010575274,0.5354946,-1.0,1,0,0,0,0,0,0
1733012360,0.007973632,0.012970747,0.021332871,0.0,0.9999144,0.0039173206,0.0065274304,0.010640071,0.5381862,-1.0,1,0,0,0,0,0,0
1733112657,0.019252582,0.017256023,0.021332871,0.0,0.9998604,0.009533213,0.008729685,0.010582292,0.5324059,-1.0,1,0,0,0,0,0,0
1733213741,0.0257774,0.0121961115,0.021332871,0.0,0.9998423,0.012822333,0.0062346323,0.010586558,0.53331953,-1.0,1,0,0,0,0,0,0
1733313398,0.0307013,0.014008716,0.021332871,0.0,0.999802,0.015274097,0.0071667996,0.010557204,0.52820563,-1.0,1,0,0,0,0,0,0
1733417415,0.014278263,0.016473081,0.021332871,0.0,0.9998843,0.0070505724,0.008311913,0.010606803,0.5333829,-1.0,1,0,0,0,0,0,0
1733517980,0.025072696,0.01311624,0.021332871,0.0,0.9998439,0.012465092,0.0066908943,0.010582958,0.52819556,-1.0,1,0,0,0,0,0,0
1733618593,0.027611684,0.013136703,0.021332871,0.0,0.9998272,0.013734267,0.0067145526,0.010574313,0.5281164,-1.0,1,0,0,0,0,0,0
1733722223,0.023721501,0.009218213,0.021332871,0.0,0.99986273,0.011810512,0.004735009,0.010610706,0.5291454,-1.0,1,0,0,0,0,0,0
1733823252,0.035745732,0.013201645,0.021332871,0.0,0.9997629,0.017800111,0.006789966,0.010546334,0.5278558,-1.0,1,0,0,0,0,0,0
1733923249,0.020998573,0.0132564865,0.021332871,0.0,0.9998668,0.010427572,0.006739436,0.010595825,0.5285202,-1.0,1,0,0,0,0,0,0
1734024268,0.026450858,0.02085032,0.021332871,0.0,0.99980277,0.013112387,0.010564521,0.010526858,0.52755296,-1.0,1,0,0,0,0,0,0
1734127606,0.021026356,0.021283949,0.021332871,0.0,0.9998324,0.01039829,0.010752708,0.010553168,0.5283315,-1.0,1,0,0,0,0,0,0
1734228496,0.028103894,0.027296575,0.021332871,0.0,0.99975324,0.013903822,0.013795604,0.010472424,0.5293775,-1.0,1,0,0,0,0,0,0
1734332133,0.01762267,0.027562622,0.021332871,0.0,0.99981064,0.0086629,0.013873529,0.010543387,0.5299826,-1.0,1,0,0,0,0,0,0
1734436788,0.015189087,0.025747621,0.021332871,0.0,0.99983245,0.007456101,0.012953349,0.0105672795,0.53068113,-1.0,1,0,0,0,0,0,0
1734541292,0.012160694,0.024041176,0.021332871,0.0,0.9998532,0.0059513166,0.012084242,0.010592182,0.5329769,-1.0,1,0,0,0,0,0,0
1734640554,0.014584609,0.018805427,0.021332871,0.0,0.9998731,0.0071912156,0.009479567,0.010596916,0.53305584,-1.0,1,0,0,0,0,0,0
1734744889,0.009522366,0.029082976,0.021332871,0.0,0.9998268,0.0046052956,0.014590762,0.010595756,0.5330688,-1.0,1,0,0,0,0,0,0
1734845887,0.004435618,0.026044052,0.021332871,0.0,0.9998562,0.0020786012,0.013044539,0.010636425,0.534877,-1.0,1,0,0,0,0,0,0
1734945717,0.010649854,0.033551857,0.021332871,0.0,0.99978924,0.005144924,0.016830735,0.01057526,0.5328469,-1.0,1,0,0,0,0,0,0
1735046449,0.002857943,0.028338842,0.021332871,0.0,0.9998419,0.0012776171,0.014183367,0.010644904,0.53408617,-1.0,1,0,0,0,0,0,0
1735150205,0.009466662,0.030626575,0.021332871,0.0,0.99981546,0.0045691626,0.015362127,0.010592386,0.5342066,-1.0,1,0,0,0,0,0,0
1735251203,-0.004737505,0.027972957,0.021332871,0.0,0.99984217,-0.0025175614,0.013959925,0.010698288,0.5406336,-1.0,1,0,0,0,0,0,0
1735350199,-0.003852602,0.031598024,0.021332871,0.0,0.9998162,-0.002094458,0.015776882,0.010695313,0.53937143,-1.0,1,0,0,0,0,0,0
1735455690,0.0061321226,0.030790547,0.021332871,0.0,0.9998205,0.0029013164,0.015426415,0.01061772,0.5333063,-1.0,1,0,0,0,0,0,0
1735560037,0.0076892828,0.03542069,0.021332871,0.0,0.99977964,0.0036549189,0.017749282,0.010596398,0.5373683,-1.0,1,0,0,0,0,0,0
1735659815,0.015210361,0.026712285,0.021332871,0.0,0.99982613,0.007461545,0.013435711,0.010563406,0.53485984,-1.0,1,0,0,0,0,0,0
1735760524,0.011835878,0.028566992,0.021332871,0.0,0.9998245,0.0057646204,0.014345063,0.010580436,0.53380406,-1.0,1,0,0,0,0,0,0
1735864545,0.0061942707,0.018211037,0.021332871,0.0,0.9998972,0.002999706,0.009137864,0.010637541,0.5357938,-1.0,1,0,0,0,0,0,0
1735964820,0.0052004857,0.020899333,0.021332871,0.0,0.9998855,0.002488494,0.01047658,0.010638445,0.53427064,-1.0,1,0,0,0,0,0,0
1736065375,0.0010721385,0.015931064,0.021332871,0.0,0.9999113,0.0004510605,0.007970711,0.0106616225,0.5351952,-1.0,1,0,0,0,0,0,0
1736169870,0.01116235,0.008141019,0.021332871,0.0,0.99991953,0.005537366,0.0041297325,0.010643262,0.53643626,-1.0,1,0,0,0,0,0,0
1736273847,0.008986575,0.0028851097,0.021332871,0.0,0.99993205,0.0044776252,0.001490384,0.010659633,0.5327042,-1.0,1,0,0,0,0,0,0
1736373605,0.0046859793,-0.0023749964,0.021332871,0.0,0.9999396,0.0023555188,-0.0011624362,0.01066898,0.5359665,-1.0,1,0,0,0,0,0,0
1736475437,0.004209383,-0.00037338433,0.021332871,0.0,0.9999409,0.002106561,-0.00016423201,0.010666602,0.53400755,-1.0,1,0,0,0,0,0,0
1736578694,0.016254282,-0.0049743084,0.021332871,0.0,0.9999068,0.008153092,-0.0024002434,0.01068606,0.530558,-1.0,1,0,0,0,0,0,0
1736682717,0.011103767,-0.011784642,0.021332871,0.0,0.99991,0.0056142905,-0.005832644,0.010698594,0.53266996,-1.0,1,0,0,0,0,0,0
1736783338,0.005944048,-0.0037531033,0.021332871,0.0,0.9999369,0.0029918607,-0.0018447354,0.010671744,0.5317422,-1.0,1,0,0,0,0,0,0
1736883745,0.010989014,-0.010804316,0.021332871,0.0,0.99991316,0.005551706,-0.005343138,0.010695597,0.5341314,-1.0,1,0,0,0,0,0,0
1736987671,0.028864032,-0.0022839592,0.021332871,0.0,0.9998382,0.014442865,-0.0009878656,0.010681594,0.5312851,-1.0,1,0,0,0,0,0,0
1737087784,0.029990103,-0.008021524,0.021332871,0.0,0.999822,0.01503629,-0.003850139,0.010725082,0.528806,-1.0,1,0,0,0,0,0,0
1737188650,0.02618747,-0.0036044198,0.021332871,0.0,0.9998555,0.013111817,-0.0016622952,0.010688896,0.52490675,-1.0,1,0,0,0,0,0,0
1737292509,0.018016756,-0.005149931,0.021332871,0.0,0.99989897,0.009035179,-0.002478628,0.010688961,0.52494335,-1.0,1,0,0,0,0,0,0
1737393733,0.014820228,-0.0074372133,0.021332871,0.0,0.99990845,0.0074492358,-0.003639248,0.010693419,0.52275395,-1.0,1,0,0,0,0,0,0
1737492538,0.010173724,-0.008679356,0.021332871,0.0,0.99992055,0.0051327897,-0.004285105,0.010688068,0.5241016,-1.0,1,0,0,0,0,0,0
1737596997,0.020928653,-0.0131554045,0.021332871,0.0,0.999866,0.010533469,-0.00646531,0.010734243,0.5261499,-1.0,1,0,0,0,0,0,0
1737697874,0.0027017496,-0.016047128,0.021332871,0.0,0.9999099,0.0014363343,-0.008008606,0.010676718,0.5316993,-1.0,1,0,0,0,0,0,0
1737797390,0.0064305514,-0.020786777,0.021332871,0.0,0.99988365,0.0033257692,-0.010358263,0.010699016,0.53061163,-1.0,1,0,0,0,0,0,0
1737898641,0.015221734,-0.018437812,0.021332871,0.0,0.9998709,0.0077083637,-0.009136809,0.010735629,0.5275737,-1.0,1,0,0,0,0,0,0
1738003726,0.013371892,-0.025750445,0.021332871,0.0,0.999837,0.0068222843,-0.012802538,0.010751186,0.5276347,-1.0,1,0,0,0,0,0,0
1738106821,0.015181104,-0.029773505,0.021332871,0.0,0.9998023,0.0077479808,-0.014803974,0.0107777305,0.5294467,-1.0,1,0,0,0,0,0,0
1738208159,0.0118234735,-0.028799206,0.021332871,0.0,0.99982107,0.006064335,-0.014334986,0.010750058,0.5290997,-1.0,1,0,0,0,0,0,0
1738311451,0.023433143,-0.03041671,0.021332871,0.0,0.999757,0.011876479,-0.015080905,0.010842436,0.5260655,-1.0,1,0,0,0,0,0,0
1738415464,0.032272328,-0.03869223,0.021332871,0.0,0.99962246,0.016337836,-0.019169217,0.010974969,0.5247266,-1.0,1,0,0,0,0,0,0
1738517253,0.037372638,-0.0371745,0.021332871,0.0,0.9995921,0.01887915,-0.01838261,0.011009796,0.5270017,-1.0,1,0,0,0,0,0,0
1738615738,0.038772885,-0.035847664,0.021332871,0.0,0.99959093,0.019572146,-0.017711751,0.011009935,0.52230275,-1.0,1,0,0,0,0,0,0
1738717432,0.056214344,-0.03815955,0.021332871,0.0,0.9993605,0.028300175,-0.018770292,0.011196224,0.52310705,-1.0,1,0,0,0,0,0,0
1738821056,0.050638255,-0.043401133,0.021332871,0.0,0.99938136,0.025540393,-0.021420708,0.011209609,0.52207494,-1.0,1,0,0,0,0,0,0
1738920590,0.065730825,-0.039021645,0.021332871,0.0,0.99920607,0.033059355,-0.019147519,0.011299482,0.5179199,-1.0,1,0,0,0,0,0,0
1739024881,0.07396811,-0.042059794,0.021332871,0.0,0.99903005,0.037189484,-0.020618467,0.011434074,0.51982033,-1.0,1,0,0,0,0,0,0
1739125759,0.06291554,-0.048678707,0.021332871,0.0,0.9991442,0.03170093,-0.023988144,0.011423214,0.521242,-1.0,1,0,0,0,0,0,0
1739225800,0.05653172,-0.050329044,0.021332871,0.0,0.9992196,0.028519819,-0.024849035,0.011369684,0.52237815,-1.0,1,0,0,0,0,0,0
1739326845,0.058182552,-0.04708285,0.021332871,0.0,0.9992358,0.029328424,-0.023217784,0.011343416,0.52124405,-1.0,1,0,0,0,0,0,0
1739430883,0.06378055,-0.0502978,0.021332871,0.0,0.9991101,0.032141052,-0.024792051,0.011459177,0.522046,-1.0,1,0,0,0,0,0,0
1739530518,0.052292734,-0.050476335,0.021332871,0.0,0.999276,0.026402652,-0.024946665,0.011318895,0.5239282,-1.0,1,0,0,0,0,0,0
1739631589,0.06408814,-0.05022724,0.021332871,0.0,0.99910605,0.03229437,-0.02475504,0.011461871,0.5235715,-1.0,1,0,0,0,0,0,0
1739735332,0.06261934,-0.053089812,0.021332871,0.0,0.99909204,0.031574707,-0.026193487,0.01148808,0.5233876,-1.0,1,0,0,0,0,0,0
1739834941,0.040428277,-0.05123181,0.021332871,0.0,0.9994053,0.02047812,-0.025390891,0.011178237,0.5243979,-1.0,1,0,0,0,0,0,0
1739936177,0.04076615,-0.042374976,0.021332871,0.0,0.9995064,0.020601857,-0.020962952,0.011093403,0.52024746,-1.0,1,0,0,0,0,0,0
1740040513,0.04850315,-0.047618918,0.021332871,0.0,0.9993596,0.024494803,-0.02354028,0.011237346,0.51989824,-1.0,1,0,0,0,0,0,0
1740144482,0.0498815,-0.04672312,0.021332871,0.0,0.9993531,0.025179023,-0.023084918,0.0112425145,0.5237331,-1.0,1,0,0,0,0,0,0
1740244601,0.03647597,-0.03885587,0.021332871,0.0,0.9995844,0.018439675,-0.019227894,0.011016712,0.5233847,-1.0,1,0,0,0,0,0,0
1740345417,0.05713898,-0.038696185,0.021332871,0.0,0.9993421,0.028764905,-0.019033259,0.011212508,0.5236832,-1.0,1,0,0,0,0,0,0
1740449050,0.043185618,-0.040411275,0.021332871,0.0,0.9995013,0.02180095,-0.019968156,0.011097777,0.5233528,-1.0,1,0,0,0,0,0,0
1740549655,0.04751665,-0.03498621,0.021332871,0.0,0.99950355,0.02393763,-0.017232932,0.011077114,0.5270474,-1.0,1,0,0,0,0,0,0
1740649895,0.050110955,-0.028960625,0.021332871,0.0,0.9995206,0.0252032,-0.014207246,0.011024506,0.52275866,-1.0,1,0,0,0,0,0,0
1740754892,0.05095628,-0.036206137,0.021332871,0.0,0.99944985,0.025662778,-0.017823495,0.011122157,0.5243678,-1.0,1,0,0,0,0,0,0
1740859614,0.050880846,-0.026815703,0.021332871,0.0,0.9995261,0.025576906,-0.013131048,0.011002857,0.519817,-1.0,1,0,0,0,0,0,0
1741878076,0.053101145,-0.036661934,0.021332871,0.0,0.99941754,0.026736926,-0.018039325,0.011147269,0.514543,-1.0,1,0,0,0,0,0,0
1742796126,0.048302118,-0.051920436,0.021332871,0.0,0.999308,0.024415988,-0.02569077,0.011286328,0.5271568,-1.0,1,0,0,0,0,0,0
1742900103,0.0450892,-0.058330625,0.021332871,0.0,0.99925685,0.022842783,-0.028911766,0.011316322,0.5228592,-1.0,1,0,0,0,0,0,0
1743001278,0.035450935,-0.05515885,0.021332871,0.0,0.9994006,0.018010877,-0.027381046,0.011149243,0.52061754,-1.0,1,0,0,0,0,0,0
1743105265,0.028964901,-0.056486454,0.021332871,0.0,0.9994351,0.014776522,-0.028080497,0.0110698,0.5260834,-1.0,1,0,0,0,0,0,0
1743205030,0.025699439,-0.057486214,0.021332871,0.0,0.9994436,0.013149841,-0.028598147,0.011030205,0.52674377,-1.0,1,0,0,0,0,0,0
1743305837,0.026343334,-0.061652146,0.021332871,0.0,0.9993771,0.013492997,-0.030676343,0.011066172,0.52514213,-1.0,1,0,0,0,0,0,0
1743410160,0.03504788,-0.059384357,0.021332871,0.0,0.99934334,0.017830934,-0.029494748,0.011180087,0.5256945,-1.0,1,0,0,0,0,0,0
1743509432,0.035351723,-0.059296407,0.021332871,0.0,0.9993419,0.01798231,-0.029449102,0.011183804,0.52017045,-1.0,1,0,0,0,0,0,0
1743611574,0.027500888,-0.05592295,0.021332871,0.0,0.99945366,0.014042031,-0.027806997,0.011045455,0.525816,-1.0,1,0,0,0,0,0,0
1743714813,0.018151497,-0.052031454,0.021332871,0.0,0.9995611,0.009349485,-0.025913473,0.010898253,0.52467316,-1.0,1,0,0,0,0,0,0
1743814444,0.030153986,-0.04866226,0.021332871,0.0,0.9995296,0.015330569,-0.02416382,0.011028633,0.52718914,-1.0,1,0,0,0,0,0,0
1743915462,0.016362911,-0.041390494,0.021332871,0.0,0.99969375,0.008399863,-0.020604655,0.010832885,0.529003,-1.0,1,0,0,0,0,0,0
1744019799,0.015215363,-0.04341388,0.021332871,0.0,0.9996769,0.00783689,-0.021622248,0.010828526,0.5302755,-1.0,1,0,0,0,0,0,0
1744123651,0.015746797,-0.03281546,0.021332871,0.0,0.9997762,0.008046806,-0.016321583,0.0107936375,0.5250225,-1.0,1,0,0,0,0,0,0
1744223824,0.01770082,-0.032192476,0.021332871,0.0,0.99977297,0.009020316,-0.015999608,0.010806876,0.52537495,-1.0,1,0,0,0,0,0,0
1744327829,0.017927788,-0.026443841,0.021332871,0.0,0.9998143,0.009103498,-0.013124649,0.010783378,0.52606755,-1.0,1,0,0,0,0,0,0
1744429119,0.018474622,-0.027488407,0.021332871,0.0,0.9998047,0.009382369,-0.013643886,0.010791717,0.52846277,-1.0,1,0,0,0,0,0,0
1744528912,0.008160252,-0.020154212,0.021332871,0.0,0.9998836,0.0041871574,-0.010032762,0.010706716,0.5284563,-1.0,1,0,0,0,0,0,0
1744629401,0.01112788,-0.026775923,0.021332871,0.0,0.9998372,0.005705889,-0.013327252,0.010739596,0.52824867,-1.0,1,0,0,0,0,0,0
1744729567,0.008804806,-0.024383828,0.021332871,0.0,0.99985856,0.004531848,-0.012143847,0.010719007,0.5290629,-1.0,1,0,0,0,0,0,0
1744830027,-0.0012134507,-0.02199841,0.021332871,0.0,0.9998825,-0.00048933644,-0.011004827,0.010658911,0.5279379,-1.0,1,0,0,0,0,0,0
1744929423,0.0077633425,-0.026530942,0.021332871,0.0,0.9998471,0.0040225866,-0.013222828,0.010716703,0.5279016,-1.0,1,0,0,0,0,0,0
1745034439,-0.0021509863,-0.026118288,0.021332871,0.0,0.9998574,-0.0009360522,-0.013069492,0.010651274,0.5316028,-1.0,1,0,0,0,0,0,0
1745134921,-0.0040187673,-0.032309454,0.021332871,0.0,0.999811,-0.0018367034,-0.0161745,0.010632361,0.5299261,-1.0,1,0,0,0,0,0,0
1745234564,-0.009389751,-0.0384433,0.021332871,0.0,0.99974835,-0.004488716,-0.019269228,0.010573914,0.5344275,-1.0,1,0,0,0,0,0,0
1745339240,-0.0021390067,-0.03393045,0.021332871,0.0,0.99979883,-0.00088834215,-0.016974842,0.01064655,0.5289659,-1.0,1,0,0,0,0,0,0
1745439688,-0.007628679,-0.03628518,0.021332871,0.0,0.9997721,-0.003619984,-0.018181108,0.010595204,0.531126,-1.0,1,0,0,0,0,0,0
1745539247,-0.008807868,-0.034687452,0.021332871,0.0,0.9997839,-0.004218026,-0.017388666,0.010588153,0.5295363,-1.0,1,0,0,0,0,0,0
1745643873,0.0073752156,-0.032569427,0.021332871,0.0,0.9998031,0.0038605884,-0.016243627,0.010724791,0.5279906,-1.0,1,0,0,0,0,0,0
1745744667,-0.007620365,-0.032344837,0.021332871,0.0,0.99980575,-0.0036369683,-0.01621131,0.010603147,0.53045124,-1.0,1,0,0,0,0,0,0
1745844154,-0.0050307163,-0.02577962,0.021332871,0.0,0.99985725,-0.002377522,-0.012915506,0.010632894,0.5332145,-1.0,1,0,0,0,0,0,0
1745949835,-0.006516471,-0.030506106,0.021332871,0.0,0.999822,-0.0030949793,-0.015286261,0.010615243,0.53548187,-1.0,1,0,0,0,0,0,0
1746054165,-0.009235125,-0.020787677,0.021332871,0.0,0.99987894,-0.0045061745,-0.010442199,0.010617553,0.5355962,-1.0,1,0,0,0,0,0,0
1746158090,-0.021058684,-0.02510257,0.021332871,0.0,0.99981034,-0.010393856,-0.012661844,0.010532659,0.5412767,-1.0,1,0,0,0,0,0,0
1746257596,-0.01260956,-0.017185125,0.021332871,0.0,0.99988693,-0.0062125004,-0.008659044,0.010611457,0.534702,-1.0,1,0,0,0,0,0,0
1746358732,-0.010689825,-0.02958277,0.021332871,0.0,0.9998203,-0.0051862383,-0.014846797,0.010585863,0.53928316,-1.0,1,0,0,0,0,0,0
1746459834,-0.0032983941,-0.023623455,0.021332871,0.0,0.9998722,-0.0015230039,-0.011828354,0.010645997,0.5336345,-1.0,1,0,0,0,0,0,0
1746562832,-0.01725274,-0.02627784,0.021332871,0.0,0.9998208,-0.008484894,-0.013229308,0.010551585,0.5348599,-1.0,1,0,0,0,0,0,0
1746662188,-0.018755076,-0.022457791,0.021332871,0.0,0.9998372,-0.009256514,-0.011327544,0.010559803,0.5339316,-1.0,1,0,0,0,0,0,0
1746766952,-0.00012565267,-0.027713548,0.021332871,0.0,0.9998471,8.4978106e-05,-0.013856213,0.010664338,0.5364747,-1.0,1,0,0,0,0,0,0
1746867804,-0.008423221,-0.025249902,0.021332871,0.0,0.9998551,-0.0040763677,-0.012668705,0.010612123,0.5413196,-1.0,1,0,0,0,0,0,0
1746967204,-0.0021780084,-0.017220233,0.021332871,0.0,0.9999055,-0.0009970655,-0.008621131,0.0106564555,0.53811854,-1.0,1,0,0,0,0,0,0
1747068546,0.00565085,-0.023805503,0.021332871,0.0,0.999868,0.002952014,-0.011871611,0.010699064,0.5400898,-1.0,1,0,0,0,0,0,0
1747172412,-0.0059039155,-0.017243253,0.021332871,0.0,0.9999019,-0.002859717,-0.008652476,0.010640341,0.53756654,-1.0,1,0,0,0,0,0,0
1747272024,0.012142431,-0.016407985,0.021332871,0.0,0.9998905,0.0061581326,-0.008138529,0.010715482,0.5359621,-1.0,1,0,0,0,0,0,0
1747372553,0.017596958,-0.0093426285,0.021332871,0.0,0.99989307,0.008847593,-0.0045770067,0.010706801,0.53488016,-1.0,1,0,0,0,0,0,0
1747476796,0.023184458,-0.015683984,0.021332871,0.0,0.9998442,0.011674592,-0.0077173,0.0107560875,0.53652805,-1.0,1,0,0,0,0,0,0
1747577411,0.021858662,-0.008618232,0.021332871,0.0,0.9998736,0.010974351,-0.004192029,0.010712589,0.53263813,-1.0,1,0,0,0,0,0,0
1747677585,0.03229514,-0.0080834525,0.021332871,0.0,0.9998039,0.01618892,-0.003868733,0.010730012,0.53189665,-1.0,1,0,0,0,0,0,0
1747781574,0.03781707,-0.006785241,0.021332871,0.0,0.9997579,0.018942403,-0.003190145,0.010728405,0.53761125,-1.0,1,0,0,0,0,0,0
1747882807,0.03498504,-0.008988928,0.021332871,0.0,0.9997792,0.017538384,-0.0043069376,0.010743104,0.53783566,-1.0,1,0,0,0,0,0,0
1747982391,0.033116147,-0.003866582,0.021332871,0.0,0.9998039,0.01657696,-0.0017563107,0.010696759,0.5400785,-1.0,1,0,0,0,0,0,0
1748084278,0.03423521,-0.0021044798,0.021332871,0.0,0.99979585,0.01712701,-0.00086945435,0.010682674,0.5388225,-1.0,1,0,0,0,0,0,0
1748187559,0.048765376,-0.0054852073,0.021332871,0.0,0.99964136,0.024408039,-0.0024815847,0.010729884,0.537404,-1.0,1,0,0,0,0,0,0
1748287021,0.050574824,-0.0014170998,0.021332871,0.0,0.999623,0.025290826,-0.00043859048,0.010680735,0.53917134,-1.0,1,0,0,0,0,0,0
1748388577,0.05175141,-0.0014884089,0.021332871,0.0,0.9996079,0.02587927,-0.0004679475,0.010681912,0.5359087,-1.0,1,0,0,0,0,0,0
1748492354,0.03178941,-0.0016052885,0.021332871,0.0,0.99981636,0.015901688,-0.0006329677,0.01067764,0.5387027,-1.0,1,0,0,0,0,0,0
1748592033,0.037868135,0.0021950423,0.021332871,0.0,0.9997635,0.018920142,0.0012992047,0.010643535,0.53520983,-1.0,1,0,0,0,0,0,0
1748696116,0.034574524,-0.004520055,0.021332871,0.0,0.9997907,0.017309476,-0.002075179,0.010703677,0.53775793,-1.0,1,0,0,0,0,0,0
1748796590,0.027572729,-0.0017147649,0.021332871,0.0,0.9998476,0.013794282,-0.00071020826,0.010677035,0.5361059,-1.0,1,0,0,0,0,0,0
1748896947,0.035296004,-0.0014060929,0.021332871,0.0,0.99978703,0.017653579,-0.00051466905,0.010676976,0.5344061,-1.0,1,0,0,0,0,0,0
1748997401,0.019980568,-0.005057108,0.021332871,0.0,0.99988973,0.010016486,-0.0024217248,0.010690926,0.5419491,-1.0,1,0,0,0,0,0,0
1749101668,0.024491752,-0.0063354913,0.021332871,0.0,0.9998627,0.012278598,-0.0030367093,0.010704168,0.538083,-1.0,1,0,0,0,0,0,0
1749202683,0.018748486,-0.0023837574,0.021332871,0.0,0.9998984,0.009386279,-0.001091772,0.010676929,0.5407514,-1.0,1,0,0,0,0,0,0
1749302230,0.016151069,-0.0068789013,0.021332871,0.0,0.9999043,0.008111624,-0.0033530018,0.010693594,0.5413452,-1.0,1,0,0,0,0,0,0
1749403351,0.009001619,-0.010938099,0.021332871,0.0,0.99991775,0.004558804,-0.00542065,0.010690579,0.5416759,-1.0,1,0,0,0,0,0,0
1749506649,0.009205049,-0.016146006,0.021332871,0.0,0.99989957,0.0046882033,-0.008023281,0.010702928,0.5404202,-1.0,1,0,0,0,0,0,0
1749607032,0.0067029865,-0.009034332,0.021332871,0.0,0.99992716,0.0033994426,-0.0044811205,0.010681202,0.53848743,-1.0,1,0,0,0,0,0,0
1749707724,0.018556334,-0.020578247,0.021332871,0.0,0.9998461,0.009386755,-0.010188956,0.010760665,0.5379227,-1.0,1,0,0,0,0,0,0
1749811674,0.004706784,-0.018758785,0.021332871,0.0,0.99989617,0.0024531935,-0.009353594,0.010687807,0.53825766,-1.0,1,0,0,0,0,0,0
1749912362,0.014799145,-0.023307884,0.021332871,0.0,0.99984694,0.0075228782,-0.011573776,0.010751444,0.53976387,-1.0,1,0,0,0,0,0,0
1750012203,0.018456468,-0.020769756,0.021332871,0.0,0.99984556,0.0093378415,-0.010285236,0.010761029,0.5393743,-1.0,1,0,0,0,0,0,0
1750116598,0.016707268,-0.028458573,0.021332871,0.0,0.99980575,0.008503978,-0.014138409,0.010783635,0.5363177,-1.0,1,0,0,0,0,0,0
1750217139,0.0112269325,-0.020712072,0.021332871,0.0,0.99987316,0.0057232725,-0.010295227,0.010723621,0.53246814,-1.0,1,0,0,0,0,0,0
1750316876,0.020757833,-0.01894394,0.021332871,0.0,0.99984336,0.010478698,-0.009360082,0.010763478,0.5315673,-1.0,1,0,0,0,0,0,0
1750417815,0.029482799,-0.022008674,0.021332871,0.0,0.9997722,0.014856492,-0.010845072,0.010826629,0.5272665,-1.0,1,0,0,0,0,0,0
1750522010,0.011847767,-0.016411308,0.021332871,0.0,0.9998914,0.006010833,-0.008141768,0.010714292,0.53057283,-1.0,1,0,0,0,0,0,0
1750621642,0.024370784,-0.015590932,0.021332871,0.0,0.9998375,0.012267167,-0.0076643997,0.010760098,0.529342,-1.0,1,0,0,0,0,0,0
1750722604,0.027758785,-0.024168564,0.021332871,0.0,0.999772,0.014006023,-0.011934113,0.010832129,0.5284359,-1.0,1,0,0,0,0,0,0
1750826736,0.018754324,-0.016076624,0.021332871,0.0,0.99986607,0.0094619235,-0.0079374015,0.0107407905,0.5288511,-1.0,1,0,0,0,0,0,0
1750926104,0.01675673,-0.015704626,0.021332871,0.0,0.9998765,0.0084612835,-0.007762148,0.010731313,0.5293714,-1.0,1,0,0,0,0,0,0
1751027730,0.020767935,-0.014970294,0.021332871,0.0,0.99986035,0.010462733,-0.007373496,0.010743077,0.5267065,-1.0,1,0,0,0,0,0,0
1751131596,0.021828165,-0.009837575,0.021332871,0.0,0.9998709,0.010965576,-0.004801787,0.010719148,0.5309335,-1.0,1,0,0,0,0,0,0
1751231202,0.005303974,-0.008024125,0.021332871,0.0,0.99993145,0.0026946045,-0.0039835228,0.010676749,0.529992,-1.0,1,0,0,0,0,0,0
1751332069,0.01932711,-0.00838382,0.021332871,0.0,0.9998872,0.00970748,-0.0040883925,0.010706145,0.52884305,-1.0,1,0,0,0,0,0,0
1751435810,0.0068887174,-0.004783439,0.021332871,0.0,0.99993426,0.003469657,-0.0023548289,0.010674378,0.5349118,-1.0,1,0,0,0,0,0,0
1751536498,0.01961035,-0.0035903093,0.021332871,0.0,0.99989325,0.009823592,-0.001690383,0.010683303,0.53117394,-1.0,1,0,0,0,0,0,0
1751636619,0.025832683,-0.0024870364,0.021332871,0.0,0.9998588,0.012928502,-0.0011055786,0.010681396,0.53049505,-1.0,1,0,0,0,0,0,0
1751740609,0.0056751054,0.004840199,0.021332871,0.0,0.9999363,0.002811566,0.0024502154,0.010659292,0.5330768,-1.0,1,0,0,0,0,0,0
1751841239,0.0076115616,0.00330309,0.021332871,0.0,0.99993455,0.0037879345,0.0016920315,0.010659856,0.5307443,-1.0,1,0,0,0,0,0,0
1751941674,0.010845225,0.0020711524,0.021332871,0.0,0.99992794,0.005411229,0.0010933405,0.010660455,0.5363179,-1.0,1,0,0,0,0,0,0
1752041907,0.006041941,0.0086094495,0.021332871,0.0,0.9999294,0.002974851,0.0043366686,0.010653081,0.5368385,-1.0,1,0,0,0,0,0,0
1752146420,-0.006865626,0.0032715376,0.021332871,0.0,0.9999358,-0.0034500542,0.0015990505,0.010671772,0.53808576,-1.0,1,0,0,0,0,0,0
1752246685,-0.0064648516,0.012499104,0.021332871,0.0,0.99991816,-0.0032988316,0.006214646,0.01068617,0.5362169,-1.0,1,0,0,0,0,0,0
1752346232,0.0012324846,0.008460918,0.021332871,0.0,0.999934,0.00057107874,0.0042367787,0.01066353,0.53050166,-1.0,1,0,0,0,0,0,0
1752451018,-0.009678364,0.0045067854,0.021332871,0.0,0.9999288,-0.00486291,0.0022016207,0.010676986,0.5141182,-1.0,1,0,0,0,0,0,0
1752551824,-0.01381996,0.009900433,0.021332871,0.0,0.9999066,-0.0069622463,0.0048760953,0.010700052,0.49832886,-1.0,1,0,0,0,0,0,0
1752651292,-0.0038508382,0.0109999,0.021332871,0.0,0.99992603,-0.0019839427,0.0054790634,0.010676643,0.49348354,-1.0,1,0,0,0,0,0,0
1752752513,-0.009702401,0.006129628,0.021332871,0.0,0.9999265,-0.0048835725,0.0030128555,0.010680924,0.4902422,-1.0,1,0,0,0,0,0,0
1752856229,-0.0034353829,0.006746464,0.021332871,0.0,0.99993587,-0.0017535626,0.0033547075,0.010671952,0.4909601,-1.0,1,0,0,0,0,0,0
1752956023,0.16920781,0.4041455,0.021332871,0.0,0.976274,0.08064583,0.2008541,-0.006546987,0.49410808,1.0,1,0,0,0,0,0,0
1753057127,0.17199394,0.40302143,0.021332871,0.0,0.97627246,0.08202131,0.20029634,-0.006778301,0.5244236,1.0,1,0,0,0,0,0,0
1753161295,0.1709714,0.40343663,0.021332871,0.0,0.97627306,0.08151642,0.20050234,-0.0066936947,0.5486608,1.0,1,0,0,0,0,0,0
1753261898,0.16865957,0.40436402,0.021332871,0.0,0.97627443,0.080375224,0.2009625,-0.006501177,0.56037784,1.0,1,0,0,0,0,0,0
1753362220,0.25316915,-0.120237954,0.81772196,0.0,0.9055726,0.13932717,-0.004588737,0.400631,0.52363795,1.0,1,0,0,0,0,0,0
1753469891,0.19786747,-0.1496782,0.8165891,0.0,0.9078226,0.11994106,-0.029180326,0.40077522,0.49556857,1.0,1,0,0,0,0,0,0
1753570774,0.17518912,-0.15441623,0.815826,0.0,0.90903044,0.11054577,-0.03593093,0.40019026,0.50006586,1.0,1,0,0,0,0,0,0
1753670692,0.1354204,-0.15390368,0.815826,0.0,0.9110737,0.0923497,-0.04364629,0.39938867,0.5226794,1.0,1,0,0,0,0,0,0
1753774586,0.11002614,-0.15500155,0.8113606,0.0,0.9130101,0.08087912,-0.049396984,0.39677578,0.52818274,1.0,1,0,0,0,0,0,0
1753875442,0.09457037,-0.12839119,0.80890095,0.0,0.91520643,0.06858073,-0.04034766,0.39505178,0.5360874,1.0,1,0,0,0,0,0,0
1753979514,0.073233984,-0.109075375,0.80628246,0.0,0.917067,0.054994658,-0.035766467,0.39329937,0.5291212,1.0,1,0,0,0,0,0,0
1754079817,0.080655895,-0.09542378,0.80211914,0.0,0.9181018,0.055679772,-0.028151875,0.39140302,0.5205907,1.0,1,0,0,0,0,0,0
1754180245,0.06742571,-0.0844149,0.80211914,0.0,0.91875,0.047467437,-0.025677504,0.3911341,0.5166141,1.0,1,0,0,0,0,0,0
1754284196,0.07737255,-0.07019496,0.7968735,0.0,0.9198853,0.04922914,-0.017320964,0.38869983,0.50096935,1.0,1,0,0,0,0,0,0
1754384413,0.067012064,-0.06271128,0.79394317,0.0,0.92085934,0.042993657,-0.015950786,0.3871888,0.5008351,1.0,1,0,0,0,0,0,0
1754485307,0.07404223,-0.0595309,0.79394317,0.0,0.9207701,0.045617837,-0.013124151,0.387207,0.4947352,1.0,1,0,0,0,0,0,0
1754589033,0.07906379,-0.054664608,0.78805923,0.0,0.9218889,0.046963114,-0.010047798,0.38446644,0.49061042,1.0,1,0,0,0,0,0,0
1754693819,0.09563048,-0.050801527,0.78491384,0.0,0.9221541,0.053851496,-0.0051657143,0.38302103,0.48844844,1.0,1,0,0,0,0,0,0
1754794071,0.10099744,-0.052341677,0.7812578,0.0,0.92267185,0.056610044,-0.0049521285,0.38137573,0.48624164,1.0,1,0,0,0,0,0,0
1754902035,0.089110024,-0.052255053,0.7782167,0.0,0.92357254,0.051097587,-0.0072565046,0.37993437,0.48800635,1.0,1,0,0,0,0,0,0
1755002852,0.08646412,-0.051663704,0.77661675,0.0,0.92395496,0.049757976,-0.0075255916,0.37917647,0.49799675,1.0,1,0,0,0,0,0,0
1755106828,0.10964324,-0.055267382,0.77661675,0.0,0.92323434,0.06114114,-0.004796286,0.3793114,0.49427688,1.0,1,0,0,0,0,0,0
1755206844,0.096128754,-0.05803849,0.7686501,0.0,0.9250685,0.055388447,-0.00886108,0.37563524,0.49874496,1.0,1,0,0,0,0,0,0
1755311289,0.090161204,-0.063181855,0.76548886,0.0,0.92570674,0.053567942,-0.012448416,0.37422255,0.50227463,1.0,1,0,0,0,0,0,0
1755411793,0.089539275,-0.055849206,0.7638466,0.0,0.92619264,0.051909782,-0.009209464,0.37334687,0.4976529,1.0,1,0,0,0,0,0,0
1755512128,0.10714305,-0.057997253,0.75810397,0.0,0.9267186,0.06043783,-0.007091975,0.37079597,0.49967983,1.0,1,0,0,0,0,0,0
1755616115,0.088398784,-0.05714493,0.756433,0.0,0.927572,0.05158449,-0.0102143,0.3699255,0.5021362,1.0,1,0,0,0,0,0,0
1755716633,0.08380669,-0.11410856,0.756433,0.0,0.926116,0.05990523,-0.03750299,0.37055904,0.4990182,1.0,1,0,0,0,0,0,0
1755820597,0.045710497,-0.24318297,0.7495825,0.0,0.92245746,0.06550066,-0.104538694,0.36586004,0.5019548,1.0,1,0,0,0,0,0,0
1755921255,0.008593273,-0.3079938,0.74645245,0.0,0.91988766,0.059881855,-0.1412796,0.36091685,0.5099032,1.0,1,0,0,0,0,0,0
1756025422,-0.027586237,-0.33636308,0.74645245,0.0,0.91877246,0.048366174,-0.16080932,0.3572929,0.5099522,1.0,1,0,0,0,0,0,0
1756125713,-0.07082986,-0.3428319,0.738285,0.0,0.92057157,0.028970145,-0.17157571,0.34967196,0.5116562,1.0,1,0,0,0,0,0,0
1756227556,-0.0941236,-0.35479748,0.73511046,0.0,0.92052907,0.02012828,-0.18114015,0.34555662,0.5106675,1.0,1,0,0,0,0,0,0
1756329975,-0.10810394,-0.34014568,0.73511046,0.0,0.9216873,0.0110403085,-0.17685196,0.34510013,0.50976175,1.0,1,0,0,0,0,0,0
1756430580,-0.10615207,-0.31627885,0.73511046,0.0,0.9232684,0.007618788,-0.16558105,0.34655496,0.5093624,1.0,1,0,0,0,0,0,0
1756530970,-0.137396,-0.30005926,0.7272155,0.0,0.9255901,-0.01040286,-0.16350459,0.34123465,0.5067468,1.0,1,0,0,0,0,0,0
1756630592,-0.12945656,-0.27597794,0.7246327,0.0,0.92740405,-0.01125703,-0.15106048,0.3420172,0.50723034,1.0,1,0,0,0,0,0,0
1756735306,-0.11889108,-0.25283867,0.7214862,0.0,0.92917264,-0.010718157,-0.1385619,0.3425258,0.5060316,1.0,1,0,0,0,0,0,0
1756839757,-0.12939724,-0.22738703,0.71946794,0.0,0.930584,-0.020271106,-0.1285775,0.34215537,0.52081615,1.0,1,0,0,0,0,0,0
1756939518,-0.1093621,-0.20218542,0.71841997,0.0,0.931942,-0.015480214,-0.11345275,0.34405363,0.5208898,1.0,1,0,0,0,0,0,0
1757044172,-0.12121337,-0.18316437,0.7176181,0.0,0.9326252,-0.024418551,-0.10665324,0.34385917,0.5280225,1.0,1,0,0,0,0,0,0
1757144888,-0.11050116,-0.16421808,0.714329,0.0,0.93389416,-0.022932298,-0.09596543,0.34366617,0.5368104,1.0,1,0,0,0,0,0,0
1757250043,-0.11583717,-0.14586733,0.71371526,0.0,0.93441474,-0.028682368,-0.088331446,0.34386632,0.54326785,1.0,1,0,0,0,0,0,0
1757357380,-0.08534948,-0.13415433,0.7122424,0.0,0.93529403,-0.016548032,-0.077604376,0.3448606,0.53508645,1.0,1,0,0,0,0,0,0
1757457676,-0.10305113,-0.12837271,0.71130246,0.0,0.93539834,-0.025875542,-0.077944845,0.34392595,0.5353987,1.0,1,0,0,0,0,0,0
1757563509,-0.11167811,-0.12199256,0.710488,0.0,0.9355429,-0.031058565,-0.07643893,0.34344155,0.5339105,1.0,1,0,0,0,0,0,0
1757666978,-0.08779981,-0.11699612,0.7098499,0.0,0.93605846,-0.020782048,-0.069993034,0.34418538,0.53152436,1.0,1,0,0,0,0,0,0
1757770720,-0.08292536,-0.113795355,0.7093653,0.0,0.93625325,-0.019075347,-0.06765384,0.34422234,0.53309315,1.0,1,0,0,0,0,0,0
1757870708,-0.08617133,-0.11522025,0.70891345,0.0,0.93627113,-0.020361967,-0.0688736,0.34385768,0.5325051,1.0,1,0,0,0,0,0,0
1757974618,-0.06932019,-0.112178326,0.7086699,0.0,0.9365142,-0.013010114,-0.06455018,0.34439105,0.5281917,1.0,1,0,0,0,0,0,0
1758074991,-0.064031124,-0.10521517,0.7086114,0.0,0.936694,-0.011746469,-0.06038217,0.3447031,0.52848965,1.0,1,0,0,0,0,0,0
1758179383,-0.050482936,-0.10562312,0.7085185,0.0,0.9367599,-0.0053327936,-0.058236383,0.34505218,0.5248184,1.0,1,0,0,0,0,0,0
1758279658,-0.05939521,-0.111159176,0.70856035,0.0,0.9366075,-0.008543191,-0.062363222,0.3446799,0.5311984,1.0,1,0,0,0,0,0,0
1758383610,-0.05263715,-0.10943628,0.7086828,0.0,0.9366466,-0.005674093,-0.060392525,0.34498364,0.531375,1.0,1,0,0,0,0,0,0
1758484184,-0.041759428,-0.11015299,0.70890874,0.0,0.93660873,-0.00044858284,-0.058850747,0.34539896,0.52457225,1.0,1,0,0,0,0,0,0
1758584476,-0.03185306,-0.109138176,0.7091809,0.0,0.9365757,0.0040220665,-0.05666372,0.34583092,0.52677065,1.0,1,0,0,0,0,0,0
1758685279,-0.033052363,-0.11202632,0.7091809,0.0,0.9365114,0.0039622406,-0.058222607,0.34574685,0.52458256,1.0,1,0,0,0,0,0,0
1758785731,-0.009954753,-0.111264825,0.7099402,0.0,0.93629086,0.014665688,-0.05386383,0.34676084,0.5237494,1.0,1,0,0,0,0,0,0
1758884977,-0.0057532187,-0.11695235,0.71037394,0.0,0.93603355,0.017631892,-0.055793386,0.34701222,0.52295095,1.0,1,0,0,0,0,0,0
1758989723,0.0009079131,-0.112276845,0.71057695,0.0,0.9360603,0.019943038,-0.052447055,0.34733674,0.52004886,1.0,1,0,0,0,0,0,0
1759089991,0.0032253156,-0.12227163,0.7111787,0.0,0.9356546,0.022779664,-0.056715097,0.34758446,0.5153895,1.0,1,0,0,0,0,0,0
1759189888,0.007803569,-0.122082494,0.7117151,0.0,0.9355123,0.024903562,-0.055824105,0.3479659,0.52074414,1.0,1,0,0,0,0,0,0
1759290800,0.009834949,-0.11582843,0.7119742,0.0,0.93562096,0.024773905,-0.05254123,0.34819406,0.5169256,1.0,1,0,0,0,0,0,0
1759394851,0.032890566,-0.12445431,0.7130826,0.0,0.9348125,0.037083033,-0.052539546,0.3492708,0.5190429,1.0,1,0,0,0,0,0,0
1759494577,0.028950186,-0.12543733,0.7136496,0.0,0.9347535,0.035427198,-0.053677335,0.34942752,0.51923686,1.0,1,0,0,0,0,0,0
1759597164,0.03491702,-0.12891345,0.7142203,0.0,0.93442976,0.038835265,-0.05424925,0.34984264,0.51941156,1.0,1,0,0,0,0,0,0
1759699690,0.050694294,-0.12911303,0.714768,0.0,0.9339915,0.04625412,-0.051568475,0.35051557,0.5200681,1.0,1,0,0,0,0,0,0
1759804181,0.031084623,-0.12913287,0.7150103,0.0,0.934357,0.03710453,-0.055007465,0.3501062,0.52439326,1.0,1,0,0,0,0,0,0
1759904139,0.029601252,-0.11917573,0.7150103,0.0,0.9346993,0.034677163,-0.050611235,0.35010454,0.5207152,1.0,1,0,0,0,0,0,0
1760008411,0.04884292,-0.12395214,0.71620923,0.0,0.93395585,0.04452827,-0.049447607,0.35113895,0.5216811,1.0,1,0,0,0,0,0,0
1760109735,0.044621877,-0.117482394,0.71661305,0.0,0.93418485,0.041439164,-0.047155302,0.35122335,0.51484823,1.0,1,0,0,0,0,0,0
1760213278,0.030546417,-0.11543016,0.716975,0.0,0.9344512,0.034514114,-0.048660148,0.35105824,0.51015157,1.0,1,0,0,0,0,0,0
1760313122,0.027119203,-0.11295164,0.7172946,0.0,0.934525,0.032487307,-0.048097644,0.35113275,0.51493686,1.0,1,0,0,0,0,0,0
1760414222,0.028437007,-0.115713,0.7174459,0.0,0.9343961,0.033589523,-0.04915471,0.35122573,0.51317424,1.0,1,0,0,0,0,0,0
1760519612,0.03817874,-0.11225006,0.7178947,0.0,0.9342464,0.03754568,-0.045815956,0.35167438,0.5160528,1.0,1,0,0,0,0,0,0
1760622167,0.024242412,-0.114869975,0.7180426,0.0,0.93438417,0.031497058,-0.04948774,0.35140437,0.5152789,1.0,1,0,0,0,0,0,0
1760722638,0.021204865,-0.11115917,0.718168,0.0,0.9345139,0.029431138,-0.04828491,0.35140583,0.5156111,1.0,1,0,0,0,0,0,0
1760826535,0.024729064,-0.11205175,0.7182535,0.0,0.9344204,0.03123614,-0.048081536,0.35152674,0.51514345,1.0,1,0,0,0,0,0,0
1760926963,0.015983338,-0.10240441,0.7182872,0.0,0.93479764,0.025459634,-0.04510779,0.35138366,0.50972694,1.0,1,0,0,0,0,0,0
1761027325,0.026932118,-0.1023411,0.7183771,0.0,0.9346301,0.030567525,-0.04315254,0.35166755,0.5092987,1.0,1,0,0,0,0,0,0
1761131280,0.01303471,-0.09884969,0.7183895,0.0,0.9349039,0.023460329,-0.04396257,0.3513852,0.5066341,1.0,1,0,0,0,0,0,0
1761232227,0.012671919,-0.09957471,0.7183895,0.0,0.93489057,0.023417903,-0.044365298,0.35137305,0.5165089,1.0,1,0,0,0,0,0,0
1761332356,0.007327964,-0.101783216,0.71841395,0.0,0.934892,0.021307867,-0.04633628,0.35124895,0.51188475,1.0,1,0,0,0,0,0,0
1761436367,0.013755889,-0.10017028,0.71843624,0.0,0.93485487,0.024030086,-0.044452753,0.3514156,0.51064664,1.0,1,0,0,0,0,0,0
1761537330,0.017219268,-0.09769405,0.71846026,0.0,0.9348687,0.025215229,-0.042686027,0.35151485,0.51046425,1.0,1,0,0,0,0,0,0
1761641411,0.013902465,-0.09799997,0.71848273,0.0,0.9348979,0.023718955,-0.043411694,0.35145244,0.51646966,1.0,1,0,0,0,0,0,0
1761741007,0.036665477,-0.097515784,0.7185092,0.0,0.9345754,0.034273464,-0.039182056,0.35193613,0.5097498,1.0,1,0,0,0,0,0,0
1761842006,0.022816425,-0.094989136,0.7185078,0.0,0.9348525,0.027358212,-0.040436637,0.3516636,0.507636,1.0,1,0,0,0,0,0,0
1761945945,0.03843736,-0.091372,0.71848154,0.0,0.9347059,0.034024935,-0.035997692,0.35195354,0.5068252,1.0,1,0,0,0,0,0,0
1762047326,0.024324732,-0.09039234,0.71843034,0.0,0.93495464,0.027255831,-0.038022824,0.35166904,0.50794804,1.0,1,0,0,0,0,0,0
1762146705,0.02413206,-0.089042164,0.7184147,0.0,0.93499124,0.026928745,-0.037425462,0.35166112,0.50539744,1.0,1,0,0,0,0,0,0
1762250766,0.032426048,-0.08987969,0.71839345,0.0,0.93485534,0.030952279,-0.03635884,0.35180312,0.50289094,1.0,1,0,0,0,0,0,0
1762351778,0.040591773,-0.09655949,0.7183738,0.0,0.93455523,0.0359381,-0.038046338,0.35194814,0.49949625,1.0,1,0,0,0,0,0,0
1762451308,0.04556474,-0.10519209,0.7183782,0.0,0.93422395,0.0397721,-0.041207425,0.3520592,0.5011748,1.0,1,0,0,0,0,0,0
1762555262,0.017152159,-0.108994156,0.7183943,0.0,0.93459094,0.027163504,-0.04798174,0.35142526,0.49986744,1.0,1,0,0,0,0,0,0
1762657337,0.018577477,-0.11638371,0.71840686,0.0,0.9343623,0.029124739,-0.051185112,0.35142422,0.49450982,1.0,1,0,0,0,0,0,0
1762760347,0.030641248,-0.12010716,0.7184131,0.0,0.9340555,0.03541195,-0.050804578,0.3517174,0.49084297,1.0,1,0,0,0,0,0,0
1762864393,0.01950146,-0.120654285,0.71840113,0.0,0.934224,0.030304357,-0.05301867,0.3514201,0.49914673,1.0,1,0,0,0,0,0,0
1762964973,0.017456667,-0.12384315,0.7183949,0.0,0.9341596,0.029907646,-0.054868158,0.35134158,0.49809715,1.0,1,0,0,0,0,0,0
1763065216,0.031810753,-0.12821855,0.7183736,0.0,0.9337835,0.037376087,-0.0543901,0.35170045,0.5025247,1.0,1,0,0,0,0,0,0
1763165042,0.028989485,-0.12676081,0.71830404,0.0,0.93389463,0.03580191,-0.05420627,0.3515974,0.4993563,1.0,1,0,0,0,0,0,0
1763269751,0.031048661,-0.12550743,0.7181917,0.0,0.93391746,0.0365412,-0.053260613,0.35160533,0.5074542,1.0,1,0,0,0,0,0,0
1763370623,0.02149469,-0.122456916,0.7181474,0.0,0.9341833,0.031544298,-0.053514816,0.35134405,0.5049531,1.0,1,0,0,0,0,0,0
1763469731,0.0302958,-0.11704866,0.7181102,0.0,0.93420786,0.034707844,-0.049441136,0.35157743,0.507346,1.0,1,0,0,0,0,0,0
1763574488,0.04082432,-0.116070814,0.71810955,0.0,0.93404245,0.039454307,-0.047132604,0.35183316,0.51780945,1.0,1,0,0,0,0,0,0
1763674877,0.03029519,-0.102265336,0.7180952,0.0,0.93462896,0.032119833,-0.042530246,0.35160804,0.5122138,1.0,1,0,0,0,0,0,0
1763775370,0.017551783,-0.10287811,0.7180746,0.0,0.93480265,0.026270961,-0.045056485,0.35131723,0.5137882,1.0,1,0,0,0,0,0,0
1763875864,0.030930541,-0.10513448,0.71805614,0.0,0.9345482,0.03291816,-0.043760717,0.35159788,0.5164067,1.0,1,0,0,0,0,0,0
1763979670,0.03164874,-0.10138145,0.71797585,0.0,0.9346515,0.03259512,-0.041880924,0.35158232,0.5061015,1.0,1,0,0,0,0,0,0
1764080048,0.009505248,-0.09788232,0.7178996,0.0,0.935053,0.021629917,-0.0441356,0.35108426,0.50539553,1.0,1,0,0,0,0,0,0
1764180467,0.03278119,-0.09908802,0.7177891,0.0,0.9347261,0.03271912,-0.040612444,0.3515213,0.5026422,1.0,1,0,0,0,0,0,0
1764284531,0.026999984,-0.09731437,0.7176535,0.0,0.93488556,0.029703762,-0.04080094,0.35134313,0.49893847,1.0,1,0,0,0,0,0,0
1764385070,0.0069601517,-0.09386054,0.7175006,0.0,0.9352425,0.019726198,-0.042705595,0.35086855,0.50315094,1.0,1,0,0,0,0,0,0
1764485207,0.007771441,-0.09759084,0.7173223,0.0,0.93517953,0.020755405,-0.04430963,0.35077795,0.4989509,1.0,1,0,0,0,0,0,0
1764590381,0.008399477,-0.1011051,0.7171132,0.0,0.9351254,0.021659957,-0.045845147,0.35067034,0.50326896,1.0,1,0,0,0,0,0,0
1764690206,0.0062204883,-0.10398015,0.716762,0.0,0.93513936,0.021136358,-0.047575295,0.3504343,0.50224787,1.0,1,0,0,0,0,0,0
1764789891,-0.0041223583,-0.09306097,0.7166234,0.0,0.93550825,0.014383839,-0.044281587,0.3502236,0.496832,1.0,1,0,0,0,0,0,0
1764890766,-0.0032941953,-0.090049565,0.7163584,0.0,0.93561226,0.014237962,-0.04272989,0.35014442,0.49815783,1.0,1,0,0,0,0,0,0
1764994848,0.004722022,-0.09577394,0.7159225,0.0,0.93549716,0.018980294,-0.044008028,0.35006866,0.5014097,1.0,1,0,0,0,0,0,0
1765094681,-0.01993443,-0.097863846,0.71563596,0.0,0.9356664,0.007805204,-0.04929877,0.34933808,0.4950383,1.0,1,0,0,0,0,0,0
1765194920,0.006393668,-0.09553312,0.7153572,0.0,0.93558544,0.019707752,-0.04360833,0.34984258,0.49524954,1.0,1,0,0,0,0,0,0
1765299757,-0.010732932,-0.092902295,0.7150988,0.0,0.9358206,0.011229248,-0.045373295,0.34936374,0.49453115,1.0,1,0,0,0,0,0,0
1765404157,-0.020893289,-0.09318879,0.7149748,0.0,0.9358815,0.0065222005,-0.04728195,0.34906697,0.5010355,1.0,1,0,0,0,0,0,0
1765504321,0.006340162,-0.091867,0.7147028,0.0,0.9357828,0.019028218,-0.041908674,0.3495598,0.5008483,1.0,1,0,0,0,0,0,0
1765604891,-0.006213157,-0.09251442,0.7144677,0.0,0.9359113,0.013262225,-0.04440638,0.34917372,0.5007348,1.0,1,0,0,0,0,0,0
1765708842,0.01184369,-0.09472096,0.7143644,0.0,0.9357208,0.022094272,-0.042285837,0.34950015,0.5031072,1.0,1,0,0,0,0,0,0
1765809760,-0.009851613,-0.089197494,0.7140821,0.0,0.93606883,0.010971506,-0.04349164,0.34894592,0.509269,1.0,1,0,0,0,0,0,0
1765908920,-0.0002457586,-0.087983266,0.7139164,0.0,0.9360595,0.015251831,-0.04124818,0.34908268,0.5016231,1.0,1,0,0,0,0,0,0
1766013724,-0.0064062425,-0.08812569,0.7137377,0.0,0.9361303,0.012389556,-0.042391006,0.34886903,0.5060128,1.0,1,0,0,0,0,0,0
1766114057,-0.015200529,-0.08594619,0.7135246,0.0,0.9362544,0.007887916,-0.04290549,0.34860379,0.49654388,1.0,1,0,0,0,0,0,0
1766214056,-0.0037614359,-0.08621474,0.7135246,0.0,0.9361887,0.013289571,-0.041036643,0.34884128,0.4967677,1.0,1,0,0,0,0,0,0
1766317628,-0.019773219,-0.08432277,0.7132967,0.0,0.93633926,0.005458872,-0.042943273,0.34841767,0.4990105,1.0,1,0,0,0,0,0,0
1766418590,-0.010505182,-0.07926439,0.7131382,0.0,0.9364238,0.008911934,-0.03896112,0.34858721,0.49084696,1.0,1,0,0,0,0,0,0
1766519037,-0.023486005,-0.07736141,0.7130065,0.0,0.93651587,0.0024990968,-0.040332176,0.3482888,0.49497032,1.0,1,0,0,0,0,0,0
1766619508,-0.0029385188,-0.0764692,0.7128943,0.0,0.93647623,0.01196268,-0.036334813,0.3486389,0.5008796,1.0,1,0,0,0,0,0,0
1766723255,-0.008422967,-0.077157855,0.71280664,0.0,0.93650883,0.009513079,-0.037613567,0.34849098,0.50417495,1.0,1,0,0,0,0,0,0
1766823754,-0.02132725,-0.08122612,0.71273863,0.0,0.93649465,0.004178943,-0.04176582,0.34816068,0.4983017,1.0,1,0,0,0,0,0,0
1766924119,-0.009880963,-0.07734484,0.7126903,0.0,0.93653256,0.008860769,-0.03795567,0.34840724,0.49431047,1.0,1,0,0,0,0,0,0
1767028177,-0.027233563,-0.07977138,0.7126746,0.0,0.9365381,0.0011580607,-0.04211293,0.34802538,0.49889916,1.0,1,0,0,0,0,0,0
1767128434,-0.004270696,-0.07740256,0.7126178,0.0,0.9365156,0.01149655,-0.037005637,0.34847793,0.49506292,1.0,1,0,0,0,0,0,0
1767229139,-0.026167149,-0.07690511,0.71258646,0.0,0.9365987,0.0011554383,-0.040585704,0.34804362,0.49437928,1.0,1,0,0,0,0,0,0
1767333026,-0.02639977,-0.080822445,0.71259415,0.0,0.9365341,0.001730217,-0.042459894,0.3479914,0.49277705,1.0,1,0,0,0,0,0,0
1767433737,-0.0034653938,-0.08327083,0.71262676,0.0,0.9364008,0.012896654,-0.039612804,0.34845117,0.5000056,1.0,1,0,0,0,0,0,0
1767533771,-0.023161689,-0.08233632,0.7126477,0.0,0.93649495,0.0035117627,-0.042604964,0.3480657,0.4963256,1.0,1,0,0,0,0,0,0
1767637679,-0.017463721,-0.08387242,0.7127429,0.0,0.93643695,0.006449761,-0.04233191,0.3482129,0.49891478,1.0,1,0,0,0,0,0,0
1767738406,0.003280249,-0.08208382,0.7128274,0.0,0.9363403,0.015851874,-0.037879962,0.34868437,0.5002709,1.0,1,0,0,0,0,0,0
1767838497,-0.019990897,-0.07799901,0.7128274,0.0,0.93653077,0.0042434083,-0.040022317,0.3482676,0.49843106,1.0,1,0,0,0,0,0,0
1767939602,0.00027306206,-0.080798656,0.7130562,0.0,0.93634766,0.014224289,-0.03780087,0.3487431,0.49525037,1.0,1,0,0,0,0,0,0
1768042823,0.010251021,-0.08651867,0.7132084,0.0,0.9361213,0.019895209,-0.038737014,0.34897068,0.5029965,1.0,1,0,0,0,0,0,0
1768143365,-0.002371616,-0.08007887,0.7134001,0.0,0.9363191,0.012867106,-0.037922807,0.34885937,0.5028329,1.0,1,0,0,0,0,0,0
1768247453,0.022547266,-0.08028133,0.713605,0.0,0.9360461,0.024570538,-0.033665653,0.34940028,0.49944967,1.0,1,0,0,0,0,0,0
1768348312,0.010134123,-0.074393846,0.71370775,0.0,0.93627447,0.0177353,-0.033076216,0.34925854,0.49986136,1.0,1,0,0,0,0,0,0
1768448409,0.027442494,-0.0764133,0.71406144,0.0,0.93598366,0.026194662,-0.030993374,0.34969684,0.50708824,1.0,1,0,0,0,0,0,0
1768548472,0.008532791,-0.07976074,0.71432203,0.0,0.9360803,0.017932951,-0.03586299,0.349494,0.5041511,1.0,1,0,0,0,0,0,0
1768653157,0.023966301,-0.07669557,0.71432203,0.0,0.9359765,0.024621159,-0.03173008,0.3497641,0.5008648,1.0,1,0,0,0,0,0,0
1768757319,0.023745874,-0.074404895,0.71483374,0.0,0.93593496,0.024126219,-0.030690055,0.3500025,0.5055534,1.0,1,0,0,0,0,0,0
1768862378,0.022166524,-0.07268837,0.71504307,0.0,0.93595004,0.023090566,-0.03016046,0.35007825,0.50381196,1.0,1,0,0,0,0,0,0
1768961626,0.028805165,-0.07014805,0.71517897,0.0,0.9358933,0.02575548,-0.027807336,0.35023874,0.5047063,1.0,1,0,0,0,0,0,0
1769062901,0.0052745,-0.059838362,0.71531665,0.0,0.9362691,0.012941813,-0.02709875,0.34999773,0.51106703,1.0,1,0,0,0,0,0,0
1769166912,0.025311463,-0.055713415,0.7153822,0.0,0.9361459,0.021600742,-0.021659037,0.3502787,0.5137767,1.0,1,0,0,0,0,0,0
1769271589,0.02370274,-0.053464103,0.71558666,0.0,0.9361605,0.020456629,-0.020885555,0.35035512,0.51252574,1.0,1,0,0,0,0,0,0
1769370484,0.037255038,-0.052465033,0.7156931,0.0,0.9359974,0.026626015,-0.018041877,0.3505344,0.5085206,1.0,1,0,0,0,0,0,0
1769475987,0.031148404,-0.051209766,0.71582115,0.0,0.93607056,0.023549687,-0.018522881,0.35053405,0.51117015,1.0,1,0,0,0,0,0,0
1769580065,0.029097361,-0.043345824,0.71599555,0.0,0.93617076,0.0212154,-0.015198644,0.3505755,0.50092334,1.0,1,0,0,0,0,0,0
1769679329,0.016421262,-0.0467955,0.7162142,0.0,0.93620676,0.015887508,-0.019033682,0.35057423,0.50297254,1.0,1,0,0,0,0,0,0
1769780131,0.040740862,-0.051131528,0.7164853,0.0,0.9358316,0.028030915,-0.016795497,0.35092932,0.5002599,1.0,1,0,0,0,0,0,0
1769884233,0.044514325,-0.052706894,0.71677285,0.0,0.9357013,0.030074544,-0.016866438,0.3511042,0.5039306,1.0,1,0,0,0,0,0,0
1769984985,0.060713384,-0.048225988,0.71691805,0.0,0.93547827,0.03686943,-0.011922391,0.3512533,0.5021798,1.0,1,0,0,0,0,0,0
1770084878,0.054404378,-0.05127702,0.7174095,0.0,0.9354535,0.03445571,-0.014449837,0.3514694,0.4950532,1.0,1,0,0,0,0,0,0
1770188987,0.057403844,-0.05756971,0.7176973,0.0,0.93523836,0.036962423,-0.016862035,0.35167977,0.49886292,1.0,1,0,0,0,0,0,0
1770290051,0.06584043,-0.055315953,0.71786284,0.0,0.9350878,0.040513974,-0.014320577,0.35180154,0.49744967,1.0,1,0,0,0,0,0,0
1770389740,0.046043266,-0.056176353,0.718307,0.0,0.9353502,0.031410895,-0.018197797,0.35185534,0.49690443,1.0,1,0,0,0,0,0,0
1770490524,0.045280784,-0.05903745,0.7186127,0.0,0.9352584,0.03155891,-0.019665817,0.3520072,0.49909055,1.0,1,0,0,0,0,0,0
1770595610,0.07345892,-0.06546529,0.7188901,0.0,0.934537,0.045860063,-0.017704701,0.35245425,0.50238633,1.0,1,0,0,0,0,0,0
1770699350,0.06788494,-0.06557039,0.71918553,0.0,0.9346069,0.043276522,-0.018729681,0.35254264,0.49962366,1.0,1,0,0,0,0,0,0
1770798608,0.07424309,-0.06457388,0.7193073,0.0,0.93446475,0.046073966,-0.017139992,0.3526457,0.50201124,1.0,1,0,0,0,0,0,0
1770903627,0.053166196,-0.06797213,0.7197044,0.0,0.93475986,0.036824305,-0.02243751,0.3526535,0.5086775,1.0,1,0,0,0,0,0,0
1771008145,0.069450416,-0.06884623,0.7199682,0.0,0.9343632,0.044589788,-0.019968322,0.3529567,0.4986211,1.0,1,0,0,0,0,0,0
1771107242,0.07532746,-0.06945503,0.72023576,0.0,0.934167,0.047444526,-0.019209374,0.35314587,0.5031924,1.0,1,0,0,0,0,0,0
1771209599,0.083185166,-0.06527269,0.72043914,0.0,0.934034,0.05038286,-0.01586138,0.35325706,0.5022726,1.0,1,0,0,0,0,0,0
1771312588,0.07173006,-0.07002997,0.72064483,0.0,0.9341656,0.045869112,-0.020103982,0.35330796,0.5048443,1.0,1,0,0,0,0,0,0
1771416356,0.05410653,-0.07050686,0.720876,0.0,0.93448263,0.03772228,-0.023435062,0.35322806,0.50195277,1.0,1,0,0,0,0,0,0
1771516979,0.07333495,-0.069068946,0.72099674,0.0,0.9340882,0.04645349,-0.019362997,0.35347775,0.5032085,1.0,1,0,0,0,0,0,0
1771620923,0.0836419,-0.06641351,0.72099674,0.0,0.933898,0.050800752,-0.016299868,0.35353673,0.49942636,1.0,1,0,0,0,0,0,0
1771721920,0.04932066,-0.06413904,0.7211269,0.0,0.93465376,0.034369223,-0.021298278,0.3532527,0.5047168,1.0,1,0,0,0,0,0,0
1771821965,0.050554223,-0.06722394,0.7211134,0.0,0.9345737,0.035488054,-0.022523114,0.35327807,0.50365514,1.0,1,0,0,0,0,0,0
1771925646,0.042704526,-0.070408374,0.720994,0.0,0.93466365,0.032378383,-0.025400463,0.35314354,0.5030748,1.0,1,0,0,0,0,0,0
1772027466,0.060655557,-0.06975191,0.7208697,0.0,0.93437153,0.040649362,-0.021925436,0.35329401,0.5059718,1.0,1,0,0,0,0,0,0
1772131558,0.050658833,-0.06310439,0.72079235,0.0,0.93470967,0.034809165,-0.020583935,0.35310403,0.5068516,1.0,1,0,0,0,0,0,0
1772234880,0.05937406,-0.06338308,0.72049016,0.0,0.93459684,0.038927995,-0.019181252,0.35305148,0.50888056,1.0,1,0,0,0,0,0,0
1772335027,0.05038208,-0.05320862,0.7201994,0.0,0.9349976,0.032934908,-0.016014691,0.35275817,0.50524247,1.0,1,0,0,0,0,0,0
1772439358,0.05740455,-0.053017616,0.7201994,0.0,0.93487954,0.03618413,-0.014686646,0.35281053,0.5038408,1.0,1,0,0,0,0,0,0
1772540194,0.05796858,-0.051351476,0.71951544,0.0,0.9350187,0.03615033,-0.013820246,0.35247996,0.5121855,1.0,1,0,0,0,0,0,0
1772640275,0.042141944,-0.051329125,0.7192332,0.0,0.93532556,0.028743904,-0.016602669,0.35222748,0.50574416,1.0,1,0,0,0,0,0,0
1772744142,0.035921525,-0.04908682,0.7192332,0.0,0.9354439,0.025440825,-0.016648976,0.35216516,0.5029803,1.0,1,0,0,0,0,0,0
1772844481,0.029106347,-0.048329376,0.7186759,0.0,0.9356338,0.022115098,-0.017500672,0.35184386,0.49339387,1.0,1,0,0,0,0,0,0
1772944865,0.032880105,-0.04892663,0.7183507,0.0,0.9356391,0.023982557,-0.01712013,0.35172608,0.49354666,1.0,1,0,0,0,0,0,0
1773045931,0.026164642,-0.05086422,0.7179411,0.0,0.93575925,0.021176973,-0.019212097,0.3514784,0.49359062,1.0,1,0,0,0,0,0,0
1773149939,0.030016787,-0.06519747,0.71760714,0.0,0.935543,0.0254885,-0.025246663,0.35138613,0.48983023,1.0,1,0,0,0,0,0,0
1773249751,0.03352303,-0.074896984,0.71740717,0.0,0.93534446,0.028824724,-0.02917197,0.3513528,0.48939055,1.0,1,0,0,0,0,0,0
1773349911,0.029339498,-0.07406505,0.7165613,0.0,0.9355679,0.02670995,-0.029528894,0.35089508,0.4882048,1.0,1,0,0,0,0,0,0
1773454616,0.0017766067,-0.0867428,0.71598697,0.0,0.93570715,0.016023582,-0.04029802,0.3501021,0.4867864,1.0,1,0,0,0,0,0,0
1773555472,0.024396656,-0.091671325,0.7153434,0.0,0.9354654,0.027454054,-0.038650725,0.35022408,0.48924163,1.0,1,0,0,0,0,0,0
1773654513,0.011022954,-0.09622127,0.71474916,0.0,0.9356275,0.021980371,-0.043127105,0.34965414,0.49026835,1.0,1,0,0,0,0,0,0
1773759602,-0.004319615,-0.0941639,0.714367,0.0,0.9358804,0.014434216,-0.044848297,0.34915334,0.49050388,1.0,1,0,0,0,0,0,0
1773863689,-0.015136855,-0.094193526,0.71340656,0.0,0.9361116,0.009354936,-0.046754424,0.34845588,0.4933655,1.0,1,0,0,0,0,0,0
1773963264,0.0024308625,-0.098625734,0.71275175,0.0,0.93600655,0.01833497,-0.045772117,0.34851193,0.4944366,1.0,1,0,0,0,0,0,0
1774064821,0.0043324186,-0.10150408,0.71275175,0.0,0.9359201,0.019726222,-0.046787854,0.3485331,0.49533522,1.0,1,0,0,0,0,0,0
1774168446,-0.006318543,-0.09877401,0.7117039,0.0,0.93625677,0.014241082,-0.047373172,0.34781632,0.49222633,1.0,1,0,0,0,0,0,0
1774268286,-0.0071504894,-0.10260861,0.711255,0.0,0.9362526,0.014507998,-0.04931588,0.3475465,0.49449682,1.0,1,0,0,0,0,0,0
1774369794,-0.007397678,-0.10764251,0.71073,0.0,0.9362249,0.015254294,-0.051718857,0.34723982,0.48763153,1.0,1,0,0,0,0,0,0
1774473213,-0.027611189,-0.10759915,0.71026385,0.0,0.93641293,0.0057710684,-0.05520668,0.34648183,0.4899415,1.0,1,0,0,0,0,0,0
1774573969,-0.023077214,-0.1119991,0.7098386,0.0,0.93636674,0.0086469455,-0.05648188,0.3463413,0.48951268,1.0,1,0,0,0,0,0,0
1774674032,0.0011032994,-0.1194649,0.7095129,0.0,0.93604714,0.021252818,-0.055788383,0.34677333,0.48720092,1.0,1,0,0,0,0,0,0
1774773930,-0.007982895,-0.10883395,0.7092134,0.0,0.9364629,0.015147707,-0.05238959,0.34650123,0.48815516,1.0,1,0,0,0,0,0,0
1774878539,-0.0010499167,-0.10632825,0.70904934,0.0,0.93649614,0.01795533,-0.050016418,0.34662795,0.4897909,1.0,1,0,0,0,0,0,0
1774979345,-0.002407276,-0.11019518,0.7090316,0.0,0.9364139,0.017989606,-0.05206234,0.34654713,0.4911653,1.0,1,0,0,0,0,0,0
1775083276,0.02931582,-0.11338615,0.70910543,0.0,0.9359063,0.033393167,-0.04805224,0.34735477,0.49512485,1.0,1,0,0,0,0,0,0
1775184040,0.023829395,-0.1134396,0.70947105,0.0,0.9359293,0.030843865,-0.04902432,0.34739256,0.4971237,1.0,1,0,0,0,0,0,0
1775288280,0.039060727,-0.10873749,0.70996475,0.0,0.9357197,0.037168708,-0.044166382,0.3479891,0.49143076,1.0,1,0,0,0,0,0,0
1775387416,0.039753105,-0.104914,0.7103061,0.0,0.93575627,0.036838368,-0.042249274,0.34816405,0.49289608,1.0,1,0,0,0,0,0,0
1775492341,0.057908677,-0.11282435,0.71150297,0.0,0.93493307,0.046723828,-0.042762537,0.3491252,0.4892722,1.0,1,0,0,0,0,0,0
1775592920,0.080931515,-0.10241425,0.7124602,0.0,0.93450135,0.05570093,-0.03384218,0.34994197,0.4909949,1.0,1,0,0,0,0,0,0
