timestamp,voltage_v,voltage_filtered_v,current_a,current_filtered_a,average_current_a,discharged_mah,remaining,scale,temperature,cell_count,capacity,cycle_count,run_time_to_empty,average_time_to_empty,serial_number,connected,system_source,priority,is_powering_off,warning
1725779830,25.14509,25.153944,0.062,0.06812743,0.0,30.838564,1.0,1.0,0.0,6,0,0,0,0,0,1,1,0,0,0
1726273370,25.124893,25.146444,0.0744,0.0670447,0.0,30.847689,1.0,1.0,0.0,6,0,0,0,0,0,1,1,0,0,0
1726789617,24.599773,25.124975,0.0744,0.06635066,0.0,30.85711,1.0,1.0,0.0,6,0,0,0,0,0,1,1,0,0,0
1727283261,24.741152,24.88179,0.062,0.06470009,0.0,30.86595,1.0,1.0,0.0,6,0,0,0,0,0,1,1,0,0,0
1727788802,24.680561,24.810205,0.049599998,0.06579068,0.0,30.875307,1.0,1.0,0.0,6,0,0,0,0,0,1,1,0,0,0
1728294218,24.660364,24.752007,0.062,0.06669573,0.0,30.88484,1.0,1.0,0.0,6,0,0,0,0,0,1,1,0,0,0
1728786962,24.599773,24.708698,0.062,0.067303,0.0,30.894058,1.0,1.0,0.0,6,0,0,0,0,0,1,1,0,0,0
1729292478,24.599773,24.673891,0.0744,0.0662449,0.0,30.903269,1.0,1.0,0.0,6,0,0,0,0,0,1,1,0,0,0
1729798172,24.518986,24.644615,0.0744,0.066637665,0.0,30.912598,1.0,1.0,0.0,6,0,0,0,0,0,1,1,0,0,0
1730291970,24.599773,24.6195,0.062,0.066518955,0.0,30.921764,1.0,1.0,0.0,6,0,0,0,0,0,1,1,0,0,0
1730797423,24.55938,24.59944,0.062,0.0657647,0.0,30.930918,1.0,1.0,0.0,6,0,0,0,0,0,1,1,0,0,0
1731302155,24.539183,24.584608,0.049599998,0.06599689,0.0,30.940228,1.0,1.0,0.0,6,0,0,0,0,0,1,1,0,0,0
1731796053,24.55938,24.570337,0.062,0.06666974,0.0,30.949314,1.0,1.0,0.0,6,0,0,0,0,0,1,1,0,0,0
1732301346,24.539183,24.558285,0.0744,0.06650001,0.0,30.958597,1.0,1.0,0.0,6,0,0,0,0,0,1,1,0,0,0
1732806967,24.478592,24.549854,0.0744,0.067218676,0.0,30.968134,1.0,1.0,0.0,6,0,0,0,0,0,1,1,0,0,0
1733300482,24.55938,24.542496,0.062,0.06543684,0.0,30.976923,1.0,1.0,0.0,6,0,0,0,0,0,1,1,0,0,0
1733805352,24.539183,24.53898,0.062,0.066919364,0.0,30.986446,1.0,1.0,0.0,6,0,0,0,0,0,1,1,0,0,0
1734310904,24.498789,24.534054,0.0744,0.06864535,0.0,30.996267,1.0,1.0,0.0,6,0,0,0,0,0,1,1,0,0,0
1734804552,24.498789,24.53039,0.062,0.06731078,0.0,31.005346,1.0,1.0,0.0,6,0,0,0,0,0,1,1,0,0,0
1735309397,24.498789,24.522684,0.0744,0.06748197,0.0,31.014874,1.0,1.0,0.0,6,0,0,0,0,0,1,1,0,0,0
1735815240,24.4382,24.510637,0.062,0.06783018,0.0,31.024458,1.0,1.0,0.0,6,0,0,0,0,0,1,1,0,0,0
1736308630,24.498789,24.503292,0.062,0.0674131,0.0,31.03374,1.0,1.0,0.0,6,0,0,0,0,0,1,1,0,0,0
1736814167,24.478592,24.501482,0.062,0.066767186,0.0,31.043028,1.0,1.0,0.0,6,0,0,0,0,0,1,1,0,0,0
1737319011,24.518986,24.499655,0.0744,0.068536095,0.0,31.052807,1.0,1.0,0.0,6,0,0,0,0,0,1,1,0,0,0
1737812581,24.498789,24.499464,0.062,0.06572527,0.0,31.061594,1.0,1.0,0.0,6,0,0,0,0,0,1,1,0,0,0
1738318418,24.478592,24.497538,0.062,0.06680498,0.0,31.071095,1.0,1.0,0.0,6,0,0,0,0,0,1,1,0,0,0
1738823774,24.498789,24.497322,0.0744,0.0672553,0.0,31.080547,1.0,1.0,0.0,6,0,0,0,0,0,1,1,0,0,0
1739317292,24.478592,24.498163,0.0744,0.06723584,0.0,31.089743,1.0,1.0,0.0,6,0,0,0,0,0,1,1,0,0,0
1739822207,24.478592,24.494158,0.0744,0.06719433,0.0,31.099106,1.0,1.0,0.0,6,0,0,0,0,0,1,1,0,0,0
1740327771,24.4382,24.49132,0.0744,0.068066806,0.0,31.108728,1.0,1.0,0.0,6,0,0,0,0,0,1,1,0,0,0
1740821399,24.478592,24.485138,0.0744,0.06620152,0.0,31.117603,1.0,1.0,0.0,6,0,0,0,0,0,1,1,0,0,0
1741831770,24.458397,24.484863,0.062,0.0655192,0.0,31.136082,1.0,1.0,0.0,6,0,0,0,0,0,1,1,0,0,0
1742831236,24.518986,24.478912,0.062,0.066924006,0.0,31.154827,1.0,1.0,0.0,6,0,0,0,0,0,1,1,0,0,0
1743336617,24.458397,24.47423,0.062,0.06729064,0.0,31.164356,1.0,1.0,0.0,6,0,0,0,0,0,1,1,0,0,0
1743829382,24.478592,24.469872,0.062,0.066735804,0.0,31.173388,1.0,1.0,0.0,6,0,0,0,0,0,1,1,0,0,0
1744334931,24.498789,24.48117,0.062,0.06669074,0.0,31.182884,1.0,1.0,0.0,6,0,0,0,0,0,1,1,0,0,0
1744840493,24.4382,24.467241,0.062,0.06545654,0.0,31.191961,1.0,1.0,0.0,6,0,0,0,0,0,1,1,0,0,0
1745334185,24.418003,24.459661,0.062,0.06638964,0.0,31.201117,1.0,1.0,0.0,6,0,0,0,0,0,1,1,0,0,0
1745838925,24.418003,24.450676,0.062,0.065268844,0.0,31.21021,1.0,1.0,0.0,6,0,0,0,0,0,1,1,0,0,0
1746344516,24.4382,24.438246,0.062,0.06520767,0.0,31.219324,1.0,1.0,0.0,6,0,0,0,0,0,1,1,0,0,0
1746838389,24.418003,24.431835,0.0744,0.06681037,0.0,31.22862,1.0,1.0,0.0,6,0,0,0,0,0,1,1,0,0,0
1747343720,24.418003,24.422352,0.062,0.064617895,0.0,31.237562,1.0,1.0,0.0,6,0,0,0,0,0,1,1,0,0,0
1747849586,24.4382,24.420698,0.0744,0.065582916,0.0,31.246813,1.0,1.0,0.0,6,0,0,0,0,0,1,1,0,0,0
1748342071,24.37761,24.414324,0.0744,0.0657356,0.0,31.255833,1.0,1.0,0.0,6,0,0,0,0,0,1,1,0,0,0
1748847744,24.397806,24.409458,0.062,0.067456365,0.0,31.265497,1.0,1.0,0.0,6,0,0,0,0,0,1,1,0,0,0
1749353407,24.418003,24.402632,0.0744,0.06609579,0.0,31.274622,1.0,1.0,0.0,6,0,0,0,0,0,1,1,0,0,0
1749847238,24.357412,24.399258,0.062,0.065009944,0.0,31.283419,1.0,1.0,0.0,6,0,0,0,0,0,1,1,0,0,0
1750351758,24.397806,24.396603,0.0744,0.065654494,0.0,31.292688,1.0,1.0,0.0,6,0,0,0,0,0,1,1,0,0,0
1750857424,24.37761,24.400383,0.0744,0.06476978,0.0,31.301725,1.0,1.0,0.0,6,0,0,0,0,0,1,1,0,0,0
1751362897,24.397806,24.402157,0.062,0.06484635,0.0,31.310839,1.0,1.0,0.0,6,0,0,0,0,0,1,1,0,0,0
1751856601,24.37761,24.396927,0.062,0.06515626,0.0,31.31984,1.0,1.0,0.0,6,0,0,0,0,0,1,1,0,0,0
1752361378,24.418003,24.39038,0.062,0.06531877,0.0,31.328987,1.0,1.0,0.0,6,0,0,0,0,0,1,1,0,0,0
1752867244,24.478592,24.415478,0.062,0.06544252,0.0,31.338291,1.0,1.0,0.0,6,0,0,0,0,0,1,1,0,0,0
1753360554,24.357412,24.393778,0.062,0.066165544,0.0,31.347452,1.0,1.0,0.0,6,0,0,0,0,0,1,1,0,0,0
1753866622,24.397806,24.391651,0.062,0.06473662,0.0,31.356447,1.0,1.0,0.0,6,0,0,0,0,0,1,1,0,0,0
1754370996,24.397806,24.401175,0.062,0.06624433,0.0,31.365877,1.0,1.0,0.0,6,0,0,0,0,0,1,1,0,0,0
1754876591,24.478592,24.413836,0.062,0.06579311,0.0,31.375126,1.0,1.0,0.0,6,0,0,0,0,0,1,1,0,0,0
1755370207,24.4382,24.418598,0.0744,0.06806451,0.0,31.38467,1.0,1.0,0.0,6,0,0,0,0,0,1,1,0,0,0
1755876418,24.418003,24.419315,0.0744,0.068919,0.0,31.394386,1.0,1.0,0.0,6,0,0,0,0,0,1,1,0,0,0
1756381642,24.4382,24.41733,0.024799999,0.06719638,0.0,31.40374,1.0,1.0,0.0,6,0,0,0,0,0,1,1,0,0,0
1756874490,24.317019,24.417776,0.0744,0.066999055,0.0,31.41293,1.0,1.0,0.0,6,0,0,0,0,0,1,1,0,0,0
1757379778,24.357412,24.401438,0.0744,0.06797155,0.0,31.422588,1.0,1.0,0.0,6,0,0,0,0,0,1,1,0,0,0
1757885437,24.397806,24.392685,0.062,0.06801476,0.0,31.432137,1.0,1.0,0.0,6,0,0,0,0,0,1,1,0,0,0
1758378239,24.37761,24.39,0.0744,0.06531987,0.0,31.440744,1.0,1.0,0.0,6,0,0,0,0,0,1,1,0,0,0
1758883780,24.357412,24.391064,0.0744,0.066815935,0.0,31.450232,1.0,1.0,0.0,6,0,0,0,0,0,1,1,0,0,0
1759389340,24.4382,24.391136,0.062,0.0661898,0.0,31.459476,1.0,1.0,0.0,6,0,0,0,0,0,1,1,0,0,0
1759883292,24.337215,24.389545,0.062,0.064939275,0.0,31.468273,1.0,1.0,0.0,6,0,0,0,0,0,1,1,0,0,0
1760388863,24.337215,24.38661,0.0744,0.06687293,0.0,31.477772,1.0,1.0,0.0,6,0,0,0,0,0,1,1,0,0,0
1760893617,24.397806,24.38646,0.062,0.06745529,0.0,31.487293,1.0,1.0,0.0,6,0,0,0,0,0,1,1,0,0,0
1761386983,24.397806,24.387768,0.0744,0.06744915,0.0,31.496485,1.0,1.0,0.0,6,0,0,0,0,0,1,1,0,0,0
1761892523,24.37761,24.389706,0.049599998,0.06458737,0.0,31.505404,1.0,1.0,0.0,6,0,0,0,0,0,1,1,0,0,0
1762398402,24.397806,24.392073,0.099199995,0.06624375,0.0,31.51492,1.0,1.0,0.0,6,0,0,0,0,0,1,1,0,0,0
1762892038,24.37761,24.396284,0.0744,0.065667205,0.0,31.523802,1.0,1.0,0.0,6,0,0,0,0,0,1,1,0,0,0
1763396559,24.37761,24.395653,0.062,0.06608062,0.0,31.5332,1.0,1.0,0.0,6,0,0,0,0,0,1,1,0,0,0
1763902183,24.397806,24.389585,0.062,0.066735975,0.0,31.542654,1.0,1.0,0.0,6,0,0,0,0,0,1,1,0,0,0
1764395697,24.397806,24.392073,0.062,0.06601011,0.0,31.551651,1.0,1.0,0.0,6,0,0,0,0,0,1,1,0,0,0
1764901337,24.418003,24.399649,0.062,0.06541417,0.0,31.560818,1.0,1.0,0.0,6,0,0,0,0,0,1,1,0,0,0
1765406150,24.397806,24.40223,0.0744,0.066991776,0.0,31.570295,1.0,1.0,0.0,6,0,0,0,0,0,1,1,0,0,0
1765911833,24.317019,24.401314,0.049599998,0.06621626,0.0,31.579514,1.0,1.0,0.0,6,0,0,0,0,0,1,1,0,0,0
1766405449,24.397806,24.402884,0.062,0.067847565,0.0,31.589088,1.0,1.0,0.0,6,0,0,0,0,0,1,1,0,0,0
1766910990,24.397806,24.401533,0.062,0.06734389,0.0,31.598543,1.0,1.0,0.0,6,0,0,0,0,0,1,1,0,0,0
1767416072,24.4382,24.401516,0.0744,0.06815768,0.0,31.608076,1.0,1.0,0.0,6,0,0,0,0,0,1,1,0,0,0
1767909610,24.397806,24.394136,0.062,0.06716987,0.0,31.617205,1.0,1.0,0.0,6,0,0,0,0,0,1,1,0,0,0
1768414845,24.357412,24.393812,0.0744,0.06597297,0.0,31.62636,1.0,1.0,0.0,6,0,0,0,0,0,1,1,0,0,0
1768920615,24.397806,24.391785,0.062,0.06658507,0.0,31.635746,1.0,1.0,0.0,6,0,0,0,0,0,1,1,0,0,0
1769413772,24.397806,24.383438,0.0744,0.06662944,0.0,31.644905,1.0,1.0,0.0,6,0,0,0,0,0,1,1,0,0,0
1769919006,24.397806,24.384264,0.0744,0.067655295,0.0,31.65447,1.0,1.0,0.0,6,0,0,0,0,0,1,1,0,0,0
1770424539,24.397806,24.381823,0.062,0.06655523,0.0,31.663668,1.0,1.0,0.0,6,0,0,0,0,0,1,1,0,0,0
1770918213,24.397806,24.378805,0.062,0.06762046,0.0,31.673082,1.0,1.0,0.0,6,0,0,0,0,0,1,1,0,0,0
1771422897,24.357412,24.37848,0.0744,0.06950809,0.0,31.683052,1.0,1.0,0.0,6,0,0,0,0,0,1,1,0,0,0
1771928891,24.37761,24.377106,0.062,0.0685741,0.0,31.692596,1.0,1.0,0.0,6,0,0,0,0,0,1,1,0,0,0
1772422510,24.37761,24.371851,0.0744,0.06833169,0.0,31.70197,1.0,1.0,0.0,6,0,0,0,0,0,1,1,0,0,0
1772927829,24.337215,24.373384,0.062,0.06668604,0.0,31.711163,1.0,1.0,0.0,6,0,0,0,0,0,1,1,0,0,0
1773433380,24.397806,24.377192,0.062,0.06718363,0.0,31.72065,1.0,1.0,0.0,6,0,0,0,0,0,1,1,0,0,0
1773926136,24.37761,24.377823,0.0744,0.06756444,0.0,31.729956,1.0,1.0,0.0,6,0,0,0,0,0,1,1,0,0,0
1774431796,24.418003,24.376669,0.062,0.06676443,0.0,31.739277,1.0,1.0,0.0,6,0,0,0,0,0,1,1,0,0,0
1774937479,24.357412,24.378563,0.0744,0.06737292,0.0,31.748812,1.0,1.0,0.0,6,0,0,0,0,0,1,1,0,0,0
1775430247,24.357412,24.382326,0.062,0.0684798,0.0,31.758284,1.0,1.0,0.0,6,0,0,0,0,0,1,1,0,0,0
1775935702,24.37761,24.379095,0.062,0.06663821,0.0,31.76749,1.0,1.0,0.0,6,0,0,0,0,0,1,1,0,0,0
1776441588,24.337215,24.375072,0.0744,0.067220144,0.0,31.77695,1.0,1.0,0.0,6,0,0,0,0,0,1,1,0,0,0
1776935230,24.357412,24.377695,0.062,0.065759405,0.0,31.785866,1.0,1.0,0.0,6,0,0,0,0,0,1,1,0,0,0
1777440801,24.37761,24.378887,0.062,0.067603186,0.0,31.795525,1.0,1.0,0.0,6,0,0,0,0,0,1,1,0,0,0
1777945354,24.418003,24.388277,0.0744,0.06816293,0.0,31.805132,1.0,1.0,0.0,6,0,0,0,0,0,1,1,0,0,0
1778439009,24.458397,24.396172,0.0744,0.06894971,0.0,31.814587,1.0,1.0,0.0,6,0,0,0,0,0,1,1,0,0,0
1778944532,24.357412,24.389412,0.062,0.066153996,0.0,31.823513,1.0,1.0,0.0,6,0,0,0,0,0,1,1,0,0,0
1779450132,24.317019,24.362576,0.0744,0.06694476,0.0,31.832968,1.0,1.0,0.0,6,0,0,0,0,0,1,1,0,0,0
1779955025,24.357412,24.355213,0.062,0.06675633,0.0,31.84232,1.0,1.0,0.0,6,0,0,0,0,0,1,1,0,0,0
1780448874,24.337215,24.351906,0.062,0.06548196,0.0,31.851234,1.0,1.0,0.0,6,0,0,0,0,0,1,1,0,0,0
1780954050,24.276625,24.33539,0.0744,0.06433367,0.0,31.860191,1.0,1.0,0.0,6,0,0,0,0,0,1,1,0,0,0
1781459814,24.276625,24.31939,0.062,0.06470143,0.0,31.86939,1.0,1.0,0.0,6,0,0,0,0,0,1,1,0,0,0
1781953370,23.872686,24.219368,0.062,0.06348852,0.0,31.878002,1.0,1.0,0.0,6,0,0,0,0,0,1,1,0,0,0
1782458233,24.195837,24.172543,0.062,0.06532326,0.0,31.887318,1.0,1.0,0.0,6,0,0,0,0,0,1,1,0,0,0
1782963703,24.094852,24.152445,0.062,0.06531123,0.0,31.896456,1.0,1.0,0.0,6,0,0,0,0,0,1,1,0,0,0
1783457241,24.155443,24.15421,0.0744,0.06538813,0.0,31.90541,1.0,1.0,0.0,6,0,0,0,0,0,1,1,0,0,0
1783959026,24.11505,24.143017,0.062,0.06494435,0.0,31.914375,1.0,1.0,0.0,6,0,0,0,0,0,1,1,0,0,0
1784464007,24.135246,24.132217,0.062,0.06591323,0.0,31.923733,1.0,1.0,0.0,6,0,0,0,0,0,1,1,0,0,0
1784969314,24.216034,24.149872,0.062,0.065256864,0.0,31.93284,1.0,1.0,0.0,6,0,0,0,0,0,1,1,0,0,0
1785475274,24.216034,24.176256,0.062,0.06571088,0.0,31.942137,1.0,1.0,0.0,6,0,0,0,0,0,1,1,0,0,0
1785968614,24.276625,24.191101,0.062,0.0667827,0.0,31.951418,1.0,1.0,0.0,6,0,0,0,0,0,1,1,0,0,0
1786473633,24.23623,24.211512,0.062,0.06879399,0.0,31.961195,1.0,1.0,0.0,6,0,0,0,0,0,1,1,0,0,0
1786978959,24.23623,24.215673,0.049599998,0.06721223,0.0,31.970526,1.0,1.0,0.0,6,0,0,0,0,0,1,1,0,0,0
1787472516,24.317019,24.240526,0.062,0.065643415,0.0,31.9794,1.0,1.0,0.0,6,0,0,0,0,0,1,1,0,0,0
1787978246,24.276625,24.258003,0.0744,0.06615516,0.0,31.988647,1.0,1.0,0.0,6,0,0,0,0,0,1,1,0,0,0
1788483276,24.317019,24.27229,0.062,0.06681577,0.0,31.998,1.0,1.0,0.0,6,0,0,0,0,0,1,1,0,0,0
1788976587,24.296822,24.27514,0.0744,0.06742539,0.0,32.00732,1.0,1.0,0.0,6,0,0,0,0,0,1,1,0,0,0
1789482166,24.276625,24.280752,0.062,0.06728151,0.0,32.01672,1.0,1.0,0.0,6,0,0,0,0,0,1,1,0,0,0
1789987779,24.317019,24.28044,0.0744,0.068131134,0.0,32.026367,1.0,1.0,0.0,6,0,0,0,0,0,1,1,0,0,0
1790481627,24.296822,24.280806,0.062,0.0678549,0.0,32.035614,1.0,1.0,0.0,6,0,0,0,0,0,1,1,0,0,0
1790986198,24.296822,24.277502,0.0744,0.067753665,0.0,32.045036,1.0,1.0,0.0,6,0,0,0,0,0,1,1,0,0,0
1791492057,24.17564,24.263672,0.0744,0.06751547,0.0,32.054478,1.0,1.0,0.0,6,0,0,0,0,0,1,1,0,0,0
1791985370,24.23623,24.253838,0.0744,0.06619659,0.0,32.063423,1.0,1.0,0.0,6,0,0,0,0,0,1,1,0,0,0
1792490981,24.317019,24.25129,0.062,0.06556655,0.0,32.0725,1.0,1.0,0.0,6,0,0,0,0,0,1,1,0,0,0
1792995804,24.276625,24.245735,0.0744,0.06701575,0.0,32.082058,1.0,1.0,0.0,6,0,0,0,0,0,1,1,0,0,0
1793489420,24.216034,24.246023,0.0744,0.06771619,0.0,32.091373,1.0,1.0,0.0,6,0,0,0,0,0,1,1,0,0,0
1793994964,24.17564,24.235931,0.062,0.06756948,0.0,32.10086,1.0,1.0,0.0,6,0,0,0,0,0,1,1,0,0,0
1794500836,24.216034,24.222124,0.062,0.06534973,0.0,32.109783,1.0,1.0,0.0,6,0,0,0,0,0,1,1,0,0,0
1794993414,24.23623,24.224672,0.0744,0.06651872,0.0,32.119015,1.0,1.0,0.0,6,0,0,0,0,0,1,1,0,0,0
1795499256,24.23623,24.22391,0.062,0.06618771,0.0,32.1283,1.0,1.0,0.0,6,0,0,0,0,0,1,1,0,0,0
1796004544,24.23623,24.228117,0.0744,0.06610708,0.0,32.137547,1.0,1.0,0.0,6,0,0,0,0,0,1,1,0,0,0
1796498190,24.256428,24.233582,0.0744,0.06546666,0.0,32.14643,1.0,1.0,0.0,6,0,0,0,0,0,1,1,0,0,0
1797003254,24.216034,24.227915,0.0744,0.06533444,0.0,32.15555,1.0,1.0,0.0,6,0,0,0,0,0,1,1,0,0,0
1797508849,24.23623,24.223398,0.062,0.06606285,0.0,32.164925,1.0,1.0,0.0,6,0,0,0,0,0,1,1,0,0,0
1798014413,24.216034,24.22204,0.0744,0.06705965,0.0,32.174385,1.0,1.0,0.0,6,0,0,0,0,0,1,1,0,0,0
1798507818,24.23623,24.222141,0.049599998,0.06543996,0.0,32.183178,1.0,1.0,0.0,6,0,0,0,0,0,1,1,0,0,0
1799013710,24.216034,24.220125,0.062,0.06722889,0.0,32.1928,1.0,1.0,0.0,6,0,0,0,0,0,1,1,0,0,0
1799518221,24.195837,24.21665,0.0744,0.06670152,0.0,32.20207,1.0,1.0,0.0,6,0,0,0,0,0,1,1,0,0,0
1800011657,24.216034,24.206804,0.062,0.06612761,0.0,32.2111,1.0,1.0,0.0,6,0,0,0,0,0,1,1,0,0,0
1800517388,24.11505,24.192598,0.062,0.06506805,0.0,32.220184,1.0,1.0,0.0,6,0,0,0,0,0,1,1,0,0,0
1801023271,24.17564,24.186562,0.049599998,0.0649197,0.0,32.22939,1.0,1.0,0.0,6,0,0,0,0,0,1,1,0,0,0
1801515739,24.216034,24.187138,0.0744,0.06560038,0.0,32.23845,1.0,1.0,0.0,6,0,0,0,0,0,1,1,0,0,0
1802021761,24.195837,24.19733,0.049599998,0.06678449,0.0,32.24798,1.0,1.0,0.0,6,0,0,0,0,0,1,1,0,0,0
1802527034,24.216034,24.205315,0.0744,0.06614837,0.0,32.257294,1.0,1.0,0.0,6,0,0,0,0,0,1,1,0,0,0
1803020952,24.256428,24.214615,0.062,0.06630732,0.0,32.266376,1.0,1.0,0.0,6,0,0,0,0,0,1,1,0,0,0
1803526230,24.216034,24.21891,0.062,0.06784281,0.0,32.276062,1.0,1.0,0.0,6,0,0,0,0,0,1,1,0,0,0
1804030966,24.23623,24.221209,0.0744,0.06717284,0.0,32.28537,1.0,1.0,0.0,6,0,0,0,0,0,1,1,0,0,0
1804524483,24.276625,24.232582,0.0744,0.065803014,0.0,32.2942,1.0,1.0,0.0,6,0,0,0,0,0,1,1,0,0,0
1805030499,24.195837,24.237751,0.062,0.065969825,0.0,32.303448,1.0,1.0,0.0,6,0,0,0,0,0,1,1,0,0,0
1805535677,24.23623,24.235558,0.099199995,0.06630377,0.0,32.312706,1.0,1.0,0.0,6,0,0,0,0,0,1,1,0,0,0
1806028800,24.23623,24.221596,0.0744,0.06805603,0.0,32.32219,1.0,1.0,0.0,6,0,0,0,0,0,1,1,0,0,0
1806534148,24.216034,24.211147,0.0744,0.06843469,0.0,32.331806,1.0,1.0,0.0,6,0,0,0,0,0,1,1,0,0,0
1807039756,24.216034,24.21018,0.062,0.06737193,0.0,32.341217,1.0,1.0,0.0,6,0,0,0,0,0,1,1,0,0,0
1807533411,24.195837,24.198986,0.0744,0.06578533,0.0,32.35009,1.0,1.0,0.0,6,0,0,0,0,0,1,1,0,0,0
1808039244,24.155443,24.193325,0.062,0.06669588,0.0,32.359562,1.0,1.0,0.0,6,0,0,0,0,0,1,1,0,0,0
1808543736,24.11505,24.184977,0.099199995,0.065570414,0.0,32.36858,1.0,1.0,0.0,6,0,0,0,0,0,1,1,0,0,0
1809037373,24.155443,24.175652,0.0744,0.065857165,0.0,32.377563,1.0,1.0,0.0,6,0,0,0,0,0,1,1,0,0,0
1809543232,24.256428,24.205627,0.062,0.06548667,0.0,32.386726,1.0,1.0,0.0,6,0,0,0,0,0,1,1,0,0,0
1810048557,24.216034,24.215677,0.0744,0.06621041,0.0,32.396137,1.0,1.0,0.0,6,0,0,0,0,0,1,1,0,0,0
1810553364,24.256428,24.215256,0.062,0.06614997,0.0,32.40535,1.0,1.0,0.0,6,0,0,0,0,0,1,1,0,0,0
1811059358,24.256428,24.22566,0.0744,0.06668015,0.0,32.414764,1.0,1.0,0.0,6,0,0,0,0,0,1,1,0,0,0
1811552607,24.195837,24.228848,0.062,0.06623292,0.0,32.423782,1.0,1.0,0.0,6,0,0,0,0,0,1,1,0,0,0
1812058215,24.195837,24.222794,0.0744,0.06779536,0.0,32.433437,1.0,1.0,0.0,6,0,0,0,0,0,1,1,0,0,0
1812563843,24.11505,24.207762,0.0744,0.06785373,0.0,32.442966,1.0,1.0,0.0,6,0,0,0,0,0,1,1,0,0,0
1813056558,24.11505,24.172832,0.062,0.06548025,0.0,32.451706,1.0,1.0,0.0,6,0,0,0,0,0,1,1,0,0,0
1813562203,24.11505,24.17047,0.0744,0.06634253,0.0,32.461178,1.0,1.0,0.0,6,0,0,0,0,0,1,1,0,0,0
1814067792,24.11505,24.160229,0.0744,0.067017235,0.0,32.470615,1.0,1.0,0.0,6,0,0,0,0,0,1,1,0,0,0
1814561380,24.135246,24.143305,0.062,0.06602622,0.0,32.479572,1.0,1.0,0.0,6,0,0,0,0,0,1,1,0,0,0
1815066118,24.155443,24.13945,0.062,0.0656617,0.0,32.488724,1.0,1.0,0.0,6,0,0,0,0,0,1,1,0,0,0
1815571829,24.094852,24.130663,0.062,0.06737818,0.0,32.49839,1.0,1.0,0.0,6,0,0,0,0,0,1,1,0,0,0
1816065420,24.195837,24.132051,0.0744,0.06486425,0.0,32.50705,1.0,1.0,0.0,6,0,0,0,0,0,1,1,0,0,0
1816570934,24.17564,24.14373,0.062,0.06596152,0.0,32.516457,1.0,1.0,0.0,6,0,0,0,0,0,1,1,0,0,0
1817076614,24.11505,24.138798,0.062,0.06498497,0.0,32.525486,1.0,1.0,0.0,6,0,0,0,0,0,1,1,0,0,0
1817569400,24.155443,24.131449,0.062,0.06669217,0.0,32.53476,1.0,1.0,0.0,6,0,0,0,0,0,1,1,0,0,0
1818075027,24.094852,24.115976,0.062,0.06618402,0.0,32.543922,1.0,1.0,0.0,6,0,0,0,0,0,1,1,0,0,0
1818580666,24.11505,24.112577,0.0744,0.06538113,0.0,32.552933,1.0,1.0,0.0,6,0,0,0,0,0,1,1,0,0,0
1819074146,24.135246,24.11597,0.062,0.06708337,0.0,32.562214,1.0,1.0,0.0,6,0,0,0,0,0,1,1,0,0,0
1819578925,24.074656,24.112886,0.099199995,0.067786865,0.0,32.571743,1.0,1.0,0.0,6,0,0,0,0,0,1,1,0,0,0
1820084840,24.155443,24.103529,0.062,0.06580489,0.0,32.580776,1.0,1.0,0.0,6,0,0,0,0,0,1,1,0,0,0
1820578225,24.074656,24.101627,0.062,0.065378144,0.0,32.58973,1.0,1.0,0.0,6,0,0,0,0,0,1,1,0,0,0
1821083802,24.11505,24.100151,0.0744,0.0657528,0.0,32.59893,1.0,1.0,0.0,6,0,0,0,0,0,1,1,0,0,0
1821589592,24.155443,24.116623,0.062,0.06565098,0.0,32.60817,1.0,1.0,0.0,6,0,0,0,0,0,1,1,0,0,0
1822082147,24.094852,24.131927,0.0744,0.066862896,0.0,32.61744,1.0,1.0,0.0,6,0,0,0,0,0,1,1,0,0,0
1822587748,24.17564,24.139027,0.062,0.066545755,0.0,32.626797,1.0,1.0,0.0,6,0,0,0,0,0,1,1,0,0,0
1823093665,24.155443,24.142578,0.062,0.06586995,0.0,32.635956,1.0,1.0,0.0,6,0,0,0,0,0,1,1,0,0,0
1823586958,24.074656,24.137985,0.062,0.0668841,0.0,32.64527,1.0,1.0,0.0,6,0,0,0,0,0,1,1,0,0,0
1824091826,24.195837,24.136282,0.0744,0.06703893,0.0,32.654613,1.0,1.0,0.0,6,0,0,0,0,0,1,1,0,0,0
1824597305,24.094852,24.13755,0.0744,0.06746635,0.0,32.664032,1.0,1.0,0.0,6,0,0,0,0,0,1,1,0,0,0
1825090886,24.11505,24.143353,0.062,0.067113996,0.0,32.67316,1.0,1.0,0.0,6,0,0,0,0,0,1,1,0,0,0
1825596551,24.11505,24.145485,0.024799999,0.063986585,0.0,32.68191,1.0,1.0,0.0,6,0,0,0,0,0,1,1,0,0,0
1826102208,24.074656,24.144213,0.049599998,0.06491953,0.0,32.691143,1.0,1.0,0.0,6,0,0,0,0,0,1,1,0,0,0
1826594999,24.135246,24.137714,0.062,0.06558195,0.0,32.70016,1.0,1.0,0.0,6,0,0,0,0,0,1,1,0,0,0
1827100469,24.135246,24.136845,0.049599998,0.06415798,0.0,32.709126,1.0,1.0,0.0,6,0,0,0,0,0,1,1,0,0,0
1827606408,24.094852,24.125547,0.0744,0.064557575,0.0,32.718204,1.0,1.0,0.0,6,0,0,0,0,0,1,1,0,0,0
1828099861,24.17564,24.121723,0.062,0.06532394,0.0,32.727318,1.0,1.0,0.0,6,0,0,0,0,0,1,1,0,0,0
1828605576,24.094852,24.131657,0.062,0.06550324,0.0,32.736565,1.0,1.0,0.0,6,0,0,0,0,0,1,1,0,0,0
1829110204,24.155443,24.126688,0.024799999,0.06570479,0.0,32.745834,1.0,1.0,0.0,6,0,0,0,0,0,1,1,0,0,0
1829603755,24.11505,24.119694,0.062,0.065686546,0.0,32.75483,1.0,1.0,0.0,6,0,0,0,0,0,1,1,0,0,0
1830109400,24.074656,24.10786,0.062,0.06635985,0.0,32.764236,1.0,1.0,0.0,6,0,0,0,0,0,1,1,0,0,0
1830614868,24.195837,24.124979,0.062,0.06467286,0.0,32.773228,1.0,1.0,0.0,6,0,0,0,0,0,1,1,0,0,0
1831107763,24.11505,24.130798,0.062,0.06561965,0.0,32.78229,1.0,1.0,0.0,6,0,0,0,0,0,1,1,0,0,0
1831613602,24.11505,24.134329,0.062,0.06416592,0.0,32.791092,1.0,1.0,0.0,6,0,0,0,0,0,1,1,0,0,0
1832118997,24.11505,24.129086,0.062,0.06594842,0.0,32.800545,1.0,1.0,0.0,6,0,0,0,0,0,1,1,0,0,0
1832612807,24.155443,24.1247,0.062,0.0652093,0.0,32.809402,1.0,1.0,0.0,6,0,0,0,0,0,1,1,0,0,0
1833117376,24.155443,24.127533,0.0744,0.06506823,0.0,32.81853,1.0,1.0,0.0,6,0,0,0,0,0,1,1,0,0,0
1833623277,24.135246,24.127441,0.062,0.06494325,0.0,32.827618,1.0,1.0,0.0,6,0,0,0,0,0,1,1,0,0,0
1834116463,24.094852,24.116716,0.062,0.06396944,0.0,32.83631,1.0,1.0,0.0,6,0,0,0,0,0,1,1,0,0,0
1834622215,24.11505,24.105844,0.0744,0.0641591,0.0,32.845352,1.0,1.0,0.0,6,0,0,0,0,0,1,1,0,0,0
1835127762,24.074656,24.081799,0.062,0.06336194,0.0,32.854095,1.0,1.0,0.0,6,0,0,0,0,0,1,1,0,0,0
1835621304,24.135246,24.089281,0.062,0.063977115,0.0,32.862907,1.0,1.0,0.0,6,0,0,0,0,0,1,1,0,0,0
1836126133,24.054459,24.087717,0.062,0.06534877,0.0,32.872227,1.0,1.0,0.0,6,0,0,0,0,0,1,1,0,0,0
1836631831,24.11505,24.101366,0.062,0.06423783,0.0,32.881226,1.0,1.0,0.0,6,0,0,0,0,0,1,1,0,0,0
1837125341,24.216034,24.125605,0.062,0.066459514,0.0,32.89055,1.0,1.0,0.0,6,0,0,0,0,0,1,1,0,0,0
1837630980,24.135246,24.134571,0.0744,0.066512205,0.0,32.89987,1.0,1.0,0.0,6,0,0,0,0,0,1,1,0,0,0
1838135769,24.11505,24.111603,0.062,0.06501687,0.0,32.908756,1.0,1.0,0.0,6,0,0,0,0,0,1,1,0,0,0
1838629343,24.155443,24.131525,0.062,0.0649382,0.0,32.91754,1.0,1.0,0.0,6,0,0,0,0,0,1,1,0,0,0
1839134987,24.155443,24.141308,0.0744,0.06426864,0.0,32.926517,1.0,1.0,0.0,6,0,0,0,0,0,1,1,0,0,0
1839640549,24.17564,24.15122,0.0744,0.0641588,0.0,32.93554,1.0,1.0,0.0,6,0,0,0,0,0,1,1,0,0,0
1840134130,24.216034,24.166782,0.062,0.06469722,0.0,32.9445,1.0,1.0,0.0,6,0,0,0,0,0,1,1,0,0,0
1840638977,24.155443,24.184282,0.0744,0.06579445,0.0,32.953808,1.0,1.0,0.0,6,0,0,0,0,0,1,1,0,0,0
1841144581,24.11505,24.152008,0.0744,0.06586941,0.0,32.963005,1.0,1.0,0.0,6,0,0,0,0,0,1,1,0,0,0
1841638449,24.11505,24.146435,0.099199995,0.0656979,0.0,32.971992,1.0,1.0,0.0,6,0,0,0,0,0,1,1,0,0,0
1842143728,24.155443,24.147171,0.062,0.06608308,0.0,32.981293,1.0,1.0,0.0,6,0,0,0,0,0,1,1,0,0,0
1842649705,24.11505,24.14088,0.0744,0.06616799,0.0,32.99058,1.0,1.0,0.0,6,0,0,0,0,0,1,1,0,0,0
1843142407,24.155443,24.135754,0.062,0.06600441,0.0,32.99959,1.0,1.0,0.0,6,0,0,0,0,0,1,1,0,0,0
1843647797,24.11505,24.134907,0.0744,0.06630399,0.0,33.008873,1.0,1.0,0.0,6,0,0,0,0,0,1,1,0,0,0
1844153413,24.155443,24.13006,0.0744,0.06598349,0.0,33.018124,1.0,1.0,0.0,6,0,0,0,0,0,1,1,0,0,0
1844646969,24.135246,24.13475,0.062,0.06592234,0.0,33.027172,1.0,1.0,0.0,6,0,0,0,0,0,1,1,0,0,0
1845152602,24.135246,24.14048,0.062,0.065131865,0.0,33.036324,1.0,1.0,0.0,6,0,0,0,0,0,1,1,0,0,0
1845657284,24.135246,24.133875,0.0744,0.06509657,0.0,33.045418,1.0,1.0,0.0,6,0,0,0,0,0,1,1,0,0,0
1846151250,24.155443,24.131714,0.062,0.06412345,0.0,33.05409,1.0,1.0,0.0,6,0,0,0,0,0,1,1,0,0,0
1846656528,24.155443,24.140917,0.062,0.06547855,0.0,33.0634,1.0,1.0,0.0,6,0,0,0,0,0,1,1,0,0,0
1847162225,24.11505,24.135288,0.049599998,0.06490132,0.0,33.072517,1.0,1.0,0.0,6,0,0,0,0,0,1,1,0,0,0
1847655833,24.074656,24.120344,0.062,0.064256124,0.0,33.08127,1.0,1.0,0.0,6,0,0,0,0,0,1,1,0,0,0
1848161408,23.953474,24.11376,0.062,0.06463464,0.0,33.09034,1.0,1.0,0.0,6,0,0,0,0,0,1,1,0,0,0
1848666099,24.11505,24.045753,0.062,0.065125905,0.0,33.099567,1.0,1.0,0.0,6,0,0,0,0,0,1,1,0,0,0
1849159809,24.11505,24.069038,0.0744,0.0648849,0.0,33.108402,1.0,1.0,0.0,6,0,0,0,0,0,1,1,0,0,0
1849665382,24.074656,24.095194,0.062,0.06568095,0.0,33.117672,1.0,1.0,0.0,6,0,0,0,0,0,1,1,0,0,0
1850170965,24.094852,24.105639,0.062,0.0645621,0.0,33.1265,1.0,1.0,0.0,6,0,0,0,0,0,1,1,0,0,0
1850663717,24.034262,24.089811,0.0744,0.06451014,0.0,33.135284,1.0,1.0,0.0,6,0,0,0,0,0,1,1,0,0,0
1851169578,24.054459,24.076353,0.062,0.06418236,0.0,33.144203,1.0,1.0,0.0,6,0,0,0,0,0,1,1,0,0,0
1851675226,23.973671,24.054228,0.062,0.0645794,0.0,33.153267,1.0,1.0,0.0,6,0,0,0,0,0,1,1,0,0,0
1852168818,23.993868,24.03371,0.062,0.06518581,0.0,33.162235,1.0,1.0,0.0,6,0,0,0,0,0,1,1,0,0,0
1852674202,24.014065,24.019138,0.062,0.06389713,0.0,33.17105,1.0,1.0,0.0,6,0,0,0,0,0,1,1,0,0,0
1853180194,24.034262,24.016027,0.0744,0.063876666,0.0,33.18015,1.0,1.0,0.0,6,0,0,0,0,0,1,1,0,0,0
1853672594,23.993868,24.017712,0.062,0.06478912,0.0,33.189087,1.0,1.0,0.0,6,0,0,0,0,0,1,1,0,0,0
1854178438,24.034262,24.019262,0.062,0.0647013,0.0,33.198174,1.0,1.0,0.0,6,0,0,0,0,0,1,1,0,0,0
1854683745,24.034262,24.035795,0.062,0.06444782,0.0,33.207203,1.0,1.0,0.0,6,0,0,0,0,0,1,1,0,0,0
1855189600,24.11505,24.052578,0.0744,0.06519981,0.0,33.216465,1.0,1.0,0.0,6,0,0,0,0,0,1,1,0,0,0
1855694107,24.135246,24.062674,0.0744,0.0648497,0.0,33.225445,1.0,1.0,0.0,6,0,0,0,0,0,1,1,0,0,0
1856199756,24.074656,24.060589,0.062,0.06500628,0.0,33.234562,1.0,1.0,0.0,6,0,0,0,0,0,1,1,0,0,0
1856693600,24.11505,24.067223,0.0744,0.06361238,0.0,33.2431,1.0,1.0,0.0,6,0,0,0,0,0,1,1,0,0,0
1857199033,24.155443,24.087032,0.062,0.06281852,0.0,33.251915,1.0,1.0,0.0,6,0,0,0,0,0,1,1,0,0,0
1857704606,24.11505,24.09856,0.062,0.06110692,0.0,33.260323,1.0,1.0,0.0,6,0,0,0,0,0,1,1,0,0,0
1858198632,24.094852,24.097673,0.0744,0.063634954,0.0,33.269287,1.0,1.0,0.0,6,0,0,0,0,0,1,1,0,0,0
1858703346,24.074656,24.09329,0.062,0.06433166,0.0,33.278477,1.0,1.0,0.0,6,0,0,0,0,0,1,1,0,0,0
1859208933,24.11505,24.0896,0.062,0.06428932,0.0,33.28746,1.0,1.0,0.0,6,0,0,0,0,0,1,1,0,0,0
1859702025,24.094852,24.091995,0.049599998,0.06285769,0.0,33.295906,1.0,1.0,0.0,6,0,0,0,0,0,1,1,0,0,0
1860207830,24.094852,24.090698,0.062,0.06320708,0.0,33.30482,1.0,1.0,0.0,6,0,0,0,0,0,1,1,0,0,0
1860713423,23.973671,24.08568,0.062,0.06289081,0.0,33.313675,1.0,1.0,0.0,6,0,0,0,0,0,1,1,0,0,0
1861207002,23.973671,24.07357,0.062,0.063736476,0.0,33.322456,1.0,1.0,0.0,6,0,0,0,0,0,1,1,0,0,0
1861711684,24.034262,24.069519,0.062,0.06428172,0.0,33.331516,1.0,1.0,0.0,6,0,0,0,0,0,1,1,0,0,0
1862217334,24.054459,24.063736,0.062,0.065135054,0.0,33.3408,1.0,1.0,0.0,6,0,0,0,0,0,1,1,0,0,0
1862711033,24.074656,24.063623,0.062,0.06302426,0.0,33.349255,1.0,1.0,0.0,6,0,0,0,0,0,1,1,0,0,0
1863216633,24.034262,24.061537,0.062,0.064071156,0.0,33.358345,1.0,1.0,0.0,6,0,0,0,0,0,1,1,0,0,0
1863722122,24.074656,24.058855,0.062,0.063716106,0.0,33.367252,1.0,1.0,0.0,6,0,0,0,0,0,1,1,0,0,0
1864215998,24.054459,24.054243,0.0744,0.063675344,0.0,33.375916,1.0,1.0,0.0,6,0,0,0,0,0,1,1,0,0,0
1864720596,23.993868,24.047634,0.0744,0.064929076,0.0,33.385105,1.0,1.0,0.0,6,0,0,0,0,0,1,1,0,0,0
1865226073,24.054459,24.043291,0.062,0.06428142,0.0,33.39409,1.0,1.0,0.0,6,0,0,0,0,0,1,1,0,0,0
1865719809,24.014065,24.0385,0.062,0.06415153,0.0,33.402905,1.0,1.0,0.0,6,0,0,0,0,0,1,1,0,0,0
1866225287,24.034262,24.033825,0.0744,0.06498076,0.0,33.41214,1.0,1.0,0.0,6,0,0,0,0,0,1,1,0,0,0
1866730981,23.993868,24.037403,0.062,0.06500796,0.0,33.4213,1.0,1.0,0.0,6,0,0,0,0,0,1,1,0,0,0
1867223747,24.054459,24.034935,0.062,0.064501174,0.0,33.430065,1.0,1.0,0.0,6,0,0,0,0,0,1,1,0,0,0
1867729351,24.054459,24.044806,0.0744,0.06327199,0.0,33.438816,1.0,1.0,0.0,6,0,0,0,0,0,1,1,0,0,0
1868234977,24.034262,24.04335,0.062,0.06325393,0.0,33.447727,1.0,1.0,0.0,6,0,0,0,0,0,1,1,0,0,0
1868728628,24.054459,24.042612,0.062,0.061564017,0.0,33.455933,1.0,1.0,0.0,6,0,0,0,0,0,1,1,0,0,0
1869234188,23.993868,24.040827,0.049599998,0.062941134,0.0,33.464947,1.0,1.0,0.0,6,0,0,0,0,0,1,1,0,0,0
1869739004,23.973671,24.029749,0.062,0.06299775,0.0,33.473766,1.0,1.0,0.0,6,0,0,0,0,0,1,1,0,0,0
1870232518,24.014065,24.022524,0.062,0.0637092,0.0,33.482594,1.0,1.0,0.0,6,0,0,0,0,0,1,1,0,0,0
1870738445,23.993868,24.02067,0.062,0.062683664,0.0,33.49126,1.0,1.0,0.0,6,0,0,0,0,0,1,1,0,0,0
1871244225,23.993868,24.019554,0.062,0.063962765,0.0,33.500427,1.0,1.0,0.0,6,0,0,0,0,0,1,1,0,0,0
1871737387,23.993868,24.016897,0.062,0.06444278,0.0,33.50934,1.0,1.0,0.0,6,0,0,0,0,0,1,1,0,0,0
1872242904,24.014065,24.018421,0.062,0.06372103,0.0,33.518127,1.0,1.0,0.0,6,0,0,0,0,0,1,1,0,0,0
1872747707,23.993868,24.019255,0.062,0.06313729,0.0,33.526943,1.0,1.0,0.0,6,0,0,0,0,0,1,1,0,0,0
1873242366,23.973671,24.012104,0.062,0.06412905,0.0,33.53579,1.0,1.0,0.0,6,0,0,0,0,0,1,1,0,0,0
1873747011,24.034262,24.016016,0.062,0.063718244,0.0,33.5446,1.0,1.0,0.0,6,0,0,0,0,0,1,1,0,0,0
1874252603,24.11505,24.030558,0.062,0.06309533,0.0,33.5533,1.0,1.0,0.0,6,0,0,0,0,0,1,1,0,0,0
1874746124,24.11505,24.04539,0.0744,0.06428996,0.0,33.5622,1.0,1.0,0.0,6,0,0,0,0,0,1,1,0,0,0
1875251774,24.074656,24.043589,0.062,0.06613196,0.0,33.57165,1.0,1.0,0.0,6,0,0,0,0,0,1,1,0,0,0
1875757324,23.953474,24.028772,0.062,0.06413981,0.0,33.580475,1.0,1.0,0.0,6,0,0,0,0,0,1,1,0,0,0
1876262136,23.953474,24.018923,0.049599998,0.06414628,0.0,33.589455,1.0,1.0,0.0,6,0,0,0,0,0,1,1,0,0,0
1876755795,23.993868,24.014544,0.062,0.06415447,0.0,33.598236,1.0,1.0,0.0,6,0,0,0,0,0,1,1,0,0,0
1877273709,23.91308,24.001524,0.062,0.06399054,0.0,33.607395,1.0,1.0,0.0,6,0,0,0,0,0,1,1,0,0,0
1877779012,23.993868,24.000668,0.0868,0.06522224,0.0,33.616673,1.0,1.0,0.0,6,0,0,0,0,0,1,1,0,0,0
1878284513,24.034262,24.001167,0.062,0.06466708,0.0,33.625706,1.0,1.0,0.0,6,0,0,0,0,0,1,1,0,0,0
1878778214,23.973671,24.000795,0.0744,0.06410269,0.0,33.634396,1.0,1.0,0.0,6,0,0,0,0,0,1,1,0,0,0
1879283456,23.993868,23.999178,0.049599998,0.06364101,0.0,33.64333,1.0,1.0,0.0,6,0,0,0,0,0,1,1,0,0,0
1879788548,24.014065,24.002314,0.062,0.06262273,0.0,33.65203,1.0,1.0,0.0,6,0,0,0,0,0,1,1,0,0,0
1880282205,23.993868,23.999723,0.0744,0.061967365,0.0,33.660324,1.0,1.0,0.0,6,0,0,0,0,0,1,1,0,0,0
1880787761,24.014065,23.995964,0.062,0.062249325,0.0,33.66911,1.0,1.0,0.0,6,0,0,0,0,0,1,1,0,0,0
1881293402,23.993868,23.996964,0.062,0.06365396,0.0,33.67817,1.0,1.0,0.0,6,0,0,0,0,0,1,1,0,0,0
1881786472,23.993868,23.998755,0.062,0.06395995,0.0,33.687073,1.0,1.0,0.0,6,0,0,0,0,0,1,1,0,0,0
1882291726,23.993868,23.990814,0.062,0.064097755,0.0,33.696102,1.0,1.0,0.0,6,0,0,0,0,0,1,1,0,0,0
1882797644,23.973671,23.989117,0.062,0.06313929,0.0,33.70481,1.0,1.0,0.0,6,0,0,0,0,0,1,1,0,0,0
1883291002,23.973671,23.986967,0.062,0.06295384,0.0,33.713467,1.0,1.0,0.0,6,0,0,0,0,0,1,1,0,0,0
1883796810,23.993868,23.990795,0.062,0.06307182,0.0,33.722214,1.0,1.0,0.0,6,0,0,0,0,0,1,1,0,0,0
1884302168,23.973671,23.987846,0.062,0.06255907,0.0,33.730938,1.0,1.0,0.0,6,0,0,0,0,0,1,1,0,0,0
1884796035,23.91308,23.98364,0.062,0.06289845,0.0,33.739655,1.0,1.0,0.0,6,0,0,0,0,0,1,1,0,0,0
1885301424,23.973671,23.973557,0.062,0.06374713,0.0,33.748684,1.0,1.0,0.0,6,0,0,0,0,0,1,1,0,0,0
1885806165,23.993868,23.962936,0.062,0.06399077,0.0,33.75769,1.0,1.0,0.0,6,0,0,0,0,0,1,1,0,0,0
1886300013,23.933277,23.95643,0.062,0.062515296,0.0,33.766033,1.0,1.0,0.0,6,0,0,0,0,0,1,1,0,0,0
1886805635,23.973671,23.95352,0.062,0.06313222,0.0,33.77495,1.0,1.0,0.0,6,0,0,0,0,0,1,1,0,0,0
1887311032,23.953474,23.960955,0.062,0.06310151,0.0,33.783733,1.0,1.0,0.0,6,0,0,0,0,0,1,1,0,0,0
1887804617,23.973671,23.961311,0.062,0.061440885,0.0,33.792023,1.0,1.0,0.0,6,0,0,0,0,0,1,1,0,0,0
1888310229,23.933277,23.962477,0.062,0.06180719,0.0,33.800713,1.0,1.0,0.0,6,0,0,0,0,0,1,1,0,0,0
1888815027,24.014065,23.96361,0.062,0.0618046,0.0,33.809357,1.0,1.0,0.0,6,0,0,0,0,0,1,1,0,0,0
1889308819,23.993868,23.966782,0.062,0.06262069,0.0,33.817993,1.0,1.0,0.0,6,0,0,0,0,0,1,1,0,0,0
1889814275,23.973671,23.970762,0.062,0.061486136,0.0,33.82648,1.0,1.0,0.0,6,0,0,0,0,0,1,1,0,0,0
1890319715,23.993868,23.976822,0.0744,0.061373167,0.0,33.8351,1.0,1.0,0.0,6,0,0,0,0,0,1,1,0,0,0
1890813421,23.993868,23.977083,0.049599998,0.0619068,0.0,33.84372,1.0,1.0,0.0,6,0,0,0,0,0,1,1,0,0,0
1891319013,23.973671,23.976824,0.062,0.062131602,0.0,33.852547,1.0,1.0,0.0,6,0,0,0,0,0,1,1,0,0,0
1891824014,23.953474,23.979652,0.062,0.06273521,0.0,33.861404,1.0,1.0,0.0,6,0,0,0,0,0,1,1,0,0,0
1892317318,23.993868,23.984432,0.0744,0.06278561,0.0,33.86999,1.0,1.0,0.0,6,0,0,0,0,0,1,1,0,0,0
1892822937,23.993868,23.986551,0.062,0.06449462,0.0,33.87918,1.0,1.0,0.0,6,0,0,0,0,0,1,1,0,0,0
1893328834,23.973671,23.976768,0.0744,0.06483061,0.0,33.888264,1.0,1.0,0.0,6,0,0,0,0,0,1,1,0,0,0
1893822155,23.993868,23.973177,0.062,0.06460359,0.0,33.897038,1.0,1.0,0.0,6,0,0,0,0,0,1,1,0,0,0
1894328209,23.953474,23.976034,0.062,0.0636151,0.0,33.905876,1.0,1.0,0.0,6,0,0,0,0,0,1,1,0,0,0
1894833688,23.953474,23.97058,0.062,0.06234786,0.0,33.91451,1.0,1.0,0.0,6,0,0,0,0,0,1,1,0,0,0
1895326118,23.973671,23.969358,0.062,0.061459493,0.0,33.922737,1.0,1.0,0.0,6,0,0,0,0,0,1,1,0,0,0
1895832036,23.973671,23.973272,0.0744,0.06235387,0.0,33.93153,1.0,1.0,0.0,6,0,0,0,0,0,1,1,0,0,0
1896337413,23.892883,23.970455,0.062,0.06326737,0.0,33.940594,1.0,1.0,0.0,6,0,0,0,0,0,1,1,0,0,0
1896831004,23.933277,23.965343,0.062,0.062214334,0.0,33.949066,1.0,1.0,0.0,6,0,0,0,0,0,1,1,0,0,0
1897336603,24.014065,23.958029,0.0744,0.06357415,0.0,33.95817,1.0,1.0,0.0,6,0,0,0,0,0,1,1,0,0,0
1897842091,23.91308,23.95221,0.062,0.06419288,0.0,33.96723,1.0,1.0,0.0,6,0,0,0,0,0,1,1,0,0,0
1898334986,23.953474,23.950897,0.062,0.061988786,0.0,33.975452,1.0,1.0,0.0,6,0,0,0,0,0,1,1,0,0,0
1898841407,23.91308,23.952164,0.0744,0.06335333,0.0,33.9845,1.0,1.0,0.0,6,0,0,0,0,0,1,1,0,0,0
1899334158,24.014065,23.956781,0.062,0.062627815,0.0,33.992977,1.0,1.0,0.0,6,0,0,0,0,0,1,1,0,0,0
1899839763,23.953474,23.951782,0.0744,0.06222088,0.0,34.001637,1.0,1.0,0.0,6,0,0,0,0,0,1,1,0,0,0
1900345291,23.933277,23.947556,0.0744,0.06297319,0.0,34.010536,1.0,1.0,0.0,6,0,0,0,0,0,1,1,0,0,0
1900838858,23.953474,23.945393,0.062,0.06270546,0.0,34.01915,1.0,1.0,0.0,6,0,0,0,0,0,1,1,0,0,0
1901344567,23.872686,23.931952,0.099199995,0.063297614,0.0,34.028065,1.0,1.0,0.0,6,0,0,0,0,0,1,1,0,0,0
1901850147,23.953474,23.930912,0.062,0.061458047,0.0,34.036434,1.0,1.0,0.0,6,0,0,0,0,0,1,1,0,0,0
1902343663,23.993868,23.931425,0.062,0.06146335,0.0,34.044918,1.0,1.0,0.0,6,0,0,0,0,0,1,1,0,0,0
1902848855,23.933277,23.92978,0.062,0.061824434,0.0,34.05364,1.0,1.0,0.0,6,0,0,0,0,0,1,1,0,0,0
1903354137,23.91308,23.927689,0.0372,0.060984667,0.0,34.062126,1.0,1.0,0.0,6,0,0,0,0,0,1,1,0,0,0
1903847824,23.91308,23.927948,0.062,0.0636309,0.0,34.071045,1.0,1.0,0.0,6,0,0,0,0,0,1,1,0,0,0
1904353653,23.91308,23.929768,0.062,0.06265072,0.0,34.079746,1.0,1.0,0.0,6,0,0,0,0,0,1,1,0,0,0
1904859213,23.953474,23.925076,0.062,0.06329816,0.0,34.088787,1.0,1.0,0.0,6,0,0,0,0,0,1,1,0,0,0
1905352521,23.872686,23.91599,0.062,0.06426982,0.0,34.097687,1.0,1.0,0.0,6,0,0,0,0,0,1,1,0,0,0
1905858422,23.91308,23.914167,0.062,0.062937506,0.0,34.106365,1.0,1.0,0.0,6,0,0,0,0,0,1,1,0,0,0
1906363777,23.91308,23.904305,0.062,0.062227756,0.0,34.11503,1.0,1.0,0.0,6,0,0,0,0,0,1,1,0,0,0
1908868109,23.91308,23.85738,0.062,0.06168496,0.0,34.15856,1.0,1.0,0.0,6,0,0,0,0,0,1,1,0,0,0
1909372880,23.872686,23.864376,0.062,0.062133256,0.0,34.167328,1.0,1.0,0.0,6,0,0,0,0,0,1,1,0,0,0
1909877379,23.872686,23.869452,0.0372,0.06156893,0.0,34.175964,1.0,1.0,0.0,6,0,0,0,0,0,1,1,0,0,0
1910371033,23.892883,23.872234,0.062,0.06311003,0.0,34.184696,1.0,1.0,0.0,6,0,0,0,0,0,1,1,0,0,0
1910876536,23.91308,23.874403,0.062,0.0628158,0.0,34.19343,1.0,1.0,0.0,6,0,0,0,0,0,1,1,0,0,0
1911382448,23.91308,23.876253,0.0744,0.06218018,0.0,34.20207,1.0,1.0,0.0,6,0,0,0,0,0,1,1,0,0,0
1911875802,23.85249,23.8763,0.062,0.06235602,0.0,34.21069,1.0,1.0,0.0,6,0,0,0,0,0,1,1,0,0,0
1912381606,23.85249,23.875275,0.062,0.06276522,0.0,34.21961,1.0,1.0,0.0,6,0,0,0,0,0,1,1,0,0,0
1912887254,23.892883,23.876572,0.0744,0.062497444,0.0,34.228317,1.0,1.0,0.0,6,0,0,0,0,0,1,1,0,0,0
1913392549,23.872686,23.87253,0.0744,0.06402827,0.0,34.2374,1.0,1.0,0.0,6,0,0,0,0,0,1,1,0,0,0
1913886245,23.892883,23.871592,0.049599998,0.06171095,0.0,34.24556,1.0,1.0,0.0,6,0,0,0,0,0,1,1,0,0,0
1914390952,23.85249,23.871433,0.062,0.06241062,0.0,34.254368,1.0,1.0,0.0,6,0,0,0,0,0,1,1,0,0,0
1914896519,23.85249,23.87135,0.0744,0.061992183,0.0,34.263065,1.0,1.0,0.0,6,0,0,0,0,0,1,1,0,0,0
1915390399,23.892883,23.87106,0.049599998,0.06269644,0.0,34.271767,1.0,1.0,0.0,6,0,0,0,0,0,1,1,0,0,0
1915896242,23.872686,23.871006,0.062,0.061858047,0.0,34.280346,1.0,1.0,0.0,6,0,0,0,0,0,1,1,0,0,0
1916401727,23.791899,23.860857,0.062,0.06301133,0.0,34.289253,1.0,1.0,0.0,6,0,0,0,0,0,1,1,0,0,0
1916895212,23.85249,23.855299,0.049599998,0.06250782,0.0,34.29783,1.0,1.0,0.0,6,0,0,0,0,0,1,1,0,0,0
1917400586,23.85249,23.849535,0.062,0.0644266,0.0,34.306953,1.0,1.0,0.0,6,0,0,0,0,0,1,1,0,0,0
1917906216,23.832293,23.846601,0.062,0.0631639,0.0,34.315693,1.0,1.0,0.0,6,0,0,0,0,0,1,1,0,0,0
1918398978,23.812096,23.841747,0.062,0.063483395,0.0,34.3245,1.0,1.0,0.0,6,0,0,0,0,0,1,1,0,0,0
1918904625,23.872686,23.840067,0.062,0.06306373,0.0,34.333256,1.0,1.0,0.0,6,0,0,0,0,0,1,1,0,0,0
1919410190,23.812096,23.842499,0.062,0.062134206,0.0,34.341885,1.0,1.0,0.0,6,0,0,0,0,0,1,1,0,0,0
1919903756,23.85249,23.837212,0.062,0.062102336,0.0,34.350338,1.0,1.0,0.0,6,0,0,0,0,0,1,1,0,0,0
1920409404,23.85249,23.833448,0.049599998,0.061445225,0.0,34.358963,1.0,1.0,0.0,6,0,0,0,0,0,1,1,0,0,0
1920914911,23.832293,23.835512,0.062,0.060806956,0.0,34.367363,1.0,1.0,0.0,6,0,0,0,0,0,1,1,0,0,0
1921408869,23.832293,23.834866,0.062,0.0614649,0.0,34.375904,1.0,1.0,0.0,6,0,0,0,0,0,1,1,0,0,0
1921914143,23.832293,23.831276,0.0744,0.062244162,0.0,34.384724,1.0,1.0,0.0,6,0,0,0,0,0,1,1,0,0,0
1922420060,23.85249,23.833834,0.062,0.062573306,0.0,34.39356,1.0,1.0,0.0,6,0,0,0,0,0,1,1,0,0,0
1922912581,23.812096,23.832678,0.024799999,0.061869543,0.0,34.402092,1.0,1.0,0.0,6,0,0,0,0,0,1,1,0,0,0
1923418213,23.791899,23.831486,0.062,0.06334621,0.0,34.411034,1.0,1.0,0.0,6,0,0,0,0,0,1,1,0,0,0
1923923720,23.832293,23.835531,0.0744,0.061927464,0.0,34.419594,1.0,1.0,0.0,6,0,0,0,0,0,1,1,0,0,0
1924417424,23.832293,23.834473,0.062,0.061897367,0.0,34.42808,1.0,1.0,0.0,6,0,0,0,0,0,1,1,0,0,0
1924923285,23.832293,23.833714,0.062,0.062383987,0.0,34.43692,1.0,1.0,0.0,6,0,0,0,0,0,1,1,0,0,0
1925428631,23.791899,23.83088,0.062,0.06240838,0.0,34.445656,1.0,1.0,0.0,6,0,0,0,0,0,1,1,0,0,0
1925922167,23.812096,23.828981,0.0372,0.062127613,0.0,34.45415,1.0,1.0,0.0,6,0,0,0,0,0,1,1,0,0,0
1926427827,23.85249,23.827375,0.062,0.06240156,0.0,34.462948,1.0,1.0,0.0,6,0,0,0,0,0,1,1,0,0,0
1926933383,23.832293,23.822754,0.062,0.06225596,0.0,34.47165,1.0,1.0,0.0,6,0,0,0,0,0,1,1,0,0,0
1927426464,23.85249,23.820166,0.062,0.062448412,0.0,34.4803,1.0,1.0,0.0,6,0,0,0,0,0,1,1,0,0,0
1927931777,23.791899,23.816685,0.062,0.060143415,0.0,34.48855,1.0,1.0,0.0,6,0,0,0,0,0,1,1,0,0,0
1928437409,23.812096,23.815308,0.049599998,0.060394827,0.0,34.49713,1.0,1.0,0.0,6,0,0,0,0,0,1,1,0,0,0
1928931295,23.832293,23.815832,0.062,0.061442174,0.0,34.505707,1.0,1.0,0.0,6,0,0,0,0,0,1,1,0,0,0
1929436555,23.832293,23.814611,0.062,0.06177935,0.0,34.51452,1.0,1.0,0.0,6,0,0,0,0,0,1,1,0,0,0
1929942147,23.812096,23.816818,0.049599998,0.06166761,0.0,34.523216,1.0,1.0,0.0,6,0,0,0,0,0,1,1,0,0,0
1930436051,23.85249,23.81794,0.049599998,0.062228497,0.0,34.53185,1.0,1.0,0.0,6,0,0,0,0,0,1,1,0,0,0
1930941367,23.832293,23.818924,0.024799999,0.060273074,0.0,34.540134,1.0,1.0,0.0,6,0,0,0,0,0,1,1,0,0,0
1931446930,23.812096,23.797491,0.062,0.06264865,0.0,34.549164,1.0,1.0,0.0,6,0,0,0,0,0,1,1,0,0,0
1931940549,23.791899,23.791712,0.062,0.06083608,0.0,34.557365,1.0,1.0,0.0,6,0,0,0,0,0,1,1,0,0,0
1932445388,23.711113,23.771114,0.062,0.06091691,0.0,34.565945,1.0,1.0,0.0,6,0,0,0,0,0,1,1,0,0,0
1932951025,23.589931,23.753721,0.0744,0.061467987,0.0,34.57461,1.0,1.0,0.0,6,0,0,0,0,0,1,1,0,0,0
1933456630,23.711113,23.738804,0.062,0.062021848,0.0,34.583447,1.0,1.0,0.0,6,0,0,0,0,0,1,1,0,0,0
1933950091,23.812096,23.741352,0.062,0.062161025,0.0,34.59201,1.0,1.0,0.0,6,0,0,0,0,0,1,1,0,0,0
1934455791,23.771704,23.753609,0.062,0.062580496,0.0,34.600887,1.0,1.0,0.0,6,0,0,0,0,0,1,1,0,0,0
1934961358,23.812096,23.773626,0.062,0.061680444,0.0,34.60946,1.0,1.0,0.0,6,0,0,0,0,0,1,1,0,0,0
1935455030,23.832293,23.790764,0.062,0.06232275,0.0,34.61812,1.0,1.0,0.0,6,0,0,0,0,0,1,1,0,0,0
1935960607,23.832293,23.795408,0.062,0.060824644,0.0,34.626526,1.0,1.0,0.0,6,0,0,0,0,0,1,1,0,0,0
1936466415,23.791899,23.803915,0.049599998,0.06302459,0.0,34.635548,1.0,1.0,0.0,6,0,0,0,0,0,1,1,0,0,0
1936960043,23.791899,23.807135,0.049599998,0.061746318,0.0,34.643917,1.0,1.0,0.0,6,0,0,0,0,0,1,1,0,0,0
1937465653,23.85249,23.808096,0.062,0.06228203,0.0,34.65275,1.0,1.0,0.0,6,0,0,0,0,0,1,1,0,0,0
1937970185,23.812096,23.806969,0.062,0.06358457,0.0,34.661846,1.0,1.0,0.0,6,0,0,0,0,0,1,1,0,0,0
1938464116,23.791899,23.80671,0.049599998,0.062905915,0.0,34.670456,1.0,1.0,0.0,6,0,0,0,0,0,1,1,0,0,0
1938969652,23.791899,23.80413,0.062,0.06237256,0.0,34.679054,1.0,1.0,0.0,6,0,0,0,0,0,1,1,0,0,0
1939475034,23.791899,23.801012,0.062,0.06271629,0.0,34.687912,1.0,1.0,0.0,6,0,0,0,0,0,1,1,0,0,0
1939968602,23.791899,23.7975,0.062,0.06235326,0.0,34.696407,1.0,1.0,0.0,6,0,0,0,0,0,1,1,0,0,0
1940474252,23.711113,23.794434,0.062,0.061906505,0.0,34.705055,1.0,1.0,0.0,6,0,0,0,0,0,1,1,0,0,0
1940980023,23.751507,23.802147,0.049599998,0.061607648,0.0,34.713676,1.0,1.0,0.0,6,0,0,0,0,0,1,1,0,0,0
1941473663,23.812096,23.799133,0.062,0.063107915,0.0,34.72247,1.0,1.0,0.0,6,0,0,0,0,0,1,1,0,0,0
1941978263,23.832293,23.794998,0.062,0.062768035,0.0,34.73123,1.0,1.0,0.0,6,0,0,0,0,0,1,1,0,0,0
1942483717,23.791899,23.79408,0.0744,0.063865654,0.0,34.74027,1.0,1.0,0.0,6,0,0,0,0,0,1,1,0,0,0
1942977341,23.832293,23.789738,0.062,0.061896533,0.0,34.748558,1.0,1.0,0.0,6,0,0,0,0,0,1,1,0,0,0
1943482956,23.812096,23.797709,0.062,0.06195793,0.0,34.757397,1.0,1.0,0.0,6,0,0,0,0,0,1,1,0,0,0
1943988814,23.812096,23.8024,0.062,0.06223836,0.0,34.76618,1.0,1.0,0.0,6,0,0,0,0,0,1,1,0,0,0
1944482170,23.812096,23.808928,0.099199995,0.064057894,0.0,34.775112,1.0,1.0,0.0,6,0,0,0,0,0,1,1,0,0,0
1944987772,23.791899,23.811853,0.062,0.06235195,0.0,34.783688,1.0,1.0,0.0,6,0,0,0,0,0,1,1,0,0,0
1945493322,23.791899,23.809864,0.062,0.06318601,0.0,34.792683,1.0,1.0,0.0,6,0,0,0,0,0,1,1,0,0,0
1945986930,23.751507,23.810896,0.062,0.06277665,0.0,34.80125,1.0,1.0,0.0,6,0,0,0,0,0,1,1,0,0,0
1946492609,23.812096,23.8104,0.0744,0.062179826,0.0,34.809956,1.0,1.0,0.0,6,0,0,0,0,0,1,1,0,0,0
1946998479,23.812096,23.808453,0.0744,0.061729133,0.0,34.818584,1.0,1.0,0.0,6,0,0,0,0,0,1,1,0,0,0
1947492051,23.771704,23.805653,0.062,0.061190546,0.0,34.82692,1.0,1.0,0.0,6,0,0,0,0,0,1,1,0,0,0
1947997347,23.791899,23.802492,0.062,0.06160986,0.0,34.835587,1.0,1.0,0.0,6,0,0,0,0,0,1,1,0,0,0
1948503288,23.73131,23.794456,0.062,0.061414156,0.0,34.844124,1.0,1.0,0.0,6,0,0,0,0,0,1,1,0,0,0
1948995828,23.751507,23.791357,0.062,0.062764496,0.0,34.852802,1.0,1.0,0.0,6,0,0,0,0,0,1,1,0,0,0
1949501420,23.751507,23.78258,0.062,0.06324318,0.0,34.861763,1.0,1.0,0.0,6,0,0,0,0,0,1,1,0,0,0
1950006928,23.791899,23.781555,0.062,0.06313348,0.0,34.870667,1.0,1.0,0.0,6,0,0,0,0,0,1,1,0,0,0
1950500525,23.771704,23.779934,0.049599998,0.06291945,0.0,34.879364,1.0,1.0,0.0,6,0,0,0,0,0,1,1,0,0,0
1951006206,23.751507,23.77412,0.049599998,0.062360324,0.0,34.88807,1.0,1.0,0.0,6,0,0,0,0,0,1,1,0,0,0
1951511755,23.73131,23.763401,0.062,0.061654646,0.0,34.89661,1.0,1.0,0.0,6,0,0,0,0,0,1,1,0,0,0
1952005325,23.812096,23.765932,0.0744,0.06252412,0.0,34.90527,1.0,1.0,0.0,6,0,0,0,0,0,1,1,0,0,0
1952510964,23.711113,23.767664,0.062,0.061247963,0.0,34.913643,1.0,1.0,0.0,6,0,0,0,0,0,1,1,0,0,0
1953016513,23.73131,23.762278,0.062,0.062474735,0.0,34.92264,1.0,1.0,0.0,6,0,0,0,0,0,1,1,0,0,0
1953510172,23.751507,23.755217,0.062,0.06254396,0.0,34.931168,1.0,1.0,0.0,6,0,0,0,0,0,1,1,0,0,0
1954016011,23.791899,23.7513,0.049599998,0.06190629,0.0,34.939865,1.0,1.0,0.0,6,0,0,0,0,0,1,1,0,0,0
1954521422,23.771704,23.748156,0.062,0.06295438,0.0,34.94873,1.0,1.0,0.0,6,0,0,0,0,0,1,1,0,0,0
1955015005,23.751507,23.750826,0.062,0.06322763,0.0,34.957397,1.0,1.0,0.0,6,0,0,0,0,0,1,1,0,0,0
1955519691,23.751507,23.757444,0.0744,0.062305007,0.0,34.966003,1.0,1.0,0.0,6,0,0,0,0,0,1,1,0,0,0
1956025690,23.791899,23.758867,0.049599998,0.062108874,0.0,34.974747,1.0,1.0,0.0,6,0,0,0,0,0,1,1,0,0,0
1956519012,23.791899,23.76907,0.062,0.060242686,0.0,34.982838,1.0,1.0,0.0,6,0,0,0,0,0,1,1,0,0,0
1957024612,23.771704,23.770618,0.062,0.061327424,0.0,34.991535,1.0,1.0,0.0,6,0,0,0,0,0,1,1,0,0,0
1957530123,23.751507,23.771692,0.062,0.061594527,0.0,35.00015,1.0,1.0,0.0,6,0,0,0,0,0,1,1,0,0,0
1958023763,23.711113,23.770256,0.0744,0.06262987,0.0,35.00875,1.0,1.0,0.0,6,0,0,0,0,0,1,1,0,0,0
1958529458,23.85249,23.76999,0.062,0.06055555,0.0,35.017002,1.0,1.0,0.0,6,0,0,0,0,0,1,1,0,0,0
1959035341,23.751507,23.774288,0.049599998,0.061719857,0.0,35.0258,1.0,1.0,0.0,6,0,0,0,0,0,1,1,0,0,0
1959528615,23.73131,23.767973,0.0744,0.062457148,0.0,35.03445,1.0,1.0,0.0,6,0,0,0,0,0,1,1,0,0,0
1960034219,23.812096,23.759344,0.062,0.062574305,0.0,35.04336,1.0,1.0,0.0,6,0,0,0,0,0,1,1,0,0,0
1960539815,23.751507,23.757544,0.0744,0.061629135,0.0,35.051903,1.0,1.0,0.0,6,0,0,0,0,0,1,1,0,0,0
1961033623,23.711113,23.745178,0.062,0.061107174,0.0,35.060272,1.0,1.0,0.0,6,0,0,0,0,0,1,1,0,0,0
1961538422,23.73131,23.739803,0.062,0.06219179,0.0,35.069077,1.0,1.0,0.0,6,0,0,0,0,0,1,1,0,0,0
1962044011,23.751507,23.739983,0.062,0.062107667,0.0,35.077827,1.0,1.0,0.0,6,0,0,0,0,0,1,1,0,0,0
1962537325,23.711113,23.740088,0.049599998,0.06050723,0.0,35.08604,1.0,1.0,0.0,6,0,0,0,0,0,1,1,0,0,0
1963043459,23.73131,23.734976,0.062,0.060878787,0.0,35.09457,1.0,1.0,0.0,6,0,0,0,0,0,1,1,0,0,0
1963548656,23.711113,23.737247,0.062,0.060447186,0.0,35.10301,1.0,1.0,0.0,6,0,0,0,0,0,1,1,0,0,0
1964042209,23.711113,23.744509,0.062,0.060693163,0.0,35.111336,1.0,1.0,0.0,6,0,0,0,0,0,1,1,0,0,0
1964547756,23.711113,23.740637,0.062,0.061512902,0.0,35.120125,1.0,1.0,0.0,6,0,0,0,0,0,1,1,0,0,0
1965053390,23.711113,23.738806,0.062,0.062494535,0.0,35.128983,1.0,1.0,0.0,6,0,0,0,0,0,1,1,0,0,0
1965546903,23.73131,23.73442,0.049599998,0.061270054,0.0,35.1373,1.0,1.0,0.0,6,0,0,0,0,0,1,1,0,0,0
1966052676,23.73131,23.724846,0.062,0.060998414,0.0,35.14588,1.0,1.0,0.0,6,0,0,0,0,0,1,1,0,0,0
1966558496,23.73131,23.72513,0.062,0.060945917,0.0,35.15446,1.0,1.0,0.0,6,0,0,0,0,0,1,1,0,0,0
1967052031,23.711113,23.72632,0.062,0.061961696,0.0,35.163055,1.0,1.0,0.0,6,0,0,0,0,0,1,1,0,0,0
1967557411,23.67072,23.71012,0.062,0.061003476,0.0,35.171513,1.0,1.0,0.0,6,0,0,0,0,0,1,1,0,0,0
1968062919,23.690916,23.693377,0.062,0.059878774,0.0,35.17977,1.0,1.0,0.0,6,0,0,0,0,0,1,1,0,0,0
1968568625,23.73131,23.688602,0.0744,0.060473863,0.0,35.18831,1.0,1.0,0.0,6,0,0,0,0,0,1,1,0,0,0
1969061625,23.690916,23.697609,0.062,0.06204152,0.0,35.19692,1.0,1.0,0.0,6,0,0,0,0,0,1,1,0,0,0
1969567010,23.690916,23.704216,0.062,0.06121327,0.0,35.205406,1.0,1.0,0.0,6,0,0,0,0,0,1,1,0,0,0
1970070859,23.771704,23.719515,0.049599998,0.061391253,0.0,35.214077,1.0,1.0,0.0,6,0,0,0,0,0,1,1,0,0,0
1970574624,23.832293,23.76428,0.062,0.061719075,0.0,35.222702,1.0,1.0,0.0,6,0,0,0,0,0,1,1,0,0,0
1971067777,23.650522,23.758339,0.062,0.061170135,0.0,35.231026,1.0,1.0,0.0,6,0,0,0,0,0,1,1,0,0,0
1971573643,23.690916,23.734318,0.062,0.06144892,0.0,35.239674,1.0,1.0,0.0,6,0,0,0,0,0,1,1,0,0,0
1972079209,23.67072,23.717457,0.024799999,0.060435046,0.0,35.248123,1.0,1.0,0.0,6,0,0,0,0,0,1,1,0,0,0
1972572512,23.650522,23.69628,0.049599998,0.061610885,0.0,35.25678,1.0,1.0,0.0,6,0,0,0,0,0,1,1,0,0,0
1973078522,23.569735,23.6649,0.049599998,0.061353307,0.0,35.26543,1.0,1.0,0.0,6,0,0,0,0,0,1,1,0,0,0
1973583864,23.650522,23.658333,0.062,0.060235098,0.0,35.27375,1.0,1.0,0.0,6,0,0,0,0,0,1,1,0,0,0
1974077897,23.630325,23.641893,0.062,0.060268074,0.0,35.282085,1.0,1.0,0.0,6,0,0,0,0,0,1,1,0,0,0
1974583204,23.650522,23.62583,0.062,0.061357662,0.0,35.290783,1.0,1.0,0.0,6,0,0,0,0,0,1,1,0,0,0
1975088856,23.630325,23.63583,0.049599998,0.062013295,0.0,35.299564,1.0,1.0,0.0,6,0,0,0,0,0,1,1,0,0,0
1975582031,23.690916,23.646284,0.049599998,0.0615361,0.0,35.307922,1.0,1.0,0.0,6,0,0,0,0,0,1,1,0,0,0
1976087831,23.67072,23.64524,0.062,0.06194183,0.0,35.316586,1.0,1.0,0.0,6,0,0,0,0,0,1,1,0,0,0
1976593645,23.650522,23.644793,0.062,0.061512038,0.0,35.32517,1.0,1.0,0.0,6,0,0,0,0,0,1,1,0,0,0
1977099276,23.650522,23.647121,0.062,0.06145697,0.0,35.33382,1.0,1.0,0.0,6,0,0,0,0,0,1,1,0,0,0
1977592558,23.630325,23.63536,0.062,0.06165798,0.0,35.342266,1.0,1.0,0.0,6,0,0,0,0,0,1,1,0,0,0
1978098395,23.52934,23.627428,0.062,0.06358038,0.0,35.351383,1.0,1.0,0.0,6,0,0,0,0,0,1,1,0,0,0
1978603755,23.549538,23.603516,0.0744,0.06250838,0.0,35.360085,1.0,1.0,0.0,6,0,0,0,0,0,1,1,0,0,0
1979096581,23.549538,23.595142,0.062,0.061680607,0.0,35.368416,1.0,1.0,0.0,6,0,0,0,0,0,1,1,0,0,0
1979602178,23.52934,23.570879,0.049599998,0.06159417,0.0,35.37706,1.0,1.0,0.0,6,0,0,0,0,0,1,1,0,0,0
1980107994,23.549538,23.56032,0.0744,0.060749453,0.0,35.38539,1.0,1.0,0.0,6,0,0,0,0,0,1,1,0,0,0
1980613687,23.488947,23.552275,0.062,0.06030428,0.0,35.393795,1.0,1.0,0.0,6,0,0,0,0,0,1,1,0,0,0
1981107315,23.46875,23.53366,0.062,0.059912357,0.0,35.401955,1.0,1.0,0.0,6,0,0,0,0,0,1,1,0,0,0
1981612892,23.509144,23.519348,0.062,0.060459178,0.0,35.410538,1.0,1.0,0.0,6,0,0,0,0,0,1,1,0,0,0
1982118539,23.488947,23.516226,0.0744,0.061327826,0.0,35.419155,1.0,1.0,0.0,6,0,0,0,0,0,1,1,0,0,0
1982611692,23.448553,23.507017,0.049599998,0.061178323,0.0,35.427605,1.0,1.0,0.0,6,0,0,0,0,0,1,1,0,0,0
1983117602,23.509144,23.49785,0.062,0.06136388,0.0,35.436222,1.0,1.0,0.0,6,0,0,0,0,0,1,1,0,0,0
1983622895,23.46875,23.484436,0.062,0.06144372,0.0,35.444843,1.0,1.0,0.0,6,0,0,0,0,0,1,1,0,0,0
1984116562,23.448553,23.47211,0.062,0.059991296,0.0,35.45296,1.0,1.0,0.0,6,0,0,0,0,0,1,1,0,0,0
1984622180,23.448553,23.470922,0.062,0.0607066,0.0,35.461525,1.0,1.0,0.0,6,0,0,0,0,0,1,1,0,0,0
1985127664,23.46875,23.464972,0.062,0.061334427,0.0,35.470146,1.0,1.0,0.0,6,0,0,0,0,0,1,1,0,0,0
1985621368,23.387962,23.457098,0.062,0.05958876,0.0,35.47816,1.0,1.0,0.0,6,0,0,0,0,0,1,1,0,0,0
1986126910,23.46875,23.453897,0.062,0.061315104,0.0,35.486946,1.0,1.0,0.0,6,0,0,0,0,0,1,1,0,0,0
1986632436,23.46875,23.458374,0.062,0.0606282,0.0,35.495277,1.0,1.0,0.0,6,0,0,0,0,0,1,1,0,0,0
1987126180,23.428356,23.452112,0.062,0.061284877,0.0,35.50373,1.0,1.0,0.0,6,0,0,0,0,0,1,1,0,0,0
1987631782,23.46875,23.459267,0.062,0.060114503,0.0,35.512096,1.0,1.0,0.0,6,0,0,0,0,0,1,1,0,0,0
1988137434,23.509144,23.464003,0.062,0.06011668,0.0,35.52059,1.0,1.0,0.0,6,0,0,0,0,0,1,1,0,0,0
1988630984,23.488947,23.475574,0.062,0.060781073,0.0,35.52899,1.0,1.0,0.0,6,0,0,0,0,0,1,1,0,0,0
1989136567,23.549538,23.487406,0.062,0.061271552,0.0,35.537533,1.0,1.0,0.0,6,0,0,0,0,0,1,1,0,0,0
1989641423,23.52934,23.497852,0.024799999,0.060735565,0.0,35.546013,1.0,1.0,0.0,6,0,0,0,0,0,1,1,0,0,0
1990135001,23.509144,23.507776,0.062,0.059043005,0.0,35.55394,1.0,1.0,0.0,6,0,0,0,0,0,1,1,0,0,0
1990641309,23.569735,23.531546,0.062,0.059076656,0.0,35.562275,1.0,1.0,0.0,6,0,0,0,0,0,1,1,0,0,0
1991146104,23.509144,23.539974,0.0372,0.05888761,0.0,35.5706,1.0,1.0,0.0,6,0,0,0,0,0,1,1,0,0,0
1991640593,23.488947,23.534819,0.062,0.05961988,0.0,35.57881,1.0,1.0,0.0,6,0,0,0,0,0,1,1,0,0,0
1992145395,23.46875,23.496704,0.062,0.059797715,0.0,35.58721,1.0,1.0,0.0,6,0,0,0,0,0,1,1,0,0,0
1992650900,23.52934,23.497177,0.062,0.06136342,0.0,35.596046,1.0,1.0,0.0,6,0,0,0,0,0,1,1,0,0,0
1993144623,23.690916,23.530003,0.062,0.060744867,0.0,35.604275,1.0,1.0,0.0,6,0,0,0,0,0,1,1,0,0,0
1993650213,23.569735,23.569094,0.049599998,0.059017524,0.0,35.612484,1.0,1.0,0.0,6,0,0,0,0,0,1,1,0,0,0
1994155664,23.448553,23.527199,0.062,0.059774145,0.0,35.620945,1.0,1.0,0.0,6,0,0,0,0,0,1,1,0,0,0
1994649608,23.387962,23.4822,0.049599998,0.061311994,0.0,35.62952,1.0,1.0,0.0,6,0,0,0,0,0,1,1,0,0,0
1995154935,23.40816,23.445549,0.049599998,0.06099977,0.0,35.638065,1.0,1.0,0.0,6,0,0,0,0,0,1,1,0,0,0
1995660846,23.488947,23.431383,0.062,0.061009634,0.0,35.646603,1.0,1.0,0.0,6,0,0,0,0,0,1,1,0,0,0
1996166465,23.52934,23.464893,0.062,0.060381062,0.0,35.655064,1.0,1.0,0.0,6,0,0,0,0,0,1,1,0,0,0
1996659780,23.509144,23.488056,0.062,0.060942948,0.0,35.663418,1.0,1.0,0.0,6,0,0,0,0,0,1,1,0,0,0
1997165394,23.52934,23.489876,0.062,0.060301185,0.0,35.671833,1.0,1.0,0.0,6,0,0,0,0,0,1,1,0,0,0
1997670896,23.46875,23.491089,0.062,0.059775274,0.0,35.680195,1.0,1.0,0.0,6,0,0,0,0,0,1,1,0,0,0
1998164501,23.46875,23.482904,0.062,0.06066355,0.0,35.688606,1.0,1.0,0.0,6,0,0,0,0,0,1,1,0,0,0
1998670499,23.428356,23.463844,0.049599998,0.06049194,0.0,35.697113,1.0,1.0,0.0,6,0,0,0,0,0,1,1,0,0,0
1999175843,23.46875,23.464088,0.049599998,0.06030124,0.0,35.70549,1.0,1.0,0.0,6,0,0,0,0,0,1,1,0,0,0
1999669406,23.52934,23.475794,0.062,0.061722394,0.0,35.714058,1.0,1.0,0.0,6,0,0,0,0,0,1,1,0,0,0
2000174957,23.509144,23.49219,0.062,0.06117982,0.0,35.722553,1.0,1.0,0.0,6,0,0,0,0,0,1,1,0,0,0
2000680634,23.428356,23.486374,0.062,0.060723178,0.0,35.731003,1.0,1.0,0.0,6,0,0,0,0,0,1,1,0,0,0
2001174465,23.40816,23.476831,0.062,0.060839377,0.0,35.73934,1.0,1.0,0.0,6,0,0,0,0,0,1,1,0,0,0
2001679795,23.67072,23.514688,0.062,0.06142847,0.0,35.74799,1.0,1.0,0.0,6,0,0,0,0,0,1,1,0,0,0
2002185407,23.67072,23.547647,0.062,0.061262444,0.0,35.75656,1.0,1.0,0.0,6,0,0,0,0,0,1,1,0,0,0
2002679034,23.569735,23.58009,0.062,0.061400823,0.0,35.764984,1.0,1.0,0.0,6,0,0,0,0,0,1,1,0,0,0
2003184575,23.509144,23.571653,0.062,0.06122517,0.0,35.77356,1.0,1.0,0.0,6,0,0,0,0,0,1,1,0,0,0
2003686387,23.448553,23.5407,0.049599998,0.06026664,0.0,35.78182,1.0,1.0,0.0,6,0,0,0,0,0,1,1,0,0,0
2004191825,23.428356,23.489447,0.062,0.05957658,0.0,35.790176,1.0,1.0,0.0,6,0,0,0,0,0,1,1,0,0,0
2004685881,23.46875,23.460554,0.049599998,0.06110326,0.0,35.79876,1.0,1.0,0.0,6,0,0,0,0,0,1,1,0,0,0
2005190864,23.488947,23.46646,0.062,0.06103442,0.0,35.807297,1.0,1.0,0.0,6,0,0,0,0,0,1,1,0,0,0
2005696802,23.488947,23.467043,0.062,0.060836107,0.0,35.815876,1.0,1.0,0.0,6,0,0,0,0,0,1,1,0,0,0
2006202463,23.46875,23.467903,0.0372,0.059944194,0.0,35.824345,1.0,1.0,0.0,6,0,0,0,0,0,1,1,0,0,0
2006707831,23.509144,23.474592,0.062,0.06038135,0.0,35.83283,1.0,1.0,0.0,6,0,0,0,0,0,1,1,0,0,0
2007201726,23.52934,23.48967,0.0744,0.06003846,0.0,35.841034,1.0,1.0,0.0,6,0,0,0,0,0,1,1,0,0,0
2007706857,23.46875,23.50368,0.062,0.059048552,0.0,35.849236,1.0,1.0,0.0,6,0,0,0,0,0,1,1,0,0,0
2008212882,23.589931,23.521843,0.049599998,0.05855503,0.0,35.857494,1.0,1.0,0.0,6,0,0,0,0,0,1,1,0,0,0
2008706186,23.569735,23.52957,0.062,0.059695903,0.0,35.86565,1.0,1.0,0.0,6,0,0,0,0,0,1,1,0,0,0
2009212021,23.589931,23.541296,0.062,0.060184922,0.0,35.874073,1.0,1.0,0.0,6,0,0,0,0,0,1,1,0,0,0
2009717345,23.52934,23.541058,0.062,0.061414536,0.0,35.88278,1.0,1.0,0.0,6,0,0,0,0,0,1,1,0,0,0
2010210961,23.488947,23.529942,0.062,0.06168552,0.0,35.891308,1.0,1.0,0.0,6,0,0,0,0,0,1,1,0,0,0
2010716585,23.488947,23.513475,0.0372,0.06060954,0.0,35.899647,1.0,1.0,0.0,6,0,0,0,0,0,1,1,0,0,0
2011222238,23.509144,23.516827,0.062,0.05953206,0.0,35.907894,1.0,1.0,0.0,6,0,0,0,0,0,1,1,0,0,0
2011715682,23.509144,23.523752,0.062,0.0582049,0.0,35.91572,1.0,1.0,0.0,6,0,0,0,0,0,1,1,0,0,0
2012220905,23.569735,23.528973,0.0744,0.060982812,0.0,35.924572,1.0,1.0,0.0,6,0,0,0,0,0,1,1,0,0,0
2012726876,23.610128,23.547235,0.062,0.059279475,0.0,35.9327,1.0,1.0,0.0,6,0,0,0,0,0,1,1,0,0,0
2013220608,23.569735,23.552176,0.062,0.059599936,0.0,35.940903,1.0,1.0,0.0,6,0,0,0,0,0,1,1,0,0,0
2013726187,23.488947,23.55032,0.0744,0.061192036,0.0,35.949642,1.0,1.0,0.0,6,0,0,0,0,0,1,1,0,0,0
2014231839,23.488947,23.530489,0.062,0.06002544,0.0,35.95789,1.0,1.0,0.0,6,0,0,0,0,0,1,1,0,0,0
2014724530,23.569735,23.528826,0.062,0.060590778,0.0,35.966206,1.0,1.0,0.0,6,0,0,0,0,0,1,1,0,0,0
2015231274,23.488947,23.531813,0.049599998,0.060769618,0.0,35.97475,1.0,1.0,0.0,6,0,0,0,0,0,1,1,0,0,0
2015736846,23.509144,23.522108,0.0372,0.05913245,0.0,35.982914,1.0,1.0,0.0,6,0,0,0,0,0,1,1,0,0,0
2016230205,23.448553,23.516645,0.062,0.05964827,0.0,35.991104,1.0,1.0,0.0,6,0,0,0,0,0,1,1,0,0,0
2016735663,23.589931,23.521902,0.049599998,0.059159383,0.0,35.99938,1.0,1.0,0.0,6,0,0,0,0,0,1,1,0,0,0
2017241362,23.52934,23.52269,0.062,0.05930006,0.0,36.007748,1.0,1.0,0.0,6,0,0,0,0,0,1,1,0,0,0
2017746183,23.549538,23.523476,0.062,0.059579074,0.0,36.016148,1.0,1.0,0.0,6,0,0,0,0,0,1,1,0,0,0
2018240649,23.589931,23.525599,0.062,0.06142662,0.0,36.02477,1.0,1.0,0.0,6,0,0,0,0,0,1,1,0,0,0
2018746165,23.549538,23.525244,0.062,0.061152272,0.0,36.0333,1.0,1.0,0.0,6,0,0,0,0,0,1,1,0,0,0
2019252008,23.509144,23.528683,0.049599998,0.060140338,0.0,36.041634,1.0,1.0,0.0,6,0,0,0,0,0,1,1,0,0,0
2019745403,23.46875,23.51673,0.062,0.06119333,0.0,36.05016,1.0,1.0,0.0,6,0,0,0,0,0,1,1,0,0,0
2020250908,23.509144,23.519333,0.049599998,0.061023816,0.0,36.058697,1.0,1.0,0.0,6,0,0,0,0,0,1,1,0,0,0
2020756616,23.46875,23.51372,0.062,0.060288027,0.0,36.067112,1.0,1.0,0.0,6,0,0,0,0,0,1,1,0,0,0
2021250410,23.509144,23.508024,0.049599998,0.05981403,0.0,36.075344,1.0,1.0,0.0,6,0,0,0,0,0,1,1,0,0,0
2021755693,23.509144,23.513271,0.062,0.060181864,0.0,36.083862,1.0,1.0,0.0,6,0,0,0,0,0,1,1,0,0,0
2022261343,23.509144,23.5139,0.049599998,0.058218915,0.0,36.091892,1.0,1.0,0.0,6,0,0,0,0,0,1,1,0,0,0
2022754116,23.549538,23.508606,0.062,0.057838596,0.0,36.099792,1.0,1.0,0.0,6,0,0,0,0,0,1,1,0,0,0
2023766470,23.52934,23.503511,0.049599998,0.05938859,0.0,36.11671,1.0,1.0,0.0,6,0,0,0,0,0,1,1,0,0,0
2024259828,23.509144,23.503809,0.062,0.05864228,0.0,36.12466,1.0,1.0,0.0,6,0,0,0,0,0,1,1,0,0,0
2024765422,23.52934,23.510464,0.049599998,0.059787598,0.0,36.13315,1.0,1.0,0.0,6,0,0,0,0,0,1,1,0,0,0
2025271011,23.509144,23.513006,0.049599998,0.059939854,0.0,36.141563,1.0,1.0,0.0,6,0,0,0,0,0,1,1,0,0,0
2025764822,23.549538,23.501577,0.062,0.060731582,0.0,36.14989,1.0,1.0,0.0,6,0,0,0,0,0,1,1,0,0,0
2026270398,23.488947,23.506138,0.062,0.06065654,0.0,36.158424,1.0,1.0,0.0,6,0,0,0,0,0,1,1,0,0,0
2026775784,23.46875,23.504374,0.062,0.059843473,0.0,36.166714,1.0,1.0,0.0,6,0,0,0,0,0,1,1,0,0,0
2027269296,23.448553,23.494085,0.062,0.060484596,0.0,36.17507,1.0,1.0,0.0,6,0,0,0,0,0,1,1,0,0,0
2027774945,23.46875,23.483982,0.0744,0.061861802,0.0,36.183823,1.0,1.0,0.0,6,0,0,0,0,0,1,1,0,0,0
2028280583,23.448553,23.480299,0.062,0.060326066,0.0,36.19215,1.0,1.0,0.0,6,0,0,0,0,0,1,1,0,0,0
2028774184,23.509144,23.48078,0.062,0.059833024,0.0,36.200302,1.0,1.0,0.0,6,0,0,0,0,0,1,1,0,0,0
2029279808,23.549538,23.488632,0.062,0.05996559,0.0,36.208763,1.0,1.0,0.0,6,0,0,0,0,0,1,1,0,0,0
2029785283,23.509144,23.497442,0.062,0.060647685,0.0,36.217293,1.0,1.0,0.0,6,0,0,0,0,0,1,1,0,0,0
2030279011,23.488947,23.497791,0.062,0.06052601,0.0,36.225517,1.0,1.0,0.0,6,0,0,0,0,0,1,1,0,0,0
2030784808,23.509144,23.497576,0.062,0.060153928,0.0,36.233887,1.0,1.0,0.0,6,0,0,0,0,0,1,1,0,0,0
2031290203,23.549538,23.504314,0.062,0.06093608,0.0,36.242462,1.0,1.0,0.0,6,0,0,0,0,0,1,1,0,0,0
2031783746,23.428356,23.496044,0.062,0.058727168,0.0,36.25018,1.0,1.0,0.0,6,0,0,0,0,0,1,1,0,0,0
2032289310,23.46875,23.486862,0.062,0.05959492,0.0,36.25858,1.0,1.0,0.0,6,0,0,0,0,0,1,1,0,0,0
2032794916,23.569735,23.498058,0.049599998,0.058584448,0.0,36.26665,1.0,1.0,0.0,6,0,0,0,0,0,1,1,0,0,0
2033288819,23.52934,23.49078,0.062,0.058514345,0.0,36.27462,1.0,1.0,0.0,6,0,0,0,0,0,1,1,0,0,0
2033794174,23.549538,23.508913,0.049599998,0.05769467,0.0,36.282608,1.0,1.0,0.0,6,0,0,0,0,0,1,1,0,0,0
2034299802,23.46875,23.510557,0.062,0.059310853,0.0,36.29116,1.0,1.0,0.0,6,0,0,0,0,0,1,1,0,0,0
2034793397,23.52934,23.48642,0.0744,0.059647024,0.0,36.299377,1.0,1.0,0.0,6,0,0,0,0,0,1,1,0,0,0
2035298884,23.448553,23.476221,0.049599998,0.059345156,0.0,36.307716,1.0,1.0,0.0,6,0,0,0,0,0,1,1,0,0,0
2035804615,23.46875,23.47004,0.062,0.058357935,0.0,36.315838,1.0,1.0,0.0,6,0,0,0,0,0,1,1,0,0,0
2036298166,23.448553,23.460394,0.049599998,0.058837622,0.0,36.32392,1.0,1.0,0.0,6,0,0,0,0,0,1,1,0,0,0
2036804058,23.387962,23.454739,0.062,0.058488015,0.0,36.33213,1.0,1.0,0.0,6,0,0,0,0,0,1,1,0,0,0
2037309605,23.46875,23.437626,0.062,0.057651237,0.0,36.340126,1.0,1.0,0.0,6,0,0,0,0,0,1,1,0,0,0
2037803364,23.428356,23.429699,0.062,0.058990724,0.0,36.348286,1.0,1.0,0.0,6,0,0,0,0,0,1,1,0,0,0
2038309657,23.367765,23.418139,0.099199995,0.06028944,0.0,36.35684,1.0,1.0,0.0,6,0,0,0,0,0,1,1,0,0,0
2038814172,23.387962,23.40471,0.062,0.06029174,0.0,36.36528,1.0,1.0,0.0,6,0,0,0,0,0,1,1,0,0,0
2039308957,23.428356,23.397646,0.0744,0.059459276,0.0,36.37335,0.99940556,1.000055,0.0,6,0,0,0,0,0,1,1,0,0,0
