timestamp,timestamp_sample,control[0],control[1],control[2],control[3],control[4],control[5],control[6],control[7]
1725779355,1725779198,0.0019978525,0.012099579,0.00012479472,0.4904615,0.0,0.0,0.0,-1.0
1725899348,1725899165,0.0014888989,0.011464058,6.8610816e-06,0.5154809,0.0,0.0,0.0,-1.0
1725943321,1725943170,0.001983634,0.011118088,-0.0003285015,0.5248222,0.0,0.0,0.0,-1.0
1725983333,1725983191,0.0014917147,0.012039875,0.00043352717,0.53309083,0.0,0.0,0.0,-1.0
1726028144,1726027954,0.0015021703,0.011987969,-0.00027286986,0.5422756,0.0,0.0,0.0,-1.0
1726068927,1726068776,0.0013062829,0.012374374,-0.0003810528,0.55080086,0.0,0.0,0.0,-1.0
1726108901,1726108750,0.0018439188,0.011359207,-0.0010587376,0.56026614,0.0,0.0,0.0,-1.0
1726148890,1726148758,-0.0029649127,0.020200942,0.0021149216,0.5658661,0.0,0.0,0.0,-1.0
1726192887,1726192730,0.006312427,0.0020721229,0.0015378849,0.5762732,0.0,0.0,0.0,-1.0
1726232867,1726232730,-0.005328932,0.023672713,-0.011806399,0.5849958,0.0,0.0,0.0,-1.0
1726276939,1726276773,-0.0025664568,0.0022798646,-0.020561406,0.5929268,0.0,0.0,0.0,-1.0
1726316924,1726316792,0.018838251,0.019086001,0.018769251,0.6028568,0.0,0.0,0.0,-1.0
1726360921,1726360754,0.0033644421,0.016637137,0.00039655418,0.6105107,0.0,0.0,0.0,-1.0
1726400892,1726400760,-0.0006485691,0.0088567715,0.0011057494,0.6201483,0.0,0.0,0.0,-1.0
1726440901,1726440754,0.004961178,0.013538941,0.003785561,0.6271101,0.0,0.0,0.0,-1.0
1726480901,1726480760,-0.006251829,0.014028875,0.003657451,0.63644814,0.0,0.0,0.0,-1.0
1726524912,1726524754,0.0013268467,0.014148319,0.0017392687,0.64576954,0.0,0.0,0.0,-1.0
1726564925,1726564753,-0.0027765064,0.015696708,0.0020147762,0.6544985,0.0,0.0,0.0,-1.0
1726608893,1726608756,-0.002641323,0.013926627,0.0001515836,0.66374177,0.0,0.0,0.0,-1.0
1726648898,1726648753,0.0034771913,0.018958813,-0.0027163238,0.67278147,0.0,0.0,0.0,-1.0
1726693007,1726692767,0.003548685,0.015171019,-0.0013854661,0.68220574,0.0,0.0,0.0,-1.0
1726732937,1726732753,0.0019018671,0.01035609,-0.0064822254,0.6901604,0.0,0.0,0.0,-1.0
1726788917,1726788782,0.0076690684,0.009482112,-0.02918158,0.69550663,0.0,0.0,0.0,-1.0
1726829710,1726829561,0.020034282,0.022724746,-0.04865026,0.6903881,0.0,0.0,0.0,-1.0
1726869673,1726869534,0.031318992,0.033285808,-0.05473319,0.6911955,0.0,0.0,0.0,-1.0
1726913682,1726913541,0.033998415,0.05096501,-0.061162237,0.6942575,0.0,0.0,0.0,-1.0
1726957665,1726957529,0.033048872,0.06724443,-0.056618676,0.68486893,0.0,0.0,0.0,-1.0
1726997668,1726997532,0.024707431,0.061958227,-0.046239424,0.66099787,0.0,0.0,0.0,-1.0
1727037745,1727037603,0.03444975,0.04469228,-0.0406491,0.6336863,0.0,0.0,0.0,-1.0
1727081706,1727081554,0.03723516,0.015627457,-0.048611455,0.59105366,0.0,0.0,0.0,-1.0
1727122547,1727122354,0.022583723,0.012379086,-0.047823906,0.5633871,0.0,0.0,0.0,-1.0
1727162499,1727162358,-0.0014840309,-0.00037396606,-0.045278836,0.541591,0.0,0.0,0.0,-1.0
1727202501,1727202353,-0.0038520119,-0.0051627234,-0.0490521,0.52217567,0.0,0.0,0.0,-1.0
1727246541,1727246390,0.00732941,0.0031025645,-0.047096398,0.5027591,0.0,0.0,0.0,-1.0
1727286509,1727286365,0.018161025,0.0037968638,-0.050360546,0.49831116,0.0,0.0,0.0,-1.0
1727330516,1727330370,0.019946583,-0.003427472,-0.051519547,0.49522364,0.0,0.0,0.0,-1.0
1727371376,1727371177,0.016308436,-0.0011478164,-0.04818277,0.49313614,0.0,0.0,0.0,-1.0
1727411320,1727411171,0.018964875,0.0018510297,-0.04497412,0.49451327,0.0,0.0,0.0,-1.0
1727455284,1727455136,0.010018893,0.0029971576,-0.05032304,0.49616352,0.0,0.0,0.0,-1.0
1727495323,1727495182,0.00966974,0.003431621,-0.052296363,0.4966641,0.0,0.0,0.0,-1.0
1727539290,1727539144,0.017477294,0.004161549,-0.04717152,0.4964151,0.0,0.0,0.0,-1.0
1727579282,1727579142,0.020833706,0.0067030396,-0.047129214,0.50203115,0.0,0.0,0.0,-1.0
1727623322,1727623182,0.016976958,0.009396544,-0.04689543,0.50006104,0.0,0.0,0.0,-1.0
1727663331,1727663195,0.0069815577,0.015580457,-0.04581146,0.50547594,0.0,0.0,0.0,-1.0
1727708175,1727707961,0.007620845,0.023732534,-0.043083422,0.50710887,0.0,0.0,0.0,-1.0
1727752158,1727752011,0.0028549046,0.017322933,-0.043633375,0.51008385,0.0,0.0,0.0,-1.0
1727792114,1727791961,0.007571801,0.011037308,-0.042240217,0.5078926,0.0,0.0,0.0,-1.0
1727832104,1727831961,0.009211548,0.009666216,-0.040020086,0.5095327,0.0,0.0,0.0,-1.0
1727876164,1727875967,0.011701832,0.0065172566,-0.040996373,0.5099224,0.0,0.0,0.0,-1.0
1727916106,1727915967,0.008010567,0.0078345435,-0.037439223,0.5102422,0.0,0.0,0.0,-1.0
1727956935,1727956760,0.005434471,0.0075477664,-0.034156483,0.5116237,0.0,0.0,0.0,-1.0
1728000939,1728000784,0.01616376,0.007262813,-0.032658234,0.51151687,0.0,0.0,0.0,-1.0
1728040944,1728040784,0.015119244,0.007149387,-0.031780943,0.51395255,0.0,0.0,0.0,-1.0
1728080897,1728080751,0.017238146,0.004003603,-0.032005917,0.51641816,0.0,0.0,0.0,-1.0
1728124866,1728124729,0.017185768,0.010277031,-0.034115374,0.5175133,0.0,0.0,0.0,-1.0
1728164880,1728164729,0.026215207,0.0147624975,-0.031376638,0.515694,0.0,0.0,0.0,-1.0
1728208894,1728208749,0.022749634,0.012410291,-0.032578528,0.5178524,0.0,0.0,0.0,-1.0
1728249740,1728249554,0.022196157,0.012171881,-0.03195898,0.5186114,0.0,0.0,0.0,-1.0
1728289723,1728289587,0.021886498,0.016659532,-0.032622304,0.51853734,0.0,0.0,0.0,-1.0
1728333775,1728333555,0.015425212,0.016675845,-0.031863324,0.5214563,0.0,0.0,0.0,-1.0
1728373772,1728373588,0.017264308,0.019411882,-0.032672714,0.52069527,0.0,0.0,0.0,-1.0
1728417727,1728417556,0.018088497,0.021332813,-0.031334564,0.52218133,0.0,0.0,0.0,-1.0
1728457720,1728457573,0.017997194,0.023701828,-0.03247012,0.5221226,0.0,0.0,0.0,-1.0
1728501768,1728501555,0.014105797,0.023611404,-0.031295504,0.522185,0.0,0.0,0.0,-1.0
1728542587,1728542353,0.018082824,0.025082596,-0.034377784,0.5220546,0.0,0.0,0.0,-1.0
1728586585,1728586361,0.016218038,0.027091749,-0.03396789,0.5213256,0.0,0.0,0.0,-1.0
1728626526,1728626336,0.014365856,0.023273055,-0.033252046,0.52645844,0.0,0.0,0.0,-1.0
1728670516,1728670329,0.016598014,0.022939358,-0.034529492,0.5251202,0.0,0.0,0.0,-1.0
1728714469,1728714329,0.015848711,0.020652873,-0.037750725,0.5251438,0.0,0.0,0.0,-1.0
1728758516,1728758334,0.012893888,0.017983131,-0.03592093,0.52575207,0.0,0.0,0.0,-1.0
1728802496,1728802329,0.021878246,0.019251889,-0.033555984,0.5242547,0.0,0.0,0.0,-1.0
1728843309,1728843169,0.014996855,0.01657923,-0.037318457,0.52722424,0.0,0.0,0.0,-1.0
1728887336,1728887157,0.021307804,0.017148009,-0.03692446,0.5242998,0.0,0.0,0.0,-1.0
1728931285,1728931157,0.017222539,0.015418733,-0.03928573,0.52583593,0.0,0.0,0.0,-1.0
1728975405,1728975245,0.012712632,0.014358842,-0.039281305,0.5283159,0.0,0.0,0.0,-1.0
1729019350,1729019162,0.015900427,0.014348547,-0.040505096,0.52682114,0.0,0.0,0.0,-1.0
1729060098,1729059954,0.0152382385,0.014335975,-0.03887488,0.5289672,0.0,0.0,0.0,-1.0
1729104118,1729103953,0.022054084,0.017375803,-0.041080594,0.525621,0.0,0.0,0.0,-1.0
1729144152,1729143974,0.021258403,0.01605472,-0.039935797,0.5277892,0.0,0.0,0.0,-1.0
1729188185,1729187954,0.021671077,0.01713418,-0.043209657,0.5259777,0.0,0.0,0.0,-1.0
1729228106,1729227929,0.018069906,0.0142999375,-0.042209864,0.52947354,0.0,0.0,0.0,-1.0
1729272098,1729271948,0.013751592,0.015719898,-0.04490488,0.5288492,0.0,0.0,0.0,-1.0
1729312124,1729311974,0.016872685,0.0136899445,-0.040351324,0.5283814,0.0,0.0,0.0,-1.0
1729352897,1729352765,0.013795905,0.012314468,-0.03655617,0.52803916,0.0,0.0,0.0,-1.0
1729392929,1729392793,0.015854264,0.010782955,-0.038295735,0.52931046,0.0,0.0,0.0,-1.0
1729436890,1729436754,0.013395923,0.013026401,-0.03684463,0.52913886,0.0,0.0,0.0,-1.0
1729476895,1729476754,0.00817066,0.009451254,-0.03437814,0.5303894,0.0,0.0,0.0,-1.0
1729520923,1729520785,0.0061870576,0.012761911,-0.03472307,0.5305675,0.0,0.0,0.0,-1.0
1729564890,1729564753,0.0070060366,0.015390967,-0.033480633,0.52983975,0.0,0.0,0.0,-1.0
1729608908,1729608754,0.009999189,0.014590406,-0.029570917,0.5292612,0.0,0.0,0.0,-1.0
1729649725,1729649568,0.0072157444,0.014245315,-0.033272125,0.5311238,0.0,0.0,0.0,-1.0
1729689698,1729689554,0.013971085,0.012822311,-0.031011771,0.5311423,0.0,0.0,0.0,-1.0
1729733733,1729733555,0.010012214,0.013651043,-0.030690346,0.532116,0.0,0.0,0.0,-1.0
1729773747,1729773556,0.012406117,0.015275508,-0.028289923,0.5305541,0.0,0.0,0.0,-1.0
1729817668,1729817530,0.010239369,0.015001724,-0.030470176,0.53268987,0.0,0.0,0.0,-1.0
1729857693,1729857547,0.01169633,0.014870431,-0.02832249,0.5342705,0.0,0.0,0.0,-1.0
1729901710,1729901536,0.0098834485,0.017360056,-0.030951235,0.53508127,0.0,0.0,0.0,-1.0
1729942564,1729942366,0.012511679,0.019509865,-0.027241861,0.53588724,0.0,0.0,0.0,-1.0
1729986552,1729986401,0.01278787,0.022722095,-0.029543117,0.534186,0.0,0.0,0.0,-1.0
1730026524,1730026383,0.009245021,0.018080048,-0.027181804,0.5371866,0.0,0.0,0.0,-1.0
1730070584,1730070400,0.01463735,0.020053837,-0.028975895,0.5346201,0.0,0.0,0.0,-1.0
1730110537,1730110353,0.011304596,0.02002552,-0.027840601,0.5345656,0.0,0.0,0.0,-1.0
1730154541,1730154400,0.015737196,0.021290855,-0.030643359,0.5352548,0.0,0.0,0.0,-1.0
1730194503,1730194361,0.016178269,0.021922791,-0.02895943,0.5342849,0.0,0.0,0.0,-1.0
1730235356,1730235202,0.0142975785,0.026828324,-0.032928754,0.533754,0.0,0.0,0.0,-1.0
1730279384,1730279157,0.014715548,0.025970506,-0.03150687,0.53375345,0.0,0.0,0.0,-1.0
1730319374,1730319194,0.014489339,0.025964873,-0.035248335,0.5349679,0.0,0.0,0.0,-1.0
1730363359,1730363184,0.013785753,0.021681003,-0.032311928,0.53664017,0.0,0.0,0.0,-1.0
1730403405,1730403252,0.010652097,0.022969391,-0.034801006,0.53489554,0.0,0.0,0.0,-1.0
1730443302,1730443155,0.015147028,0.02365807,-0.035939317,0.5338268,0.0,0.0,0.0,-1.0
1730484140,1730483953,0.015087361,0.02216069,-0.03541714,0.5335518,0.0,0.0,0.0,-1.0
1730528198,1730527966,0.012797564,0.017946715,-0.036739267,0.5335802,0.0,0.0,0.0,-1.0
1730568218,1730567955,0.0147585785,0.018022114,-0.03968126,0.5358191,0.0,0.0,0.0,-1.0
1730612179,1730611989,0.013676082,0.01961123,-0.041044366,0.53578603,0.0,0.0,0.0,-1.0
1730652173,1730651983,0.016631242,0.016436333,-0.0409422,0.5370488,0.0,0.0,0.0,-1.0
1730696164,1730695954,0.0151996985,0.020178966,-0.043035287,0.5351997,0.0,0.0,0.0,-1.0
1730736173,1730735954,0.018364951,0.020983811,-0.04213514,0.53560394,0.0,0.0,0.0,-1.0
1730780915,1730780767,0.016339116,0.023893246,-0.04425828,0.5356423,0.0,0.0,0.0,-1.0
1730820902,1730820769,0.012199745,0.024807593,-0.043745294,0.5329776,0.0,0.0,0.0,-1.0
1730864929,1730864761,0.008991025,0.023918435,-0.04223807,0.53462553,0.0,0.0,0.0,-1.0
1730904981,1730904762,0.011088847,0.023824569,-0.043786034,0.5351499,0.0,0.0,0.0,-1.0
1730948900,1730948761,0.010509953,0.01930015,-0.041060872,0.5380494,0.0,0.0,0.0,-1.0
1730988902,1730988761,0.010589416,0.018867766,-0.041867785,0.5369506,0.0,0.0,0.0,-1.0
1731032921,1731032736,0.013050225,0.019719139,-0.0416452,0.53469735,0.0,0.0,0.0,-1.0
1731076873,1731076729,0.013977962,0.017015157,-0.04264873,0.53585374,0.0,0.0,0.0,-1.0
1731117709,1731117553,0.01058658,0.014862279,-0.04008739,0.5368374,0.0,0.0,0.0,-1.0
1731161752,1731161574,0.01042016,0.0137783475,-0.039467808,0.5385104,0.0,0.0,0.0,-1.0
1731201737,1731201553,0.010646717,0.017573448,-0.03761015,0.5359619,0.0,0.0,0.0,-1.0
1731245700,1731245554,0.010989684,0.016895367,-0.037442308,0.5389231,0.0,0.0,0.0,-1.0
1731285709,1731285554,0.0123221185,0.017708333,-0.036030985,0.5359954,0.0,0.0,0.0,-1.0
1731329725,1731329553,0.012540919,0.019868746,-0.037380636,0.5360825,0.0,0.0,0.0,-1.0
1731370542,1731370361,0.016084595,0.01996101,-0.036760394,0.5359407,0.0,0.0,0.0,-1.0
1731414556,1731414404,0.017700583,0.020172032,-0.03956377,0.5371747,0.0,0.0,0.0,-1.0
1731454550,1731454383,0.01770108,0.017873863,-0.038137626,0.53613925,0.0,0.0,0.0,-1.0
1731498581,1731498437,0.013071236,0.015933642,-0.04173858,0.5388541,0.0,0.0,0.0,-1.0
1731538537,1731538361,0.01774806,0.017486159,-0.040947028,0.53647846,0.0,0.0,0.0,-1.0
1731578543,1731578368,0.018271692,0.017825188,-0.039797254,0.5373754,0.0,0.0,0.0,-1.0
1731619376,1731619171,0.0107603045,0.01888809,-0.04286285,0.53500664,0.0,0.0,0.0,-1.0
1731663384,1731663224,0.015727788,0.0172108,-0.04138131,0.53572994,0.0,0.0,0.0,-1.0
1731703364,1731703219,0.013737491,0.016354792,-0.04497702,0.5389952,0.0,0.0,0.0,-1.0
1731747396,1731747223,0.016352804,0.017927622,-0.04260667,0.5391769,0.0,0.0,0.0,-1.0
1731787353,1731787178,0.01998647,0.019719847,-0.043954868,0.5381519,0.0,0.0,0.0,-1.0
1731831352,1731831201,0.020961635,0.020919533,-0.044527683,0.5371912,0.0,0.0,0.0,-1.0
1731875396,1731875209,0.012283199,0.019523453,-0.046251565,0.53885925,0.0,0.0,0.0,-1.0
1731916125,1731915978,0.017847152,0.016906315,-0.04608968,0.53711694,0.0,0.0,0.0,-1.0
1731960093,1731959954,0.015091684,0.017344693,-0.046101358,0.5354188,0.0,0.0,0.0,-1.0
1732000153,1731999960,0.016608648,0.015683586,-0.046918616,0.5371822,0.0,0.0,0.0,-1.0
1732044125,1732043963,0.012779195,0.01601737,-0.04420095,0.5356868,0.0,0.0,0.0,-1.0
1732084133,1732083979,0.014509194,0.012848508,-0.047692884,0.53718525,0.0,0.0,0.0,-1.0
1732128119,1732127954,0.012581657,0.0145045435,-0.04479829,0.53391707,0.0,0.0,0.0,-1.0
1732168871,1732168729,0.011082882,0.013991373,-0.045448236,0.5378111,0.0,0.0,0.0,-1.0
1732212908,1732212754,0.015946096,0.016884897,-0.044707704,0.53495055,0.0,0.0,0.0,-1.0
1732253004,1732252793,0.0151833575,0.021770447,-0.04340883,0.5338776,0.0,0.0,0.0,-1.0
1732296913,1732296765,0.022135196,0.025309976,-0.04352984,0.53127056,0.0,0.0,0.0,-1.0
1732336886,1732336753,0.01728335,0.026679661,-0.042090334,0.5342577,0.0,0.0,0.0,-1.0
1732380965,1732380809,0.01941003,0.02487078,-0.042890087,0.5326259,0.0,0.0,0.0,-1.0
1732420951,1732420804,0.0165764,0.024122166,-0.042320985,0.5341737,0.0,0.0,0.0,-1.0
1732464915,1732464761,0.013793421,0.021726703,-0.043264005,0.53568876,0.0,0.0,0.0,-1.0
1732505771,1732505572,0.015436515,0.022701764,-0.04252003,0.53544974,0.0,0.0,0.0,-1.0
1732545724,1732545556,0.014204018,0.027691519,-0.04044706,0.5327902,0.0,0.0,0.0,-1.0
1732589722,1732589572,0.013319028,0.030165747,-0.043624945,0.53361225,0.0,0.0,0.0,-1.0
1732629710,1732629560,0.014925927,0.030899376,-0.044480506,0.53105736,0.0,0.0,0.0,-1.0
1732673694,1732673553,0.013398361,0.030576322,-0.041695368,0.53272134,0.0,0.0,0.0,-1.0
1732713689,1732713554,0.017826477,0.028713409,-0.046896145,0.5353933,0.0,0.0,0.0,-1.0
1732757732,1732757603,0.017964872,0.024344208,-0.041562863,0.5349176,0.0,0.0,0.0,-1.0
1732798506,1732798361,0.016092775,0.023292128,-0.043684684,0.53678274,0.0,0.0,0.0,-1.0
1732842611,1732842406,0.022076061,0.020681487,-0.042435855,0.53426856,0.0,0.0,0.0,-1.0
1732882505,1732882353,0.019371625,0.021065062,-0.040410135,0.53752345,0.0,0.0,0.0,-1.0
1732922511,1732922353,0.0126536405,0.02386001,-0.04186334,0.53542614,0.0,0.0,0.0,-1.0
1732966516,1732966377,0.023234978,0.025900211,-0.041286558,0.5328128,0.0,0.0,0.0,-1.0
1733010590,1733010405,0.024831226,0.02169762,-0.04230119,0.5329893,0.0,0.0,0.0,-1.0
1733050515,1733050361,0.02196354,0.023020133,-0.043000627,0.53117126,0.0,0.0,0.0,-1.0
1733091371,1733091194,0.022255212,0.02300263,-0.04321627,0.53030044,0.0,0.0,0.0,-1.0
1733135378,1733135198,0.01941025,0.018841455,-0.04368741,0.5342389,0.0,0.0,0.0,-1.0
1733175362,1733175203,0.020809324,0.016721044,-0.04476007,0.5316077,0.0,0.0,0.0,-1.0
1733219388,1733219168,0.01717831,0.016643303,-0.044245236,0.5323388,0.0,0.0,0.0,-1.0
1733259390,1733259194,0.015787365,0.020883856,-0.045615766,0.53341925,0.0,0.0,0.0,-1.0
1733300100,1733299930,0.021276224,0.024954265,-0.042633735,0.53049105,0.0,0.0,0.0,-1.0
1733340129,1733339930,0.01840553,0.025402918,-0.041150875,0.53068244,0.0,0.0,0.0,-1.0
1733384114,1733383934,0.015928376,0.031288207,-0.043006513,0.5293437,0.0,0.0,0.0,-1.0
1733424193,1733423997,0.01689584,0.029059505,-0.041238025,0.5274222,0.0,0.0,0.0,-1.0
1733468211,1733467953,0.015773427,0.025086956,-0.038261913,0.52961344,0.0,0.0,0.0,-1.0
1733508176,1733507953,0.01837964,0.024706312,-0.03836804,0.5315948,0.0,0.0,0.0,-1.0
1733552155,1733551960,0.024830284,0.024597978,-0.03473366,0.5297893,0.0,0.0,0.0,-1.0
1733592160,1733591957,0.019682648,0.02906869,-0.033961166,0.5297652,0.0,0.0,0.0,-1.0
1733636938,1733636754,0.029965833,0.031862363,-0.034060787,0.5285991,0.0,0.0,0.0,-1.0
1733680900,1733680754,0.030861674,0.03443018,-0.03543424,0.52901024,0.0,0.0,0.0,-1.0
1733724937,1733724755,0.028522722,0.033394042,-0.032682914,0.5291454,0.0,0.0,0.0,-1.0
1733768896,1733768760,0.031694304,0.035435304,-0.03579677,0.529104,0.0,0.0,0.0,-1.0
1733808940,1733808779,0.03290641,0.03885177,-0.03202019,0.5267505,0.0,0.0,0.0,-1.0
1733853004,1733852753,0.024991073,0.03625942,-0.033833206,0.52859324,0.0,0.0,0.0,-1.0
1733893713,1733893536,0.027895467,0.038815003,-0.03362233,0.5245956,0.0,0.0,0.0,-1.0
1733937660,1733937531,0.022436775,0.03516249,-0.02929601,0.5262828,0.0,0.0,0.0,-1.0
1733977700,1733977554,0.01297559,0.035019223,-0.02751939,0.5277059,0.0,0.0,0.0,-1.0
1734021745,1734021554,0.016544256,0.03695593,-0.028496474,0.5259597,0.0,0.0,0.0,-1.0
1734065742,1734065594,0.0114426855,0.037968602,-0.03055003,0.5258883,0.0,0.0,0.0,-1.0
1734109786,1734109592,0.01448731,0.036347125,-0.028182441,0.5249963,0.0,0.0,0.0,-1.0
1734149776,1734149602,0.014602584,0.035991646,-0.025584184,0.5277053,0.0,0.0,0.0,-1.0
1734189740,1734189561,0.008829569,0.031249903,-0.032545887,0.52696633,0.0,0.0,0.0,-1.0
1734230594,1734230360,0.014876807,0.028432826,-0.031791393,0.5293775,0.0,0.0,0.0,-1.0
1734274548,1734274357,0.011251927,0.024244852,-0.030986538,0.5301468,0.0,0.0,0.0,-1.0
1734314547,1734314354,0.013364028,0.023137564,-0.033765666,0.529715,0.0,0.0,0.0,-1.0
1734358565,1734358384,0.01543146,0.021842968,-0.031034227,0.53170764,0.0,0.0,0.0,-1.0
1734398578,1734398353,0.013736445,0.022425165,-0.032596406,0.5305486,0.0,0.0,0.0,-1.0
1734442556,1734442358,0.017863996,0.02129617,-0.029446127,0.5308932,0.0,0.0,0.0,-1.0
1734483305,1734483145,0.0131499665,0.027852064,-0.032755412,0.5316115,0.0,0.0,0.0,-1.0
1734523315,1734523145,0.014032537,0.031575415,-0.034981832,0.5327539,0.0,0.0,0.0,-1.0
1734567302,1734567163,0.017125478,0.034621138,-0.03304321,0.53431827,0.0,0.0,0.0,-1.0
1734607405,1734607186,0.015074385,0.037065912,-0.033170275,0.5336865,0.0,0.0,0.0,-1.0
1734651306,1734651157,0.018788602,0.042453986,-0.03470165,0.5310025,0.0,0.0,0.0,-1.0
1734691346,1734691156,0.013841972,0.03951841,-0.0351761,0.5333894,0.0,0.0,0.0,-1.0
1734735389,1734735205,0.014585556,0.04014678,-0.03875443,0.53120255,0.0,0.0,0.0,-1.0
1734775451,1734775225,0.013048783,0.038685277,-0.03998029,0.5320611,0.0,0.0,0.0,-1.0
1734820109,1734819953,0.008838112,0.034630902,-0.03954657,0.5348058,0.0,0.0,0.0,-1.0
1734860118,1734859953,0.009575295,0.032358903,-0.043535795,0.5346167,0.0,0.0,0.0,-1.0
1734904122,1734903962,0.0066521466,0.034135174,-0.040961165,0.5347625,0.0,0.0,0.0,-1.0
1734944137,1734943993,0.005536734,0.030704085,-0.03794507,0.5365195,0.0,0.0,0.0,-1.0
1734988144,1734987954,0.012531312,0.033504263,-0.045534402,0.5323393,0.0,0.0,0.0,-1.0
1735028912,1735028753,0.01685328,0.031439785,-0.041673522,0.533154,0.0,0.0,0.0,-1.0
1735068874,1735068730,0.020524409,0.02847568,-0.04192861,0.53322154,0.0,0.0,0.0,-1.0
1735112915,1735112769,0.025653273,0.027481675,-0.046368264,0.53302217,0.0,0.0,0.0,-1.0
1735152913,1735152772,0.02714935,0.025239486,-0.045766972,0.5342066,0.0,0.0,0.0,-1.0
1735196914,1735196754,0.018719546,0.021842133,-0.04339344,0.54055005,0.0,0.0,0.0,-1.0
1735236911,1735236753,0.022177795,0.022247791,-0.044754922,0.53799075,0.0,0.0,0.0,-1.0
1735276904,1735276753,0.025422899,0.026674518,-0.04337209,0.53815055,0.0,0.0,0.0,-1.0
1735320935,1735320798,0.024352208,0.02622709,-0.039622176,0.53888,0.0,0.0,0.0,-1.0
1735365696,1735365562,0.02437745,0.028232493,-0.042953573,0.53692937,0.0,0.0,0.0,-1.0
1735405704,1735405561,0.021849208,0.026817085,-0.041920654,0.53783035,0.0,0.0,0.0,-1.0
1735449737,1735449591,0.01284281,0.02446205,-0.043442555,0.54109454,0.0,0.0,0.0,-1.0
1735489720,1735489571,0.015819907,0.024312897,-0.043838166,0.5387733,0.0,0.0,0.0,-1.0
1735533690,1735533556,0.009895252,0.027874174,-0.043314956,0.5398611,0.0,0.0,0.0,-1.0
1735573701,1735573555,0.01441302,0.024814006,-0.04344345,0.5424879,0.0,0.0,0.0,-1.0
1735614498,1735614333,0.01926885,0.024878131,-0.045416795,0.5395055,0.0,0.0,0.0,-1.0
1735654478,1735654329,0.024684839,0.026705287,-0.044337757,0.53614414,0.0,0.0,0.0,-1.0
1735698491,1735698340,0.013468118,0.02478885,-0.046009492,0.537993,0.0,0.0,0.0,-1.0
1735738482,1735738343,0.020490449,0.028451465,-0.04491934,0.53521687,0.0,0.0,0.0,-1.0
1735782548,1735782397,0.010387201,0.024388012,-0.045643575,0.53839576,0.0,0.0,0.0,-1.0
1735826550,1735826364,0.01354816,0.026017256,-0.049501397,0.53796566,0.0,0.0,0.0,-1.0
1735870604,1735870362,0.008057442,0.030467488,-0.050523728,0.5365833,0.0,0.0,0.0,-1.0
1735915295,1735915157,0.0083344355,0.028836554,-0.04818235,0.5334275,0.0,0.0,0.0,-1.0
1735955289,1735955157,0.00879774,0.027941559,-0.050999466,0.53524876,0.0,0.0,0.0,-1.0
1735999332,1735999162,0.015751284,0.025848564,-0.05122335,0.5336338,0.0,0.0,0.0,-1.0
1736039366,1736039172,0.018109538,0.024577565,-0.050093107,0.53527945,0.0,0.0,0.0,-1.0
1736083323,1736083181,0.016237855,0.02728128,-0.059128612,0.53233045,0.0,0.0,0.0,-1.0
1736123369,1736123214,0.02125758,0.024363251,-0.056691453,0.53569496,0.0,0.0,0.0,-1.0
1736167367,1736167166,0.013707081,0.021220464,-0.05280779,0.5350075,0.0,0.0,0.0,-1.0
1736208160,1736207930,0.02267643,0.023876758,-0.05260118,0.53424263,0.0,0.0,0.0,-1.0
1736248136,1736247929,0.021980762,0.025487555,-0.05280345,0.53422016,0.0,0.0,0.0,-1.0
1736292102,1736291960,0.03368952,0.022553196,-0.04944541,0.53322375,0.0,0.0,0.0,-1.0
1736332062,1736331929,0.032401443,0.02439011,-0.0490686,0.5328574,0.0,0.0,0.0,-1.0
1736376187,1736375984,0.031851113,0.022424325,-0.04886747,0.5359665,0.0,0.0,0.0,-1.0
1736416145,1736415953,0.032813374,0.02371364,-0.047160212,0.53282905,0.0,0.0,0.0,-1.0
1736460129,1736459983,0.025616385,0.02477353,-0.043100305,0.5345485,0.0,0.0,0.0,-1.0
1736500918,1736500764,0.030132797,0.027099423,-0.040724345,0.5328207,0.0,0.0,0.0,-1.0
1736544943,1736544760,0.03283442,0.03156447,-0.03799751,0.53055376,0.0,0.0,0.0,-1.0
1736584941,1736584753,0.032611027,0.034796312,-0.03670317,0.5299896,0.0,0.0,0.0,-1.0
1736628907,1736628754,0.02374297,0.03251587,-0.03648427,0.5338526,0.0,0.0,0.0,-1.0
1736668899,1736668760,0.026190802,0.03535996,-0.033074595,0.5289235,0.0,0.0,0.0,-1.0
1736712931,1736712754,0.023804376,0.033425327,-0.025811145,0.53117955,0.0,0.0,0.0,-1.0
1736753769,1736753587,0.025531804,0.03035276,-0.028589057,0.5329562,0.0,0.0,0.0,-1.0
1736797700,1736797532,0.029561099,0.03206481,-0.026021183,0.5295839,0.0,0.0,0.0,-1.0
1736837715,1736837567,0.028576897,0.029738985,-0.025236374,0.5290015,0.0,0.0,0.0,-1.0
1736881776,1736881545,0.02846075,0.028245972,-0.026427701,0.5277472,0.0,0.0,0.0,-1.0
1736925724,1736925536,0.020116195,0.024409061,-0.022789827,0.53224015,0.0,0.0,0.0,-1.0
1736965757,1736965560,0.01741686,0.02927978,-0.022247994,0.530289,0.0,0.0,0.0,-1.0
1737009825,1737009588,0.012912963,0.029471232,-0.022014696,0.52997684,0.0,0.0,0.0,-1.0
1737053697,1737053553,0.020279791,0.028300613,-0.019197755,0.5285993,0.0,0.0,0.0,-1.0
1737094500,1737094354,0.011818458,0.027260024,-0.020148765,0.52877766,0.0,0.0,0.0,-1.0
1737134491,1737134353,0.011186024,0.026579611,-0.018446106,0.52721125,0.0,0.0,0.0,-1.0
1737178537,1737178377,0.010471073,0.02621214,-0.018532077,0.526365,0.0,0.0,0.0,-1.0
1737218533,1737218385,0.013600424,0.027111713,-0.018581554,0.5247989,0.0,0.0,0.0,-1.0
1737258549,1737258353,0.013162853,0.02153344,-0.015699258,0.52976006,0.0,0.0,0.0,-1.0
1737302500,1737302353,0.0136014335,0.018493393,-0.01675302,0.52839947,0.0,0.0,0.0,-1.0
1737343305,1737343176,0.018646332,0.021175783,-0.010960039,0.5245428,0.0,0.0,0.0,-1.0
1737387293,1737387151,0.022432726,0.02191697,-0.0137641635,0.5235929,0.0,0.0,0.0,-1.0
1737431298,1737431134,0.02287052,0.0208887,-0.011701882,0.5253021,0.0,0.0,0.0,-1.0
1737471292,1737471139,0.01769316,0.023385836,-0.011304963,0.5245985,0.0,0.0,0.0,-1.0
1737515321,1737515173,0.018746024,0.021753874,-0.012091031,0.5239166,0.0,0.0,0.0,-1.0
1737555351,1737555199,0.021572245,0.024617428,-0.010671567,0.52466756,0.0,0.0,0.0,-1.0
1737599331,1737599173,0.026847433,0.022822265,-0.0123179685,0.5261499,0.0,0.0,0.0,-1.0
1737640116,1737639954,0.02146153,0.02064958,-0.011979761,0.5296917,0.0,0.0,0.0,-1.0
1737684118,1737683973,0.027488146,0.016989032,-0.012388749,0.5294304,0.0,0.0,0.0,-1.0
1737728211,1737727997,0.028708363,0.014512524,-0.012241451,0.5298547,0.0,0.0,0.0,-1.0
1737768142,1737767965,0.022011979,0.014703231,-0.01782387,0.5291595,0.0,0.0,0.0,-1.0
1737812142,1737811991,0.02205006,0.012460512,-0.017386686,0.52983373,0.0,0.0,0.0,-1.0
1737852166,1737852008,0.026202815,0.012140172,-0.021110505,0.5293385,0.0,0.0,0.0,-1.0
1737896973,1737896761,0.024739495,0.011840284,-0.020974878,0.53188103,0.0,0.0,0.0,-1.0
1737936982,1737936761,0.030971799,0.014311658,-0.023477053,0.5269991,0.0,0.0,0.0,-1.0
1737980932,1737980730,0.026704367,0.014223669,-0.023997124,0.52863675,0.0,0.0,0.0,-1.0
1738020937,1738020742,0.03431717,0.018630045,-0.026856812,0.52726346,0.0,0.0,0.0,-1.0
1738064922,1738064729,0.033206694,0.016110562,-0.025877396,0.5292821,0.0,0.0,0.0,-1.0
1738104905,1738104729,0.03656063,0.017990315,-0.027476706,0.526436,0.0,0.0,0.0,-1.0
1738144957,1738144753,0.032276586,0.019238861,-0.028329657,0.5287115,0.0,0.0,0.0,-1.0
1738185804,1738185564,0.037021752,0.018353755,-0.02661246,0.5263041,0.0,0.0,0.0,-1.0
1738225802,1738225562,0.035775226,0.017455097,-0.028946124,0.5277167,0.0,0.0,0.0,-1.0
1738269766,1738269584,0.043114394,0.02050204,-0.030619247,0.5245484,0.0,0.0,0.0,-1.0
1738309770,1738309578,0.045796327,0.017348234,-0.028990015,0.52694666,0.0,0.0,0.0,-1.0
1738353732,1738353555,0.046203446,0.023036545,-0.034024145,0.52417976,0.0,0.0,0.0,-1.0
1738393775,1738393555,0.049754404,0.023819251,-0.0320654,0.52386564,0.0,0.0,0.0,-1.0
1738438502,1738438361,0.043575566,0.022644402,-0.02976542,0.5259129,0.0,0.0,0.0,-1.0
1738478507,1738478367,0.03931798,0.019831454,-0.035149574,0.5256019,0.0,0.0,0.0,-1.0
1738522532,1738522361,0.04337467,0.022663493,-0.032965552,0.5242474,0.0,0.0,0.0,-1.0
1738562468,1738562329,0.040146887,0.019230338,-0.03715015,0.52618855,0.0,0.0,0.0,-1.0
1738606474,1738606329,0.04139535,0.020401794,-0.04113175,0.5228376,0.0,0.0,0.0,-1.0
1738646476,1738646333,0.049134806,0.018798646,-0.0398112,0.52141774,0.0,0.0,0.0,-1.0
1738691372,1738691193,0.04091596,0.01801701,-0.04143202,0.521868,0.0,0.0,0.0,-1.0
1738735304,1738735170,0.046968848,0.01721116,-0.039303552,0.52054435,0.0,0.0,0.0,-1.0
1738775341,1738775181,0.037011545,0.019732155,-0.040057495,0.5178254,0.0,0.0,0.0,-1.0
1738815302,1738815162,0.029531829,0.015358055,-0.04443042,0.52343786,0.0,0.0,0.0,-1.0
1738859349,1738859163,0.03529404,0.016744595,-0.048333883,0.51761466,0.0,0.0,0.0,-1.0
1738903307,1738903170,0.024443377,0.010698737,-0.04622426,0.51972574,0.0,0.0,0.0,-1.0
1738943337,1738943179,0.025162416,0.010311705,-0.04568741,0.5191391,0.0,0.0,0.0,-1.0
1738983374,1738983212,0.022599215,0.008184975,-0.05030075,0.5220139,0.0,0.0,0.0,-1.0
1739027357,1739027157,0.03469578,0.008196324,-0.048476517,0.51982033,0.0,0.0,0.0,-1.0
1739068191,1739067961,0.029483233,0.00987786,-0.048261877,0.5211324,0.0,0.0,0.0,-1.0
1739108187,1739107961,0.030797685,0.0105272,-0.048438936,0.5220837,0.0,0.0,0.0,-1.0
1739152066,1739151930,0.034787323,0.01649815,-0.050129276,0.51593643,0.0,0.0,0.0,-1.0
1739192075,1739191930,0.03431414,0.017757269,-0.05103346,0.5199252,0.0,0.0,0.0,-1.0
1739236118,1739235931,0.03876959,0.017212005,-0.04943008,0.5185147,0.0,0.0,0.0,-1.0
1739276987,1739276798,0.03496046,0.01624505,-0.049684975,0.5180354,0.0,0.0,0.0,-1.0
1739320941,1739320754,0.036278155,0.008910079,-0.052288704,0.5224098,0.0,0.0,0.0,-1.0
1739360929,1739360796,0.040531915,0.012290042,-0.049902402,0.51834655,0.0,0.0,0.0,-1.0
1739404987,1739404761,0.040979188,0.013314846,-0.048758022,0.51960266,0.0,0.0,0.0,-1.0
1739444996,1739444797,0.03952031,0.011598632,-0.050231386,0.5207503,0.0,0.0,0.0,-1.0
1739488935,1739488754,0.04025169,0.007994562,-0.052817337,0.52393544,0.0,0.0,0.0,-1.0
1739528942,1739528803,0.0350454,0.006853721,-0.05004739,0.5230012,0.0,0.0,0.0,-1.0
1739573021,1739572754,0.03155484,0.0069419555,-0.044774324,0.52143097,0.0,0.0,0.0,-1.0
1739617720,1739617571,0.032684304,0.012047219,-0.04744508,0.52396214,0.0,0.0,0.0,-1.0
1739657710,1739657561,0.03549544,0.01393587,-0.043911345,0.52360225,0.0,0.0,0.0,-1.0
1739701753,1739701604,0.033775084,0.017992081,-0.040226385,0.5224331,0.0,0.0,0.0,-1.0
1739741735,1739741569,0.033500537,0.017667793,-0.042201564,0.5239032,0.0,0.0,0.0,-1.0
1739785674,1739785536,0.042650957,0.019521292,-0.0378167,0.524451,0.0,0.0,0.0,-1.0
1739825676,1739825538,0.0449851,0.017411454,-0.03200742,0.52234703,0.0,0.0,0.0,-1.0
1739870515,1739870365,0.044218108,0.022096327,-0.037661217,0.522666,0.0,0.0,0.0,-1.0
1739914497,1739914353,0.04680227,0.022245053,-0.032765966,0.5176241,0.0,0.0,0.0,-1.0
1739958533,1739958390,0.054655805,0.018932493,-0.032817576,0.52251583,0.0,0.0,0.0,-1.0
1740002536,1740002354,0.0509747,0.015889386,-0.034365755,0.5247547,0.0,0.0,0.0,-1.0
1740042559,1740042365,0.047102023,0.017566403,-0.030694442,0.51989824,0.0,0.0,0.0,-1.0
1740086538,1740086393,0.056229588,0.01715564,-0.030003514,0.5189024,0.0,0.0,0.0,-1.0
1740126535,1740126387,0.050881736,0.01688271,-0.028537497,0.5173934,0.0,0.0,0.0,-1.0
1740171377,1740171174,0.047408804,0.013528032,-0.034746375,0.5216921,0.0,0.0,0.0,-1.0
1740211389,1740211174,0.04600016,0.01441152,-0.03641405,0.5218892,0.0,0.0,0.0,-1.0
1740255344,1740255164,0.037595134,0.009565351,-0.032040007,0.5245245,0.0,0.0,0.0,-1.0
1740299379,1740299171,0.047417257,0.011139825,-0.0363395,0.5227894,0.0,0.0,0.0,-1.0
1740343288,1740343145,0.035536334,0.012671151,-0.04148894,0.52372557,0.0,0.0,0.0,-1.0
1740383347,1740383165,0.04209751,0.009337849,-0.038999356,0.5266489,0.0,0.0,0.0,-1.0
1740427334,1740427133,0.034016505,0.011516512,-0.037118834,0.52707237,0.0,0.0,0.0,-1.0
1740468170,1740467953,0.031195102,0.0076238504,-0.03533469,0.5250308,0.0,0.0,0.0,-1.0
1740508175,1740507953,0.031591076,0.009669874,-0.04525374,0.52769166,0.0,0.0,0.0,-1.0
1740552097,1740551954,0.0418146,0.011596223,-0.03645032,0.5270474,0.0,0.0,0.0,-1.0
1740592123,1740591954,0.042494614,0.0068694423,-0.03695721,0.524655,0.0,0.0,0.0,-1.0
1740636140,1740635953,0.046666015,0.0099761095,-0.043761525,0.5229686,0.0,0.0,0.0,-1.0
1740676146,1740675954,0.049812492,0.006339472,-0.046604726,0.5266506,0.0,0.0,0.0,-1.0
1740720096,1740719954,0.03800834,0.0039940034,-0.044266246,0.52761996,0.0,0.0,0.0,-1.0
1740760894,1740760761,0.042039834,0.003561354,-0.04102903,0.5259414,0.0,0.0,0.0,-1.0
1740804940,1740804761,0.048455387,0.005309624,-0.037319656,0.5229642,0.0,0.0,0.0,-1.0
1740844950,1740844774,0.046627276,0.0049572536,-0.03868195,0.5252438,0.0,0.0,0.0,-1.0
1740888903,1740888761,0.042975478,0.010446639,-0.04128837,0.5191822,0.0,0.0,0.0,-1.0
1741815322,1741815182,0.05477037,0.0016768072,-0.032913703,0.5181898,0.0,0.0,0.0,-1.0
1741855356,1741855203,0.060426537,0.0026561217,-0.034507696,0.5182244,0.0,0.0,0.0,-1.0
1741896149,1741896000,0.06274357,0.0035166051,-0.024764612,0.51238346,0.0,0.0,0.0,-1.0
1741936152,1741935996,0.062328044,0.004447197,-0.03162119,0.513517,0.0,0.0,0.0,-1.0
1742818543,1742818398,0.047540918,-0.013058267,-0.03998938,0.5226802,0.0,0.0,0.0,-1.0
1742862590,1742862354,0.0476973,-0.012345248,-0.04350046,0.5284854,0.0,0.0,0.0,-1.0
1742902601,1742902397,0.052471086,-0.01014362,-0.041545063,0.5228592,0.0,0.0,0.0,-1.0
1742947310,1742947157,0.047836542,-0.0052541085,-0.037237212,0.5215389,0.0,0.0,0.0,-1.0
1742987356,1742987165,0.04664983,-0.0036221717,-0.038701657,0.523845,0.0,0.0,0.0,-1.0
1743031347,1743031162,0.04600084,-0.0054841614,-0.04210316,0.5230996,0.0,0.0,0.0,-1.0
1743071397,1743071157,0.04186139,-0.007764755,-0.042926915,0.5256658,0.0,0.0,0.0,-1.0
1743115320,1743115157,0.044265166,-0.0067793895,-0.0352613,0.5243291,0.0,0.0,0.0,-1.0
1743155334,1743155173,0.051630132,-0.007096043,-0.036884494,0.52436846,0.0,0.0,0.0,-1.0
1743199375,1743199177,0.044109713,-0.00854208,-0.04038406,0.5265083,0.0,0.0,0.0,-1.0
1743239381,1743239157,0.049972642,-0.0062104496,-0.0371914,0.52111495,0.0,0.0,0.0,-1.0
1743280132,1743279930,0.04388991,-0.003624876,-0.0411819,0.52467567,0.0,0.0,0.0,-1.0
1743324106,1743323959,0.047336377,-0.007213712,-0.034990303,0.5278576,0.0,0.0,0.0,-1.0
1743364118,1743363960,0.05036128,-0.006959508,-0.03522954,0.5240457,0.0,0.0,0.0,-1.0
1743408208,1743407985,0.043297637,-0.004855087,-0.04058066,0.52671033,0.0,0.0,0.0,-1.0
1743448176,1743447953,0.046504267,-0.0051386654,-0.040969774,0.52651495,0.0,0.0,0.0,-1.0
1743492116,1743491959,0.045944862,-0.0014678296,-0.0371387,0.5270003,0.0,0.0,0.0,-1.0
1743532103,1743531954,0.047740642,-0.00090505887,-0.03508399,0.526879,0.0,0.0,0.0,-1.0
1743576937,1743576754,0.04659371,0.0021128277,-0.04134005,0.5236802,0.0,0.0,0.0,-1.0
1743616940,1743616753,0.045987114,0.002549766,-0.0449797,0.5265072,0.0,0.0,0.0,-1.0
1743656939,1743656754,0.049781255,0.0041563064,-0.04238714,0.52647024,0.0,0.0,0.0,-1.0
1743700905,1743700753,0.042349834,0.006190969,-0.036527332,0.52574235,0.0,0.0,0.0,-1.0
1743744936,1743744760,0.0524909,0.0056877653,-0.040191453,0.5237116,0.0,0.0,0.0,-1.0
1743784925,1743784753,0.044303726,0.0042045545,-0.045470595,0.52871424,0.0,0.0,0.0,-1.0
1743828896,1743828753,0.044841286,0.0034494195,-0.042919636,0.5266727,0.0,0.0,0.0,-1.0
1743869685,1743869530,0.042273343,0.004325686,-0.03911998,0.524953,0.0,0.0,0.0,-1.0
1743909701,1743909559,0.04152959,0.0046292194,-0.041851766,0.5270683,0.0,0.0,0.0,-1.0
1743949701,1743949554,0.0434633,0.008126271,-0.04351983,0.52271223,0.0,0.0,0.0,-1.0
1743993740,1743993566,0.048724204,0.0019638673,-0.044286124,0.52559555,0.0,0.0,0.0,-1.0
1744037701,1744037560,0.039004773,0.0045657745,-0.042506017,0.52937,0.0,0.0,0.0,-1.0
1744077699,1744077560,0.037637036,0.0008744536,-0.050696827,0.52974075,0.0,0.0,0.0,-1.0
1744121765,1744121568,0.04108209,0.0028459865,-0.045281123,0.5285914,0.0,0.0,0.0,-1.0
1744162575,1744162403,0.032948736,0.0009252593,-0.045843758,0.5296519,0.0,0.0,0.0,-1.0
1744206554,1744206361,0.034004893,0.0022793158,-0.04699873,0.5258968,0.0,0.0,0.0,-1.0
1744246541,1744246398,0.036312465,0.00016218622,-0.047751553,0.52795005,0.0,0.0,0.0,-1.0
1744290579,1744290367,0.0454285,0.0018711217,-0.04550452,0.5235883,0.0,0.0,0.0,-1.0
1744330586,1744330399,0.044042032,0.0014051496,-0.041347574,0.52606755,0.0,0.0,0.0,-1.0
1744374526,1744374360,0.046593037,0.000515529,-0.048063267,0.5258398,0.0,0.0,0.0,-1.0
1744414555,1744414404,0.04659462,-0.00016733083,-0.048339874,0.5261229,0.0,0.0,0.0,-1.0
1744459309,1744459159,0.036872324,-0.0050602644,-0.042654067,0.5302457,0.0,0.0,0.0,-1.0
1744503325,1744503183,0.042436574,-0.0039961496,-0.040975463,0.5301792,0.0,0.0,0.0,-1.0
1744543325,1744543175,0.038995944,-0.004346674,-0.04205952,0.53074676,0.0,0.0,0.0,-1.0
1744587359,1744587213,0.03501311,-0.0032255722,-0.03686243,0.5266311,0.0,0.0,0.0,-1.0
1744627369,1744627163,0.034274057,-0.0030438711,-0.037776634,0.5296078,0.0,0.0,0.0,-1.0
1744671311,1744671157,0.04256273,-0.002516219,-0.03949896,0.5270789,0.0,0.0,0.0,-1.0
1744711324,1744711163,0.037704505,-0.0016985807,-0.033057213,0.52732855,0.0,0.0,0.0,-1.0
1744756107,1744755967,0.045099117,-0.003685796,-0.035540834,0.52834064,0.0,0.0,0.0,-1.0
1744796167,1744796006,0.04083143,-0.0048822374,-0.03339856,0.5318012,0.0,0.0,0.0,-1.0
1744840111,1744839963,0.036513638,-0.0071958127,-0.03252589,0.5307006,0.0,0.0,0.0,-1.0
1744880124,1744879965,0.036708694,-0.0089914305,-0.03417423,0.5318904,0.0,0.0,0.0,-1.0
1744924140,1744923996,0.040000044,-0.00819848,-0.031269446,0.5319125,0.0,0.0,0.0,-1.0
1744964137,1744963987,0.03668698,-0.009530589,-0.029817529,0.5310382,0.0,0.0,0.0,-1.0
1745004903,1745004756,0.04109669,-0.009247673,-0.033730056,0.5312463,0.0,0.0,0.0,-1.0
1745044915,1745044768,0.04055498,-0.004266253,-0.031669714,0.5309527,0.0,0.0,0.0,-1.0
1745088904,1745088761,0.03876256,-0.0044872407,-0.028936638,0.5309534,0.0,0.0,0.0,-1.0
1745128895,1745128759,0.034736805,-0.0034716171,-0.029806167,0.53411907,0.0,0.0,0.0,-1.0
1745172919,1745172779,0.0423447,-0.00025648007,-0.030073196,0.5319225,0.0,0.0,0.0,-1.0
1745212930,1745212753,0.037871882,-0.0015695099,-0.03008518,0.5302995,0.0,0.0,0.0,-1.0
1745252937,1745252753,0.03573629,-0.0017446477,-0.03124699,0.5347739,0.0,0.0,0.0,-1.0
1745296889,1745296753,0.042771418,0.0023781587,-0.030994758,0.53158534,0.0,0.0,0.0,-1.0
1745337697,1745337563,0.041206297,0.0030660308,-0.03340949,0.5284994,0.0,0.0,0.0,-1.0
1745377698,1745377561,0.042274877,0.003675666,-0.032354917,0.5298377,0.0,0.0,0.0,-1.0
1745421751,1745421595,0.041421626,0.0069879033,-0.03516615,0.5290896,0.0,0.0,0.0,-1.0
1745465699,1745465561,0.031335503,0.005293637,-0.034937866,0.52830374,0.0,0.0,0.0,-1.0
1745505704,1745505563,0.029161705,0.0037411978,-0.038315807,0.53004533,0.0,0.0,0.0,-1.0
1745549760,1745549621,0.029858902,0.0047588646,-0.035054233,0.52788424,0.0,0.0,0.0,-1.0
1745590514,1745590366,0.02660977,0.004580089,-0.040023036,0.5305666,0.0,0.0,0.0,-1.0
1745634523,1745634335,0.0352068,0.0017833672,-0.036884468,0.5284217,0.0,0.0,0.0,-1.0
1745674514,1745674366,0.034226038,0.0043090004,-0.039842553,0.5292868,0.0,0.0,0.0,-1.0
1745718576,1745718395,0.037374433,0.005007489,-0.040528614,0.5296939,0.0,0.0,0.0,-1.0
1745758591,1745758441,0.030443406,0.0045609674,-0.041035846,0.531529,0.0,0.0,0.0,-1.0
1745802550,1745802360,0.026670583,0.0038099557,-0.042990394,0.5335423,0.0,0.0,0.0,-1.0
1745842553,1745842401,0.026414396,0.0059531936,-0.043389987,0.5355563,0.0,0.0,0.0,-1.0
1745886572,1745886384,0.02680212,0.007834899,-0.0429445,0.53406525,0.0,0.0,0.0,-1.0
1745927372,1745927194,0.02965023,0.007743597,-0.04368398,0.53495383,0.0,0.0,0.0,-1.0
1745971376,1745971171,0.029775344,0.0086725345,-0.04366699,0.5343074,0.0,0.0,0.0,-1.0
1746011357,1746011167,0.030061243,0.006210277,-0.04447494,0.5353028,0.0,0.0,0.0,-1.0
1746051354,1746051164,0.029867839,0.001147364,-0.046631746,0.5368009,0.0,0.0,0.0,-1.0
1746095353,1746095167,0.027937323,0.0014599217,-0.045151774,0.5377353,0.0,0.0,0.0,-1.0
1746139326,1746139178,0.03586213,0.0035166647,-0.044508256,0.5355302,0.0,0.0,0.0,-1.0
1746180068,1746179929,0.03704561,0.004527962,-0.043197,0.53491515,0.0,0.0,0.0,-1.0
1746220099,1746219930,0.03598733,0.0025608735,-0.04181898,0.5356651,0.0,0.0,0.0,-1.0
1746264268,1746263929,0.04136041,-0.0011053375,-0.043859232,0.5338269,0.0,0.0,0.0,-1.0
1746304160,1746304008,0.042323694,-0.0017770235,-0.0418955,0.5337818,0.0,0.0,0.0,-1.0
1746348142,1746347960,0.03963229,-0.006661814,-0.04343521,0.5353469,0.0,0.0,0.0,-1.0
1746388186,1746387960,0.03529906,-0.0064309263,-0.04219806,0.53944933,0.0,0.0,0.0,-1.0
1746432901,1746432761,0.03480371,-0.0034243814,-0.039653003,0.5360718,0.0,0.0,0.0,-1.0
1746472908,1746472762,0.030547936,0.00013322954,-0.041245908,0.5346154,0.0,0.0,0.0,-1.0
1746516941,1746516761,0.035379294,0.0007618158,-0.03785641,0.53145176,0.0,0.0,0.0,-1.0
1746556942,1746556767,0.028256308,0.0005759032,-0.034876473,0.53352416,0.0,0.0,0.0,-1.0
1746600909,1746600761,0.03115195,0.0013146118,-0.035505526,0.5311411,0.0,0.0,0.0,-1.0
1746644951,1746644774,0.03095048,-0.0014368943,-0.03833197,0.5335155,0.0,0.0,0.0,-1.0
1746688909,1746688761,0.025259918,-0.0012990356,-0.037524477,0.53654164,0.0,0.0,0.0,-1.0
1746729704,1746729536,0.031207688,-0.00042819796,-0.03739873,0.536164,0.0,0.0,0.0,-1.0
1746769726,1746769584,0.041939266,0.0010682492,-0.034488432,0.5364747,0.0,0.0,0.0,-1.0
1746813733,1746813529,0.036398858,-0.00047166029,-0.035546675,0.5396401,0.0,0.0,0.0,-1.0
1746853749,1746853577,0.035644677,0.00068851566,-0.037397124,0.5392281,0.0,0.0,0.0,-1.0
1746897730,1746897561,0.029744932,0.0025618416,-0.035340574,0.54121464,0.0,0.0,0.0,-1.0
1746937740,1746937608,0.029824326,0.0017463944,-0.03571125,0.54096806,0.0,0.0,0.0,-1.0
1746981792,1746981567,0.03466569,0.006144412,-0.037893493,0.53969467,0.0,0.0,0.0,-1.0
1747021797,1747021605,0.033852644,0.0068797898,-0.03973919,0.54062897,0.0,0.0,0.0,-1.0
1747066517,1747066360,0.03755638,0.0073240194,-0.039239615,0.5366421,0.0,0.0,0.0,-1.0
1747106531,1747106353,0.037042934,0.0075326026,-0.04228082,0.54077715,0.0,0.0,0.0,-1.0
1747150580,1747150360,0.044394605,0.0061313407,-0.039744772,0.5391235,0.0,0.0,0.0,-1.0
1747190604,1747190360,0.04093247,0.0069526844,-0.041834373,0.5379,0.0,0.0,0.0,-1.0
1747234511,1747234360,0.052536394,0.007377846,-0.045119543,0.5363224,0.0,0.0,0.0,-1.0
1747274565,1747274360,0.053243063,0.005868499,-0.039518367,0.5359621,0.0,0.0,0.0,-1.0
1747315297,1747315133,0.05128122,0.0040913904,-0.041564,0.536422,0.0,0.0,0.0,-1.0
1747355276,1747355140,0.04866248,0.0024428023,-0.041350845,0.5367062,0.0,0.0,0.0,-1.0
1747399339,1747399144,0.043416366,0.0021125101,-0.04047585,0.5377136,0.0,0.0,0.0,-1.0
1747443288,1747443145,0.038908824,0.0058519207,-0.040700436,0.53549695,0.0,0.0,0.0,-1.0
1747483317,1747483171,0.04167868,0.009439178,-0.039834853,0.5318874,0.0,0.0,0.0,-1.0
1747527328,1747527156,0.045340672,0.010330919,-0.038546555,0.53021145,0.0,0.0,0.0,-1.0
1747567338,1747567161,0.038401525,0.0070424415,-0.037836455,0.5324127,0.0,0.0,0.0,-1.0
1747612119,1747611961,0.044806425,0.007007327,-0.039062552,0.5314301,0.0,0.0,0.0,-1.0
1747652107,1747651953,0.044907156,0.005243053,-0.03806768,0.53126955,0.0,0.0,0.0,-1.0
1747696157,1747695954,0.042095188,0.004917761,-0.043147717,0.5330703,0.0,0.0,0.0,-1.0
1747736126,1747735960,0.045493092,0.0066905622,-0.040062293,0.53387815,0.0,0.0,0.0,-1.0
1747780113,1747779954,0.03715195,0.0066061085,-0.038913,0.53783643,0.0,0.0,0.0,-1.0
1747820897,1747820754,0.036869474,0.0062610107,-0.037948955,0.5374674,0.0,0.0,0.0,-1.0
1747864940,1747864780,0.039819334,0.009384583,-0.03753765,0.537211,0.0,0.0,0.0,-1.0
1747904912,1747904769,0.03745535,0.00869048,-0.03731982,0.5379925,0.0,0.0,0.0,-1.0
1747948878,1747948729,0.040113244,0.009866973,-0.03979724,0.5361762,0.0,0.0,0.0,-1.0
1747988872,1747988729,0.04251734,0.009750792,-0.03944539,0.53664917,0.0,0.0,0.0,-1.0
1748032909,1748032756,0.03860228,0.010609429,-0.04115823,0.5361845,0.0,0.0,0.0,-1.0
1748072919,1748072753,0.04026015,0.009603783,-0.04166453,0.53962624,0.0,0.0,0.0,-1.0
1748113770,1748113624,0.036769144,0.011196653,-0.035107873,0.5364221,0.0,0.0,0.0,-1.0
1748157803,1748157594,0.043289084,0.013403326,-0.040240236,0.5334235,0.0,0.0,0.0,-1.0
1748197744,1748197598,0.045198508,0.013744521,-0.036523007,0.5348651,0.0,0.0,0.0,-1.0
1748241773,1748241593,0.041570783,0.010919623,-0.04100986,0.5346082,0.0,0.0,0.0,-1.0
1748281753,1748281617,0.04426338,0.011654169,-0.041332327,0.5333981,0.0,0.0,0.0,-1.0
1748325718,1748325556,0.03801108,0.007942402,-0.041915216,0.5387308,0.0,0.0,0.0,-1.0
1748366538,1748366354,0.04137046,0.004682946,-0.039532196,0.5359247,0.0,0.0,0.0,-1.0
1748410525,1748410365,0.03119823,0.0058008325,-0.04053341,0.53598094,0.0,0.0,0.0,-1.0
1748454549,1748454353,0.029621352,0.006719311,-0.038753767,0.5370573,0.0,0.0,0.0,-1.0
1748498481,1748498334,0.037146885,0.010598772,-0.039511222,0.53544384,0.0,0.0,0.0,-1.0
1748538499,1748538355,0.035433248,0.008117366,-0.037479956,0.5377011,0.0,0.0,0.0,-1.0
1748578481,1748578335,0.035627685,0.009474196,-0.039039668,0.53723556,0.0,0.0,0.0,-1.0
1748618561,1748618370,0.034563188,0.0067812083,-0.03948898,0.53755903,0.0,0.0,0.0,-1.0
1748658595,1748658396,0.03498661,0.0040036296,-0.041670486,0.5387022,0.0,0.0,0.0,-1.0
1748702558,1748702366,0.035857514,0.0074072517,-0.04100699,0.53486276,0.0,0.0,0.0,-1.0
1748746525,1748746379,0.033270255,0.007279495,-0.04353116,0.5335493,0.0,0.0,0.0,-1.0
1748787349,1748787203,0.030394204,0.005039793,-0.045488797,0.5370863,0.0,0.0,0.0,-1.0
1748827349,1748827189,0.029525276,0.006033634,-0.042847257,0.5338299,0.0,0.0,0.0,-1.0
1748871298,1748871157,0.029556802,0.007875547,-0.046240415,0.535135,0.0,0.0,0.0,-1.0
1748911319,1748911168,0.031966552,0.009656017,-0.046232987,0.5345748,0.0,0.0,0.0,-1.0
1748955350,1748955207,0.02947467,0.007339415,-0.044074684,0.53741086,0.0,0.0,0.0,-1.0
1748996110,1748995963,0.034693945,0.004578941,-0.048989955,0.53759366,0.0,0.0,0.0,-1.0
1749040158,1749039960,0.026259342,0.0011136743,-0.047078013,0.54142016,0.0,0.0,0.0,-1.0
1749080074,1749079930,0.028358074,0.0025990787,-0.05103737,0.5427875,0.0,0.0,0.0,-1.0
1749124080,1749123937,0.032820627,0.0066096215,-0.044692863,0.54122007,0.0,0.0,0.0,-1.0
1749164118,1749163952,0.033890698,0.008225774,-0.04835936,0.54086846,0.0,0.0,0.0,-1.0
1749208110,1749207930,0.0397913,0.010324423,-0.046796817,0.5392499,0.0,0.0,0.0,-1.0
1749248119,1749247943,0.03146887,0.006758263,-0.047290497,0.5419391,0.0,0.0,0.0,-1.0
1749288935,1749288766,0.02703413,0.0012589773,-0.051243845,0.54187614,0.0,0.0,0.0,-1.0
1749328889,1749328760,0.025276762,0.0037175724,-0.0514589,0.5398518,0.0,0.0,0.0,-1.0
1749372886,1749372754,0.031146986,0.0019906196,-0.04928682,0.53889865,0.0,0.0,0.0,-1.0
1749413017,1749412807,0.03399555,0.0030452323,-0.049741454,0.5378733,0.0,0.0,0.0,-1.0
1749456916,1749456768,0.037370387,-5.781249e-05,-0.050913144,0.5377996,0.0,0.0,0.0,-1.0
1749500904,1749500760,0.033261534,0.0006799929,-0.0506061,0.5403967,0.0,0.0,0.0,-1.0
1749541717,1749541559,0.033889815,-0.0009842073,-0.051910777,0.5408296,0.0,0.0,0.0,-1.0
1749585777,1749585555,0.041342612,0.004177501,-0.050620846,0.53693026,0.0,0.0,0.0,-1.0
1749625764,1749625590,0.038248207,0.0050939457,-0.04524076,0.5370921,0.0,0.0,0.0,-1.0
1749669712,1749669537,0.044065557,0.0029136576,-0.046772484,0.53598166,0.0,0.0,0.0,-1.0
1749709678,1749709533,0.04398258,0.004476219,-0.04220741,0.5379227,0.0,0.0,0.0,-1.0
1749753758,1749753530,0.037795667,0.002755459,-0.043617968,0.53967166,0.0,0.0,0.0,-1.0
1749793772,1749793580,0.043030046,0.0029205424,-0.042686448,0.53952855,0.0,0.0,0.0,-1.0
1749838508,1749838353,0.038228687,0.0009445286,-0.03790821,0.5416742,0.0,0.0,0.0,-1.0
1749882534,1749882354,0.043111518,0.0020333938,-0.034839004,0.53754663,0.0,0.0,0.0,-1.0
1749926522,1749926370,0.043799978,0.0054412326,-0.034243483,0.5374405,0.0,0.0,0.0,-1.0
1749970556,1749970353,0.040654525,0.004330117,-0.031081464,0.5407672,0.0,0.0,0.0,-1.0
1750010548,1750010358,0.040226005,0.004255863,-0.035287604,0.5407471,0.0,0.0,0.0,-1.0
1750054520,1750054353,0.04334843,0.006866504,-0.030454861,0.5422429,0.0,0.0,0.0,-1.0
1750098569,1750098379,0.052177392,0.010704426,-0.031006902,0.5366429,0.0,0.0,0.0,-1.0
1750143415,1750143212,0.05021929,0.0109148435,-0.0336132,0.5315245,0.0,0.0,0.0,-1.0
1750183422,1750183232,0.043690346,0.01062651,-0.034919858,0.5347601,0.0,0.0,0.0,-1.0
1750223331,1750223178,0.04079332,0.011688552,-0.03425846,0.53385067,0.0,0.0,0.0,-1.0
1750267341,1750267194,0.04424913,0.012019405,-0.035793353,0.5302056,0.0,0.0,0.0,-1.0
1750311313,1750311170,0.045326997,0.008891733,-0.03668522,0.5308752,0.0,0.0,0.0,-1.0
1750351271,1750351133,0.042967293,0.011423508,-0.038519517,0.5280337,0.0,0.0,0.0,-1.0
1750395322,1750395167,0.042099886,0.009091786,-0.03828115,0.5316771,0.0,0.0,0.0,-1.0
1750436170,1750435973,0.04301728,0.009845924,-0.036615808,0.52995443,0.0,0.0,0.0,-1.0
1750476176,1750475967,0.043297123,0.009504901,-0.03686059,0.53045136,0.0,0.0,0.0,-1.0
1750520167,1750519986,0.049632836,0.007357768,-0.03780709,0.5326567,0.0,0.0,0.0,-1.0
1750560142,1750559954,0.051149998,0.009356875,-0.032435592,0.527813,0.0,0.0,0.0,-1.0
1750604170,1750603991,0.04298547,0.0059301276,-0.037891593,0.53318226,0.0,0.0,0.0,-1.0
1750644183,1750643979,0.04734983,0.0078526065,-0.0364433,0.5274893,0.0,0.0,0.0,-1.0
1750688175,1750687960,0.03475347,0.0019471981,-0.03677821,0.532495,0.0,0.0,0.0,-1.0
1750728899,1750728760,0.037789654,0.0034404711,-0.038289692,0.5296828,0.0,0.0,0.0,-1.0
1750772889,1750772754,0.033129755,0.007848318,-0.0325955,0.5304683,0.0,0.0,0.0,-1.0
1750812921,1750812766,0.031473156,0.008783565,-0.036957126,0.5297998,0.0,0.0,0.0,-1.0
1750856871,1750856729,0.035630863,0.013428672,-0.034671057,0.5289644,0.0,0.0,0.0,-1.0
1750900858,1750900729,0.03494177,0.015550325,-0.03961549,0.52729267,0.0,0.0,0.0,-1.0
1750944921,1750944736,0.032384183,0.0158891,-0.038545113,0.5276264,0.0,0.0,0.0,-1.0
1750985727,1750985563,0.03231603,0.017962461,-0.04116971,0.52787524,0.0,0.0,0.0,-1.0
1751025742,1751025553,0.03982751,0.017041806,-0.040992938,0.5285489,0.0,0.0,0.0,-1.0
1751069705,1751069560,0.033281926,0.018151551,-0.041292686,0.52751786,0.0,0.0,0.0,-1.0
1751109703,1751109567,0.030271325,0.01943813,-0.04262121,0.5251808,0.0,0.0,0.0,-1.0
1751153755,1751153555,0.03328573,0.015511429,-0.04032864,0.52594626,0.0,0.0,0.0,-1.0
1751193760,1751193554,0.033750493,0.01707723,-0.040500063,0.52760535,0.0,0.0,0.0,-1.0
1751237697,1751237556,0.04166346,0.017224528,-0.04464172,0.5266698,0.0,0.0,0.0,-1.0
1751278497,1751278354,0.04023099,0.015482705,-0.045315005,0.52865887,0.0,0.0,0.0,-1.0
1751322576,1751322392,0.041837838,0.013214,-0.051325466,0.52935994,0.0,0.0,0.0,-1.0
1751362551,1751362354,0.042354036,0.014917177,-0.048066176,0.5263831,0.0,0.0,0.0,-1.0
1751406546,1751406397,0.03207031,0.0109027,-0.04475866,0.52925295,0.0,0.0,0.0,-1.0
1751446480,1751446329,0.0320101,0.014044456,-0.045314763,0.53045404,0.0,0.0,0.0,-1.0
1751490558,1751490380,0.039981104,0.010786517,-0.044141166,0.53170973,0.0,0.0,0.0,-1.0
1751530503,1751530329,0.036553852,0.011640683,-0.044458166,0.5320577,0.0,0.0,0.0,-1.0
1751571409,1751571213,0.030075656,0.010185471,-0.043602575,0.5340832,0.0,0.0,0.0,-1.0
1751611366,1751611165,0.030552449,0.014841588,-0.046394914,0.5318018,0.0,0.0,0.0,-1.0
1751655367,1751655200,0.037727874,0.014672202,-0.04549634,0.53133076,0.0,0.0,0.0,-1.0
1751699384,1751699170,0.02880758,0.0128409015,-0.04782007,0.5347802,0.0,0.0,0.0,-1.0
1751739360,1751739185,0.030280203,0.012066247,-0.04700487,0.53548574,0.0,0.0,0.0,-1.0
1751783367,1751783195,0.024401424,0.012922987,-0.045446075,0.53488356,0.0,0.0,0.0,-1.0
1751823372,1751823211,0.025823733,0.010357257,-0.045133885,0.5369709,0.0,0.0,0.0,-1.0
1751868186,1751867959,0.024135286,0.013894768,-0.047011264,0.5356486,0.0,0.0,0.0,-1.0
1751908199,1751907954,0.022757951,0.014293593,-0.046293993,0.53378046,0.0,0.0,0.0,-1.0
1751952093,1751951953,0.027969088,0.015168443,-0.0441776,0.5342074,0.0,0.0,0.0,-1.0
1751992143,1751991954,0.027714074,0.017511064,-0.04258526,0.5344918,0.0,0.0,0.0,-1.0
1752036111,1752035936,0.038496975,0.019208316,-0.045177497,0.532302,0.0,0.0,0.0,-1.0
1752076956,1752076759,0.038698826,0.0196557,-0.041478842,0.5347978,0.0,0.0,0.0,-1.0
1752120900,1752120753,0.039716948,0.0129674375,-0.04591315,0.53448564,0.0,0.0,0.0,-1.0
1752160902,1752160753,0.03966257,0.013745847,-0.043464612,0.53550106,0.0,0.0,0.0,-1.0
1752204938,1752204781,0.032878138,0.009250794,-0.048228487,0.53957385,0.0,0.0,0.0,-1.0
1752244921,1752244753,0.034274545,0.0073765223,-0.0451784,0.5381798,0.0,0.0,0.0,-1.0
1752284922,1752284754,0.03846261,0.009726465,-0.040759724,0.5338971,0.0,0.0,0.0,-1.0
1752328885,1752328753,0.029631553,0.011221886,-0.04544016,0.5363835,0.0,0.0,0.0,-1.0
1752373006,1752372753,0.026654396,0.013664756,-0.041347414,0.5243328,0.0,0.0,0.0,-1.0
1752413734,1752413583,0.023620095,0.013120347,-0.04254254,0.51950717,0.0,0.0,0.0,-1.0
1752453726,1752453557,0.026801828,0.01140279,-0.04186421,0.5141182,0.0,0.0,0.0,-1.0
1752497692,1752497560,0.025799127,0.014440729,-0.03888629,0.50600445,0.0,0.0,0.0,-1.0
1752537708,1752537561,0.029456653,0.014439119,-0.036275897,0.50128645,0.0,0.0,0.0,-1.0
1752581764,1752581609,0.03684674,0.016045548,-0.03983763,0.49647716,0.0,0.0,0.0,-1.0
1752621761,1752621560,0.032235973,0.0128234355,-0.038106993,0.49642894,0.0,0.0,0.0,-1.0
1752665698,1752665549,0.034117285,0.014825164,-0.03570533,0.49172592,0.0,0.0,0.0,-1.0
1752706490,1752706353,0.02809974,0.016400699,-0.03780714,0.4911773,0.0,0.0,0.0,-1.0
1752750541,1752750398,0.033168618,0.015106815,-0.039595474,0.49045005,0.0,0.0,0.0,-1.0
1752790546,1752790401,0.03416691,0.01808491,-0.041600622,0.48838374,0.0,0.0,0.0,-1.0
1752834546,1752834401,0.032734104,0.017874481,-0.037242066,0.48829174,0.0,0.0,0.0,-1.0
1752874505,1752874353,0.11696497,0.13069233,-0.06403871,0.47801238,0.0,0.0,0.0,1.0
1752918589,1752918439,0.10502046,0.11522616,-0.05887492,0.4846996,0.0,0.0,0.0,1.0
1752958518,1752958353,0.06655428,0.06870193,-0.053054918,0.49410808,0.0,0.0,0.0,1.0
1752999391,1752999238,0.042724147,0.047250386,-0.05510792,0.50527555,0.0,0.0,0.0,1.0
1753039353,1753039197,0.025210153,0.029519772,-0.059286997,0.5218485,0.0,0.0,0.0,1.0
1753083355,1753083212,0.012785129,0.011252172,-0.052069116,0.53071594,0.0,0.0,0.0,1.0
1753123365,1753123213,0.0124863405,0.013730515,-0.05177039,0.5452844,0.0,0.0,0.0,1.0
1753167400,1753167231,0.016902432,0.023489105,-0.055819582,0.5544158,0.0,0.0,0.0,1.0
1753211348,1753211163,0.020640492,0.008298732,-0.050525725,0.55498993,0.0,0.0,0.0,1.0
1753252112,1753251954,0.02046226,-0.0010757693,-0.05424563,0.5592723,0.0,0.0,0.0,1.0
1753296124,1753295978,0.030996282,-0.00076136086,-0.054104812,0.5620271,0.0,0.0,0.0,1.0
1753336184,1753336005,0.030069785,-0.0007728487,-0.057487115,0.56408584,0.0,0.0,0.0,1.0
1753380105,1753379953,0.0510781,-0.15208359,0.28236032,0.52210844,0.0,0.0,0.0,1.0
1753420143,1753419954,0.049833562,-0.1535651,0.22977076,0.50858724,0.0,0.0,0.0,1.0
1753468166,1753467954,0.033955432,-0.09365243,0.15395075,0.49674374,0.0,0.0,0.0,1.0
1753508936,1753508754,0.03459819,-0.04106784,0.11353177,0.49626637,0.0,0.0,0.0,1.0
1753548929,1753548754,0.026200576,-0.013043504,0.090284795,0.49763742,0.0,0.0,0.0,1.0
1753592892,1753592754,0.01951869,0.0098630665,0.068304606,0.5083349,0.0,0.0,0.0,1.0
1753636915,1753636754,0.02051393,0.029268702,0.051755995,0.51625645,0.0,0.0,0.0,1.0
1753684976,1753684755,0.022925403,0.03802401,0.035369657,0.52405596,0.0,0.0,0.0,1.0
1753724979,1753724797,0.0239728,0.044324785,0.023313731,0.52708787,0.0,0.0,0.0,1.0
1753768930,1753768754,0.031215573,0.04704143,0.01659162,0.5304424,0.0,0.0,0.0,1.0
1753813092,1753812799,0.03091558,0.046311647,0.006277022,0.5330752,0.0,0.0,0.0,1.0
1753853733,1753853580,0.033958245,0.045951862,0.00084121805,0.5333785,0.0,0.0,0.0,1.0
1753897698,1753897561,0.039062865,0.041179392,-0.0023079533,0.5311602,0.0,0.0,0.0,1.0
1753937688,1753937559,0.041134074,0.03938854,-0.0043528974,0.53144634,0.0,0.0,0.0,1.0
1753981775,1753981593,0.046468142,0.03421337,-0.0069151865,0.5291212,0.0,0.0,0.0,1.0
1754025697,1754025554,0.05008662,0.031065656,-0.01149793,0.527991,0.0,0.0,0.0,1.0
1754073730,1754073554,0.06360748,0.03420488,-0.036202267,0.518783,0.0,0.0,0.0,1.0
1754113699,1754113560,0.060872003,0.031197954,-0.0517636,0.5195338,0.0,0.0,0.0,1.0
1754154560,1754154366,0.064396635,0.026904503,-0.061850585,0.5195538,0.0,0.0,0.0,1.0
1754202569,1754202354,0.06263802,0.029355595,-0.06885894,0.5155547,0.0,0.0,0.0,1.0
1754242579,1754242392,0.07355216,0.027882833,-0.09046732,0.5073545,0.0,0.0,0.0,1.0
1754290537,1754290355,0.06791952,0.019558437,-0.0925348,0.50096935,0.0,0.0,0.0,1.0
1754330551,1754330353,0.07222474,0.012729154,-0.09441307,0.5005755,0.0,0.0,0.0,1.0
1754374512,1754374354,0.06573979,0.007884808,-0.101022005,0.49992433,0.0,0.0,0.0,1.0
1754415307,1754415161,0.06540859,0.0068182116,-0.10534549,0.50047946,0.0,0.0,0.0,1.0
1754459385,1754459234,0.070368834,0.0022211713,-0.10339522,0.49275225,0.0,0.0,0.0,1.0
1754503313,1754503175,0.06755683,-0.0042153304,-0.105439216,0.49395183,0.0,0.0,0.0,1.0
1754543313,1754543170,0.064201646,-0.002449999,-0.10684146,0.49498937,0.0,0.0,0.0,1.0
1754587358,1754587206,0.071758814,-0.0059633306,-0.104133785,0.4891578,0.0,0.0,0.0,1.0
1754627335,1754627169,0.06666666,-0.004709947,-0.101219684,0.4870419,0.0,0.0,0.0,1.0
1754672102,1754671954,0.07372899,-0.012097843,-0.10418251,0.49073488,0.0,0.0,0.0,1.0
1754716145,1754716001,0.062321167,-0.012132043,-0.09627848,0.49398917,0.0,0.0,0.0,1.0
1754756151,1754756012,0.067873545,-0.0112149855,-0.09383851,0.4882495,0.0,0.0,0.0,1.0
1754800141,1754799987,0.069233194,-0.008005195,-0.090915486,0.4852948,0.0,0.0,0.0,1.0
1754840110,1754839954,0.067824595,-0.009498819,-0.09267321,0.48823044,0.0,0.0,0.0,1.0
1754880112,1754879953,0.073762,-0.0039706053,-0.08481865,0.48450473,0.0,0.0,0.0,1.0
1754924118,1754923963,0.060015813,-0.010323159,-0.081802115,0.49023312,0.0,0.0,0.0,1.0
1754964926,1754964787,0.07199013,-0.0034286093,-0.07929268,0.49489525,0.0,0.0,0.0,1.0
1755004898,1755004750,0.06421897,-0.0065818545,-0.06993607,0.49799675,0.0,0.0,0.0,1.0
1755048989,1755048797,0.061434638,-0.004947859,-0.06895789,0.49622917,0.0,0.0,0.0,1.0
1755088907,1755088753,0.060679935,-0.008177023,-0.06676432,0.4969967,0.0,0.0,0.0,1.0
1755133027,1755132835,0.06269154,-0.007437793,-0.07030275,0.49772492,0.0,0.0,0.0,1.0
1755173022,1755172803,0.07215663,-0.004724965,-0.06547054,0.4992371,0.0,0.0,0.0,1.0
1755216920,1755216778,0.07669368,-0.005548152,-0.067363665,0.49794286,0.0,0.0,0.0,1.0
1755256899,1755256754,0.06492167,-0.0090123825,-0.063252345,0.5000395,0.0,0.0,0.0,1.0
1755301796,1755301590,0.06520157,-0.012061645,-0.06294277,0.50415957,0.0,0.0,0.0,1.0
1755341783,1755341591,0.06788888,-0.016193334,-0.055728614,0.49935296,0.0,0.0,0.0,1.0
1755385796,1755385557,0.07198266,-0.013489061,-0.058150798,0.49869817,0.0,0.0,0.0,1.0
1755425740,1755425554,0.06698994,-0.009795891,-0.063663356,0.50278354,0.0,0.0,0.0,1.0
1755469759,1755469575,0.06380165,-0.010682936,-0.052250996,0.5017996,0.0,0.0,0.0,1.0
1755514516,1755514330,0.074166864,-0.0099801,-0.058727883,0.49967983,0.0,0.0,0.0,1.0
1755554537,1755554333,0.056355152,-0.008227101,-0.048611194,0.50076115,0.0,0.0,0.0,1.0
1755598465,1755598329,0.07506542,-0.008537188,-0.049578313,0.5034946,0.0,0.0,0.0,1.0
1755638549,1755638401,0.08114733,-0.0036007408,-0.05139094,0.5046562,0.0,0.0,0.0,1.0
1755682550,1755682364,0.0668758,-0.0072483746,-0.045332722,0.50617564,0.0,0.0,0.0,1.0
1755726517,1755726378,0.067341365,-0.041608755,-0.043319106,0.50065804,0.0,0.0,0.0,1.0
1755770545,1755770353,0.06504662,-0.055251334,-0.03646081,0.5000191,0.0,0.0,0.0,1.0
1755810536,1755810360,0.06306834,-0.050127685,-0.0442349,0.5005434,0.0,0.0,0.0,1.0
1755855364,1755855205,0.0675848,-0.041277625,-0.05034755,0.50148773,0.0,0.0,0.0,1.0
1755899399,1755899211,0.07160452,-0.030032262,-0.049204584,0.5038091,0.0,0.0,0.0,1.0
1755939400,1755939205,0.0695781,-0.022092842,-0.047941323,0.51022863,0.0,0.0,0.0,1.0
1755983366,1755983178,0.073517404,-0.015597127,-0.054208484,0.5107061,0.0,0.0,0.0,1.0
1756023386,1756023223,0.06645116,-0.011782099,-0.051740333,0.5103099,0.0,0.0,0.0,1.0
1756067382,1756067170,0.07231763,-0.012675758,-0.04836001,0.51187783,0.0,0.0,0.0,1.0
1756108191,1756107970,0.07351643,-0.013901366,-0.051373594,0.5120518,0.0,0.0,0.0,1.0
1756152062,1756151929,0.071207084,-0.016640048,-0.0477719,0.50976557,0.0,0.0,0.0,1.0
1756196119,1756195965,0.07530626,-0.010872096,-0.043062612,0.5070962,0.0,0.0,0.0,1.0
1756240116,1756239960,0.0819062,-0.01576536,-0.04670175,0.5068315,0.0,0.0,0.0,1.0
1756284176,1756284009,0.071693264,-0.02132756,-0.042533346,0.5132963,0.0,0.0,0.0,1.0
1756324139,1756323990,0.077274695,-0.028577575,-0.03913787,0.5153348,0.0,0.0,0.0,1.0
1756372109,1756371960,0.08166467,-0.025441926,-0.037949435,0.5072464,0.0,0.0,0.0,1.0
1756412934,1756412805,0.07056349,-0.032910705,-0.0328973,0.50919884,0.0,0.0,0.0,1.0
1756457004,1756456755,0.07639894,-0.033662155,-0.035746977,0.5113284,0.0,0.0,0.0,1.0
1756500934,1756500754,0.079988584,-0.029662488,-0.033179782,0.5087404,0.0,0.0,0.0,1.0
1756540949,1756540762,0.07076981,-0.027655484,-0.02926194,0.5075695,0.0,0.0,0.0,1.0
1756580946,1756580809,0.079772316,-0.03052004,-0.030916419,0.50961244,0.0,0.0,0.0,1.0
1756628951,1756628754,0.077186845,-0.0326737,-0.03809854,0.50863826,0.0,0.0,0.0,1.0
1756669679,1756669530,0.07341942,-0.030154882,-0.024074702,0.5035843,0.0,0.0,0.0,1.0
1756709676,1756709529,0.07313477,-0.028683301,-0.024777275,0.5064659,0.0,0.0,0.0,1.0
1756753706,1756753533,0.07203159,-0.022783773,-0.029681932,0.5049734,0.0,0.0,0.0,1.0
1756793739,1756793553,0.059623063,-0.02632199,-0.029214375,0.5155433,0.0,0.0,0.0,1.0
1756837705,1756837560,0.056413352,-0.025276527,-0.025079006,0.518618,0.0,0.0,0.0,1.0
1756877699,1756877560,0.059963036,-0.025832511,-0.031928066,0.51552993,0.0,0.0,0.0,1.0
1756921741,1756921573,0.055116925,-0.028770102,-0.032162346,0.51961005,0.0,0.0,0.0,1.0
1756961731,1756961559,0.0467683,-0.030846408,-0.034466483,0.52744836,0.0,0.0,0.0,1.0
