timestamp,x,y,z,yaw,yawspeed,vx,vy,vz,acc_x,acc_y,acc_z,thrust[0],thrust[1],thrust[2]
1725985036,10.219314,8.131998,-30.582447,0.021332871,0.0,-0.053123664,-0.012100411,-0.22397798,-0.10651964,-0.012090585,-5.2357397,0.0,0.0,0.0
1726086167,10.219314,8.131998,-30.582447,0.021332871,0.0,-0.055194758,-0.01363244,-0.32540506,-0.11206362,-0.016851127,-5.441042,0.0,0.0,0.0
1726190373,10.219314,8.131998,-30.582447,0.021332871,0.0,-0.057103682,-0.015307617,-0.42944002,0.027070967,-0.0010089002,-5.651316,0.0,0.0,0.0
1726290822,10.219314,8.131998,-30.582447,0.021332871,0.0,-0.05831771,-0.017145872,-0.53004897,0.020165218,-0.032068446,-5.8582397,0.0,0.0,0.0
1726390227,10.219314,8.131998,-30.582447,0.021332871,0.0,-0.059439324,-0.018841887,-0.6294589,-0.05761412,-0.036052074,-6.0693502,0.0,0.0,0.0
1726494514,10.219314,8.131998,-30.582447,0.021332871,0.0,-0.060221195,-0.020150136,-0.733602,-0.13632737,-0.057511702,-6.2744017,0.0,0.0,0.0
1726594693,10.219314,8.131998,-30.582447,0.021332871,0.0,-0.061032962,-0.020918416,-0.83394015,-0.103092015,-0.038183164,-6.480687,0.0,0.0,0.0
1726698787,10.219314,8.131998,-30.582447,0.021332871,0.0,-0.06109185,-0.022451352,-0.93800914,-0.13117348,-0.011722153,-6.709256,0.0,0.0,0.0
1726798995,10.219314,8.131998,-30.582447,0.021332871,0.0,-0.060993098,-0.023791313,-1.0,-0.082049854,-0.048442125,-6.813476,0.0,0.0,0.0
1726899647,10.219314,8.131998,-30.582447,0.021332871,0.0,-0.06036978,-0.024825955,-1.0,-0.111849755,-0.036114503,-6.7692957,0.0,0.0,0.0
1726999267,10.219314,8.131998,-30.582447,0.021332871,0.0,-0.062042236,-0.023138093,-1.0,-0.22719681,0.22439374,-6.4522724,0.0,0.0,0.0
1727103330,10.219314,8.131998,-30.582447,0.021332871,0.0,-0.069056414,-0.014496756,-1.0,-0.079787254,-0.01031538,-5.6634912,0.0,0.0,0.0
1727204969,10.219314,8.131998,-30.582447,0.021332871,0.0,-0.07449689,-0.0058554173,-1.0,-0.25717783,0.14245719,-5.1083307,0.0,0.0,0.0
1727304016,10.219314,8.131998,-30.582447,0.021332871,0.0,-0.08209543,0.005776596,-1.0,-0.17882128,0.17952323,-4.846396,0.0,0.0,0.0
1727409763,10.219314,8.131998,-30.582447,0.021332871,0.0,-0.08955989,0.021697568,-1.0,-0.12455584,0.17918992,-4.8489165,0.0,0.0,0.0
1727513300,10.219314,8.131998,-30.582447,0.021332871,0.0,-0.08796625,0.03711753,-1.0,-0.060771205,0.14518951,-4.911224,0.0,0.0,0.0
1727612873,10.219314,8.131998,-30.582447,0.021332871,0.0,-0.081335306,0.05160341,-1.0,-0.057065815,0.2425962,-4.963732,0.0,0.0,0.0
1727713618,10.219314,8.131998,-30.582447,0.021332871,0.0,-0.07203712,0.064935066,-1.0,-0.021151587,0.1619731,-4.979184,0.0,0.0,0.0
1727817433,10.219314,8.131998,-30.582447,0.021332871,0.0,-0.060890723,0.077762075,-1.0,0.029193388,0.17125747,-4.995363,0.0,0.0,0.0
1727918060,10.219314,8.131998,-30.582447,0.021332871,0.0,-0.049139116,0.08495836,-1.0,0.021770531,0.1918517,-5.0029554,0.0,0.0,0.0
1728018194,10.219314,8.131998,-30.582447,0.021332871,0.0,-0.036763284,0.09092069,-1.0,0.05851323,0.19387348,-5.0290103,0.0,0.0,0.0
1728122194,10.219314,8.131998,-30.582447,0.021332871,0.0,-0.023478746,0.09608664,-1.0,0.087704025,0.09646486,-5.0738673,0.0,0.0,0.0
1728222622,10.219314,8.131998,-30.582447,0.021332871,0.0,-0.010301113,0.09984741,-1.0,0.06063111,0.14682572,-5.0714574,0.0,0.0,0.0
1728323260,10.219314,8.131998,-30.582447,0.021332871,0.0,0.002509594,0.10055227,-1.0,0.043549754,0.16071449,-5.071444,0.0,0.0,0.0
1728424106,10.219314,8.131998,-30.582447,0.021332871,0.0,0.014153385,0.10019622,-1.0,0.06519433,0.15968518,-5.1171927,0.0,0.0,0.0
1728528461,10.219314,8.131998,-30.582447,0.021332871,0.0,0.026895236,0.0986198,-1.0,0.06433283,0.14870185,-5.1047535,0.0,0.0,0.0
1728628119,10.219314,8.131998,-30.582447,0.021332871,0.0,0.03749442,0.09727258,-1.0,0.045657698,0.16370726,-5.111918,0.0,0.0,0.0
1728732031,10.219314,8.131998,-30.582447,0.021332871,0.0,0.050587796,0.091221474,-1.0,0.05189653,0.084099516,-5.17217,0.0,0.0,0.0
1728833346,10.219314,8.131998,-30.582447,0.021332871,0.0,0.06110997,0.08524828,-1.0,0.04239885,0.0516473,-5.1454225,0.0,0.0,0.0
1728937619,10.219314,8.131998,-30.582447,0.021332871,0.0,0.06677513,0.078639984,-1.0,0.015776057,0.12886052,-5.141808,0.0,0.0,0.0
1729036611,10.219314,8.131998,-30.582447,0.021332871,0.0,0.06977849,0.07335806,-1.0,0.028649528,0.10364229,-5.133383,0.0,0.0,0.0
1729141623,10.219314,8.131998,-30.582447,0.021332871,0.0,0.07633061,0.06582022,-1.0,0.021342034,0.11338638,-5.176203,0.0,0.0,0.0
1729241931,10.219314,8.131998,-30.582447,0.021332871,0.0,0.08110156,0.05940399,-1.0,0.0274168,0.08350132,-5.172778,0.0,0.0,0.0
1729342166,10.219314,8.131998,-30.582447,0.021332871,0.0,0.078738734,0.054232597,-1.0,0.00946483,0.12377048,-5.1729755,0.0,0.0,0.0
1729442845,10.219314,8.131998,-30.582447,0.021332871,0.0,0.07596912,0.049843073,-1.0,0.038847297,0.109194994,-5.1507654,0.0,0.0,0.0
1729546761,10.219314,8.131998,-30.582447,0.021332871,0.0,0.080639504,0.044010304,-1.0,0.034591082,0.035810217,-5.2093306,0.0,0.0,0.0
1729646984,10.219314,8.131998,-30.582447,0.021332871,0.0,0.08354864,0.039011955,-1.0,0.035099093,0.028315837,-5.208513,0.0,0.0,0.0
1729747415,10.219314,8.131998,-30.582447,0.021332871,0.0,0.08375249,0.034452103,-1.0,0.03729767,0.059587862,-5.2179217,0.0,0.0,0.0
1729852551,10.219314,8.131998,-30.582447,0.021332871,0.0,0.0826508,0.02957425,-1.0,0.045335002,0.032531302,-5.216747,0.0,0.0,0.0
1729956004,10.219314,8.131998,-30.582447,0.021332871,0.0,0.0859314,0.024540568,-1.0,0.03127051,-0.0070731714,-5.249781,0.0,0.0,0.0
1730056263,10.219314,8.131998,-30.582447,0.021332871,0.0,0.08769355,0.01976509,-1.0,0.012774992,0.0040683546,-5.248067,0.0,0.0,0.0
1730160905,10.219314,8.131998,-30.582447,0.021332871,0.0,0.09040336,0.016278839,-1.0,0.030160937,0.021189442,-5.2717175,0.0,0.0,0.0
1730265034,10.219314,8.131998,-30.582447,0.021332871,0.0,0.09087086,0.012750005,-1.0,0.025109362,0.012033602,-5.247402,0.0,0.0,0.0
1730369664,10.219314,8.131998,-30.582447,0.021332871,0.0,0.091983415,0.010210514,-1.0,-0.020279896,0.011085645,-5.2271414,0.0,0.0,0.0
1730468989,10.219314,8.131998,-30.582447,0.021332871,0.0,0.09050936,0.007703638,-1.0,-0.006556704,0.0050419807,-5.247345,0.0,0.0,0.0
1730570140,10.219314,8.131998,-30.582447,0.021332871,0.0,0.08974471,0.005874443,-1.0,-0.016574014,-0.000106661544,-5.2345853,0.0,0.0,0.0
1730674458,10.219314,8.131998,-30.582447,0.021332871,0.0,0.08605371,0.004009914,-1.0,-0.0058308304,0.025152916,-5.268546,0.0,0.0,0.0
1730774496,10.219314,8.131998,-30.582447,0.021332871,0.0,0.08081345,0.0023537634,-1.0,-0.05534701,0.015665647,-5.240559,0.0,0.0,0.0
1730874644,10.219314,8.131998,-30.582447,0.021332871,0.0,0.07461014,0.0008797169,-1.0,-0.042981867,0.050209124,-5.2259502,0.0,0.0,0.0
1730978720,10.219314,8.131998,-30.582447,0.021332871,0.0,0.0678895,-0.00028810502,-1.0,-0.04364472,0.006692456,-5.2589016,0.0,0.0,0.0
1731078640,10.219314,8.131998,-30.582447,0.021332871,0.0,0.05986333,-0.0017902374,-1.0,-0.04286719,0.007184797,-5.267941,0.0,0.0,0.0
1731180277,10.219314,8.131998,-30.582447,0.021332871,0.0,0.050499916,-0.004229164,-1.0,-0.08617688,0.007979044,-5.2572327,0.0,0.0,0.0
1731283761,10.219314,8.131998,-30.582447,0.021332871,0.0,0.040273998,-0.0068809986,-1.0,-0.04350907,0.036650605,-5.256228,0.0,0.0,0.0
1731384072,10.219314,8.131998,-30.582447,0.021332871,0.0,0.030252839,-0.009773826,-1.0,-0.079671994,-0.012402395,-5.2587357,0.0,0.0,0.0
1731484475,10.219314,8.131998,-30.582447,0.021332871,0.0,0.019754218,-0.013533687,-1.0,-0.06602483,0.0030351025,-5.2892365,0.0,0.0,0.0
1731588357,10.219314,8.131998,-30.582447,0.021332871,0.0,0.008392191,-0.018240308,-1.0,-0.06797847,0.026196504,-5.24148,0.0,0.0,0.0
1731689158,10.219314,8.131998,-30.582447,0.021332871,0.0,-0.0007909298,-0.022168683,-1.0,-0.06974785,0.05350325,-5.2627196,0.0,0.0,0.0
1731788821,10.219314,8.131998,-30.582447,0.021332871,0.0,-0.007854032,-0.025022553,-1.0,-0.073274374,-0.019017406,-5.260814,0.0,0.0,0.0
1731889330,10.219314,8.131998,-30.582447,0.021332871,0.0,-0.014973306,-0.026332617,-1.0,-0.07486153,0.034414545,-5.273505,0.0,0.0,0.0
1731994554,10.219314,8.131998,-30.582447,0.021332871,0.0,-0.022359848,-0.025869654,-1.0,-0.04869302,0.02785756,-5.2617254,0.0,0.0,0.0
1732097975,10.219314,8.131998,-30.582447,0.021332871,0.0,-0.02848072,-0.02535777,-1.0,-0.06970741,0.029611748,-5.235033,0.0,0.0,0.0
1732198657,10.219314,8.131998,-30.582447,0.021332871,0.0,-0.03285122,-0.024696397,-1.0,-0.03956682,0.0760761,-5.2462525,0.0,0.0,0.0
1732298684,10.219314,8.131998,-30.582447,0.021332871,0.0,-0.037753534,-0.02274127,-1.0,-0.010712581,-0.0012393371,-5.282168,0.0,0.0,0.0
1732402836,10.219314,8.131998,-30.582447,0.021332871,0.0,-0.04286151,-0.019662714,-1.0,-0.054540135,0.10131589,-5.2185307,0.0,0.0,0.0
1732503372,10.219314,8.131998,-30.582447,0.021332871,0.0,-0.047526453,-0.016812468,-1.0,-0.032438878,0.06942787,-5.2507277,0.0,0.0,0.0
1732603754,10.219314,8.131998,-30.582447,0.021332871,0.0,-0.052951526,-0.014293813,-1.0,-0.04380547,0.09714062,-5.2359653,0.0,0.0,0.0
1732707560,10.219314,8.131998,-30.582447,0.021332871,0.0,-0.06017046,-0.010809374,-1.0041307,-0.06892028,0.059570894,-5.255484,0.0,0.0,0.0
1732807997,10.219314,8.131998,-30.582447,0.021332871,0.0,-0.06746278,-0.006818485,-1.0086523,-0.07429646,0.095801204,-5.2582984,0.0,0.0,0.0
1732908244,10.219314,8.131998,-30.582447,0.021332871,0.0,-0.075681016,-0.0028167248,-1.0133568,-0.085218705,0.118240654,-5.2511063,0.0,0.0,0.0
1733012361,10.219314,8.131998,-30.582447,0.021332871,0.0,-0.082681604,0.0013272762,-1.0184976,-0.06934045,0.040616207,-5.2776027,0.0,0.0,0.0
1733112658,10.219314,8.131998,-30.582447,0.021332871,0.0,-0.08865208,0.0069625378,-1.0237073,-0.09221951,0.09859235,-5.220582,0.0,0.0,0.0
1733213742,10.219314,8.131998,-30.582447,0.021332871,0.0,-0.09325361,0.013189411,-1.0287685,-0.06664188,0.13344614,-5.2292876,0.0,0.0,0.0
1733313399,10.219314,8.131998,-30.582447,0.021332871,0.0,-0.09626512,0.019555807,-1.0341717,-0.0759275,0.15747339,-5.17866,0.0,0.0,0.0
1733417416,10.219314,8.131998,-30.582447,0.021332871,0.0,-0.09779172,0.025804425,-1.0396522,-0.08773328,0.07283362,-5.2298594,0.0,0.0,0.0
1733517981,10.219314,8.131998,-30.582447,0.021332871,0.0,-0.09552221,0.030615235,-1.0450215,-0.070682615,0.12840116,-5.178594,0.0,0.0,0.0
1733618594,10.219314,8.131998,-30.582447,0.021332871,0.0,-0.091090105,0.0346179,-1.0501547,-0.07106127,0.14153865,-5.1780114,0.0,0.0,0.0
1733722224,10.219314,8.131998,-30.582447,0.021332871,0.0,-0.08984165,0.03816123,-1.0553638,-0.050449166,0.12206863,-5.188908,0.0,0.0,0.0
1733823253,10.219314,8.131998,-30.582447,0.021332871,0.0,-0.08947382,0.041515205,-1.0602651,-0.07228319,0.18365148,-5.1770263,0.0,0.0,0.0
1733923250,10.219314,8.131998,-30.582447,0.021332871,0.0,-0.091027595,0.047779225,-1.0654228,-0.07103188,0.1073903,-5.183947,0.0,0.0,0.0
1734024269,10.219314,8.131998,-30.582447,0.021332871,0.0,-0.09330616,0.054300547,-1.0709575,-0.11079529,0.13459061,-5.174187,0.0,0.0,0.0
1734127606,10.219314,8.131998,-30.582447,0.021332871,0.0,-0.095957085,0.060064457,-1.0765225,-0.11259881,0.10661082,-5.1814814,0.0,0.0,0.0
1734228497,10.219314,8.131998,-30.582447,0.021332871,0.0,-0.09851108,0.06442861,-1.0816528,-0.14479718,0.14290756,-5.190418,0.0,0.0,0.0
1734332134,10.219314,8.131998,-30.582447,0.021332871,0.0,-0.10125623,0.06351175,-1.0870539,-0.14518248,0.08854071,-5.19633,0.0,0.0,0.0
1734436788,10.219314,8.131998,-30.582447,0.021332871,0.0,-0.10319958,0.060637046,-1.0926803,-0.13564588,0.07618226,-5.202824,0.0,0.0,0.0
1734541293,10.219314,8.131998,-30.582447,0.021332871,0.0,-0.10199551,0.05696597,-1.0982921,-0.12697843,0.060872294,-5.2254868,0.0,0.0,0.0
1734640555,10.219314,8.131998,-30.582447,0.021332871,0.0,-0.10006666,0.052222203,-1.1041186,-0.0999011,0.074130364,-5.226443,0.0,0.0,0.0
1734744889,10.219314,8.131998,-30.582447,0.021332871,0.0,-0.10239868,0.04973254,-1.1103731,-0.1530913,0.046542265,-5.227139,0.0,0.0,0.0
1734845888,10.219314,8.131998,-30.582447,0.021332871,0.0,-0.104440786,0.046197366,-1.1165534,-0.13710721,0.020354506,-5.245379,0.0,0.0,0.0
1734945717,10.219314,8.131998,-30.582447,0.021332871,0.0,-0.10708628,0.043337155,-1.1226116,-0.17651659,0.0519237,-5.2248383,0.0,0.0,0.0
1735046449,10.219314,8.131998,-30.582447,0.021332871,0.0,-0.109416485,0.03894491,-1.1288238,-0.14873819,0.011803246,-5.237081,0.0,0.0,0.0
1735150206,10.219314,8.131998,-30.582447,0.021332871,0.0,-0.119301744,0.0361001,-1.1351135,-0.16146563,0.046168674,-5.237082,0.0,0.0,0.0
1735251204,10.219314,8.131998,-30.582447,0.021332871,0.0,-0.1261755,0.031864595,-1.1412233,-0.14772722,-0.02827667,-5.300051,0.0,0.0,0.0
1735350200,10.219314,8.131998,-30.582447,0.021332871,0.0,-0.13548093,0.029769944,-1.1474591,-0.16664615,-0.023939751,-5.2871437,0.0,0.0,0.0
1735455691,10.219314,8.131998,-30.582447,0.021332871,0.0,-0.14208107,0.026936913,-1.1538497,-0.16166961,0.028631883,-5.2279415,0.0,0.0,0.0
1735560038,10.219314,8.131998,-30.582447,0.021332871,0.0,-0.14908981,0.028335761,-1.160005,-0.18746024,0.036535095,-5.266984,0.0,0.0,0.0
1735659816,10.219314,8.131998,-30.582447,0.021332871,0.0,-0.15132579,0.02790904,-1.165977,-0.14176516,0.07678123,-5.243345,0.0,0.0,0.0
1735760525,10.219314,8.131998,-30.582447,0.021332871,0.0,-0.14979467,0.027573824,-1.171866,-0.1508109,0.05875816,-5.232701,0.0,0.0,0.0
1735864546,10.219314,8.131998,-30.582447,0.021332871,0.0,-0.1451732,0.025808048,-1.1777505,-0.09635293,0.030498402,-5.2534,0.0,0.0,0.0
1735964821,10.219314,8.131998,-30.582447,0.021332871,0.0,-0.140029,0.024220752,-1.1837285,-0.11004743,0.024905672,-5.238214,0.0,0.0,0.0
1736065376,10.219314,8.131998,-30.582447,0.021332871,0.0,-0.13293691,0.021531772,-1.1895965,-0.08371298,0.003842382,-5.2479167,0.0,0.0,0.0
1736169871,10.219314,8.131998,-30.582447,0.021332871,0.0,-0.12668647,0.01830554,-1.1960286,-0.044069514,0.057796787,-5.2604795,0.0,0.0,0.0
1736273848,10.219314,8.131998,-30.582447,0.021332871,0.0,-0.11589522,0.0143762585,-1.2029092,-0.016071279,0.04661922,-5.2244577,0.0,0.0,0.0
1736373606,10.219314,8.131998,-30.582447,0.021332871,0.0,-0.10047436,0.011602116,-1.2098063,0.011956957,0.024894964,-5.2569575,0.0,0.0,0.0
1736475438,10.219314,8.131998,-30.582447,0.021332871,0.0,-0.083371975,0.009706783,-1.2172518,0.0014849002,0.022083918,-5.237606,0.0,0.0,0.0
1736578695,10.219314,8.131998,-30.582447,0.021332871,0.0,-0.065176964,0.0108256815,-1.2251173,0.02407963,0.085141234,-5.2047653,0.0,0.0,0.0
1736682718,10.219314,8.131998,-30.582447,0.021332871,0.0,-0.04971895,0.013716698,-1.2329268,0.06032098,0.05931911,-5.224576,0.0,0.0,0.0
1736783339,10.219314,8.131998,-30.582447,0.021332871,0.0,-0.04002304,0.018995905,-1.2402792,0.018908352,0.031411774,-5.2154202,0.0,0.0,0.0
1736883746,10.219314,8.131998,-30.582447,0.021332871,0.0,-0.030382395,0.025440216,-1.2473778,0.055355355,0.05876133,-5.238094,0.0,0.0,0.0
1736987672,10.219314,8.131998,-30.582447,0.021332871,0.0,-0.019994305,0.03364577,-1.2549849,0.008688178,0.15064624,-5.2100987,0.0,0.0,0.0
1737087784,10.219314,8.131998,-30.582447,0.021332871,0.0,-0.011237001,0.040767763,-1.2624704,0.038259815,0.15638116,-5.184304,0.0,0.0,0.0
1737188651,10.219314,8.131998,-30.582447,0.021332871,0.0,-0.004228258,0.047309924,-1.2701659,0.01566916,0.13515955,-5.146082,0.0,0.0,0.0
1737292510,10.219314,8.131998,-30.582447,0.021332871,0.0,0.0028294085,0.052210424,-1.2777778,0.024522986,0.09328945,-5.147089,0.0,0.0,0.0
1737393734,10.219314,8.131998,-30.582447,0.021332871,0.0,0.009050846,0.055266332,-1.2849456,0.036494005,0.07677101,-5.1259274,0.0,0.0,0.0
1737492539,10.219314,8.131998,-30.582447,0.021332871,0.0,0.015965367,0.056885336,-1.2861111,0.043483675,0.053232018,-5.1395707,0.0,0.0,0.0
1737596998,10.219314,8.131998,-30.582447,0.021332871,0.0,0.023649072,0.057260416,-1.2861111,0.0655452,0.10940539,-5.1583457,0.0,0.0,0.0
1737697875,10.219314,8.131998,-30.582447,0.021332871,0.0,0.03187909,0.055703927,-1.2861111,0.083358854,0.015870787,-5.2140956,0.0,0.0,0.0
1737797391,10.219314,8.131998,-30.582447,0.021332871,0.0,0.041006945,0.05283737,-1.2861111,0.10743542,0.035767194,-5.2032294,0.0,0.0,0.0
1737898642,10.219314,8.131998,-30.582447,0.021332871,0.0,0.049906492,0.050046016,-1.2861111,0.0936951,0.08078462,-5.173401,0.0,0.0,0.0
1738003727,10.219314,8.131998,-30.582447,0.021332871,0.0,0.05915303,0.04783087,-1.2861111,0.13175794,0.07204146,-5.1740947,0.0,0.0,0.0
1738106822,10.219314,8.131998,-30.582447,0.021332871,0.0,0.06857533,0.04641118,-1.2861111,0.15290737,0.082139134,-5.1918316,0.0,0.0,0.0
1738208160,10.219314,8.131998,-30.582447,0.021332871,0.0,0.07793512,0.046244476,-1.2861111,0.14811684,0.06454614,-5.188291,0.0,0.0,0.0
1738311451,10.219314,8.131998,-30.582447,0.021332871,0.0,0.09073677,0.047968578,-1.2861111,0.15436213,0.124298565,-5.159336,0.0,0.0,0.0
1738415465,10.219314,8.131998,-30.582447,0.021332871,0.0,0.104653694,0.051905107,-1.2861111,0.19564843,0.17049369,-5.1468043,0.0,0.0,0.0
1738517254,10.219314,8.131998,-30.582447,0.021332871,0.0,0.115378805,0.060013723,-1.2861111,0.18807504,0.19746035,-5.1690207,0.0,0.0,0.0
1738615739,10.219314,8.131998,-30.582447,0.021332871,0.0,0.124804735,0.07058301,-1.2861111,0.17939807,0.20268449,-5.1217313,0.0,0.0,0.0
1738717433,10.219314,8.131998,-30.582447,0.021332871,0.0,0.13272762,0.084361315,-1.2861111,0.18957289,0.29289237,-5.1280084,0.0,0.0,0.0
1738821056,10.219314,8.131998,-30.582447,0.021332871,0.0,0.13988495,0.099872775,-1.2861111,0.21655458,0.26416478,-5.1150923,0.0,0.0,0.0
1738920591,10.219314,8.131998,-30.582447,0.021332871,0.0,0.15003476,0.11479082,-1.2861111,0.190812,0.33820978,-5.0710964,0.0,0.0,0.0
1739024882,10.219314,8.131998,-30.582447,0.021332871,0.0,0.16080698,0.12989685,-1.2861111,0.2059432,0.381696,-5.0859065,0.0,0.0,0.0
1739125760,10.219314,8.131998,-30.582447,0.021332871,0.0,0.17372641,0.1421694,-1.2861111,0.24154189,0.3269044,-5.100052,0.0,0.0,0.0
1739225801,10.219314,8.131998,-30.582447,0.021332871,0.0,0.18545718,0.15261503,-1.2861111,0.2512219,0.29504487,-5.1111827,0.0,0.0,0.0
1739326846,10.219314,8.131998,-30.582447,0.021332871,0.0,0.19492388,0.1624713,-1.2861111,0.23388083,0.30242723,-5.0995474,0.0,0.0,0.0
1739430884,10.219314,8.131998,-30.582447,0.021332871,0.0,0.20291743,0.17099757,-1.2861111,0.25000778,0.3319193,-5.105876,0.0,0.0,0.0
1739530519,10.219314,8.131998,-30.582447,0.021332871,0.0,0.21045256,0.17783055,-1.2861111,0.253192,0.2741235,-5.1263986,0.0,0.0,0.0
1739631590,10.219314,8.131998,-30.582447,0.021332871,0.0,0.21697931,0.18269663,-1.2861111,0.2503179,0.33443084,-5.1202946,0.0,0.0,0.0
1739735332,10.219314,8.131998,-30.582447,0.021332871,0.0,0.2269298,0.18505764,-1.2861111,0.265057,0.32709217,-5.1180897,0.0,0.0,0.0
1739834942,10.219314,8.131998,-30.582447,0.021332871,0.0,0.23405632,0.18541868,-1.2861111,0.25867432,0.21344325,-5.132323,0.0,0.0,0.0
1739936178,10.219314,8.131998,-30.582447,0.021332871,0.0,0.24247932,0.18398495,-1.2861111,0.2114818,0.2125041,-5.09351,0.0,0.0,0.0
1740040514,10.219314,8.131998,-30.582447,0.021332871,0.0,0.24726658,0.18125021,-1.2861111,0.23717038,0.25240743,-5.088676,0.0,0.0,0.0
1740144482,10.219314,8.131998,-30.582447,0.021332871,0.0,0.2520964,0.17797777,-1.2861111,0.23419425,0.2612793,-5.126796,0.0,0.0,0.0
1740244602,10.219314,8.131998,-30.582447,0.021332871,0.0,0.25237092,0.17494226,-1.2861111,0.19524744,0.19141862,-5.1262755,0.0,0.0,0.0
1740345418,10.219314,8.131998,-30.582447,0.021332871,0.0,0.24974899,0.16994481,-1.2861111,0.19217841,0.29764187,-5.126725,0.0,0.0,0.0
1740449051,10.219314,8.131998,-30.582447,0.021332871,0.0,0.24367341,0.16493106,-1.2861111,0.2024274,0.22599462,-5.1245427,0.0,0.0,0.0
1740549656,10.219314,8.131998,-30.582447,0.021332871,0.0,0.23764043,0.15984572,-1.2861111,0.17534752,0.24935068,-5.160688,0.0,0.0,0.0
1740649896,10.219314,8.131998,-30.582447,0.021332871,0.0,0.22978367,0.15449087,-1.2861111,0.14278504,0.25995743,-5.119237,0.0,0.0,0.0
1740754893,10.219314,8.131998,-30.582447,0.021332871,0.0,0.21967825,0.14915912,-1.2861111,0.18036267,0.2659599,-5.134865,0.0,0.0,0.0
1740859615,10.219314,8.131998,-30.582447,0.021332871,0.0,0.20880003,0.14344276,-1.2861111,0.13101286,0.26225474,-5.091962,0.0,0.0,0.0
1741881372,10.219314,8.131998,-30.582447,0.021332871,0.0,0.103657104,0.07752471,-1.2861111,0.18111978,0.1507257,-5.071563,0.0,0.0,0.0
1742796127,10.219314,8.131998,-30.582447,0.021332871,0.0,0.069088124,0.051758338,-1.2861111,0.26290902,0.25557607,-5.162896,0.0,0.0,0.0
1742900104,10.219314,8.131998,-30.582447,0.021332871,0.0,0.06921587,0.045989893,-1.2861111,0.29399386,0.23773701,-5.1201067,0.0,0.0,0.0
1743001279,10.219314,8.131998,-30.582447,0.021332871,0.0,0.06966434,0.039440487,-1.2861111,0.27759108,0.18706514,-5.0985956,0.0,0.0,0.0
1743105266,10.219314,8.131998,-30.582447,0.021332871,0.0,0.07132683,0.030998468,-1.2861111,0.2880809,0.1556922,-5.1521473,0.0,0.0,0.0
1743205031,10.219314,8.131998,-30.582447,0.021332871,0.0,0.07407198,0.022527456,-1.2861111,0.29395932,0.13911697,-5.1583304,0.0,0.0,0.0
1743309633,10.219314,8.131998,-30.582447,0.021332871,0.0,0.078594685,0.012845134,-1.2861111,0.3026942,0.1954731,-5.136094,0.0,0.0,0.0
1743410161,10.219314,8.131998,-30.582447,0.021332871,0.0,0.08407502,0.0035360812,-1.2861111,0.30201143,0.1872248,-5.1457443,0.0,0.0,0.0
1743509433,10.219314,8.131998,-30.582447,0.021332871,0.0,0.08810396,-0.0056135175,-1.2861111,0.29832953,0.18678202,-5.0912294,0.0,0.0,0.0
1743611574,10.219314,8.131998,-30.582447,0.021332871,0.0,0.09100313,-0.014796638,-1.2861111,0.2850784,0.14793558,-5.147595,0.0,0.0,0.0
1743714814,10.219314,8.131998,-30.582447,0.021332871,0.0,0.09271908,-0.024310445,-1.2861111,0.26551014,0.0990797,-5.1376944,0.0,0.0,0.0
1743814445,10.219314,8.131998,-30.582447,0.021332871,0.0,0.09351544,-0.032126427,-1.2861111,0.2480036,0.16120914,-5.1618543,0.0,0.0,0.0
1743915463,10.219314,8.131998,-30.582447,0.021332871,0.0,0.090258405,-0.040314768,-1.2861111,0.2127792,0.08944417,-5.1827393,0.0,0.0,0.0
1744019800,10.219314,8.131998,-30.582447,0.021332871,0.0,0.08493662,-0.047282744,-1.2861111,0.22393069,0.083917774,-5.1948357,0.0,0.0,0.0
1744123651,10.219314,8.131998,-30.582447,0.021332871,0.0,0.07808461,-0.05528445,-1.2861111,0.16715297,0.08466435,-5.1457543,0.0,0.0,0.0
1744223825,10.219314,8.131998,-30.582447,0.021332871,0.0,0.070760585,-0.06212196,-1.2861111,0.16383097,0.09471331,-5.148929,0.0,0.0,0.0
1744327830,10.219314,8.131998,-30.582447,0.021332871,0.0,0.06235571,-0.07247291,-1.2861111,0.13438697,0.0953762,-5.156554,0.0,0.0,0.0
1744429120,10.219314,8.131998,-30.582447,0.021332871,0.0,0.05387654,-0.082289316,-1.2861111,0.14034086,0.09875477,-5.1796246,0.0,0.0,0.0
1744528913,10.219314,8.131998,-30.582447,0.021332871,0.0,0.045371104,-0.09374194,-1.2861111,0.103515565,0.044509415,-5.181414,0.0,0.0,0.0
1744629402,10.219314,8.131998,-30.582447,0.021332871,0.0,0.037351273,-0.104736134,-1.2861111,0.13742925,0.060593367,-5.178435,0.0,0.0,0.0
1744729568,10.219314,8.131998,-30.582447,0.021332871,0.0,0.029470062,-0.116064645,-1.2861111,0.1254994,0.048372887,-5.1869473,0.0,0.0,0.0
1744830028,10.219314,8.131998,-30.582447,0.021332871,0.0,0.022670602,-0.12600335,-1.2861111,0.11400929,-0.00385231,-5.1768656,0.0,0.0,0.0
1744934387,10.219314,8.131998,-30.582447,0.021332871,0.0,0.017861605,-0.1377912,-1.2861111,0.1520785,-0.007533172,-5.2061315,0.0,0.0,0.0
1745034443,10.219314,8.131998,-30.582447,0.021332871,0.0,0.014675235,-0.14713196,-1.2861111,0.13638277,-0.008308696,-5.212575,0.0,0.0,0.0
1745134922,10.219314,8.131998,-30.582447,0.021332871,0.0,0.017221974,-0.15820046,-1.2861111,0.1683266,-0.017303465,-5.1954064,0.0,0.0,0.0
1745234565,10.219314,8.131998,-30.582447,0.021332871,0.0,0.02022624,-0.16618223,-1.2861111,0.20249988,-0.044919383,-5.23879,0.0,0.0,0.0
1745339241,10.219314,8.131998,-30.582447,0.021332871,0.0,0.024756193,-0.17545776,-1.2861111,0.17618929,-0.007340216,-5.1848736,0.0,0.0,0.0
1745439688,10.219314,8.131998,-30.582447,0.021332871,0.0,0.02889204,-0.18147716,-1.2861111,0.18977103,-0.03569827,-5.2055244,0.0,0.0,0.0
1745539247,10.219314,8.131998,-30.582447,0.021332871,0.0,0.032791425,-0.1887577,-1.2861111,0.18104027,-0.04189063,-5.190156,0.0,0.0,0.0
1745643873,10.219314,8.131998,-30.582447,0.021332871,0.0,0.03585186,-0.19443373,-1.2861111,0.1677513,0.041775048,-5.1749344,0.0,0.0,0.0
1745744902,10.219314,8.131998,-30.582447,0.021332871,0.0,0.03844571,-0.2008255,-1.2861111,0.16905676,-0.036048826,-5.199923,0.0,0.0,0.0
1745844155,10.219314,8.131998,-30.582447,0.021332871,0.0,0.03920946,-0.20432353,-1.2861111,0.13534576,-0.023429628,-5.2283673,0.0,0.0,0.0
1745949836,10.219314,8.131998,-30.582447,0.021332871,0.0,0.039253853,-0.21053319,-1.2861111,0.16090132,-0.030802852,-5.2500296,0.0,0.0,0.0
1746054166,10.219314,8.131998,-30.582447,0.021332871,0.0,0.037406538,-0.21395512,-1.2861111,0.1102249,-0.046183806,-5.253061,0.0,0.0,0.0
1746158091,10.219314,8.131998,-30.582447,0.021332871,0.0,0.03595333,-0.21907124,-1.2861111,0.13562305,-0.10895929,-5.3078213,0.0,0.0,0.0
1746257597,10.219314,8.131998,-30.582447,0.021332871,0.0,0.03291011,-0.22111516,-1.2861111,0.09151182,-0.06419591,-5.2436476,0.0,0.0,0.0
1746358732,10.219314,8.131998,-30.582447,0.021332871,0.0,0.031640816,-0.22457786,-1.2861111,0.15760826,-0.053189795,-5.2865953,0.0,0.0,0.0
1746459834,10.219314,8.131998,-30.582447,0.021332871,0.0,0.029184675,-0.22512054,-1.2861111,0.12395618,-0.014620592,-5.2317967,0.0,0.0,0.0
1746562832,10.219314,8.131998,-30.582447,0.021332871,0.0,0.024677372,-0.22518668,-1.2861111,0.139724,-0.08754777,-5.2436953,0.0,0.0,0.0
1746662189,10.219314,8.131998,-30.582447,0.021332871,0.0,0.02078433,-0.22322068,-1.2861111,0.11966147,-0.09569391,-5.2352962,0.0,0.0,0.0
1746766953,10.219314,8.131998,-30.582447,0.021332871,0.0,0.01897416,-0.22267799,-1.2861111,0.14576966,0.0024489185,-5.259211,0.0,0.0,0.0
1746867805,10.219314,8.131998,-30.582447,0.021332871,0.0,0.016995477,-0.21987757,-1.2861111,0.13495557,-0.04184892,-5.3070974,0.0,0.0,0.0
1746967205,10.219314,8.131998,-30.582447,0.021332871,0.0,0.014774894,-0.21649642,-1.2861111,0.09109695,-0.009553061,-5.2765527,0.0,0.0,0.0
1747068547,10.219314,8.131998,-30.582447,0.021332871,0.0,0.0118286135,-0.21113658,-1.2861111,0.1254054,0.032612186,-5.29494,0.0,0.0,0.0
1747172413,10.219314,8.131998,-30.582447,0.021332871,0.0,0.0073530194,-0.2045917,-1.2861111,0.09154506,-0.029179625,-5.271209,0.0,0.0,0.0
1747272025,10.219314,8.131998,-30.582447,0.021332871,0.0,0.002293968,-0.19534878,-1.2861111,0.08486608,0.065657,-5.255951,0.0,0.0,0.0
1747372554,10.219314,8.131998,-30.582447,0.021332871,0.0,-0.0036013126,-0.18345404,-1.2861111,0.04703669,0.09336052,-5.2464957,0.0,0.0,0.0
1747476797,10.219314,8.131998,-30.582447,0.021332871,0.0,-0.010508585,-0.16862477,-1.2861111,0.07990836,0.1237576,-5.2616296,0.0,0.0,0.0
1747577412,10.219314,8.131998,-30.582447,0.021332871,0.0,-0.018327283,-0.15287866,-1.2861111,0.04257271,0.11513698,-5.2235684,0.0,0.0,0.0
1747677586,10.219314,8.131998,-30.582447,0.021332871,0.0,-0.02672038,-0.13413009,-1.2861111,0.038554326,0.16935185,-5.215237,0.0,0.0,0.0
1747781575,10.219314,8.131998,-30.582447,0.021332871,0.0,-0.03826995,-0.11086335,-1.2861111,0.0314973,0.20011318,-5.270004,0.0,0.0,0.0
1747882808,10.219314,8.131998,-30.582447,0.021332871,0.0,-0.04904308,-0.087393664,-1.2861111,0.043441605,0.18548255,-5.27171,0.0,0.0,0.0
1747982391,10.219314,8.131998,-30.582447,0.021332871,0.0,-0.05946288,-0.06367845,-1.2861111,0.016724268,0.17578183,-5.2940836,0.0,0.0,0.0
1748084279,10.219314,8.131998,-30.582447,0.021332871,0.0,-0.06774092,-0.04139018,-1.2861111,0.007253926,0.18108325,-5.281586,0.0,0.0,0.0
1748187559,10.219314,8.131998,-30.582447,0.021332871,0.0,-0.07347856,-0.020740842,-1.2861111,0.023390247,0.2574943,-5.2645793,0.0,0.0,0.0
1748287021,10.219314,8.131998,-30.582447,0.021332871,0.0,-0.07842164,-0.0028185367,-1.2861111,0.0017800792,0.26744446,-5.281628,0.0,0.0,0.0
1748388577,10.219314,8.131998,-30.582447,0.021332871,0.0,-0.08174119,0.013118744,-1.2861111,0.0020112942,0.2720019,-5.249211,0.0,0.0,0.0
1748492355,10.219314,8.131998,-30.582447,0.021332871,0.0,-0.085258245,0.027250385,-1.2861111,0.004893197,0.1680755,-5.2808814,0.0,0.0,0.0
1748592033,10.219314,8.131998,-30.582447,0.021332871,0.0,-0.0886539,0.038433027,-1.2861111,-0.015750764,0.19844265,-5.2455177,0.0,0.0,0.0
1748696117,10.219314,8.131998,-30.582447,0.021332871,0.0,-0.09312949,0.04875951,-1.2861111,0.019929685,0.18277237,-5.270677,0.0,0.0,0.0
1748796591,10.219314,8.131998,-30.582447,0.021332871,0.0,-0.09856091,0.05745883,-1.2861111,0.0059189326,0.14512661,-5.2562943,0.0,0.0,0.0
1748896948,10.219314,8.131998,-30.582447,0.021332871,0.0,-0.10310354,0.06486077,-1.2861111,0.0034179827,0.18506785,-5.237868,0.0,0.0,0.0
1748997402,10.219314,8.131998,-30.582447,0.021332871,0.0,-0.10642853,0.0703547,-1.2861111,0.024609277,0.10677125,-5.3154907,0.0,0.0,0.0
1749101669,10.219314,8.131998,-30.582447,0.021332871,0.0,-0.10972633,0.072920464,-1.2861111,0.030663412,0.12993696,-5.2762604,0.0,0.0,0.0
1749202684,10.219314,8.131998,-30.582447,0.021332871,0.0,-0.11266174,0.07265229,-1.2861111,0.0105178235,0.099688694,-5.303346,0.0,0.0,0.0
1749302231,10.219314,8.131998,-30.582447,0.021332871,0.0,-0.11354599,0.06890602,-1.2861111,0.03468419,0.08651779,-5.3091693,0.0,0.0,0.0
1749403352,10.219314,8.131998,-30.582447,0.021332871,0.0,-0.11277046,0.06253328,-1.2861111,0.057086647,0.049061745,-5.313345,0.0,0.0,0.0
1749506650,10.219314,8.131998,-30.582447,0.021332871,0.0,-0.110376835,0.052804757,-1.2861111,0.0845245,0.050611075,-5.3002224,0.0,0.0,0.0
1749607033,10.219314,8.131998,-30.582447,0.021332871,0.0,-0.10633974,0.041670132,-1.2861111,0.04694713,0.036411323,-5.2811713,0.0,0.0,0.0
1749707725,10.219314,8.131998,-30.582447,0.021332871,0.0,-0.101634026,0.032106493,-1.2861111,0.106425315,0.10018492,-5.2736692,0.0,0.0,0.0
1749811675,10.219314,8.131998,-30.582447,0.021332871,0.0,-0.09528393,0.023539448,-1.2861111,0.09846755,0.026953436,-5.2779803,0.0,0.0,0.0
1749912363,10.219314,8.131998,-30.582447,0.021332871,0.0,-0.08831868,0.01607499,-1.2861111,0.12165921,0.08095171,-5.2916007,0.0,0.0,0.0
1750012204,10.219314,8.131998,-30.582447,0.021332871,0.0,-0.08043022,0.009514713,-1.2861111,0.10773355,0.099946104,-5.287747,0.0,0.0,0.0
1750116599,10.219314,8.131998,-30.582447,0.021332871,0.0,-0.07130146,0.004441166,-1.2861111,0.1477419,0.09104805,-5.257117,0.0,0.0,0.0
1750217140,10.219314,8.131998,-30.582447,0.021332871,0.0,-0.062475298,0.0014686107,-1.2861111,0.1068673,0.0609185,-5.2204814,0.0,0.0,0.0
1750316880,10.219314,8.131998,-30.582447,0.021332871,0.0,-0.054386616,-0.0004140377,-1.2861111,0.096408576,0.110297404,-5.2115664,0.0,0.0,0.0
1750421702,10.219314,8.131998,-30.582447,0.021332871,0.0,-0.046776295,-0.0010011196,-1.2861111,0.14353916,0.082582265,-5.238641,0.0,0.0,0.0
1750522010,10.219314,8.131998,-30.582447,0.021332871,0.0,-0.04091091,-0.00017123223,-1.2861111,0.08405631,0.06345908,-5.2027044,0.0,0.0,0.0
1750621642,10.219314,8.131998,-30.582447,0.021332871,0.0,-0.03605752,0.0016778946,-1.2861111,0.078204885,0.12822011,-5.1899157,0.0,0.0,0.0
1750722605,10.219314,8.131998,-30.582447,0.021332871,0.0,-0.030273676,0.0035850047,-1.2861111,0.12210204,0.14648606,-5.1792316,0.0,0.0,0.0
1750826737,10.219314,8.131998,-30.582447,0.021332871,0.0,-0.025025273,0.0058363914,-1.2861111,0.0812707,0.09902125,-5.1849985,0.0,0.0,0.0
1750926105,10.219314,8.131998,-30.582447,0.021332871,0.0,-0.020396566,0.0076673985,-1.2861111,0.079648286,0.08871493,-5.1905637,0.0,0.0,0.0
1751027731,10.219314,8.131998,-30.582447,0.021332871,0.0,-0.017033529,0.009364319,-1.2861111,0.07501148,0.10890503,-5.1643414,0.0,0.0,0.0
1751131597,10.219314,8.131998,-30.582447,0.021332871,0.0,-0.016922092,0.012535286,-1.2861111,0.048784923,0.11473948,-5.2065377,0.0,0.0,0.0
1751231203,10.219314,8.131998,-30.582447,0.021332871,0.0,-0.018648004,0.0147948265,-1.2861111,0.041128322,0.028465485,-5.1999784,0.0,0.0,0.0
1751332070,10.219314,8.131998,-30.582447,0.021332871,0.0,-0.021406746,0.016346788,-1.2861111,0.041333552,0.10115672,-5.1862903,0.0,0.0,0.0
1751435811,10.219314,8.131998,-30.582447,0.021332871,0.0,-0.02527623,0.016575098,-1.2861111,0.024324508,0.03667682,-5.247511,0.0,0.0,0.0
1751536499,10.219314,8.131998,-30.582447,0.021332871,0.0,-0.030178547,0.015533209,-1.2861111,0.016518671,0.10254108,-5.209067,0.0,0.0,0.0
1751636620,10.219314,8.131998,-30.582447,0.021332871,0.0,-0.03552842,0.013044452,-1.2861111,0.010066417,0.13464323,-5.201455,0.0,0.0,0.0
1751740609,10.219314,8.131998,-30.582447,0.021332871,0.0,-0.042767286,0.009473943,-1.2861111,-0.025942726,0.029135741,-5.2301826,0.0,0.0,0.0
1751841240,10.219314,8.131998,-30.582447,0.021332871,0.0,-0.04976063,0.004840708,-1.2861111,-0.01803956,0.03925581,-5.206645,0.0,0.0,0.0
1751941674,10.219314,8.131998,-30.582447,0.021332871,0.0,-0.057794046,0.00037779807,-1.2861111,-0.012109567,0.056806907,-5.260373,0.0,0.0,0.0
1752045698,10.219314,8.131998,-30.582447,0.021332871,0.0,-0.06584468,-0.0055564404,-1.2861111,-0.050775327,0.0071769883,-5.24961,0.0,0.0,0.0
1752146421,10.219314,8.131998,-30.582447,0.021332871,0.0,-0.07683253,-0.013010931,-1.2861111,-0.016493391,-0.03660445,-5.2789845,0.0,0.0,0.0
1752246686,10.219314,8.131998,-30.582447,0.021332871,0.0,-0.08653569,-0.02135148,-1.2861111,-0.06501215,-0.035405103,-5.2603106,0.0,0.0,0.0
1752346233,10.219314,8.131998,-30.582447,0.021332871,0.0,-0.09467874,-0.029353188,-1.2595634,-0.044150956,0.0054724403,-5.203114,0.0,0.0,0.0
1752451019,10.219314,8.131998,-30.582447,0.021332871,0.0,-0.10164671,-0.037940167,-1.130228,-0.021680694,-0.049281828,-5.0428076,0.0,0.0,0.0
1752551825,10.219314,8.131998,-30.582447,0.021332871,0.0,-0.10497713,-0.046043348,-1.016365,-0.046943553,-0.06857769,-4.8880825,0.0,0.0,0.0
1752651293,10.219314,8.131998,-30.582447,0.021332871,0.0,-0.10712523,-0.053826712,-0.90940094,-0.05283155,-0.019770594,-4.839963,0.0,0.0,0.0
1752752514,10.219314,8.131998,-30.582447,0.021332871,0.0,-0.10894627,-0.059728336,-0.80882645,-0.028471084,-0.047271702,-4.8082204,0.0,0.0,0.0
1752856230,10.219314,8.131998,-30.582447,0.021332871,0.0,-0.10982237,-0.06537265,-0.71250916,-0.032125045,-0.017231295,-4.8150864,0.0,0.0,0.0
1752956024,2.3239818,11.431415,-30.600336,0.021332871,0.0,-6.763824,2.7243078,-0.64305496,-2.082726,0.85250705,-4.826101,0.0,0.0,0.0
1753057128,2.3239818,11.431415,-30.674734,0.021332871,0.0,-6.8589406,2.7585535,-0.64305496,-2.1401238,0.8937804,-4.973672,0.0,0.0,0.0
1753161296,2.3239818,11.431415,-30.750185,0.021332871,0.0,-6.957468,2.7933018,-0.64305496,-2.1719868,0.90044713,-5.042251,0.0,0.0,0.0
1753261899,2.3239818,11.431415,-30.817924,0.021332871,0.0,-7.0525985,2.8255906,-0.64305496,-2.1828387,0.8899353,-5.055204,0.0,0.0,0.0
1753362221,8.459599,10.314025,-30.880032,0.81772196,0.0,-1.6870686,1.9416791,-0.63580894,-0.54369694,1.3471491,-5.05741,0.0,0.0,0.0
1753469891,8.368553,10.3601,-30.880032,0.8165891,0.0,-1.6870677,1.9416791,-0.55931854,-0.21942264,1.2261065,-4.9292655,0.0,0.0,0.0
1753570774,8.252344,10.416103,-30.880032,0.815826,0.0,-1.6870677,1.9416791,-0.49520493,-0.11777464,1.1685741,-4.949112,0.0,0.0,0.0
1753670693,8.114293,10.4854765,-30.880032,0.815826,0.0,-1.6870677,1.9416791,-0.44227982,0.030160526,1.0630983,-5.1241646,0.0,0.0,0.0
1753774586,7.952149,10.571964,-30.880032,0.8113606,0.0,-1.6870682,1.9416791,-0.40292168,0.13596593,0.97663105,-5.1319413,0.0,0.0,0.0
1753875443,7.7836003,10.67141,-30.880032,0.80890095,0.0,-1.6870682,1.9416791,-0.37966347,0.103666164,0.82971877,-5.204326,0.0,0.0,0.0
1753979515,7.606748,10.789356,-30.880032,0.80628246,0.0,-1.6870682,1.9416791,-0.34545708,0.11609975,0.6703603,-5.1518054,0.0,0.0,0.0
1754079818,7.4344983,10.916282,-30.880032,0.80211914,0.0,-1.6870682,1.9416791,-0.30782318,0.041408792,0.63484824,-5.0685673,0.0,0.0,0.0
1754180246,7.2618146,11.055953,-30.880032,0.80211914,0.0,-1.6870682,1.9416791,-0.26624107,0.05095148,0.5440231,-5.040198,0.0,0.0,0.0
1754284196,7.0866227,11.210868,-30.880032,0.7968735,0.0,-1.6870682,1.9416791,-0.21849632,-0.031500123,0.51172256,-4.891931,0.0,0.0,0.0
1754384413,6.921023,11.367941,-30.880032,0.79394317,0.0,-1.6870682,1.9416791,-0.17466164,-0.019253513,0.44998604,-4.8953695,0.0,0.0,0.0
1754485308,6.758399,11.531689,-30.880032,0.79394317,0.0,-1.6870677,1.9416791,-0.1327362,-0.054186035,0.45729786,-4.8341737,0.0,0.0,0.0
1754589034,6.595849,11.69983,-30.880032,0.78805923,0.0,-1.6870677,1.9416791,-0.09343529,-0.08469398,0.454234,-4.793889,0.0,0.0,0.0
1754693820,6.4334292,11.871368,-30.880032,0.78491384,0.0,-1.6870682,1.9416791,-0.053876877,-0.15224549,0.4956067,-4.7707715,0.0,0.0,0.0
1754794071,6.2781944,12.035393,-30.880032,0.7812578,0.0,-1.6870677,1.9416791,-0.015003204,-0.16267525,0.51726806,-4.7479367,0.0,0.0,0.0
1754902036,6.109514,12.214488,-30.880032,0.7782167,0.0,-1.6870682,1.9416791,0.020654678,-0.121846095,0.4787772,-4.767098,0.0,0.0,0.0
1755002853,5.9507065,12.382442,-30.880032,0.77661675,0.0,-1.6870682,1.9416791,0.044656754,-0.1165095,0.47750598,-4.8649426,0.0,0.0,0.0
1755106829,5.7846603,12.556445,-30.880032,0.77661675,0.0,-1.6870682,1.9416791,0.067611694,-0.18233499,0.56621265,-4.8222356,0.0,0.0,0.0
1755206845,5.6231594,12.724489,-30.880032,0.7686501,0.0,-1.6870677,1.9416791,0.0823288,-0.12354546,0.53466547,-4.868367,0.0,0.0,0.0
1755311289,5.450145,12.899195,-30.880032,0.76548886,0.0,-1.6870677,1.9416791,0.096271515,-0.08409786,0.53527683,-4.9038844,0.0,0.0,0.0
1755411794,5.2830048,13.065362,-30.880032,0.7638466,0.0,-1.6870677,1.9416791,0.1099205,-0.10605292,0.50352037,-4.859789,0.0,0.0,0.0
1755512129,5.113474,13.234361,-30.880032,0.75810397,0.0,-1.6870677,1.9416791,0.12044525,-0.15555516,0.57593244,-4.8744993,0.0,0.0,0.0
1755616116,4.9363356,13.410332,-30.880032,0.756433,0.0,-1.6870682,1.9416791,0.1256485,-0.09473488,0.5090451,-4.902776,0.0,0.0,0.0
1755716634,5.032734,13.78497,-30.880032,0.756433,0.0,-1.4321346,2.1366575,0.1335411,0.12318514,0.6818522,-4.8650675,0.0,0.0,0.0
1755820598,5.6566753,14.327095,-30.880032,0.7495825,0.0,-0.67069215,2.4832413,0.14172554,0.72808516,0.9913115,-4.870564,0.0,0.0,0.0
1755921256,5.95489,14.586205,-30.880032,0.74645245,0.0,-0.22231197,2.5625954,0.14601898,1.1113436,1.0880167,-4.8870263,0.0,0.0,0.0
1756025423,6.174552,14.777063,-30.880032,0.74645245,0.0,0.14971857,2.56786,0.15159416,1.3294008,1.0382556,-4.8074694,0.0,0.0,0.0
1756125714,6.343651,14.923988,-30.880032,0.738285,0.0,0.46351248,2.5301137,0.15732193,1.5003425,0.8796387,-4.7676616,0.0,0.0,0.0
1756229750,6.49119,15.052179,-30.880032,0.73511046,0.0,0.7410704,2.4631546,0.16117287,1.5792071,0.82901204,-4.760515,0.0,0.0,0.0
1756329976,6.6158156,15.160463,-30.880032,0.73511046,0.0,0.9793491,2.3784852,0.16558456,1.5973488,0.714501,-4.7019897,0.0,0.0,0.0
1756430581,6.735073,15.264084,-30.880032,0.73511046,0.0,1.1832182,2.2839253,0.17322922,1.5029178,0.6444129,-4.727021,0.0,0.0,0.0
1756530971,6.8478556,15.362077,-30.880032,0.7272155,0.0,1.3608482,2.1827533,0.18044281,1.5406213,0.45918486,-4.706351,0.0,0.0,0.0
1756630592,6.9633183,15.462399,-30.880032,0.7246327,0.0,1.5101799,2.0822282,0.18694878,1.4324421,0.41024998,-4.747341,0.0,0.0,0.0
1756735307,7.0865383,15.569461,-30.880032,0.7214862,0.0,1.6444916,1.9778689,0.19106865,1.3148189,0.37236565,-4.7728333,0.0,0.0,0.0
1756839758,7.215803,15.681775,-30.880032,0.71946794,0.0,1.7550619,1.880446,0.1807518,1.2931919,0.25671688,-4.934789,0.0,0.0,0.0
1756939519,7.3447676,15.79383,-30.880032,0.71841997,0.0,1.847072,1.7901522,0.16378784,1.1350505,0.25149494,-4.9761963,0.0,0.0,0.0
1757044173,7.4902716,15.920252,-30.880032,0.7176181,0.0,1.9250923,1.7059703,0.14743042,1.1171002,0.14395966,-5.0542994,0.0,0.0,0.0
1757144889,7.6348224,16.045849,-30.880032,0.714329,0.0,1.9903607,1.6293498,0.12683678,1.0265862,0.12175228,-5.161903,0.0,0.0,0.0
1757250044,7.7959642,16.18586,-30.880032,0.71371526,0.0,2.0449395,1.5603015,0.09902382,0.98458976,0.03807232,-5.235897,0.0,0.0,0.0
1757357381,7.969598,16.336725,-30.880032,0.7122424,0.0,2.092426,1.4960188,0.07718849,0.8217338,0.11845252,-5.181947,0.0,0.0,0.0
1757457676,8.137579,16.48268,-30.880032,0.71130246,0.0,2.1270964,1.446299,0.06734848,0.8592309,0.027342437,-5.1806192,0.0,0.0,0.0
1757563510,8.31988,16.641075,-30.880032,0.710488,0.0,2.1565924,1.401938,0.059606552,0.86113226,-0.029385742,-5.168054,0.0,0.0,0.0
1757666978,8.506575,16.80329,-30.880032,0.7098499,0.0,2.1771598,1.3697808,0.05279541,0.75810224,0.048377298,-5.1604147,0.0,0.0,0.0
1757770721,8.697544,16.969217,-30.880032,0.7093653,0.0,2.1929855,1.3442961,0.042850494,0.73163027,0.056814305,-5.181152,0.0,0.0,0.0
1757870709,8.884069,17.131283,-30.880032,0.70891345,0.0,2.2017944,1.3298193,0.029277802,0.7477292,0.04830745,-5.175947,0.0,0.0,0.0
1757974619,9.079765,17.301317,-30.880032,0.7086699,0.0,2.2091222,1.3176101,0.020494461,0.6736067,0.104219966,-5.1419773,0.0,0.0,0.0
1758074992,9.270414,17.466967,-30.880032,0.7086114,0.0,2.2117155,1.3132533,0.012039185,0.62895274,0.10181219,-5.1493697,0.0,0.0,0.0
1758179383,9.469018,17.639528,-30.880032,0.7085185,0.0,2.21227,1.3123201,0.0036506653,0.5811392,0.1555965,-5.1172853,0.0,0.0,0.0
1758279659,9.6611595,17.806475,-30.880032,0.70856035,0.0,2.2088802,1.318017,-0.006828308,0.6403717,0.14083727,-5.1772637,0.0,0.0,0.0
1758383611,9.863282,17.982094,-30.880032,0.7086828,0.0,2.2018466,1.329735,-0.016550064,0.6109294,0.16201086,-5.181075,0.0,0.0,0.0
1758484185,10.059858,18.152891,-30.880032,0.70890874,0.0,2.1919854,1.3459269,-0.018009186,0.5695039,0.20510198,-5.1158586,0.0,0.0,0.0
1758584476,10.2541685,18.321722,-30.880032,0.7091809,0.0,2.180739,1.3640721,-0.016450882,0.5346795,0.24171825,-5.139705,0.0,0.0,0.0
1758685280,10.450309,18.492144,-30.880032,0.7091809,0.0,2.1668668,1.3860043,-0.022985458,0.5478456,0.24571297,-5.1180687,0.0,0.0,0.0
1758785732,10.642398,18.659042,-30.880032,0.7099402,0.0,2.1529427,1.4075342,-0.029880524,0.4665416,0.33343634,-5.112097,0.0,0.0,0.0
1758884978,10.835239,18.8266,-30.880032,0.71037394,0.0,2.1367,1.432074,-0.036396027,0.4737937,0.3685556,-5.102908,0.0,0.0,0.0
1758989724,11.037064,19.001957,-30.880032,0.71057695,0.0,2.118497,1.4588677,-0.034431458,0.4307178,0.37676415,-5.0751667,0.0,0.0,0.0
1759089992,11.2297,19.169333,-30.880032,0.7111787,0.0,2.0993006,1.4863591,-0.030540466,0.45727804,0.41554174,-5.0263906,0.0,0.0,0.0
1759189889,11.4223175,19.33669,-30.880032,0.7117151,0.0,2.0784693,1.515349,-0.029899597,0.4457416,0.43718594,-5.078344,0.0,0.0,0.0
1759290801,11.616381,19.505308,-30.880032,0.7119742,0.0,2.0560505,1.5456326,-0.03062439,0.4115029,0.42105612,-5.0419464,0.0,0.0,0.0
1759394852,11.81664,19.679308,-30.880032,0.7130826,0.0,2.0315697,1.5776702,-0.03126335,0.3688814,0.5407988,-5.0581303,0.0,0.0,0.0
1759494578,12.00811,19.845673,-30.880032,0.7136496,0.0,2.0079107,1.6076748,-0.027557373,0.38570628,0.5293538,-5.060285,0.0,0.0,0.0
1759599443,12.207364,20.018795,-30.880032,0.7142203,0.0,1.9837688,1.6373696,-0.029777527,0.35498175,0.55601794,-5.0847735,0.0,0.0,0.0
1759699691,12.397106,20.183659,-30.880032,0.714768,0.0,1.9615937,1.6638716,-0.03260231,0.32645905,0.62607807,-5.0596,0.0,0.0,0.0
1759804182,12.593928,20.354671,-30.880032,0.7150103,0.0,1.9402966,1.6886595,-0.038202286,0.39568338,0.5555929,-5.1059527,0.0,0.0,0.0
1759904140,12.786475,20.52197,-30.880032,0.7150103,0.0,1.9199499,1.7117605,-0.041490555,0.35956413,0.5125923,-5.0739465,0.0,0.0,0.0
1760008412,12.986808,20.696032,-30.880032,0.71620923,0.0,1.8997644,1.734133,-0.051797867,0.31292272,0.60390097,-5.07675,0.0,0.0,0.0
1760109736,13.182129,20.865742,-30.880032,0.71661305,0.0,1.8828052,1.7525319,-0.053239822,0.29815406,0.5586985,-5.0140767,0.0,0.0,0.0
1760213282,13.384197,21.041313,-30.880032,0.716975,0.0,1.8680764,1.7682219,-0.046640396,0.33410022,0.49417055,-4.972737,0.0,0.0,0.0
1760313123,13.58063,21.211988,-30.880032,0.7172946,0.0,1.8546343,1.7823154,-0.042362213,0.33909196,0.477674,-5.020816,0.0,0.0,0.0
1760414223,13.779404,21.384697,-30.880032,0.7174459,0.0,1.8432922,1.7940444,-0.033960342,0.34384865,0.4901007,-5.001267,0.0,0.0,0.0
1760519613,13.983854,21.562336,-30.880032,0.7178947,0.0,1.83437,1.8031659,-0.027618408,0.29976285,0.5184075,-5.0281057,0.0,0.0,0.0
1760622168,14.188269,21.739948,-30.880032,0.7180426,0.0,1.8283406,1.8092796,-0.020334244,0.35578296,0.4736093,-5.022898,0.0,0.0,0.0
1760722639,14.386812,21.912457,-30.880032,0.718168,0.0,1.823701,1.8139563,-0.013393402,0.35200754,0.45008564,-5.0280304,0.0,0.0,0.0
1760826536,14.592691,22.091337,-30.880032,0.7182535,0.0,1.8205736,1.8170928,-0.005268097,0.3432195,0.46597287,-5.0218353,0.0,0.0,0.0
1760926964,14.792556,22.264994,-30.880032,0.7182872,0.0,1.8175023,1.8201677,0.0052452087,0.33225977,0.3965622,-4.973982,0.0,0.0,0.0
1761027325,14.994395,22.440369,-30.880032,0.7183771,0.0,1.8167077,1.8209596,0.016492844,0.29557398,0.43708208,-4.9678903,0.0,0.0,0.0
1761131281,15.202911,22.621542,-30.880032,0.7183895,0.0,1.8165537,1.8211154,0.028400421,0.32660475,0.37157178,-4.945387,0.0,0.0,0.0
1761232228,15.405426,22.797499,-30.880032,0.7183895,0.0,1.8175566,1.8201097,0.03791237,0.3369497,0.3798552,-5.04167,0.0,0.0,0.0
1761332357,15.607819,22.97335,-30.880032,0.71841395,0.0,1.8163127,1.8213545,0.044237137,0.3599631,0.36359006,-4.996372,0.0,0.0,0.0
1761436368,15.818422,23.15634,-30.880032,0.71843624,0.0,1.8165338,1.8211353,0.04711342,0.33180568,0.38164523,-4.984717,0.0,0.0,0.0
1761537331,16.02341,23.33445,-30.880032,0.71846026,0.0,1.8151368,1.8225251,0.04331398,0.31094104,0.3864208,-4.9837236,0.0,0.0,0.0
1761641411,16.234718,23.518047,-30.880032,0.71848273,0.0,1.8156387,1.8220268,0.04467964,0.32684657,0.37937126,-5.042678,0.0,0.0,0.0
1761741008,16.439222,23.695736,-30.880032,0.7185092,0.0,1.815134,1.8225269,0.045894623,0.24560125,0.45827454,-4.9736323,0.0,0.0,0.0
1761845665,16.653412,23.881836,-30.880032,0.7185078,0.0,1.8164269,1.8212422,0.051986694,0.32627356,0.360969,-4.979942,0.0,0.0,0.0
1761945946,16.859297,24.060728,-30.880032,0.71848154,0.0,1.8175956,1.8200771,0.06100464,0.21550274,0.44222906,-4.947505,0.0,0.0,0.0
1762047327,17.066471,24.240734,-30.880032,0.71843034,0.0,1.8206044,1.8170638,0.0684185,0.2587339,0.3871795,-4.9606295,0.0,0.0,0.0
1762146706,17.271029,24.418467,-30.880032,0.7184147,0.0,1.8217214,1.8159477,0.07897377,0.2530947,0.38018945,-4.93715,0.0,0.0,0.0
1762250766,17.483002,24.602646,-30.880032,0.71839345,0.0,1.823702,1.8139563,0.08949089,0.228071,0.41195923,-4.9138465,0.0,0.0,0.0
1762351779,17.68781,24.780596,-30.880032,0.7183738,0.0,1.8238986,1.813757,0.095191956,0.22486654,0.46112314,-4.8811355,0.0,0.0,0.0
1762451308,17.889145,24.955532,-30.880032,0.7183782,0.0,1.8247157,1.8129379,0.09495163,0.24148616,0.5093328,-4.896994,0.0,0.0,0.0
1762555263,18.09691,25.13605,-30.880032,0.7183943,0.0,1.8241233,1.8135322,0.09592819,0.3468981,0.4152157,-4.884062,0.0,0.0,0.0
1762657338,18.296204,25.309214,-30.880032,0.71840686,0.0,1.8245183,1.8131336,0.09910202,0.3656093,0.43962967,-4.829348,0.0,0.0,0.0
1762760347,18.49944,25.485798,-30.880032,0.7184131,0.0,1.8245527,1.8131028,0.10266876,0.33793694,0.49190688,-4.7907376,0.0,0.0,0.0
1762864394,18.70089,25.660831,-30.880032,0.71840113,0.0,1.8257903,1.8118489,0.10323334,0.38174546,0.4608905,-4.872441,0.0,0.0,0.0
1762964974,18.894442,25.829002,-30.880032,0.7183949,0.0,1.8269608,1.8106729,0.09400749,0.39912,0.46247485,-4.8591914,0.0,0.0,0.0
1763068869,19.092716,26.001278,-30.880032,0.7183736,0.0,1.829494,1.8081108,0.077653885,0.3884011,0.44801068,-4.8702784,0.0,0.0,0.0
1763170024,19.28193,26.165682,-30.880032,0.7182631,0.0,1.8327646,1.8047967,0.064655304,0.39660922,0.49695504,-4.953787,0.0,0.0,0.0
1763274543,19.480034,26.337807,-30.880032,0.7181917,0.0,1.8360932,1.8014101,0.057170868,0.35178757,0.47081724,-4.8801947,0.0,0.0,0.0
1763378027,19.677578,26.509449,-30.880032,0.7181474,0.0,1.8383038,1.799156,0.046640396,0.33891127,0.52603704,-4.9078026,0.0,0.0,0.0
1763477741,19.867754,26.674685,-30.880032,0.7181102,0.0,1.8401484,1.7972715,0.02630043,0.36939988,0.4606536,-4.991271,0.0,0.0,0.0
1763579331,20.059906,26.841644,-30.880032,0.71810955,0.0,1.840779,1.7966229,0.0029964447,0.37031183,0.4429583,-5.0604153,0.0,0.0,0.0
1763683338,20.259386,27.014963,-30.880032,0.71808624,0.0,1.8419459,1.7954288,-0.01216507,0.30252874,0.46088192,-5.015738,0.0,0.0,0.0
1763783459,20.45396,27.184023,-30.880032,0.71805614,0.0,1.8436075,1.7937218,-0.021799088,0.34319824,0.399267,-5.0227346,0.0,0.0,0.0
1763883647,20.648071,27.35268,-30.880032,0.71805614,0.0,1.8458489,1.7914152,-0.029556274,0.3411657,0.4246702,-5.032986,0.0,0.0,0.0
1763988256,20.850016,27.528143,-30.880032,0.71797585,0.0,1.848643,1.7885305,-0.03388977,0.28720784,0.40862298,-4.963874,0.0,0.0,0.0
1764092861,21.053251,27.70473,-30.880032,0.7178996,0.0,1.8527852,1.7842398,-0.035596848,0.25706682,0.45424703,-4.9447217,0.0,0.0,0.0
1764196619,21.254618,27.87969,-30.880032,0.71772087,0.0,1.8580182,1.7787911,-0.03277397,0.26898605,0.46186614,-4.927821,0.0,0.0,0.0
1764296025,21.448053,28.04776,-30.880032,0.71757543,0.0,1.863744,1.772788,-0.024930954,0.3390799,0.3469852,-4.9043093,0.0,0.0,0.0
1764397163,21.642614,28.216812,-30.880032,0.71740973,0.0,1.870124,1.7660601,-0.017129898,0.30176404,0.44096962,-4.9011183,0.0,0.0,0.0
1764497060,21.835814,28.384674,-30.880032,0.71721554,0.0,1.8774843,1.7582306,-0.008777618,0.36981353,0.34532148,-4.914144,0.0,0.0,0.0
1764597194,22.0288,28.552355,-30.880032,0.7171132,0.0,1.8855258,1.7496055,-0.0036334991,0.27936095,0.4040246,-4.883266,0.0,0.0,0.0
1764698495,22.224127,28.722069,-30.880032,0.716762,0.0,1.8945097,1.7398752,0.0063056946,0.3417338,0.330556,-4.9147673,0.0,0.0,0.0
1764802241,22.427002,28.898342,-30.880032,0.7164955,0.0,1.9042944,1.7291591,0.018259048,0.34510976,0.29007408,-4.821386,0.0,0.0,0.0
1764902557,22.624996,29.070374,-30.880032,0.7163584,0.0,1.9141805,1.7182075,0.028081894,0.31556734,0.34013775,-4.84033,0.0,0.0,0.0
1765003291,22.822273,29.241781,-30.880032,0.7159225,0.0,1.9240938,1.7070982,0.030500412,0.35438934,0.32430175,-4.8707337,0.0,0.0,0.0
1765107224,23.028427,29.420902,-30.880032,0.71563596,0.0,1.9343063,1.6955234,0.031692505,0.37568218,0.25922796,-4.8443365,0.0,0.0,0.0
1765207636,23.229115,29.595272,-30.880032,0.7153572,0.0,1.9431034,1.685427,0.034347534,0.3566881,0.2628719,-4.8339005,0.0,0.0,0.0
1765307534,23.427883,29.767979,-30.880032,0.7150988,0.0,1.9518063,1.675347,0.037412643,0.3918828,0.20743316,-4.856536,0.0,0.0,0.0
1765412031,23.634768,29.947733,-30.880032,0.7149748,0.0,1.9596957,1.6661077,0.028661728,0.37907794,0.20543018,-4.9006467,0.0,0.0,0.0
1765516902,23.840862,30.126804,-30.880032,0.7145765,0.0,1.9670053,1.6574736,0.023729324,0.32899097,0.30895922,-4.863855,0.0,0.0,0.0
1765620519,24.044525,30.303762,-30.880032,0.7143644,0.0,1.9735682,1.6496549,0.024549484,0.33049056,0.31301892,-4.8732,0.0,0.0,0.0
1765720072,24.240622,30.474144,-30.880032,0.71416897,0.0,1.979584,1.6424323,0.024971008,0.39046803,0.20552433,-4.881706,0.0,0.0,0.0
1765825097,24.44691,30.653383,-30.880032,0.7139917,0.0,1.985116,1.6357424,0.022888184,0.39017987,0.20020802,-4.9277773,0.0,0.0,0.0
1765925077,24.64311,30.823856,-30.880032,0.7139164,0.0,1.9900011,1.6297956,0.027376175,0.2939892,0.2931959,-4.8965564,0.0,0.0,0.0
1766025179,24.840193,30.995092,-30.880032,0.71366495,0.0,1.9945292,1.6242472,0.028051376,0.35761133,0.22677028,-4.876732,0.0,0.0,0.0
1766130182,25.047428,31.175154,-30.880032,0.7135246,0.0,1.9988236,1.6189599,0.031583786,0.31755072,0.26133952,-4.8242006,0.0,0.0,0.0
1766234022,25.254234,31.35484,-30.880032,0.7135246,0.0,2.0025291,1.6143719,0.036924362,0.29295146,0.28633082,-4.8600993,0.0,0.0,0.0
1766334862,25.455326,31.529566,-30.880032,0.71321225,0.0,2.006952,1.6088744,0.040477753,0.37630025,0.14971009,-4.8436155,0.0,0.0,0.0
1766434528,25.656504,31.704363,-30.880032,0.71307397,0.0,2.0105996,1.6043136,0.041772842,0.3233822,0.23453368,-4.8408427,0.0,0.0,0.0
1766538496,25.865015,31.885529,-30.880032,0.71294856,0.0,2.013901,1.6001642,0.039346695,0.3439428,0.20103224,-4.8835087,0.0,0.0,0.0
1766639588,26.067993,32.061893,-30.880032,0.71285045,0.0,2.0163562,1.597073,0.040729523,0.33165187,0.2509723,-4.8526907,0.0,0.0,0.0
1766739203,26.270996,32.238277,-30.880032,0.71280664,0.0,2.0181954,1.5947518,0.037172318,0.3572129,0.14429449,-4.8856936,0.0,0.0,0.0
1766843383,26.48295,32.42244,-30.880032,0.71271116,0.0,2.0194168,1.5932044,0.036504745,0.37031877,0.13618113,-4.852769,0.0,0.0,0.0
1766944575,26.688105,32.600693,-30.880032,0.7126746,0.0,2.0199387,1.5925394,0.03875351,0.3100952,0.22449817,-4.828523,0.0,0.0,0.0
1767044177,26.892023,32.77787,-30.880032,0.7126746,0.0,2.0198588,1.5926409,0.03562355,0.37072864,0.1314579,-4.865984,0.0,0.0,0.0
1767144581,27.095673,32.95481,-30.880032,0.7126178,0.0,2.0208282,1.5914105,0.030626297,0.33929074,0.19676684,-4.8618236,0.0,0.0,0.0
1767244920,27.300968,33.133186,-30.880032,0.71258646,0.0,2.0210783,1.5910861,0.032749176,0.39272705,0.14904475,-4.797753,0.0,0.0,0.0
1767345616,27.504967,33.310436,-30.880032,0.71259415,0.0,2.02027,1.5921208,0.037864685,0.3192142,0.20925373,-4.818334,0.0,0.0,0.0
1767449892,27.716738,33.49444,-30.880032,0.71262676,0.0,2.0186775,1.594134,0.044204712,0.34312773,0.21159732,-4.871108,0.0,0.0,0.0
1767553961,27.92891,33.678787,-30.880032,0.7126477,0.0,2.0168293,1.5964714,0.045419693,0.2867039,0.23881471,-4.8224297,0.0,0.0,0.0
1767659247,28.139362,33.861645,-30.880032,0.7127429,0.0,2.014218,1.5997692,0.042268753,0.2988937,0.20666543,-4.8303676,0.0,0.0,0.0
1767763043,28.34777,34.042725,-30.880032,0.7128274,0.0,2.0112736,1.6034693,0.036346436,0.3359854,0.2060096,-4.898784,0.0,0.0,0.0
1767862565,28.54785,34.216568,-30.880032,0.7128274,0.0,2.0076914,1.6079484,0.035844803,0.35434532,0.19380979,-4.883455,0.0,0.0,0.0
1767966532,28.757828,34.39901,-30.880032,0.7130562,0.0,2.0034695,1.6132104,0.03553009,0.28592315,0.23258367,-4.8615346,0.0,0.0,0.0
1768067234,28.95976,34.574467,-30.880032,0.7132084,0.0,1.9985753,1.6192662,0.033006668,0.26028842,0.31440383,-4.912791,0.0,0.0,0.0
1768167311,29.163567,34.75155,-30.880032,0.7134001,0.0,1.9929438,1.6261915,0.031398773,0.29861104,0.2210367,-4.877259,0.0,0.0,0.0
1768271284,29.373657,34.934086,-30.880032,0.713605,0.0,1.9866797,1.633838,0.028282166,0.26444963,0.2854974,-4.9008865,0.0,0.0,0.0
1768372361,29.577213,35.110954,-30.880032,0.71382844,0.0,1.9802327,1.6416477,0.024837494,0.21953006,0.2925018,-4.8984184,0.0,0.0,0.0
1768472139,29.780214,35.28733,-30.880032,0.71406144,0.0,1.9734106,1.6498414,0.022417068,0.20790812,0.3479323,-4.952755,0.0,0.0,0.0
1768576203,29.992859,35.47209,-30.880032,0.71432203,0.0,1.9658093,1.6588905,0.026605606,0.20692638,0.3107302,-4.870661,0.0,0.0,0.0
1768677910,30.198612,35.650867,-30.880032,0.71432203,0.0,1.9588803,1.6670734,0.029115677,0.25157616,0.2826987,-4.886137,0.0,0.0,0.0
1768781919,30.410337,35.83483,-30.880032,0.71483374,0.0,1.953158,1.6737705,0.025655746,0.21546684,0.3274938,-4.9444823,0.0,0.0,0.0
1768881700,30.615652,36.01322,-30.880032,0.71504307,0.0,1.9479921,1.6797754,0.021688461,0.21565542,0.27104545,-4.957199,0.0,0.0,0.0
1768985688,30.827566,36.197346,-30.880032,0.71517897,0.0,1.9443645,1.6839756,0.01707077,0.19222145,0.24214086,-4.9512315,0.0,0.0,0.0
1769086112,31.033302,36.376102,-30.880032,0.71531665,0.0,1.9408838,1.6879836,0.013282776,0.24485892,0.19015242,-5.0051875,0.0,0.0,0.0
1769186623,31.242992,36.5583,-30.880032,0.7153822,0.0,1.9372616,1.692144,0.007549286,0.21167058,0.20212401,-5.0370016,0.0,0.0,0.0
1769287031,31.45171,36.73965,-30.880032,0.71558666,0.0,1.9340217,1.6958476,0.0062656403,0.107053176,0.2831242,-4.9886494,0.0,0.0,0.0
1769391030,31.66891,36.928364,-30.880032,0.71575904,0.0,1.9310374,1.6992397,0.004667282,0.1605506,0.240248,-4.985517,0.0,0.0,0.0
1769491712,31.880426,37.112144,-30.880032,0.7159022,0.0,1.9272486,1.7035377,0.005437851,0.045278985,0.32558906,-4.984054,0.0,0.0,0.0
1769591272,32.090656,37.29481,-30.880032,0.7161025,0.0,1.9221479,1.7092962,0.005361557,0.09620858,0.26275313,-5.0004587,0.0,0.0,0.0
1769695343,32.30953,37.48498,-30.880032,0.7162142,0.0,1.9162081,1.7159498,0.005235672,0.08410697,0.21253929,-4.8851686,0.0,0.0,0.0
1769796272,32.52137,37.669044,-30.880032,0.7164853,0.0,1.9101851,1.7226541,0.0045604706,0.068473175,0.26867613,-4.9441915,0.0,0.0,0.0
1769896336,32.73086,37.851063,-30.880032,0.71677285,0.0,1.9029409,1.7306522,0.0023040771,0.05633865,0.3175969,-4.8872366,0.0,0.0,0.0
1770000460,32.94769,38.03946,-30.880032,0.71691805,0.0,1.8944408,1.7399477,0.001707077,0.009441527,0.35053074,-4.9037113,0.0,0.0,0.0
1770101055,33.15707,38.221386,-30.880032,0.7174095,0.0,1.8865805,1.7484676,0.0036773682,0.025655579,0.37082022,-4.8602057,0.0,0.0,0.0
1770201174,33.36408,38.40125,-30.880032,0.7176973,0.0,1.8792166,1.7563823,0.001947403,0.031115854,0.37166134,-4.8447056,0.0,0.0,0.0
1770305317,33.57757,38.58675,-30.880032,0.7180165,0.0,1.8717167,1.7643732,-0.004802704,0.05213137,0.38337323,-4.9173875,0.0,0.0,0.0
1770406034,33.782993,38.765232,-30.880032,0.718307,0.0,1.8645068,1.7719908,-0.0064640045,0.058656424,0.38918954,-4.885997,0.0,0.0,0.0
1770506045,33.98515,38.94088,-30.880032,0.7186127,0.0,1.8577627,1.7790538,-0.009500504,0.050648805,0.40846074,-4.8898597,0.0,0.0,0.0
1770606449,34.187805,39.116962,-30.880032,0.7188901,0.0,1.8510475,1.7860445,-0.014957428,0.07975876,0.36580324,-4.9002376,0.0,0.0,0.0
1770710594,34.395435,39.297363,-30.880032,0.7193073,0.0,1.8446113,1.7926909,-0.02213478,0.052192196,0.4387115,-4.8937373,0.0,0.0,0.0
1770810895,34.594276,39.47013,-30.880032,0.7193073,0.0,1.8388058,1.7986413,-0.032129288,0.058424424,0.40318155,-4.937574,0.0,0.0,0.0
1770912223,34.7941,39.643757,-30.880032,0.7198436,0.0,1.8329821,1.804581,-0.03951645,0.06723381,0.40852043,-4.9709234,0.0,0.0,0.0
1771016599,35.000004,39.822655,-30.880032,0.7201049,0.0,1.8269917,1.8106439,-0.04547882,0.026850726,0.4676059,-4.8749757,0.0,0.0,0.0
1771119701,35.204536,40.00037,-30.880032,0.7203345,0.0,1.822121,1.8155471,-0.04895401,0.036698148,0.48248762,-4.925541,0.0,0.0,0.0
1771220063,35.402527,40.172398,-30.880032,0.7205512,0.0,1.8176346,1.8200337,-0.051290512,0.0750464,0.39003813,-4.9134398,0.0,0.0,0.0
1771320819,35.59814,40.342358,-30.880032,0.72064483,0.0,1.8144274,1.8232299,-0.055858612,0.050354697,0.42354754,-4.9521675,0.0,0.0,0.0
1771424889,35.801697,40.519226,-30.880032,0.720876,0.0,1.8115753,1.8260711,-0.055233,0.056131877,0.39527062,-4.923143,0.0,0.0,0.0
1771524873,35.9991,40.69074,-30.880032,0.72099674,0.0,1.8098937,1.8277382,-0.045993805,0.03959515,0.47352725,-4.9438767,0.0,0.0,0.0
1771625320,36.195267,40.861183,-30.880032,0.72099674,0.0,1.8086218,1.8289957,-0.03514862,0.1295493,0.3971567,-4.887856,0.0,0.0,0.0
1771730594,36.40014,41.039192,-30.880032,0.72111523,0.0,1.8094155,1.8282057,-0.02716446,0.10416195,0.43503413,-4.9293885,0.0,0.0,0.0
1771834655,36.60404,41.216354,-30.880032,0.7211145,0.0,1.8105135,1.8271257,-0.02399826,0.013868074,0.51001185,-4.918479,0.0,0.0,0.0
1771937865,36.807552,41.393185,-30.880032,0.720994,0.0,1.8149239,1.8227407,-0.019727707,0.05117546,0.4530231,-4.90439,0.0,0.0,0.0
1772038634,37.005993,41.5656,-30.880032,0.7208697,0.0,1.8186818,1.8189936,-0.015583038,0.0596867,0.4327087,-4.8578377,0.0,0.0,0.0
1772142460,37.212692,41.745197,-30.880032,0.72079235,0.0,1.8245274,1.8131263,-0.016889572,0.032815058,0.4364472,-4.9131756,0.0,0.0,0.0
1772244053,37.41254,41.91884,-30.880032,0.72049016,0.0,1.8297603,1.8078499,-0.018854141,0.0032579608,0.40746215,-4.940752,0.0,0.0,0.0
1772347590,37.62322,42.101887,-30.880032,0.7201994,0.0,1.8388239,1.7986269,-0.018154144,0.025984848,0.35865262,-4.9666324,0.0,0.0,0.0
1772447016,37.825302,42.277473,-30.880032,0.7201994,0.0,1.8457782,1.7914877,-0.015110016,0.036095835,0.33540362,-4.9489694,0.0,0.0,0.0
1772551009,38.035316,42.459946,-30.880032,0.71951544,0.0,1.8542945,1.7826742,-0.014350891,0.06648008,0.31094438,-4.9807534,0.0,0.0,0.0
1772652509,38.23994,42.63774,-30.880032,0.7192332,0.0,1.8613468,1.775303,-0.011070251,0.083093025,0.31248957,-4.984811,0.0,0.0,0.0
1772752105,38.44453,42.815506,-30.880032,0.7192332,0.0,1.869026,1.7672216,-0.00063323975,0.015112137,0.33246636,-4.9151053,0.0,0.0,0.0
1772856247,38.65782,43.000828,-30.880032,0.7185367,0.0,1.8762413,1.7595606,0.0138607025,0.04023348,0.3223853,-4.889533,0.0,0.0,0.0
1772957343,38.86565,43.181404,-30.880032,0.7183507,0.0,1.8845003,1.7507144,0.029935837,0.018215803,0.36219853,-4.861553,0.0,0.0,0.0
1773056972,39.07022,43.35915,-30.880032,0.7179411,0.0,1.8916938,1.7429374,0.042495728,0.06369307,0.36251795,-4.846582,0.0,0.0,0.0
