timestamp,noutputs,output[0],output[1],output[2],output[3],output[4],output[5],output[6],output[7],output[8],output[9],output[10],output[11],output[12],output[13],output[14],output[15]
1725773786,8,1163.0,1158.0,1153.0,1150.0,1150.0,1155.0,1160.0,1164.0,0.0,0.0,0.0,0.0,0.0,0.0,0.0,0.0
1725897587,8,1464.0,1459.0,1454.0,1451.0,1452.0,1456.0,1461.0,1464.0,0.0,0.0,0.0,0.0,0.0,0.0,0.0,0.0
1725941647,8,1470.0,1465.0,1460.0,1457.0,1458.0,1462.0,1468.0,1470.0,0.0,0.0,0.0,0.0,0.0,0.0,0.0,0.0
1725985687,8,1475.0,1472.0,1466.0,1463.0,1463.0,1468.0,1473.0,1477.0,0.0,0.0,0.0,0.0,0.0,0.0,0.0,0.0
1726026779,8,1481.0,1476.0,1471.0,1467.0,1468.0,1472.0,1478.0,1481.0,0.0,0.0,0.0,0.0,0.0,0.0,0.0,0.0
1726067260,8,1486.0,1481.0,1476.0,1472.0,1473.0,1477.0,1483.0,1486.0,0.0,0.0,0.0,0.0,0.0,0.0,0.0,0.0
1726111211,8,1490.0,1485.0,1480.0,1478.0,1479.0,1483.0,1488.0,1491.0,0.0,0.0,0.0,0.0,0.0,0.0,0.0,0.0
1726135371,8,1488.0,1490.0,1483.0,1487.0,1483.0,1490.0,1488.0,1494.0,0.0,0.0,0.0,0.0,0.0,0.0,0.0,0.0
1726175319,8,1501.0,1492.0,1488.0,1481.0,1485.0,1488.0,1497.0,1500.0,0.0,0.0,0.0,0.0,0.0,0.0,0.0,0.0
1726219231,8,1506.0,1499.0,1507.0,1493.0,1499.0,1487.0,1498.0,1492.0,0.0,0.0,0.0,0.0,0.0,0.0,0.0,0.0
1726263292,8,1518.0,1500.0,1493.0,1482.0,1493.0,1501.0,1519.0,1519.0,0.0,0.0,0.0,0.0,0.0,0.0,0.0,0.0
1726307202,8,1509.0,1508.0,1498.0,1504.0,1505.0,1517.0,1516.0,1520.0,0.0,0.0,0.0,0.0,0.0,0.0,0.0,0.0
1726351353,8,1526.0,1523.0,1512.0,1505.0,1500.0,1506.0,1513.0,1524.0,0.0,0.0,0.0,0.0,0.0,0.0,0.0,0.0
1726395193,8,1519.0,1521.0,1511.0,1519.0,1516.0,1527.0,1523.0,1529.0,0.0,0.0,0.0,0.0,0.0,0.0,0.0,0.0
1726439221,8,1528.0,1526.0,1516.0,1519.0,1518.0,1529.0,1530.0,1536.0,0.0,0.0,0.0,0.0,0.0,0.0,0.0,0.0
1726487201,8,1539.0,1541.0,1530.0,1528.0,1520.0,1527.0,1530.0,1541.0,0.0,0.0,0.0,0.0,0.0,0.0,0.0,0.0
1726511182,8,1540.0,1537.0,1529.0,1528.0,1527.0,1534.0,1537.0,1543.0,0.0,0.0,0.0,0.0,0.0,0.0,0.0,0.0
1726559271,8,1548.0,1547.0,1538.0,1536.0,1532.0,1539.0,1542.0,1550.0,0.0,0.0,0.0,0.0,0.0,0.0,0.0,0.0
1726603439,8,1556.0,1550.0,1544.0,1538.0,1539.0,1542.0,1550.0,1554.0,0.0,0.0,0.0,0.0,0.0,0.0,0.0,0.0
1726643270,8,1564.0,1556.0,1549.0,1540.0,1541.0,1546.0,1557.0,1562.0,0.0,0.0,0.0,0.0,0.0,0.0,0.0,0.0
1726683229,8,1564.0,1558.0,1555.0,1549.0,1551.0,1552.0,1560.0,1562.0,0.0,0.0,0.0,0.0,0.0,0.0,0.0,0.0
1726730972,8,1573.0,1560.0,1563.0,1552.0,1562.0,1558.0,1572.0,1566.0,0.0,0.0,0.0,0.0,0.0,0.0,0.0,0.0
1726771259,8,1583.0,1558.0,1575.0,1551.0,1574.0,1556.0,1582.0,1563.0,0.0,0.0,0.0,0.0,0.0,0.0,0.0,0.0
1726811993,8,1592.0,1538.0,1582.0,1536.0,1588.0,1546.0,1597.0,1549.0,0.0,0.0,0.0,0.0,0.0,0.0,0.0,0.0
1726852058,8,1604.0,1528.0,1577.0,1515.0,1585.0,1539.0,1611.0,1552.0,0.0,0.0,0.0,0.0,0.0,0.0,0.0,0.0
1726916091,8,1623.0,1522.0,1572.0,1493.0,1582.0,1536.0,1637.0,1565.0,0.0,0.0,0.0,0.0,0.0,0.0,0.0,0.0
1726940013,8,1629.0,1520.0,1568.0,1484.0,1578.0,1534.0,1639.0,1571.0,0.0,0.0,0.0,0.0,0.0,0.0,0.0,0.0
1726988012,8,1614.0,1524.0,1558.0,1482.0,1556.0,1520.0,1612.0,1561.0,0.0,0.0,0.0,0.0,0.0,0.0,0.0,0.0
1727032011,8,1579.0,1501.0,1531.0,1474.0,1541.0,1514.0,1589.0,1541.0,0.0,0.0,0.0,0.0,0.0,0.0,0.0,0.0
1727080035,8,1539.0,1465.0,1513.0,1463.0,1536.0,1497.0,1562.0,1499.0,0.0,0.0,0.0,0.0,0.0,0.0,0.0,0.0
1727120777,8,1522.0,1453.0,1504.0,1451.0,1520.0,1475.0,1538.0,1477.0,0.0,0.0,0.0,0.0,0.0,0.0,0.0,0.0
1727144979,8,1509.0,1448.0,1499.0,1445.0,1504.0,1455.0,1514.0,1459.0,0.0,0.0,0.0,0.0,0.0,0.0,0.0,0.0
1727188595,8,1495.0,1438.0,1495.0,1438.0,1494.0,1436.0,1493.0,1437.0,0.0,0.0,0.0,0.0,0.0,0.0,0.0,0.0
1727232861,8,1487.0,1427.0,1486.0,1425.0,1484.0,1424.0,1485.0,1426.0,0.0,0.0,0.0,0.0,0.0,0.0,0.0,0.0
1727276811,8,1475.0,1411.0,1468.0,1415.0,1480.0,1428.0,1487.0,1424.0,0.0,0.0,0.0,0.0,0.0,0.0,0.0,0.0
1727324981,8,1472.0,1408.0,1473.0,1419.0,1487.0,1428.0,1485.0,1417.0,0.0,0.0,0.0,0.0,0.0,0.0,0.0,0.0
1727369597,8,1472.0,1414.0,1472.0,1421.0,1481.0,1426.0,1480.0,1420.0,0.0,0.0,0.0,0.0,0.0,0.0,0.0,0.0
1727409650,8,1473.0,1417.0,1462.0,1414.0,1479.0,1430.0,1485.0,1422.0,0.0,0.0,0.0,0.0,0.0,0.0,0.0,0.0
1727453397,8,1476.0,1414.0,1471.0,1415.0,1477.0,1423.0,1483.0,1422.0,0.0,0.0,0.0,0.0,0.0,0.0,0.0,0.0
1727493684,8,1479.0,1414.0,1477.0,1418.0,1485.0,1425.0,1487.0,1421.0,0.0,0.0,0.0,0.0,0.0,0.0,0.0,0.0
1727537613,8,1479.0,1411.0,1471.0,1416.0,1486.0,1431.0,1493.0,1426.0,0.0,0.0,0.0,0.0,0.0,0.0,0.0,0.0
1727581651,8,1478.0,1412.0,1466.0,1414.0,1480.0,1432.0,1492.0,1431.0,0.0,0.0,0.0,0.0,0.0,0.0,0.0,0.0
1727625623,8,1482.0,1419.0,1472.0,1416.0,1478.0,1427.0,1487.0,1430.0,0.0,0.0,0.0,0.0,0.0,0.0,0.0,0.0
1727645635,8,1486.0,1431.0,1479.0,1423.0,1475.0,1426.0,1483.0,1434.0,0.0,0.0,0.0,0.0,0.0,0.0,0.0,0.0
1727710438,8,1491.0,1429.0,1470.0,1413.0,1468.0,1427.0,1489.0,1443.0,0.0,0.0,0.0,0.0,0.0,0.0,0.0,0.0
1727734382,8,1493.0,1432.0,1473.0,1415.0,1469.0,1426.0,1488.0,1442.0,0.0,0.0,0.0,0.0,0.0,0.0,0.0,0.0
1727778502,8,1487.0,1429.0,1474.0,1420.0,1474.0,1429.0,1487.0,1438.0,0.0,0.0,0.0,0.0,0.0,0.0,0.0,0.0
1727822392,8,1483.0,1429.0,1474.0,1425.0,1478.0,1434.0,1488.0,1438.0,0.0,0.0,0.0,0.0,0.0,0.0,0.0,0.0
1727866916,8,1480.0,1428.0,1472.0,1427.0,1478.0,1436.0,1486.0,1438.0,0.0,0.0,0.0,0.0,0.0,0.0,0.0,0.0
1727910476,8,1478.0,1427.0,1470.0,1427.0,1478.0,1439.0,1483.0,1438.0,0.0,0.0,0.0,0.0,0.0,0.0,0.0,0.0
1727951230,8,1479.0,1432.0,1470.0,1429.0,1474.0,1438.0,1483.0,1441.0,0.0,0.0,0.0,0.0,0.0,0.0,0.0,0.0
1727995225,8,1479.0,1431.0,1470.0,1429.0,1476.0,1439.0,1484.0,1441.0,0.0,0.0,0.0,0.0,0.0,0.0,0.0,0.0
1728035265,8,1477.0,1429.0,1466.0,1429.0,1477.0,1445.0,1488.0,1445.0,0.0,0.0,0.0,0.0,0.0,0.0,0.0,0.0
1728059319,8,1478.0,1433.0,1467.0,1430.0,1475.0,1445.0,1487.0,1447.0,0.0,0.0,0.0,0.0,0.0,0.0,0.0,0.0
1728103253,8,1479.0,1431.0,1464.0,1429.0,1476.0,1447.0,1490.0,1449.0,0.0,0.0,0.0,0.0,0.0,0.0,0.0,0.0
1728167273,8,1483.0,1431.0,1463.0,1426.0,1476.0,1448.0,1495.0,1453.0,0.0,0.0,0.0,0.0,0.0,0.0,0.0,0.0
1728191356,8,1481.0,1430.0,1463.0,1427.0,1477.0,1450.0,1495.0,1453.0,0.0,0.0,0.0,0.0,0.0,0.0,0.0,0.0
1728256021,8,1482.0,1432.0,1465.0,1430.0,1478.0,1451.0,1495.0,1453.0,0.0,0.0,0.0,0.0,0.0,0.0,0.0,0.0
1728296017,8,1486.0,1437.0,1468.0,1430.0,1476.0,1449.0,1494.0,1456.0,0.0,0.0,0.0,0.0,0.0,0.0,0.0,0.0
1728339987,8,1488.0,1437.0,1467.0,1427.0,1473.0,1446.0,1494.0,1457.0,0.0,0.0,0.0,0.0,0.0,0.0,0.0,0.0
1728384036,8,1487.0,1440.0,1468.0,1429.0,1472.0,1446.0,1492.0,1457.0,0.0,0.0,0.0,0.0,0.0,0.0,0.0,0.0
1728424045,8,1489.0,1439.0,1467.0,1428.0,1474.0,1449.0,1497.0,1460.0,0.0,0.0,0.0,0.0,0.0,0.0,0.0,0.0
1728468040,8,1492.0,1436.0,1467.0,1424.0,1475.0,1449.0,1501.0,1461.0,0.0,0.0,0.0,0.0,0.0,0.0,0.0,0.0
1728512803,8,1494.0,1441.0,1474.0,1429.0,1477.0,1445.0,1497.0,1458.0,0.0,0.0,0.0,0.0,0.0,0.0,0.0,0.0
1728536844,8,1493.0,1438.0,1469.0,1427.0,1477.0,1450.0,1501.0,1460.0,0.0,0.0,0.0,0.0,0.0,0.0,0.0,0.0
1728580826,8,1493.0,1443.0,1472.0,1432.0,1477.0,1450.0,1498.0,1461.0,0.0,0.0,0.0,0.0,0.0,0.0,0.0,0.0
1728628888,8,1495.0,1443.0,1472.0,1429.0,1476.0,1448.0,1499.0,1462.0,0.0,0.0,0.0,0.0,0.0,0.0,0.0,0.0
1728672907,8,1494.0,1440.0,1471.0,1427.0,1476.0,1448.0,1500.0,1460.0,0.0,0.0,0.0,0.0,0.0,0.0,0.0,0.0
1728716618,8,1492.0,1439.0,1469.0,1426.0,1474.0,1447.0,1498.0,1460.0,0.0,0.0,0.0,0.0,0.0,0.0,0.0,0.0
1728756580,8,1492.0,1436.0,1470.0,1426.0,1478.0,1447.0,1501.0,1458.0,0.0,0.0,0.0,0.0,0.0,0.0,0.0,0.0
1728800891,8,1492.0,1438.0,1469.0,1428.0,1478.0,1450.0,1501.0,1460.0,0.0,0.0,0.0,0.0,0.0,0.0,0.0,0.0
1728845570,8,1490.0,1435.0,1469.0,1427.0,1479.0,1450.0,1501.0,1458.0,0.0,0.0,0.0,0.0,0.0,0.0,0.0,0.0
1728889589,8,1491.0,1434.0,1470.0,1428.0,1482.0,1450.0,1502.0,1456.0,0.0,0.0,0.0,0.0,0.0,0.0,0.0,0.0
1728913793,8,1495.0,1437.0,1477.0,1428.0,1483.0,1446.0,1501.0,1455.0,0.0,0.0,0.0,0.0,0.0,0.0,0.0,0.0
1728977618,8,1495.0,1439.0,1473.0,1425.0,1481.0,1445.0,1502.0,1454.0,0.0,0.0,0.0,0.0,0.0,0.0,0.0,0.0
1729001632,8,1495.0,1434.0,1472.0,1426.0,1482.0,1447.0,1502.0,1455.0,0.0,0.0,0.0,0.0,0.0,0.0,0.0,0.0
1729062475,8,1494.0,1434.0,1477.0,1427.0,1485.0,1445.0,1502.0,1452.0,0.0,0.0,0.0,0.0,0.0,0.0,0.0,0.0
1729102470,8,1495.0,1436.0,1479.0,1429.0,1486.0,1446.0,1503.0,1453.0,0.0,0.0,0.0,0.0,0.0,0.0,0.0,0.0
1729146451,8,1496.0,1434.0,1479.0,1427.0,1487.0,1445.0,1504.0,1452.0,0.0,0.0,0.0,0.0,0.0,0.0,0.0,0.0
1729166583,8,1494.0,1435.0,1474.0,1427.0,1483.0,1447.0,1503.0,1455.0,0.0,0.0,0.0,0.0,0.0,0.0,0.0,0.0
1729214418,8,1494.0,1432.0,1477.0,1429.0,1490.0,1450.0,1506.0,1453.0,0.0,0.0,0.0,0.0,0.0,0.0,0.0,0.0
1729258466,8,1499.0,1437.0,1483.0,1430.0,1489.0,1445.0,1505.0,1452.0,0.0,0.0,0.0,0.0,0.0,0.0,0.0,0.0
1729306420,8,1494.0,1432.0,1475.0,1425.0,1485.0,1446.0,1504.0,1453.0,0.0,0.0,0.0,0.0,0.0,0.0,0.0,0.0
1729347311,8,1495.0,1441.0,1478.0,1432.0,1482.0,1446.0,1499.0,1455.0,0.0,0.0,0.0,0.0,0.0,0.0,0.0,0.0
1729395273,8,1492.0,1438.0,1479.0,1434.0,1488.0,1450.0,1501.0,1454.0,0.0,0.0,0.0,0.0,0.0,0.0,0.0,0.0
1729439258,8,1493.0,1440.0,1479.0,1435.0,1485.0,1449.0,1499.0,1455.0,0.0,0.0,0.0,0.0,0.0,0.0,0.0,0.0
1729483046,8,1495.0,1444.0,1480.0,1436.0,1484.0,1448.0,1498.0,1456.0,0.0,0.0,0.0,0.0,0.0,0.0,0.0,0.0
1729523236,8,1494.0,1447.0,1482.0,1437.0,1483.0,1449.0,1496.0,1456.0,0.0,0.0,0.0,0.0,0.0,0.0,0.0,0.0
1729547274,8,1493.0,1446.0,1479.0,1439.0,1483.0,1451.0,1497.0,1458.0,0.0,0.0,0.0,0.0,0.0,0.0,0.0,0.0
1729607300,8,1490.0,1448.0,1476.0,1441.0,1481.0,1454.0,1495.0,1461.0,0.0,0.0,0.0,0.0,0.0,0.0,0.0,0.0
1729651995,8,1490.0,1446.0,1475.0,1440.0,1481.0,1455.0,1496.0,1461.0,0.0,0.0,0.0,0.0,0.0,0.0,0.0,0.0
1729676017,8,1492.0,1448.0,1479.0,1440.0,1481.0,1450.0,1494.0,1458.0,0.0,0.0,0.0,0.0,0.0,0.0,0.0,0.0
1729724054,8,1490.0,1449.0,1476.0,1443.0,1481.0,1457.0,1495.0,1463.0,0.0,0.0,0.0,0.0,0.0,0.0,0.0,0.0
1729764025,8,1493.0,1451.0,1479.0,1442.0,1480.0,1452.0,1498.0,1462.0,0.0,0.0,0.0,0.0,0.0,0.0,0.0,0.0
1729808029,8,1493.0,1451.0,1477.0,1440.0,1478.0,1453.0,1495.0,1463.0,0.0,0.0,0.0,0.0,0.0,0.0,0.0,0.0
1729852146,8,1494.0,1453.0,1476.0,1438.0,1473.0,1450.0,1492.0,1464.0,0.0,0.0,0.0,0.0,0.0,0.0,0.0,0.0
1729896099,8,1496.0,1452.0,1479.0,1440.0,1480.0,1453.0,1497.0,1465.0,0.0,0.0,0.0,0.0,0.0,0.0,0.0,0.0
1729940784,8,1496.0,1450.0,1473.0,1436.0,1476.0,1454.0,1499.0,1468.0,0.0,0.0,0.0,0.0,0.0,0.0,0.0,0.0
1729984841,8,1498.0,1454.0,1479.0,1440.0,1479.0,1454.0,1501.0,1466.0,0.0,0.0,0.0,0.0,0.0,0.0,0.0,0.0
1730008790,8,1498.0,1447.0,1475.0,1434.0,1479.0,1452.0,1501.0,1466.0,0.0,0.0,0.0,0.0,0.0,0.0,0.0,0.0
1730053030,8,1497.0,1448.0,1474.0,1436.0,1480.0,1456.0,1502.0,1468.0,0.0,0.0,0.0,0.0,0.0,0.0,0.0,0.0
1730100829,8,1495.0,1450.0,1475.0,1440.0,1480.0,1457.0,1500.0,1468.0,0.0,0.0,0.0,0.0,0.0,0.0,0.0,0.0
1730140926,8,1495.0,1447.0,1474.0,1436.0,1480.0,1456.0,1502.0,1467.0,0.0,0.0,0.0,0.0,0.0,0.0,0.0,0.0
1730184813,8,1499.0,1450.0,1478.0,1437.0,1482.0,1455.0,1503.0,1468.0,0.0,0.0,0.0,0.0,0.0,0.0,0.0,0.0
1730229626,8,1502.0,1452.0,1481.0,1438.0,1483.0,1454.0,1504.0,1468.0,0.0,0.0,0.0,0.0,0.0,0.0,0.0,0.0
1730273652,8,1501.0,1453.0,1479.0,1439.0,1480.0,1455.0,1502.0,1470.0,0.0,0.0,0.0,0.0,0.0,0.0,0.0,0.0
1730317414,8,1503.0,1453.0,1482.0,1437.0,1481.0,1451.0,1502.0,1467.0,0.0,0.0,0.0,0.0,0.0,0.0,0.0,0.0
1730357716,8,1502.0,1452.0,1477.0,1434.0,1476.0,1452.0,1502.0,1470.0,0.0,0.0,0.0,0.0,0.0,0.0,0.0,0.0
1730397654,8,1501.0,1453.0,1482.0,1439.0,1482.0,1452.0,1501.0,1466.0,0.0,0.0,0.0,0.0,0.0,0.0,0.0,0.0
1730421656,8,1501.0,1446.0,1482.0,1436.0,1486.0,1452.0,1505.0,1462.0,0.0,0.0,0.0,0.0,0.0,0.0,0.0,0.0
1730469652,8,1500.0,1450.0,1483.0,1439.0,1486.0,1453.0,1503.0,1463.0,0.0,0.0,0.0,0.0,0.0,0.0,0.0,0.0
1730510404,8,1501.0,1447.0,1483.0,1436.0,1485.0,1449.0,1502.0,1461.0,0.0,0.0,0.0,0.0,0.0,0.0,0.0,0.0
1730554449,8,1500.0,1446.0,1482.0,1437.0,1486.0,1452.0,1504.0,1462.0,0.0,0.0,0.0,0.0,0.0,0.0,0.0,0.0
1730594423,8,1500.0,1444.0,1482.0,1436.0,1489.0,1454.0,1507.0,1461.0,0.0,0.0,0.0,0.0,0.0,0.0,0.0,0.0
1730638477,8,1502.0,1441.0,1485.0,1434.0,1492.0,1451.0,1509.0,1458.0,0.0,0.0,0.0,0.0,0.0,0.0,0.0,0.0
1730686456,8,1500.0,1440.0,1477.0,1430.0,1486.0,1452.0,1508.0,1462.0,0.0,0.0,0.0,0.0,0.0,0.0,0.0,0.0
1730730382,8,1501.0,1436.0,1480.0,1428.0,1490.0,1450.0,1512.0,1458.0,0.0,0.0,0.0,0.0,0.0,0.0,0.0,0.0
1730771253,8,1507.0,1442.0,1484.0,1428.0,1487.0,1447.0,1510.0,1461.0,0.0,0.0,0.0,0.0,0.0,0.0,0.0,0.0
1730811248,8,1507.0,1444.0,1482.0,1429.0,1485.0,1448.0,1509.0,1464.0,0.0,0.0,0.0,0.0,0.0,0.0,0.0,0.0
1730855239,8,1506.0,1445.0,1482.0,1428.0,1482.0,1445.0,1506.0,1462.0,0.0,0.0,0.0,0.0,0.0,0.0,0.0,0.0
1730903232,8,1506.0,1444.0,1483.0,1430.0,1487.0,1449.0,1510.0,1462.0,0.0,0.0,0.0,0.0,0.0,0.0,0.0,0.0
1730943244,8,1505.0,1441.0,1482.0,1429.0,1489.0,1450.0,1512.0,1462.0,0.0,0.0,0.0,0.0,0.0,0.0,0.0,0.0
1730991279,8,1505.0,1445.0,1487.0,1434.0,1489.0,1449.0,1510.0,1461.0,0.0,0.0,0.0,0.0,0.0,0.0,0.0,0.0
1731035303,8,1504.0,1444.0,1487.0,1435.0,1491.0,1451.0,1509.0,1460.0,0.0,0.0,0.0,0.0,0.0,0.0,0.0,0.0
1731055382,8,1502.0,1442.0,1483.0,1432.0,1489.0,1450.0,1508.0,1459.0,0.0,0.0,0.0,0.0,0.0,0.0,0.0,0.0
1731099987,8,1503.0,1447.0,1487.0,1436.0,1489.0,1449.0,1505.0,1460.0,0.0,0.0,0.0,0.0,0.0,0.0,0.0,0.0
1731164060,8,1502.0,1446.0,1487.0,1439.0,1491.0,1451.0,1505.0,1459.0,0.0,0.0,0.0,0.0,0.0,0.0,0.0,0.0
1731188514,8,1502.0,1445.0,1482.0,1432.0,1484.0,1448.0,1504.0,1461.0,0.0,0.0,0.0,0.0,0.0,0.0,0.0,0.0
1731232016,8,1504.0,1451.0,1485.0,1436.0,1483.0,1448.0,1502.0,1463.0,0.0,0.0,0.0,0.0,0.0,0.0,0.0,0.0
1731280064,8,1502.0,1446.0,1481.0,1434.0,1484.0,1451.0,1505.0,1463.0,0.0,0.0,0.0,0.0,0.0,0.0,0.0,0.0
1731320027,8,1501.0,1446.0,1483.0,1435.0,1486.0,1450.0,1504.0,1461.0,0.0,0.0,0.0,0.0,0.0,0.0,0.0,0.0
1731364886,8,1503.0,1447.0,1484.0,1435.0,1486.0,1450.0,1505.0,1462.0,0.0,0.0,0.0,0.0,0.0,0.0,0.0,0.0
1731408818,8,1503.0,1447.0,1482.0,1434.0,1484.0,1450.0,1505.0,1463.0,0.0,0.0,0.0,0.0,0.0,0.0,0.0,0.0
1731452853,8,1500.0,1443.0,1479.0,1433.0,1486.0,1453.0,1507.0,1463.0,0.0,0.0,0.0,0.0,0.0,0.0,0.0,0.0
1731477168,8,1501.0,1445.0,1483.0,1436.0,1489.0,1453.0,1506.0,1461.0,0.0,0.0,0.0,0.0,0.0,0.0,0.0,0.0
1731524853,8,1502.0,1439.0,1480.0,1429.0,1488.0,1451.0,1511.0,1461.0,0.0,0.0,0.0,0.0,0.0,0.0,0.0,0.0
1731568836,8,1501.0,1441.0,1480.0,1432.0,1488.0,1453.0,1510.0,1462.0,0.0,0.0,0.0,0.0,0.0,0.0,0.0,0.0
1731617589,8,1503.0,1442.0,1481.0,1432.0,1488.0,1451.0,1510.0,1462.0,0.0,0.0,0.0,0.0,0.0,0.0,0.0,0.0
1731657702,8,1505.0,1443.0,1489.0,1435.0,1494.0,1449.0,1510.0,1458.0,0.0,0.0,0.0,0.0,0.0,0.0,0.0,0.0
1731705612,8,1504.0,1440.0,1482.0,1429.0,1489.0,1450.0,1512.0,1461.0,0.0,0.0,0.0,0.0,0.0,0.0,0.0,0.0
1731729979,8,1507.0,1443.0,1485.0,1429.0,1488.0,1447.0,1510.0,1461.0,0.0,0.0,0.0,0.0,0.0,0.0,0.0,0.0
1731773658,8,1505.0,1440.0,1483.0,1429.0,1490.0,1449.0,1511.0,1462.0,0.0,0.0,0.0,0.0,0.0,0.0,0.0,0.0
1731821620,8,1505.0,1437.0,1482.0,1428.0,1492.0,1452.0,1515.0,1461.0,0.0,0.0,0.0,0.0,0.0,0.0,0.0,0.0
1731865614,8,1506.0,1438.0,1483.0,1428.0,1492.0,1450.0,1514.0,1460.0,0.0,0.0,0.0,0.0,0.0,0.0,0.0,0.0
1731906385,8,1504.0,1442.0,1486.0,1433.0,1492.0,1450.0,1513.0,1456.0,0.0,0.0,0.0,0.0,0.0,0.0,0.0,0.0
1731950441,8,1506.0,1441.0,1489.0,1432.0,1493.0,1448.0,1510.0,1456.0,0.0,0.0,0.0,0.0,0.0,0.0,0.0,0.0
1731994409,8,1504.0,1436.0,1485.0,1428.0,1494.0,1448.0,1513.0,1455.0,0.0,0.0,0.0,0.0,0.0,0.0,0.0,0.0
1732042486,8,1503.0,1439.0,1488.0,1432.0,1493.0,1447.0,1508.0,1454.0,0.0,0.0,0.0,0.0,0.0,0.0,0.0,0.0
1732086467,8,1504.0,1438.0,1489.0,1433.0,1497.0,1448.0,1511.0,1454.0,0.0,0.0,0.0,0.0,0.0,0.0,0.0,0.0
1732110494,8,1501.0,1439.0,1486.0,1433.0,1493.0,1449.0,1508.0,1454.0,0.0,0.0,0.0,0.0,0.0,0.0,0.0,0.0
1732154389,8,1504.0,1442.0,1491.0,1437.0,1497.0,1449.0,1509.0,1454.0,0.0,0.0,0.0,0.0,0.0,0.0,0.0,0.0
1732199411,8,1504.0,1440.0,1486.0,1432.0,1491.0,1447.0,1508.0,1456.0,0.0,0.0,0.0,0.0,0.0,0.0,0.0,0.0
1732247227,8,1502.0,1439.0,1485.0,1434.0,1496.0,1453.0,1513.0,1458.0,0.0,0.0,0.0,0.0,0.0,0.0,0.0,0.0
1732287244,8,1505.0,1440.0,1484.0,1429.0,1489.0,1447.0,1510.0,1458.0,0.0,0.0,0.0,0.0,0.0,0.0,0.0,0.0
1732335274,8,1510.0,1443.0,1485.0,1425.0,1487.0,1449.0,1511.0,1463.0,0.0,0.0,0.0,0.0,0.0,0.0,0.0,0.0
1732375379,8,1508.0,1444.0,1483.0,1428.0,1486.0,1448.0,1511.0,1463.0,0.0,0.0,0.0,0.0,0.0,0.0,0.0,0.0
1732419283,8,1507.0,1443.0,1483.0,1428.0,1485.0,1446.0,1509.0,1462.0,0.0,0.0,0.0,0.0,0.0,0.0,0.0,0.0
1732463269,8,1507.0,1442.0,1483.0,1427.0,1486.0,1446.0,1510.0,1461.0,0.0,0.0,0.0,0.0,0.0,0.0,0.0,0.0
1732503807,8,1506.0,1441.0,1481.0,1426.0,1486.0,1447.0,1510.0,1462.0,0.0,0.0,0.0,0.0,0.0,0.0,0.0,0.0
1732544076,8,1509.0,1445.0,1485.0,1428.0,1485.0,1445.0,1509.0,1462.0,0.0,0.0,0.0,0.0,0.0,0.0,0.0,0.0
1732588055,8,1507.0,1445.0,1480.0,1427.0,1481.0,1447.0,1509.0,1465.0,0.0,0.0,0.0,0.0,0.0,0.0,0.0,0.0
1732612011,8,1507.0,1446.0,1485.0,1431.0,1487.0,1448.0,1509.0,1463.0,0.0,0.0,0.0,0.0,0.0,0.0,0.0,0.0
1732656059,8,1508.0,1446.0,1485.0,1431.0,1486.0,1448.0,1509.0,1463.0,0.0,0.0,0.0,0.0,0.0,0.0,0.0,0.0
1732700044,8,1508.0,1445.0,1484.0,1429.0,1486.0,1447.0,1510.0,1463.0,0.0,0.0,0.0,0.0,0.0,0.0,0.0,0.0
1732744051,8,1506.0,1440.0,1485.0,1425.0,1487.0,1444.0,1513.0,1462.0,0.0,0.0,0.0,0.0,0.0,0.0,0.0,0.0
1732792827,8,1507.0,1442.0,1482.0,1429.0,1489.0,1451.0,1513.0,1464.0,0.0,0.0,0.0,0.0,0.0,0.0,0.0,0.0
1732836868,8,1501.0,1437.0,1477.0,1429.0,1489.0,1454.0,1514.0,1463.0,0.0,0.0,0.0,0.0,0.0,0.0,0.0,0.0
1732860817,8,1502.0,1437.0,1479.0,1428.0,1490.0,1453.0,1513.0,1461.0,0.0,0.0,0.0,0.0,0.0,0.0,0.0,0.0
1732924866,8,1506.0,1437.0,1483.0,1428.0,1492.0,1451.0,1515.0,1460.0,0.0,0.0,0.0,0.0,0.0,0.0,0.0,0.0
1732948819,8,1507.0,1445.0,1489.0,1435.0,1492.0,1450.0,1510.0,1461.0,0.0,0.0,0.0,0.0,0.0,0.0,0.0,0.0
1732993581,8,1503.0,1441.0,1479.0,1429.0,1486.0,1451.0,1510.0,1462.0,0.0,0.0,0.0,0.0,0.0,0.0,0.0,0.0
1733040874,8,1501.0,1436.0,1478.0,1428.0,1489.0,1453.0,1512.0,1461.0,0.0,0.0,0.0,0.0,0.0,0.0,0.0,0.0
1733081587,8,1501.0,1436.0,1474.0,1424.0,1484.0,1451.0,1511.0,1463.0,0.0,0.0,0.0,0.0,0.0,0.0,0.0,0.0
1733129619,8,1501.0,1438.0,1478.0,1429.0,1489.0,1453.0,1512.0,1462.0,0.0,0.0,0.0,0.0,0.0,0.0,0.0,0.0
1733169641,8,1502.0,1434.0,1478.0,1424.0,1488.0,1449.0,1512.0,1459.0,0.0,0.0,0.0,0.0,0.0,0.0,0.0,0.0
1733213639,8,1500.0,1434.0,1479.0,1427.0,1491.0,1451.0,1512.0,1457.0,0.0,0.0,0.0,0.0,0.0,0.0,0.0,0.0
1733257778,8,1499.0,1438.0,1478.0,1429.0,1486.0,1450.0,1508.0,1460.0,0.0,0.0,0.0,0.0,0.0,0.0,0.0,0.0
1733281976,8,1503.0,1441.0,1483.0,1430.0,1488.0,1448.0,1508.0,1459.0,0.0,0.0,0.0,0.0,0.0,0.0,0.0,0.0
1733342482,8,1508.0,1444.0,1488.0,1430.0,1488.0,1444.0,1508.0,1458.0,0.0,0.0,0.0,0.0,0.0,0.0,0.0,0.0
1733366396,8,1505.0,1440.0,1479.0,1424.0,1481.0,1444.0,1508.0,1461.0,0.0,0.0,0.0,0.0,0.0,0.0,0.0,0.0
1733414234,8,1504.0,1441.0,1478.0,1424.0,1480.0,1444.0,1506.0,1461.0,0.0,0.0,0.0,0.0,0.0,0.0,0.0,0.0
1733458604,8,1500.0,1438.0,1476.0,1426.0,1478.0,1447.0,1506.0,1463.0,0.0,0.0,0.0,0.0,0.0,0.0,0.0,0.0
1733506419,8,1498.0,1439.0,1473.0,1426.0,1480.0,1448.0,1505.0,1461.0,0.0,0.0,0.0,0.0,0.0,0.0,0.0,0.0
1733550471,8,1497.0,1436.0,1470.0,1425.0,1482.0,1454.0,1510.0,1465.0,0.0,0.0,0.0,0.0,0.0,0.0,0.0,0.0
1733574425,8,1494.0,1440.0,1467.0,1429.0,1479.0,1456.0,1505.0,1467.0,0.0,0.0,0.0,0.0,0.0,0.0,0.0,0.0
1733639280,8,1498.0,1437.0,1463.0,1422.0,1476.0,1456.0,1511.0,1471.0,0.0,0.0,0.0,0.0,0.0,0.0,0.0,0.0
1733659280,8,1502.0,1442.0,1473.0,1427.0,1475.0,1456.0,1511.0,1471.0,0.0,0.0,0.0,0.0,0.0,0.0,0.0,0.0
1733707225,8,1498.0,1437.0,1460.0,1419.0,1474.0,1456.0,1512.0,1474.0,0.0,0.0,0.0,0.0,0.0,0.0,0.0,0.0
1733751361,8,1502.0,1438.0,1465.0,1420.0,1476.0,1455.0,1513.0,1473.0,0.0,0.0,0.0,0.0,0.0,0.0,0.0,0.0
1733811222,8,1503.0,1445.0,1466.0,1422.0,1470.0,1452.0,1507.0,1474.0,0.0,0.0,0.0,0.0,0.0,0.0,0.0,0.0
1733835312,8,1501.0,1442.0,1467.0,1421.0,1472.0,1449.0,1506.0,1470.0,0.0,0.0,0.0,0.0,0.0,0.0,0.0,0.0
1733883249,8,1495.0,1441.0,1456.0,1420.0,1466.0,1455.0,1505.0,1475.0,0.0,0.0,0.0,0.0,0.0,0.0,0.0,0.0
1733928134,8,1499.0,1445.0,1467.0,1426.0,1471.0,1452.0,1503.0,1471.0,0.0,0.0,0.0,0.0,0.0,0.0,0.0,0.0
1733971794,8,1500.0,1444.0,1465.0,1423.0,1470.0,1451.0,1505.0,1472.0,0.0,0.0,0.0,0.0,0.0,0.0,0.0,0.0
1734012057,8,1501.0,1449.0,1469.0,1425.0,1468.0,1447.0,1500.0,1471.0,0.0,0.0,0.0,0.0,0.0,0.0,0.0,0.0
1734052024,8,1500.0,1447.0,1465.0,1425.0,1467.0,1450.0,1502.0,1473.0,0.0,0.0,0.0,0.0,0.0,0.0,0.0,0.0
1734100027,8,1498.0,1448.0,1464.0,1423.0,1462.0,1445.0,1496.0,1471.0,0.0,0.0,0.0,0.0,0.0,0.0,0.0,0.0
1734144061,8,1497.0,1448.0,1468.0,1429.0,1471.0,1452.0,1500.0,1471.0,0.0,0.0,0.0,0.0,0.0,0.0,0.0,0.0
1734192066,8,1500.0,1448.0,1473.0,1427.0,1470.0,1444.0,1497.0,1466.0,0.0,0.0,0.0,0.0,0.0,0.0,0.0,0.0
1734216055,8,1499.0,1449.0,1474.0,1431.0,1474.0,1449.0,1499.0,1466.0,0.0,0.0,0.0,0.0,0.0,0.0,0.0,0.0
1734260847,8,1497.0,1448.0,1473.0,1433.0,1475.0,1447.0,1499.0,1464.0,0.0,0.0,0.0,0.0,0.0,0.0,0.0,0.0
1734304858,8,1497.0,1446.0,1474.0,1431.0,1475.0,1447.0,1497.0,1463.0,0.0,0.0,0.0,0.0,0.0,0.0,0.0,0.0
1734352821,8,1497.0,1448.0,1473.0,1433.0,1475.0,1451.0,1499.0,1466.0,0.0,0.0,0.0,0.0,0.0,0.0,0.0,0.0
1734392835,8,1496.0,1443.0,1474.0,1432.0,1481.0,1452.0,1503.0,1463.0,0.0,0.0,0.0,0.0,0.0,0.0,0.0,0.0
1734436982,8,1497.0,1445.0,1471.0,1430.0,1476.0,1452.0,1502.0,1467.0,0.0,0.0,0.0,0.0,0.0,0.0,0.0,0.0
1734481590,8,1501.0,1445.0,1470.0,1426.0,1474.0,1450.0,1505.0,1469.0,0.0,0.0,0.0,0.0,0.0,0.0,0.0,0.0
1734505712,8,1501.0,1445.0,1474.0,1430.0,1479.0,1453.0,1506.0,1468.0,0.0,0.0,0.0,0.0,0.0,0.0,0.0,0.0
1734549662,8,1502.0,1448.0,1472.0,1429.0,1475.0,1452.0,1505.0,1471.0,0.0,0.0,0.0,0.0,0.0,0.0,0.0,0.0
1734593693,8,1505.0,1447.0,1471.0,1425.0,1475.0,1452.0,1509.0,1473.0,0.0,0.0,0.0,0.0,0.0,0.0,0.0,0.0
1734637618,8,1507.0,1446.0,1470.0,1422.0,1473.0,1450.0,1511.0,1475.0,0.0,0.0,0.0,0.0,0.0,0.0,0.0,0.0
1734681691,8,1509.0,1451.0,1476.0,1427.0,1474.0,1449.0,1508.0,1474.0,0.0,0.0,0.0,0.0,0.0,0.0,0.0,0.0
1734725772,8,1511.0,1449.0,1477.0,1423.0,1474.0,1446.0,1508.0,1471.0,0.0,0.0,0.0,0.0,0.0,0.0,0.0,0.0
1734769635,8,1509.0,1448.0,1474.0,1422.0,1472.0,1446.0,1508.0,1472.0,0.0,0.0,0.0,0.0,0.0,0.0,0.0,0.0
1734814416,8,1508.0,1448.0,1474.0,1423.0,1473.0,1447.0,1507.0,1472.0,0.0,0.0,0.0,0.0,0.0,0.0,0.0,0.0
1734854416,8,1512.0,1448.0,1480.0,1421.0,1475.0,1440.0,1506.0,1466.0,0.0,0.0,0.0,0.0,0.0,0.0,0.0,0.0
1734902483,8,1511.0,1447.0,1481.0,1425.0,1479.0,1444.0,1509.0,1466.0,0.0,0.0,0.0,0.0,0.0,0.0,0.0,0.0
1734946214,8,1507.0,1442.0,1476.0,1420.0,1477.0,1443.0,1508.0,1464.0,0.0,0.0,0.0,0.0,0.0,0.0,0.0,0.0
1734990462,8,1512.0,1442.0,1482.0,1420.0,1480.0,1441.0,1511.0,1464.0,0.0,0.0,0.0,0.0,0.0,0.0,0.0,0.0
1735010545,8,1510.0,1440.0,1478.0,1419.0,1481.0,1444.0,1514.0,1465.0,0.0,0.0,0.0,0.0,0.0,0.0,0.0,0.0
1735055200,8,1509.0,1442.0,1482.0,1424.0,1484.0,1445.0,1511.0,1462.0,0.0,0.0,0.0,0.0,0.0,0.0,0.0,0.0
1735103230,8,1506.0,1441.0,1480.0,1427.0,1486.0,1450.0,1512.0,1464.0,0.0,0.0,0.0,0.0,0.0,0.0,0.0,0.0
1735143233,8,1506.0,1434.0,1476.0,1420.0,1487.0,1449.0,1517.0,1463.0,0.0,0.0,0.0,0.0,0.0,0.0,0.0,0.0
1735187266,8,1506.0,1439.0,1481.0,1428.0,1490.0,1451.0,1515.0,1462.0,0.0,0.0,0.0,0.0,0.0,0.0,0.0,0.0
1735231363,8,1507.0,1439.0,1478.0,1423.0,1486.0,1450.0,1516.0,1466.0,0.0,0.0,0.0,0.0,0.0,0.0,0.0,0.0
1735279028,8,1505.0,1436.0,1472.0,1422.0,1484.0,1453.0,1517.0,1468.0,0.0,0.0,0.0,0.0,0.0,0.0,0.0,0.0
1735323244,8,1506.0,1442.0,1477.0,1429.0,1488.0,1457.0,1516.0,1469.0,0.0,0.0,0.0,0.0,0.0,0.0,0.0,0.0
1735343266,8,1506.0,1442.0,1478.0,1428.0,1486.0,1453.0,1514.0,1467.0,0.0,0.0,0.0,0.0,0.0,0.0,0.0,0.0
1735408110,8,1507.0,1441.0,1479.0,1427.0,1487.0,1453.0,1516.0,1467.0,0.0,0.0,0.0,0.0,0.0,0.0,0.0,0.0
1735428053,8,1509.0,1446.0,1484.0,1431.0,1488.0,1452.0,1513.0,1466.0,0.0,0.0,0.0,0.0,0.0,0.0,0.0,0.0
1735472014,8,1510.0,1443.0,1479.0,1425.0,1484.0,1450.0,1514.0,1466.0,0.0,0.0,0.0,0.0,0.0,0.0,0.0,0.0
1735520207,8,1509.0,1437.0,1479.0,1423.0,1488.0,1450.0,1518.0,1464.0,0.0,0.0,0.0,0.0,0.0,0.0,0.0,0.0
1735564023,8,1510.0,1446.0,1488.0,1433.0,1491.0,1450.0,1512.0,1464.0,0.0,0.0,0.0,0.0,0.0,0.0,0.0,0.0
1735604833,8,1506.0,1439.0,1482.0,1427.0,1489.0,1449.0,1513.0,1461.0,0.0,0.0,0.0,0.0,0.0,0.0,0.0,0.0
1735652794,8,1508.0,1439.0,1477.0,1422.0,1485.0,1450.0,1516.0,1466.0,0.0,0.0,0.0,0.0,0.0,0.0,0.0,0.0
1735696849,8,1506.0,1440.0,1478.0,1427.0,1488.0,1453.0,1516.0,1466.0,0.0,0.0,0.0,0.0,0.0,0.0,0.0,0.0
1735720806,8,1506.0,1444.0,1490.0,1428.0,1490.0,1445.0,1514.0,1462.0,0.0,0.0,0.0,0.0,0.0,0.0,0.0,0.0
1735784861,8,1511.0,1438.0,1481.0,1420.0,1485.0,1443.0,1515.0,1462.0,0.0,0.0,0.0,0.0,0.0,0.0,0.0,0.0
1735808952,8,1512.0,1440.0,1484.0,1422.0,1486.0,1442.0,1513.0,1460.0,0.0,0.0,0.0,0.0,0.0,0.0,0.0,0.0
1735872873,8,1517.0,1444.0,1490.0,1422.0,1487.0,1439.0,1513.0,1460.0,0.0,0.0,0.0,0.0,0.0,0.0,0.0,0.0
1735896854,8,1514.0,1439.0,1488.0,1422.0,1489.0,1442.0,1516.0,1459.0,0.0,0.0,0.0,0.0,0.0,0.0,0.0,0.0
1735941630,8,1514.0,1436.0,1487.0,1421.0,1493.0,1444.0,1520.0,1459.0,0.0,0.0,0.0,0.0,0.0,0.0,0.0,0.0
1735985609,8,1515.0,1441.0,1492.0,1424.0,1491.0,1440.0,1515.0,1457.0,0.0,0.0,0.0,0.0,0.0,0.0,0.0,0.0
1736033647,8,1513.0,1439.0,1489.0,1424.0,1490.0,1442.0,1515.0,1458.0,0.0,0.0,0.0,0.0,0.0,0.0,0.0,0.0
1736077628,8,1511.0,1432.0,1484.0,1418.0,1491.0,1443.0,1518.0,1457.0,0.0,0.0,0.0,0.0,0.0,0.0,0.0,0.0
1736121740,8,1509.0,1436.0,1487.0,1426.0,1494.0,1447.0,1516.0,1457.0,0.0,0.0,0.0,0.0,0.0,0.0,0.0,0.0
1736169792,8,1511.0,1436.0,1490.0,1424.0,1494.0,1442.0,1515.0,1454.0,0.0,0.0,0.0,0.0,0.0,0.0,0.0,0.0
1736210443,8,1509.0,1432.0,1481.0,1419.0,1490.0,1445.0,1518.0,1458.0,0.0,0.0,0.0,0.0,0.0,0.0,0.0,0.0
1736230460,8,1512.0,1431.0,1488.0,1422.0,1499.0,1447.0,1523.0,1456.0,0.0,0.0,0.0,0.0,0.0,0.0,0.0,0.0
1736278812,8,1507.0,1427.0,1479.0,1418.0,1494.0,1449.0,1523.0,1458.0,0.0,0.0,0.0,0.0,0.0,0.0,0.0,0.0
1736322440,8,1507.0,1427.0,1479.0,1419.0,1496.0,1450.0,1523.0,1458.0,0.0,0.0,0.0,0.0,0.0,0.0,0.0,0.0
1736366450,8,1505.0,1431.0,1477.0,1422.0,1493.0,1453.0,1521.0,1462.0,0.0,0.0,0.0,0.0,0.0,0.0,0.0,0.0
1736410463,8,1504.0,1434.0,1477.0,1426.0,1493.0,1456.0,1519.0,1464.0,0.0,0.0,0.0,0.0,0.0,0.0,0.0,0.0
1736454478,8,1504.0,1434.0,1472.0,1420.0,1484.0,1450.0,1515.0,1465.0,0.0,0.0,0.0,0.0,0.0,0.0,0.0,0.0
1736495746,8,1504.0,1431.0,1468.0,1417.0,1483.0,1452.0,1518.0,1467.0,0.0,0.0,0.0,0.0,0.0,0.0,0.0,0.0
1736543042,8,1503.0,1434.0,1467.0,1419.0,1482.0,1454.0,1517.0,1469.0,0.0,0.0,0.0,0.0,0.0,0.0,0.0,0.0
1736587271,8,1502.0,1437.0,1464.0,1420.0,1477.0,1455.0,1515.0,1473.0,0.0,0.0,0.0,0.0,0.0,0.0,0.0,0.0
1736611230,8,1500.0,1439.0,1466.0,1421.0,1475.0,1451.0,1508.0,1469.0,0.0,0.0,0.0,0.0,0.0,0.0,0.0,0.0
1736651223,8,1501.0,1440.0,1461.0,1419.0,1472.0,1455.0,1512.0,1475.0,0.0,0.0,0.0,0.0,0.0,0.0,0.0,0.0
1736699213,8,1495.0,1444.0,1459.0,1426.0,1469.0,1458.0,1505.0,1477.0,0.0,0.0,0.0,0.0,0.0,0.0,0.0,0.0
1736743828,8,1497.0,1443.0,1461.0,1427.0,1473.0,1460.0,1509.0,1477.0,0.0,0.0,0.0,0.0,0.0,0.0,0.0,0.0
1736788169,8,1495.0,1443.0,1461.0,1428.0,1473.0,1461.0,1507.0,1476.0,0.0,0.0,0.0,0.0,0.0,0.0,0.0,0.0
1736828131,8,1493.0,1444.0,1460.0,1430.0,1473.0,1462.0,1506.0,1477.0,0.0,0.0,0.0,0.0,0.0,0.0,0.0,0.0
1736872059,8,1492.0,1448.0,1465.0,1435.0,1474.0,1461.0,1501.0,1474.0,0.0,0.0,0.0,0.0,0.0,0.0,0.0,0.0
1736916066,8,1491.0,1448.0,1463.0,1434.0,1471.0,1459.0,1499.0,1473.0,0.0,0.0,0.0,0.0,0.0,0.0,0.0,0.0
1736956066,8,1488.0,1450.0,1460.0,1437.0,1469.0,1463.0,1498.0,1476.0,0.0,0.0,0.0,0.0,0.0,0.0,0.0,0.0
1736996095,8,1494.0,1455.0,1467.0,1436.0,1467.0,1455.0,1494.0,1474.0,0.0,0.0,0.0,0.0,0.0,0.0,0.0,0.0
1737036478,8,1494.0,1457.0,1467.0,1438.0,1467.0,1457.0,1494.0,1476.0,0.0,0.0,0.0,0.0,0.0,0.0,0.0,0.0
1737080765,8,1491.0,1454.0,1468.0,1437.0,1468.0,1455.0,1493.0,1472.0,0.0,0.0,0.0,0.0,0.0,0.0,0.0,0.0
1737120807,8,1488.0,1456.0,1464.0,1440.0,1466.0,1458.0,1490.0,1474.0,0.0,0.0,0.0,0.0,0.0,0.0,0.0,0.0
1737164848,8,1489.0,1457.0,1466.0,1439.0,1463.0,1454.0,1487.0,1473.0,0.0,0.0,0.0,0.0,0.0,0.0,0.0,0.0
1737212820,8,1485.0,1454.0,1460.0,1437.0,1463.0,1457.0,1488.0,1473.0,0.0,0.0,0.0,0.0,0.0,0.0,0.0,0.0
1737260823,8,1484.0,1453.0,1461.0,1437.0,1462.0,1455.0,1486.0,1471.0,0.0,0.0,0.0,0.0,0.0,0.0,0.0,0.0
1737300839,8,1482.0,1455.0,1459.0,1440.0,1461.0,1458.0,1484.0,1473.0,0.0,0.0,0.0,0.0,0.0,0.0,0.0,0.0
1737345422,8,1482.0,1458.0,1460.0,1442.0,1460.0,1458.0,1482.0,1473.0,0.0,0.0,0.0,0.0,0.0,0.0,0.0,0.0
1737369629,8,1483.0,1459.0,1462.0,1443.0,1461.0,1457.0,1482.0,1473.0,0.0,0.0,0.0,0.0,0.0,0.0,0.0,0.0
1737417608,8,1479.0,1450.0,1455.0,1439.0,1465.0,1463.0,1489.0,1474.0,0.0,0.0,0.0,0.0,0.0,0.0,0.0,0.0
1737461635,8,1480.0,1454.0,1457.0,1441.0,1461.0,1461.0,1485.0,1474.0,0.0,0.0,0.0,0.0,0.0,0.0,0.0,0.0
1737505700,8,1479.0,1454.0,1456.0,1444.0,1465.0,1466.0,1487.0,1476.0,0.0,0.0,0.0,0.0,0.0,0.0,0.0,0.0
1737553660,8,1477.0,1452.0,1455.0,1444.0,1465.0,1467.0,1488.0,1476.0,0.0,0.0,0.0,0.0,0.0,0.0,0.0,0.0
1737597646,8,1482.0,1457.0,1459.0,1445.0,1465.0,1465.0,1488.0,1477.0,0.0,0.0,0.0,0.0,0.0,0.0,0.0,0.0
1737642601,8,1481.0,1453.0,1458.0,1444.0,1468.0,1467.0,1491.0,1476.0,0.0,0.0,0.0,0.0,0.0,0.0,0.0,0.0
1737666398,8,1479.0,1447.0,1454.0,1440.0,1470.0,1469.0,1495.0,1476.0,0.0,0.0,0.0,0.0,0.0,0.0,0.0,0.0
1737710489,8,1480.0,1451.0,1459.0,1444.0,1470.0,1466.0,1490.0,1472.0,0.0,0.0,0.0,0.0,0.0,0.0,0.0,0.0
1737754428,8,1480.0,1444.0,1458.0,1439.0,1473.0,1466.0,1495.0,1471.0,0.0,0.0,0.0,0.0,0.0,0.0,0.0,0.0
1737802416,8,1477.0,1444.0,1457.0,1442.0,1474.0,1468.0,1494.0,1470.0,0.0,0.0,0.0,0.0,0.0,0.0,0.0,0.0
1737846412,8,1482.0,1447.0,1465.0,1443.0,1477.0,1463.0,1494.0,1467.0,0.0,0.0,0.0,0.0,0.0,0.0,0.0,0.0
1737891218,8,1482.0,1443.0,1462.0,1441.0,1478.0,1466.0,1498.0,1468.0,0.0,0.0,0.0,0.0,0.0,0.0,0.0,0.0
1737935256,8,1483.0,1442.0,1461.0,1438.0,1477.0,1465.0,1500.0,1469.0,0.0,0.0,0.0,0.0,0.0,0.0,0.0,0.0
1737979253,8,1483.0,1441.0,1460.0,1436.0,1476.0,1464.0,1499.0,1469.0,0.0,0.0,0.0,0.0,0.0,0.0,0.0,0.0
1738003277,8,1485.0,1440.0,1464.0,1437.0,1481.0,1464.0,1502.0,1467.0,0.0,0.0,0.0,0.0,0.0,0.0,0.0,0.0
1738047629,8,1483.0,1436.0,1456.0,1432.0,1477.0,1465.0,1504.0,1470.0,0.0,0.0,0.0,0.0,0.0,0.0,0.0,0.0
1738091012,8,1486.0,1435.0,1461.0,1432.0,1481.0,1464.0,1507.0,1467.0,0.0,0.0,0.0,0.0,0.0,0.0,0.0,0.0
1738135217,8,1484.0,1436.0,1459.0,1432.0,1478.0,1464.0,1503.0,1468.0,0.0,0.0,0.0,0.0,0.0,0.0,0.0,0.0
1738176064,8,1487.0,1434.0,1460.0,1432.0,1483.0,1466.0,1509.0,1469.0,0.0,0.0,0.0,0.0,0.0,0.0,0.0,0.0
1738224004,8,1484.0,1430.0,1458.0,1430.0,1484.0,1466.0,1509.0,1466.0,0.0,0.0,0.0,0.0,0.0,0.0,0.0,0.0
1738271988,8,1485.0,1432.0,1459.0,1432.0,1486.0,1470.0,1511.0,1469.0,0.0,0.0,0.0,0.0,0.0,0.0,0.0,0.0
1738296068,8,1481.0,1427.0,1454.0,1429.0,1484.0,1470.0,1512.0,1468.0,0.0,0.0,0.0,0.0,0.0,0.0,0.0,0.0
1738339982,8,1487.0,1427.0,1457.0,1425.0,1484.0,1464.0,1513.0,1466.0,0.0,0.0,0.0,0.0,0.0,0.0,0.0,0.0
1738384025,8,1486.0,1423.0,1453.0,1423.0,1486.0,1469.0,1519.0,1469.0,0.0,0.0,0.0,0.0,0.0,0.0,0.0,0.0
1738428847,8,1488.0,1427.0,1455.0,1424.0,1483.0,1467.0,1516.0,1470.0,0.0,0.0,0.0,0.0,0.0,0.0,0.0,0.0
1738468792,8,1486.0,1427.0,1457.0,1426.0,1484.0,1465.0,1513.0,1466.0,0.0,0.0,0.0,0.0,0.0,0.0,0.0,0.0
1738516933,8,1489.0,1421.0,1456.0,1417.0,1483.0,1460.0,1516.0,1464.0,0.0,0.0,0.0,0.0,0.0,0.0,0.0,0.0
1738564871,8,1486.0,1423.0,1458.0,1423.0,1486.0,1462.0,1514.0,1462.0,0.0,0.0,0.0,0.0,0.0,0.0,0.0,0.0
1738584910,8,1490.0,1423.0,1460.0,1420.0,1486.0,1460.0,1517.0,1463.0,0.0,0.0,0.0,0.0,0.0,0.0,0.0,0.0
1738648845,8,1485.0,1416.0,1455.0,1417.0,1487.0,1461.0,1518.0,1460.0,0.0,0.0,0.0,0.0,0.0,0.0,0.0,0.0
1738693661,8,1488.0,1419.0,1461.0,1418.0,1487.0,1456.0,1514.0,1457.0,0.0,0.0,0.0,0.0,0.0,0.0,0.0,0.0
1738717591,8,1486.0,1416.0,1460.0,1416.0,1487.0,1454.0,1513.0,1454.0,0.0,0.0,0.0,0.0,0.0,0.0,0.0,0.0
1738765626,8,1486.0,1421.0,1458.0,1420.0,1483.0,1457.0,1511.0,1459.0,0.0,0.0,0.0,0.0,0.0,0.0,0.0,0.0
1738806011,8,1492.0,1416.0,1462.0,1411.0,1485.0,1448.0,1515.0,1453.0,0.0,0.0,0.0,0.0,0.0,0.0,0.0,0.0
1738849634,8,1490.0,1419.0,1468.0,1417.0,1488.0,1447.0,1510.0,1449.0,0.0,0.0,0.0,0.0,0.0,0.0,0.0,0.0
1738893627,8,1490.0,1422.0,1472.0,1420.0,1487.0,1443.0,1505.0,1446.0,0.0,0.0,0.0,0.0,0.0,0.0,0.0,0.0
1738937650,8,1487.0,1421.0,1471.0,1423.0,1490.0,1448.0,1506.0,1446.0,0.0,0.0,0.0,0.0,0.0,0.0,0.0,0.0
1738981682,8,1490.0,1421.0,1478.0,1426.0,1496.0,1446.0,1508.0,1442.0,0.0,0.0,0.0,0.0,0.0,0.0,0.0,0.0
1739025597,8,1486.0,1414.0,1471.0,1421.0,1497.0,1451.0,1513.0,1444.0,0.0,0.0,0.0,0.0,0.0,0.0,0.0,0.0
1739070457,8,1490.0,1419.0,1473.0,1421.0,1492.0,1447.0,1510.0,1445.0,0.0,0.0,0.0,0.0,0.0,0.0,0.0,0.0
1739094780,8,1492.0,1420.0,1475.0,1422.0,1495.0,1448.0,1511.0,1445.0,0.0,0.0,0.0,0.0,0.0,0.0,0.0,0.0
1739142480,8,1493.0,1417.0,1472.0,1415.0,1491.0,1444.0,1513.0,1446.0,0.0,0.0,0.0,0.0,0.0,0.0,0.0,0.0
1739182459,8,1490.0,1416.0,1465.0,1414.0,1488.0,1447.0,1513.0,1449.0,0.0,0.0,0.0,0.0,0.0,0.0,0.0,0.0
1739226465,8,1494.0,1415.0,1468.0,1412.0,1489.0,1446.0,1515.0,1449.0,0.0,0.0,0.0,0.0,0.0,0.0,0.0,0.0
1739271257,8,1490.0,1417.0,1469.0,1418.0,1491.0,1449.0,1512.0,1448.0,0.0,0.0,0.0,0.0,0.0,0.0,0.0,0.0
1739315281,8,1490.0,1415.0,1469.0,1418.0,1494.0,1451.0,1515.0,1448.0,0.0,0.0,0.0,0.0,0.0,0.0,0.0,0.0
1739359250,8,1489.0,1411.0,1467.0,1416.0,1496.0,1452.0,1518.0,1447.0,0.0,0.0,0.0,0.0,0.0,0.0,0.0,0.0
1739403219,8,1491.0,1415.0,1470.0,1417.0,1495.0,1450.0,1516.0,1448.0,0.0,0.0,0.0,0.0,0.0,0.0,0.0,0.0
1739447239,8,1489.0,1413.0,1468.0,1416.0,1495.0,1451.0,1517.0,1447.0,0.0,0.0,0.0,0.0,0.0,0.0,0.0,0.0
1739470991,8,1492.0,1416.0,1474.0,1420.0,1497.0,1449.0,1515.0,1445.0,0.0,0.0,0.0,0.0,0.0,0.0,0.0,0.0
1739531197,8,1489.0,1415.0,1472.0,1421.0,1498.0,1451.0,1513.0,1448.0,0.0,0.0,0.0,0.0,0.0,0.0,0.0,0.0
1739575356,8,1486.0,1420.0,1470.0,1424.0,1493.0,1451.0,1508.0,1447.0,0.0,0.0,0.0,0.0,0.0,0.0,0.0,0.0
1739616006,8,1488.0,1422.0,1468.0,1418.0,1493.0,1450.0,1514.0,1448.0,0.0,0.0,0.0,0.0,0.0,0.0,0.0,0.0
1739656064,8,1487.0,1424.0,1470.0,1427.0,1491.0,1454.0,1508.0,1451.0,0.0,0.0,0.0,0.0,0.0,0.0,0.0,0.0
1739700014,8,1486.0,1424.0,1463.0,1423.0,1485.0,1455.0,1508.0,1456.0,0.0,0.0,0.0,0.0,0.0,0.0,0.0,0.0
1739744165,8,1491.0,1424.0,1467.0,1421.0,1487.0,1453.0,1512.0,1456.0,0.0,0.0,0.0,0.0,0.0,0.0,0.0,0.0
1739768129,8,1485.0,1418.0,1456.0,1418.0,1485.0,1458.0,1514.0,1459.0,0.0,0.0,0.0,0.0,0.0,0.0,0.0,0.0
1739816176,8,1483.0,1419.0,1453.0,1421.0,1485.0,1464.0,1515.0,1463.0,0.0,0.0,0.0,0.0,0.0,0.0,0.0,0.0
1739860169,8,1484.0,1420.0,1453.0,1419.0,1483.0,1462.0,1514.0,1463.0,0.0,0.0,0.0,0.0,0.0,0.0,0.0,0.0
1739904839,8,1483.0,1421.0,1450.0,1419.0,1479.0,1463.0,1513.0,1466.0,0.0,0.0,0.0,0.0,0.0,0.0,0.0,0.0
1739948813,8,1480.0,1425.0,1453.0,1425.0,1480.0,1464.0,1508.0,1464.0,0.0,0.0,0.0,0.0,0.0,0.0,0.0,0.0
1739992827,8,1480.0,1416.0,1448.0,1419.0,1484.0,1468.0,1517.0,1465.0,0.0,0.0,0.0,0.0,0.0,0.0,0.0,0.0
1740036784,8,1479.0,1418.0,1449.0,1424.0,1486.0,1471.0,1516.0,1465.0,0.0,0.0,0.0,0.0,0.0,0.0,0.0,0.0
1740080865,8,1477.0,1418.0,1447.0,1424.0,1485.0,1471.0,1514.0,1466.0,0.0,0.0,0.0,0.0,0.0,0.0,0.0,0.0
1740124831,8,1477.0,1419.0,1450.0,1424.0,1484.0,1466.0,1510.0,1461.0,0.0,0.0,0.0,0.0,0.0,0.0,0.0,0.0
1740165624,8,1479.0,1421.0,1456.0,1427.0,1487.0,1465.0,1510.0,1460.0,0.0,0.0,0.0,0.0,0.0,0.0,0.0,0.0
1740189607,8,1481.0,1421.0,1458.0,1426.0,1488.0,1463.0,1511.0,1458.0,0.0,0.0,0.0,0.0,0.0,0.0,0.0,0.0
1740257609,8,1479.0,1419.0,1453.0,1424.0,1485.0,1465.0,1512.0,1461.0,0.0,0.0,0.0,0.0,0.0,0.0,0.0,0.0
1740277617,8,1479.0,1419.0,1454.0,1425.0,1487.0,1465.0,1511.0,1459.0,0.0,0.0,0.0,0.0,0.0,0.0,0.0,0.0
1740345666,8,1488.0,1422.0,1466.0,1424.0,1490.0,1456.0,1511.0,1454.0,0.0,0.0,0.0,0.0,0.0,0.0,0.0,0.0
1740385631,8,1484.0,1421.0,1463.0,1427.0,1493.0,1463.0,1514.0,1457.0,0.0,0.0,0.0,0.0,0.0,0.0,0.0,0.0
1740405617,8,1485.0,1426.0,1461.0,1426.0,1484.0,1459.0,1508.0,1459.0,0.0,0.0,0.0,0.0,0.0,0.0,0.0,0.0
1740453612,8,1489.0,1418.0,1462.0,1418.0,1487.0,1455.0,1514.0,1456.0,0.0,0.0,0.0,0.0,0.0,0.0,0.0,0.0
1740494439,8,1487.0,1423.0,1468.0,1426.0,1490.0,1455.0,1509.0,1453.0,0.0,0.0,0.0,0.0,0.0,0.0,0.0,0.0
1740534388,8,1488.0,1420.0,1465.0,1421.0,1489.0,1454.0,1512.0,1453.0,0.0,0.0,0.0,0.0,0.0,0.0,0.0,0.0
1740578511,8,1488.0,1421.0,1466.0,1424.0,1492.0,1458.0,1514.0,1455.0,0.0,0.0,0.0,0.0,0.0,0.0,0.0,0.0
1740626390,8,1484.0,1412.0,1462.0,1422.0,1498.0,1462.0,1520.0,1453.0,0.0,0.0,0.0,0.0,0.0,0.0,0.0,0.0
1740670475,8,1485.0,1421.0,1466.0,1426.0,1493.0,1460.0,1513.0,1454.0,0.0,0.0,0.0,0.0,0.0,0.0,0.0,0.0
1740714386,8,1485.0,1417.0,1464.0,1424.0,1494.0,1459.0,1514.0,1453.0,0.0,0.0,0.0,0.0,0.0,0.0,0.0,0.0
1740763049,8,1478.0,1412.0,1456.0,1426.0,1497.0,1470.0,1518.0,1456.0,0.0,0.0,0.0,0.0,0.0,0.0,0.0,0.0
1740783235,8,1478.0,1413.0,1454.0,1426.0,1495.0,1462.0,1514.0,1452.0,0.0,0.0,0.0,0.0,0.0,0.0,0.0,0.0
1740827648,8,1477.0,1413.0,1456.0,1424.0,1493.0,1465.0,1514.0,1454.0,0.0,0.0,0.0,0.0,0.0,0.0,0.0,0.0
1740875282,8,1478.0,1412.0,1459.0,1425.0,1498.0,1467.0,1517.0,1453.0,0.0,0.0,0.0,0.0,0.0,0.0,0.0,0.0
1741801990,8,1469.0,1413.0,1451.0,1429.0,1491.0,1471.0,1509.0,1455.0,0.0,0.0,0.0,0.0,0.0,0.0,0.0,0.0
1741849619,8,1468.0,1415.0,1450.0,1429.0,1488.0,1469.0,1507.0,1455.0,0.0,0.0,0.0,0.0,0.0,0.0,0.0,0.0
1741890401,8,1463.0,1408.0,1442.0,1427.0,1490.0,1476.0,1511.0,1457.0,0.0,0.0,0.0,0.0,0.0,0.0,0.0,0.0
1741934417,8,1471.0,1413.0,1452.0,1427.0,1490.0,1467.0,1508.0,1453.0,0.0,0.0,0.0,0.0,0.0,0.0,0.0,0.0
1742816836,8,1471.0,1413.0,1465.0,1437.0,1505.0,1468.0,1510.0,1444.0,0.0,0.0,0.0,0.0,0.0,0.0,0.0,0.0
1742860829,8,1474.0,1411.0,1464.0,1432.0,1503.0,1467.0,1513.0,1446.0,0.0,0.0,0.0,0.0,0.0,0.0,0.0,0.0
1742900817,8,1472.0,1406.0,1458.0,1429.0,1503.0,1470.0,1516.0,1448.0,0.0,0.0,0.0,0.0,0.0,0.0,0.0,0.0
1742944851,8,1469.0,1410.0,1456.0,1430.0,1498.0,1470.0,1511.0,1450.0,0.0,0.0,0.0,0.0,0.0,0.0,0.0,0.0
1742985680,8,1472.0,1410.0,1464.0,1435.0,1506.0,1471.0,1515.0,1447.0,0.0,0.0,0.0,0.0,0.0,0.0,0.0,0.0
1743029766,8,1471.0,1413.0,1462.0,1436.0,1503.0,1472.0,1512.0,1449.0,0.0,0.0,0.0,0.0,0.0,0.0,0.0,0.0
1743073626,8,1469.0,1412.0,1458.0,1434.0,1500.0,1472.0,1511.0,1450.0,0.0,0.0,0.0,0.0,0.0,0.0,0.0,0.0
1743097653,8,1469.0,1418.0,1460.0,1439.0,1498.0,1473.0,1507.0,1451.0,0.0,0.0,0.0,0.0,0.0,0.0,0.0,0.0
1743145381,8,1472.0,1411.0,1462.0,1433.0,1500.0,1470.0,1511.0,1450.0,0.0,0.0,0.0,0.0,0.0,0.0,0.0,0.0
1743185645,8,1473.0,1413.0,1461.0,1433.0,1501.0,1470.0,1513.0,1450.0,0.0,0.0,0.0,0.0,0.0,0.0,0.0,0.0
1743229669,8,1472.0,1414.0,1462.0,1434.0,1500.0,1467.0,1510.0,1448.0,0.0,0.0,0.0,0.0,0.0,0.0,0.0,0.0
1743277626,8,1471.0,1413.0,1469.0,1435.0,1506.0,1466.0,1513.0,1445.0,0.0,0.0,0.0,0.0,0.0,0.0,0.0,0.0
1743318534,8,1474.0,1422.0,1464.0,1439.0,1498.0,1470.0,1508.0,1453.0,0.0,0.0,0.0,0.0,0.0,0.0,0.0,0.0
1743366455,8,1470.0,1413.0,1459.0,1435.0,1500.0,1472.0,1511.0,1450.0,0.0,0.0,0.0,0.0,0.0,0.0,0.0,0.0
1743410515,8,1470.0,1410.0,1454.0,1430.0,1499.0,1473.0,1514.0,1452.0,0.0,0.0,0.0,0.0,0.0,0.0,0.0,0.0
1743434410,8,1473.0,1413.0,1460.0,1432.0,1501.0,1470.0,1514.0,1450.0,0.0,0.0,0.0,0.0,0.0,0.0,0.0,0.0
1743478449,8,1473.0,1417.0,1461.0,1436.0,1500.0,1472.0,1512.0,1453.0,0.0,0.0,0.0,0.0,0.0,0.0,0.0,0.0
1743522389,8,1477.0,1420.0,1466.0,1438.0,1502.0,1470.0,1512.0,1453.0,0.0,0.0,0.0,0.0,0.0,0.0,0.0,0.0
1743570835,8,1476.0,1413.0,1462.0,1431.0,1500.0,1468.0,1514.0,1451.0,0.0,0.0,0.0,0.0,0.0,0.0,0.0,0.0
1743611290,8,1475.0,1414.0,1456.0,1428.0,1496.0,1471.0,1515.0,1456.0,0.0,0.0,0.0,0.0,0.0,0.0,0.0,0.0
1743655313,8,1478.0,1418.0,1463.0,1432.0,1498.0,1468.0,1513.0,1454.0,0.0,0.0,0.0,0.0,0.0,0.0,0.0,0.0
1743699307,8,1482.0,1421.0,1464.0,1433.0,1498.0,1469.0,1515.0,1457.0,0.0,0.0,0.0,0.0,0.0,0.0,0.0,0.0
1743739290,8,1482.0,1413.0,1463.0,1426.0,1501.0,1468.0,1521.0,1454.0,0.0,0.0,0.0,0.0,0.0,0.0,0.0,0.0
1743779297,8,1486.0,1417.0,1468.0,1426.0,1499.0,1461.0,1518.0,1452.0,0.0,0.0,0.0,0.0,0.0,0.0,0.0,0.0
1743823605,8,1486.0,1421.0,1468.0,1428.0,1495.0,1460.0,1513.0,1453.0,0.0,0.0,0.0,0.0,0.0,0.0,0.0,0.0
1743868138,8,1485.0,1416.0,1465.0,1424.0,1496.0,1460.0,1516.0,1453.0,0.0,0.0,0.0,0.0,0.0,0.0,0.0,0.0
1743891989,8,1488.0,1417.0,1469.0,1427.0,1502.0,1463.0,1521.0,1453.0,0.0,0.0,0.0,0.0,0.0,0.0,0.0,0.0
1743936018,8,1486.0,1415.0,1467.0,1425.0,1500.0,1461.0,1519.0,1451.0,0.0,0.0,0.0,0.0,0.0,0.0,0.0,0.0
1743980016,8,1483.0,1410.0,1461.0,1421.0,1499.0,1464.0,1521.0,1453.0,0.0,0.0,0.0,0.0,0.0,0.0,0.0,0.0
1744024114,8,1485.0,1410.0,1463.0,1420.0,1499.0,1461.0,1521.0,1451.0,0.0,0.0,0.0,0.0,0.0,0.0,0.0,0.0
1744068041,8,1486.0,1415.0,1469.0,1428.0,1504.0,1464.0,1521.0,1452.0,0.0,0.0,0.0,0.0,0.0,0.0,0.0,0.0
1744108006,8,1488.0,1414.0,1471.0,1423.0,1501.0,1457.0,1518.0,1447.0,0.0,0.0,0.0,0.0,0.0,0.0,0.0,0.0
1744152790,8,1485.0,1418.0,1472.0,1430.0,1502.0,1460.0,1514.0,1448.0,0.0,0.0,0.0,0.0,0.0,0.0,0.0,0.0
1744196844,8,1484.0,1416.0,1468.0,1426.0,1498.0,1458.0,1514.0,1448.0,0.0,0.0,0.0,0.0,0.0,0.0,0.0,0.0
1744236877,8,1488.0,1417.0,1477.0,1430.0,1506.0,1458.0,1517.0,1445.0,0.0,0.0,0.0,0.0,0.0,0.0,0.0,0.0
1744280842,8,1485.0,1417.0,1471.0,1429.0,1502.0,1461.0,1516.0,1449.0,0.0,0.0,0.0,0.0,0.0,0.0,0.0,0.0
1744328995,8,1485.0,1416.0,1474.0,1429.0,1503.0,1457.0,1515.0,1445.0,0.0,0.0,0.0,0.0,0.0,0.0,0.0,0.0
1744352847,8,1479.0,1414.0,1463.0,1428.0,1499.0,1465.0,1515.0,1451.0,0.0,0.0,0.0,0.0,0.0,0.0,0.0,0.0
1744416811,8,1483.0,1416.0,1468.0,1429.0,1501.0,1463.0,1516.0,1450.0,0.0,0.0,0.0,0.0,0.0,0.0,0.0,0.0
1744461636,8,1480.0,1410.0,1466.0,1429.0,1507.0,1469.0,1521.0,1449.0,0.0,0.0,0.0,0.0,0.0,0.0,0.0,0.0
1744485652,8,1482.0,1418.0,1472.0,1435.0,1506.0,1466.0,1515.0,1449.0,0.0,0.0,0.0,0.0,0.0,0.0,0.0,0.0
1744546092,8,1482.0,1420.0,1473.0,1438.0,1505.0,1467.0,1512.0,1449.0,0.0,0.0,0.0,0.0,0.0,0.0,0.0,0.0
1744589675,8,1482.0,1421.0,1473.0,1439.0,1506.0,1468.0,1515.0,1451.0,0.0,0.0,0.0,0.0,0.0,0.0,0.0,0.0
1744613651,8,1480.0,1422.0,1470.0,1439.0,1505.0,1471.0,1514.0,1453.0,0.0,0.0,0.0,0.0,0.0,0.0,0.0,0.0
1744661650,8,1479.0,1425.0,1472.0,1440.0,1500.0,1464.0,1506.0,1449.0,0.0,0.0,0.0,0.0,0.0,0.0,0.0,0.0
1744705593,8,1475.0,1425.0,1466.0,1442.0,1499.0,1471.0,1508.0,1455.0,0.0,0.0,0.0,0.0,0.0,0.0,0.0,0.0
1744750508,8,1477.0,1421.0,1466.0,1438.0,1500.0,1469.0,1511.0,1453.0,0.0,0.0,0.0,0.0,0.0,0.0,0.0,0.0
1744790497,8,1476.0,1423.0,1466.0,1439.0,1499.0,1469.0,1509.0,1453.0,0.0,0.0,0.0,0.0,0.0,0.0,0.0,0.0
1744838410,8,1476.0,1426.0,1467.0,1440.0,1496.0,1467.0,1505.0,1453.0,0.0,0.0,0.0,0.0,0.0,0.0,0.0,0.0
1744878520,8,1479.0,1430.0,1475.0,1446.0,1501.0,1467.0,1505.0,1451.0,0.0,0.0,0.0,0.0,0.0,0.0,0.0,0.0
1744902468,8,1475.0,1429.0,1470.0,1446.0,1499.0,1471.0,1505.0,1453.0,0.0,0.0,0.0,0.0,0.0,0.0,0.0,0.0
1744950457,8,1469.0,1424.0,1461.0,1443.0,1496.0,1474.0,1504.0,1455.0,0.0,0.0,0.0,0.0,0.0,0.0,0.0,0.0
1744995195,8,1470.0,1425.0,1465.0,1447.0,1501.0,1476.0,1506.0,1454.0,0.0,0.0,0.0,0.0,0.0,0.0,0.0,0.0
1745039257,8,1475.0,1429.0,1467.0,1445.0,1498.0,1473.0,1506.0,1456.0,0.0,0.0,0.0,0.0,0.0,0.0,0.0,0.0
1745083033,8,1473.0,1424.0,1465.0,1441.0,1497.0,1470.0,1506.0,1453.0,0.0,0.0,0.0,0.0,0.0,0.0,0.0,0.0
1745123551,8,1476.0,1429.0,1465.0,1442.0,1495.0,1471.0,1506.0,1458.0,0.0,0.0,0.0,0.0,0.0,0.0,0.0,0.0
1745167261,8,1477.0,1428.0,1465.0,1439.0,1493.0,1469.0,1506.0,1457.0,0.0,0.0,0.0,0.0,0.0,0.0,0.0,0.0
1745211219,8,1474.0,1425.0,1458.0,1437.0,1492.0,1472.0,1507.0,1459.0,0.0,0.0,0.0,0.0,0.0,0.0,0.0,0.0
1745251259,8,1475.0,1423.0,1462.0,1438.0,1495.0,1471.0,1509.0,1457.0,0.0,0.0,0.0,0.0,0.0,0.0,0.0,0.0
1745299192,8,1478.0,1429.0,1467.0,1441.0,1496.0,1469.0,1507.0,1457.0,0.0,0.0,0.0,0.0,0.0,0.0,0.0,0.0
1745320062,8,1477.0,1422.0,1461.0,1434.0,1494.0,1469.0,1511.0,1457.0,0.0,0.0,0.0,0.0,0.0,0.0,0.0,0.0
1745360055,8,1478.0,1424.0,1461.0,1433.0,1492.0,1469.0,1510.0,1459.0,0.0,0.0,0.0,0.0,0.0,0.0,0.0,0.0
1745423993,8,1482.0,1424.0,1464.0,1432.0,1494.0,1467.0,1513.0,1459.0,0.0,0.0,0.0,0.0,0.0,0.0,0.0,0.0
1745444024,8,1480.0,1423.0,1461.0,1431.0,1492.0,1466.0,1511.0,1458.0,0.0,0.0,0.0,0.0,0.0,0.0,0.0,0.0
1745508008,8,1486.0,1429.0,1473.0,1436.0,1495.0,1460.0,1508.0,1453.0,0.0,0.0,0.0,0.0,0.0,0.0,0.0,0.0
1745552048,8,1485.0,1427.0,1472.0,1435.0,1497.0,1462.0,1510.0,1454.0,0.0,0.0,0.0,0.0,0.0,0.0,0.0,0.0
1745572788,8,1484.0,1428.0,1471.0,1434.0,1493.0,1459.0,1506.0,1452.0,0.0,0.0,0.0,0.0,0.0,0.0,0.0,0.0
1745616849,8,1484.0,1427.0,1471.0,1436.0,1497.0,1463.0,1510.0,1454.0,0.0,0.0,0.0,0.0,0.0,0.0,0.0,0.0
1745660851,8,1484.0,1425.0,1471.0,1435.0,1498.0,1463.0,1510.0,1453.0,0.0,0.0,0.0,0.0,0.0,0.0,0.0,0.0
1745700935,8,1486.0,1427.0,1472.0,1432.0,1494.0,1458.0,1508.0,1452.0,0.0,0.0,0.0,0.0,0.0,0.0,0.0,0.0
1745744871,8,1487.0,1425.0,1471.0,1431.0,1495.0,1460.0,1511.0,1454.0,0.0,0.0,0.0,0.0,0.0,0.0,0.0,0.0
1745788841,8,1490.0,1428.0,1478.0,1434.0,1499.0,1458.0,1511.0,1452.0,0.0,0.0,0.0,0.0,0.0,0.0,0.0,0.0
1745832881,8,1493.0,1431.0,1480.0,1434.0,1498.0,1457.0,1511.0,1453.0,0.0,0.0,0.0,0.0,0.0,0.0,0.0,0.0
1745881203,8,1493.0,1428.0,1473.0,1428.0,1493.0,1456.0,1513.0,1456.0,0.0,0.0,0.0,0.0,0.0,0.0,0.0,0.0
1745925670,8,1493.0,1430.0,1478.0,1435.0,1499.0,1455.0,1515.0,1454.0,0.0,0.0,0.0,0.0,0.0,0.0,0.0,0.0
1745969657,8,1495.0,1429.0,1481.0,1434.0,1502.0,1460.0,1517.0,1455.0,0.0,0.0,0.0,0.0,0.0,0.0,0.0,0.0
1746013686,8,1494.0,1429.0,1479.0,1434.0,1501.0,1459.0,1515.0,1454.0,0.0,0.0,0.0,0.0,0.0,0.0,0.0,0.0
1746033704,8,1495.0,1430.0,1480.0,1434.0,1500.0,1458.0,1514.0,1454.0,0.0,0.0,0.0,0.0,0.0,0.0,0.0,0.0
1746081708,8,1492.0,1424.0,1479.0,1434.0,1507.0,1463.0,1520.0,1453.0,0.0,0.0,0.0,0.0,0.0,0.0,0.0,0.0
1746141693,8,1489.0,1430.0,1478.0,1439.0,1502.0,1463.0,1513.0,1454.0,0.0,0.0,0.0,0.0,0.0,0.0,0.0,0.0
1746182431,8,1494.0,1428.0,1482.0,1438.0,1507.0,1463.0,1518.0,1454.0,0.0,0.0,0.0,0.0,0.0,0.0,0.0,0.0
1746206598,8,1490.0,1426.0,1482.0,1440.0,1511.0,1465.0,1518.0,1451.0,0.0,0.0,0.0,0.0,0.0,0.0,0.0,0.0
1746250422,8,1488.0,1429.0,1481.0,1441.0,1506.0,1465.0,1514.0,1453.0,0.0,0.0,0.0,0.0,0.0,0.0,0.0,0.0
1746294409,8,1486.0,1426.0,1478.0,1439.0,1505.0,1464.0,1513.0,1451.0,0.0,0.0,0.0,0.0,0.0,0.0,0.0,0.0
1746334419,8,1484.0,1426.0,1476.0,1440.0,1505.0,1467.0,1514.0,1453.0,0.0,0.0,0.0,0.0,0.0,0.0,0.0,0.0
1746378438,8,1484.0,1424.0,1477.0,1440.0,1507.0,1466.0,1514.0,1451.0,0.0,0.0,0.0,0.0,0.0,0.0,0.0,0.0
1746426454,8,1485.0,1424.0,1474.0,1439.0,1506.0,1469.0,1516.0,1454.0,0.0,0.0,0.0,0.0,0.0,0.0,0.0,0.0
1746467317,8,1487.0,1430.0,1478.0,1441.0,1502.0,1467.0,1513.0,1455.0,0.0,0.0,0.0,0.0,0.0,0.0,0.0,0.0
1746511285,8,1482.0,1429.0,1475.0,1443.0,1502.0,1468.0,1510.0,1454.0,0.0,0.0,0.0,0.0,0.0,0.0,0.0,0.0
1746555295,8,1485.0,1428.0,1476.0,1441.0,1503.0,1466.0,1511.0,1453.0,0.0,0.0,0.0,0.0,0.0,0.0,0.0,0.0
1746603416,8,1483.0,1430.0,1472.0,1439.0,1496.0,1464.0,1507.0,1455.0,0.0,0.0,0.0,0.0,0.0,0.0,0.0,0.0
1746623213,8,1483.0,1433.0,1474.0,1444.0,1498.0,1467.0,1507.0,1456.0,0.0,0.0,0.0,0.0,0.0,0.0,0.0,0.0
1746671214,8,1485.0,1437.0,1477.0,1444.0,1495.0,1462.0,1503.0,1456.0,0.0,0.0,0.0,0.0,0.0,0.0,0.0,0.0
1746715325,8,1485.0,1431.0,1473.0,1439.0,1497.0,1464.0,1509.0,1456.0,0.0,0.0,0.0,0.0,0.0,0.0,0.0,0.0
1746759782,8,1487.0,1427.0,1468.0,1437.0,1499.0,1470.0,1515.0,1460.0,0.0,0.0,0.0,0.0,0.0,0.0,0.0,0.0
1746800078,8,1485.0,1429.0,1469.0,1437.0,1497.0,1469.0,1514.0,1460.0,0.0,0.0,0.0,0.0,0.0,0.0,0.0,0.0
1746844053,8,1486.0,1433.0,1474.0,1444.0,1502.0,1472.0,1514.0,1461.0,0.0,0.0,0.0,0.0,0.0,0.0,0.0,0.0
1746888015,8,1488.0,1435.0,1476.0,1444.0,1501.0,1469.0,1512.0,1460.0,0.0,0.0,0.0,0.0,0.0,0.0,0.0,0.0
1746928146,8,1489.0,1434.0,1478.0,1443.0,1502.0,1468.0,1513.0,1459.0,0.0,0.0,0.0,0.0,0.0,0.0,0.0,0.0
1746971823,8,1489.0,1434.0,1475.0,1443.0,1502.0,1471.0,1516.0,1462.0,0.0,0.0,0.0,0.0,0.0,0.0,0.0,0.0
1747012064,8,1493.0,1433.0,1478.0,1441.0,1503.0,1469.0,1518.0,1462.0,0.0,0.0,0.0,0.0,0.0,0.0,0.0,0.0
1747052841,8,1491.0,1429.0,1471.0,1436.0,1500.0,1470.0,1520.0,1463.0,0.0,0.0,0.0,0.0,0.0,0.0,0.0,0.0
1747096839,8,1490.0,1424.0,1470.0,1433.0,1503.0,1470.0,1522.0,1461.0,0.0,0.0,0.0,0.0,0.0,0.0,0.0,0.0
1747136858,8,1492.0,1427.0,1471.0,1435.0,1503.0,1472.0,1524.0,1464.0,0.0,0.0,0.0,0.0,0.0,0.0,0.0,0.0
1747180978,8,1491.0,1420.0,1470.0,1430.0,1506.0,1470.0,1527.0,1460.0,0.0,0.0,0.0,0.0,0.0,0.0,0.0,0.0
1747224896,8,1490.0,1418.0,1467.0,1428.0,1505.0,1471.0,1528.0,1461.0,0.0,0.0,0.0,0.0,0.0,0.0,0.0,0.0
1747268812,8,1491.0,1421.0,1470.0,1431.0,1505.0,1470.0,1526.0,1460.0,0.0,0.0,0.0,0.0,0.0,0.0,0.0,0.0
1747313658,8,1492.0,1425.0,1471.0,1434.0,1504.0,1473.0,1525.0,1464.0,0.0,0.0,0.0,0.0,0.0,0.0,0.0,0.0
1747337656,8,1485.0,1422.0,1467.0,1435.0,1503.0,1473.0,1521.0,1460.0,0.0,0.0,0.0,0.0,0.0,0.0,0.0,0.0
1747401663,8,1485.0,1421.0,1464.0,1432.0,1501.0,1472.0,1521.0,1461.0,0.0,0.0,0.0,0.0,0.0,0.0,0.0,0.0
1747425623,8,1487.0,1419.0,1468.0,1431.0,1504.0,1470.0,1523.0,1458.0,0.0,0.0,0.0,0.0,0.0,0.0,0.0,0.0
1747473656,8,1490.0,1426.0,1473.0,1435.0,1502.0,1468.0,1519.0,1459.0,0.0,0.0,0.0,0.0,0.0,0.0,0.0,0.0
1747517620,8,1489.0,1427.0,1471.0,1433.0,1498.0,1464.0,1515.0,1458.0,0.0,0.0,0.0,0.0,0.0,0.0,0.0,0.0
1747565622,8,1485.0,1422.0,1466.0,1432.0,1500.0,1469.0,1518.0,1458.0,0.0,0.0,0.0,0.0,0.0,0.0,0.0,0.0
1747610529,8,1487.0,1424.0,1473.0,1437.0,1506.0,1471.0,1520.0,1457.0,0.0,0.0,0.0,0.0,0.0,0.0,0.0,0.0
1747654401,8,1490.0,1431.0,1478.0,1440.0,1503.0,1466.0,1515.0,1457.0,0.0,0.0,0.0,0.0,0.0,0.0,0.0,0.0
1747674524,8,1485.0,1420.0,1469.0,1434.0,1505.0,1471.0,1521.0,1456.0,0.0,0.0,0.0,0.0,0.0,0.0,0.0,0.0
1747722571,8,1486.0,1422.0,1466.0,1431.0,1499.0,1469.0,1519.0,1459.0,0.0,0.0,0.0,0.0,0.0,0.0,0.0,0.0
1747770480,8,1490.0,1428.0,1474.0,1436.0,1502.0,1468.0,1519.0,1459.0,0.0,0.0,0.0,0.0,0.0,0.0,0.0,0.0
1747811269,8,1489.0,1430.0,1472.0,1438.0,1500.0,1471.0,1518.0,1463.0,0.0,0.0,0.0,0.0,0.0,0.0,0.0,0.0
1747855234,8,1490.0,1431.0,1474.0,1439.0,1500.0,1469.0,1517.0,1462.0,0.0,0.0,0.0,0.0,0.0,0.0,0.0,0.0
1747903442,8,1491.0,1429.0,1473.0,1436.0,1501.0,1468.0,1519.0,1462.0,0.0,0.0,0.0,0.0,0.0,0.0,0.0,0.0
1747943034,8,1490.0,1431.0,1471.0,1436.0,1498.0,1469.0,1518.0,1464.0,0.0,0.0,0.0,0.0,0.0,0.0,0.0,0.0
1747987304,8,1493.0,1431.0,1477.0,1438.0,1502.0,1467.0,1519.0,1461.0,0.0,0.0,0.0,0.0,0.0,0.0,0.0,0.0
1748027231,8,1490.0,1431.0,1471.0,1435.0,1496.0,1467.0,1516.0,1463.0,0.0,0.0,0.0,0.0,0.0,0.0,0.0,0.0
1748071225,8,1492.0,1423.0,1468.0,1429.0,1500.0,1469.0,1524.0,1463.0,0.0,0.0,0.0,0.0,0.0,0.0,0.0,0.0
1748116032,8,1493.0,1430.0,1474.0,1436.0,1501.0,1468.0,1519.0,1462.0,0.0,0.0,0.0,0.0,0.0,0.0,0.0,0.0
1748140094,8,1493.0,1435.0,1476.0,1440.0,1499.0,1467.0,1515.0,1463.0,0.0,0.0,0.0,0.0,0.0,0.0,0.0,0.0
1748184035,8,1493.0,1432.0,1476.0,1436.0,1498.0,1463.0,1514.0,1460.0,0.0,0.0,0.0,0.0,0.0,0.0,0.0,0.0
1748228403,8,1494.0,1425.0,1471.0,1428.0,1497.0,1463.0,1517.0,1463.0,0.0,0.0,0.0,0.0,0.0,0.0,0.0,0.0
1748276045,8,1491.0,1427.0,1472.0,1435.0,1502.0,1470.0,1521.0,1462.0,0.0,0.0,0.0,0.0,0.0,0.0,0.0,0.0
1748324012,8,1489.0,1426.0,1466.0,1431.0,1497.0,1469.0,1520.0,1464.0,0.0,0.0,0.0,0.0,0.0,0.0,0.0,0.0
1748368870,8,1488.0,1425.0,1471.0,1435.0,1502.0,1469.0,1519.0,1459.0,0.0,0.0,0.0,0.0,0.0,0.0,0.0,0.0
1748408955,8,1494.0,1434.0,1477.0,1436.0,1497.0,1462.0,1514.0,1460.0,0.0,0.0,0.0,0.0,0.0,0.0,0.0,0.0
1748432848,8,1493.0,1432.0,1478.0,1435.0,1499.0,1461.0,1514.0,1458.0,0.0,0.0,0.0,0.0,0.0,0.0,0.0,0.0
1748481409,8,1493.0,1433.0,1477.0,1439.0,1501.0,1468.0,1518.0,1460.0,0.0,0.0,0.0,0.0,0.0,0.0,0.0,0.0
1748524869,8,1489.0,1432.0,1472.0,1439.0,1499.0,1470.0,1517.0,1463.0,0.0,0.0,0.0,0.0,0.0,0.0,0.0,0.0
1748568816,8,1492.0,1432.0,1475.0,1438.0,1500.0,1467.0,1516.0,1461.0,0.0,0.0,0.0,0.0,0.0,0.0,0.0,0.0
1748612832,8,1491.0,1426.0,1471.0,1432.0,1500.0,1466.0,1520.0,1460.0,0.0,0.0,0.0,0.0,0.0,0.0,0.0,0.0
1748656831,8,1489.0,1426.0,1473.0,1434.0,1501.0,1466.0,1517.0,1457.0,0.0,0.0,0.0,0.0,0.0,0.0,0.0,0.0
1748697170,8,1491.0,1427.0,1473.0,1433.0,1500.0,1465.0,1518.0,1459.0,0.0,0.0,0.0,0.0,0.0,0.0,0.0,0.0
1748744818,8,1490.0,1425.0,1475.0,1435.0,1504.0,1466.0,1519.0,1456.0,0.0,0.0,0.0,0.0,0.0,0.0,0.0,0.0
1748769721,8,1490.0,1425.0,1475.0,1434.0,1503.0,1464.0,1518.0,1455.0,0.0,0.0,0.0,0.0,0.0,0.0,0.0,0.0
1748829670,8,1492.0,1429.0,1478.0,1434.0,1499.0,1459.0,1513.0,1454.0,0.0,0.0,0.0,0.0,0.0,0.0,0.0,0.0
1748853714,8,1494.0,1427.0,1480.0,1433.0,1503.0,1460.0,1518.0,1453.0,0.0,0.0,0.0,0.0,0.0,0.0,0.0,0.0
1748901646,8,1496.0,1431.0,1482.0,1435.0,1502.0,1459.0,1517.0,1455.0,0.0,0.0,0.0,0.0,0.0,0.0,0.0,0.0
1748945618,8,1495.0,1431.0,1478.0,1433.0,1499.0,1459.0,1515.0,1457.0,0.0,0.0,0.0,0.0,0.0,0.0,0.0,0.0
1748986569,8,1494.0,1429.0,1481.0,1436.0,1504.0,1462.0,1517.0,1455.0,0.0,0.0,0.0,0.0,0.0,0.0,0.0,0.0
1749034523,8,1497.0,1429.0,1485.0,1438.0,1509.0,1463.0,1521.0,1454.0,0.0,0.0,0.0,0.0,0.0,0.0,0.0,0.0
1749078470,8,1496.0,1425.0,1479.0,1431.0,1504.0,1461.0,1521.0,1455.0,0.0,0.0,0.0,0.0,0.0,0.0,0.0,0.0
1749122231,8,1495.0,1428.0,1476.0,1432.0,1501.0,1463.0,1520.0,1459.0,0.0,0.0,0.0,0.0,0.0,0.0,0.0,0.0
1749166535,8,1496.0,1424.0,1478.0,1432.0,1508.0,1466.0,1526.0,1458.0,0.0,0.0,0.0,0.0,0.0,0.0,0.0,0.0
1749210476,8,1498.0,1425.0,1477.0,1430.0,1505.0,1465.0,1526.0,1460.0,0.0,0.0,0.0,0.0,0.0,0.0,0.0,0.0
1749250496,8,1500.0,1423.0,1483.0,1430.0,1511.0,1462.0,1528.0,1455.0,0.0,0.0,0.0,0.0,0.0,0.0,0.0,0.0
1749270474,8,1498.0,1423.0,1481.0,1431.0,1509.0,1463.0,1526.0,1455.0,0.0,0.0,0.0,0.0,0.0,0.0,0.0,0.0
1749311384,8,1499.0,1426.0,1487.0,1433.0,1509.0,1457.0,1521.0,1450.0,0.0,0.0,0.0,0.0,0.0,0.0,0.0,0.0
1749359210,8,1497.0,1430.0,1485.0,1437.0,1507.0,1460.0,1518.0,1453.0,0.0,0.0,0.0,0.0,0.0,0.0,0.0,0.0
1749407224,8,1498.0,1428.0,1488.0,1438.0,1512.0,1461.0,1521.0,1451.0,0.0,0.0,0.0,0.0,0.0,0.0,0.0,0.0
1749451235,8,1496.0,1424.0,1484.0,1435.0,1511.0,1462.0,1523.0,1452.0,0.0,0.0,0.0,0.0,0.0,0.0,0.0,0.0
1749495295,8,1496.0,1422.0,1482.0,1433.0,1511.0,1463.0,1525.0,1453.0,0.0,0.0,0.0,0.0,0.0,0.0,0.0,0.0
1749539242,8,1491.0,1420.0,1480.0,1436.0,1514.0,1468.0,1525.0,1450.0,0.0,0.0,0.0,0.0,0.0,0.0,0.0,0.0
1749580078,8,1492.0,1421.0,1481.0,1436.0,1513.0,1465.0,1523.0,1451.0,0.0,0.0,0.0,0.0,0.0,0.0,0.0,0.0
1749624027,8,1492.0,1425.0,1480.0,1439.0,1512.0,1469.0,1523.0,1455.0,0.0,0.0,0.0,0.0,0.0,0.0,0.0,0.0
1749668059,8,1494.0,1421.0,1480.0,1434.0,1512.0,1467.0,1526.0,1455.0,0.0,0.0,0.0,0.0,0.0,0.0,0.0,0.0
1749712024,8,1490.0,1424.0,1472.0,1434.0,1505.0,1470.0,1523.0,1460.0,0.0,0.0,0.0,0.0,0.0,0.0,0.0,0.0
1749752016,8,1495.0,1427.0,1478.0,1434.0,1504.0,1464.0,1521.0,1458.0,0.0,0.0,0.0,0.0,0.0,0.0,0.0,0.0
1749792024,8,1490.0,1430.0,1474.0,1439.0,1503.0,1470.0,1518.0,1462.0,0.0,0.0,0.0,0.0,0.0,0.0,0.0,0.0
1749840853,8,1489.0,1431.0,1476.0,1443.0,1506.0,1473.0,1519.0,1461.0,0.0,0.0,0.0,0.0,0.0,0.0,0.0,0.0
1749864844,8,1485.0,1429.0,1474.0,1443.0,1506.0,1474.0,1517.0,1463.0,0.0,0.0,0.0,0.0,0.0,0.0,0.0,0.0
1749928608,8,1487.0,1434.0,1472.0,1444.0,1502.0,1476.0,1517.0,1466.0,0.0,0.0,0.0,0.0,0.0,0.0,0.0,0.0
1749968830,8,1484.0,1432.0,1465.0,1441.0,1496.0,1476.0,1515.0,1467.0,0.0,0.0,0.0,0.0,0.0,0.0,0.0,0.0
1749992819,8,1485.0,1435.0,1468.0,1442.0,1495.0,1472.0,1512.0,1465.0,0.0,0.0,0.0,0.0,0.0,0.0,0.0,0.0
1750052857,8,1485.0,1430.0,1462.0,1438.0,1496.0,1478.0,1519.0,1471.0,0.0,0.0,0.0,0.0,0.0,0.0,0.0,0.0
1750096628,8,1483.0,1428.0,1459.0,1437.0,1496.0,1480.0,1519.0,1471.0,0.0,0.0,0.0,0.0,0.0,0.0,0.0,0.0
1750141781,8,1485.0,1424.0,1462.0,1433.0,1498.0,1475.0,1521.0,1465.0,0.0,0.0,0.0,0.0,0.0,0.0,0.0,0.0
1750181632,8,1488.0,1428.0,1464.0,1432.0,1494.0,1470.0,1518.0,1466.0,0.0,0.0,0.0,0.0,0.0,0.0,0.0,0.0
1750225665,8,1489.0,1428.0,1466.0,1431.0,1493.0,1466.0,1516.0,1463.0,0.0,0.0,0.0,0.0,0.0,0.0,0.0,0.0
1750250000,8,1487.0,1425.0,1465.0,1432.0,1497.0,1471.0,1519.0,1463.0,0.0,0.0,0.0,0.0,0.0,0.0,0.0,0.0
1750297632,8,1486.0,1423.0,1462.0,1427.0,1492.0,1466.0,1517.0,1462.0,0.0,0.0,0.0,0.0,0.0,0.0,0.0,0.0
1750337388,8,1489.0,1428.0,1469.0,1433.0,1496.0,1466.0,1516.0,1460.0,0.0,0.0,0.0,0.0,0.0,0.0,0.0,0.0
1750377617,8,1490.0,1425.0,1465.0,1427.0,1492.0,1464.0,1517.0,1462.0,0.0,0.0,0.0,0.0,0.0,0.0,0.0,0.0
1750422495,8,1486.0,1420.0,1460.0,1424.0,1492.0,1465.0,1518.0,1461.0,0.0,0.0,0.0,0.0,0.0,0.0,0.0,0.0
1750462836,8,1487.0,1424.0,1464.0,1429.0,1493.0,1465.0,1516.0,1461.0,0.0,0.0,0.0,0.0,0.0,0.0,0.0,0.0
1750506433,8,1488.0,1426.0,1464.0,1429.0,1492.0,1465.0,1516.0,1463.0,0.0,0.0,0.0,0.0,0.0,0.0,0.0,0.0
1750554173,8,1484.0,1426.0,1466.0,1434.0,1496.0,1469.0,1515.0,1461.0,0.0,0.0,0.0,0.0,0.0,0.0,0.0,0.0
1750598398,8,1487.0,1426.0,1465.0,1434.0,1496.0,1469.0,1515.0,1462.0,0.0,0.0,0.0,0.0,0.0,0.0,0.0,0.0
1750642425,8,1483.0,1428.0,1460.0,1432.0,1488.0,1468.0,1511.0,1464.0,0.0,0.0,0.0,0.0,0.0,0.0,0.0,0.0
1750690483,8,1482.0,1416.0,1458.0,1425.0,1494.0,1467.0,1518.0,1458.0,0.0,0.0,0.0,0.0,0.0,0.0,0.0,0.0
1750711304,8,1480.0,1428.0,1469.0,1435.0,1496.0,1466.0,1512.0,1458.0,0.0,0.0,0.0,0.0,0.0,0.0,0.0,0.0
1750755333,8,1483.0,1422.0,1464.0,1430.0,1495.0,1465.0,1514.0,1457.0,0.0,0.0,0.0,0.0,0.0,0.0,0.0,0.0
1750799262,8,1485.0,1430.0,1470.0,1435.0,1492.0,1461.0,1507.0,1456.0,0.0,0.0,0.0,0.0,0.0,0.0,0.0,0.0
1750847228,8,1489.0,1427.0,1463.0,1430.0,1490.0,1464.0,1511.0,1460.0,0.0,0.0,0.0,0.0,0.0,0.0,0.0,0.0
1750887232,8,1491.0,1427.0,1469.0,1427.0,1490.0,1458.0,1513.0,1458.0,0.0,0.0,0.0,0.0,0.0,0.0,0.0,0.0
1750931220,8,1490.0,1432.0,1470.0,1430.0,1488.0,1458.0,1509.0,1459.0,0.0,0.0,0.0,0.0,0.0,0.0,0.0,0.0
1750979273,8,1492.0,1426.0,1466.0,1423.0,1488.0,1457.0,1514.0,1460.0,0.0,0.0,0.0,0.0,0.0,0.0,0.0,0.0
1751020040,8,1491.0,1421.0,1465.0,1422.0,1492.0,1459.0,1518.0,1459.0,0.0,0.0,0.0,0.0,0.0,0.0,0.0,0.0
1751068100,8,1492.0,1426.0,1468.0,1425.0,1491.0,1459.0,1515.0,1459.0,0.0,0.0,0.0,0.0,0.0,0.0,0.0,0.0
1751091960,8,1491.0,1424.0,1468.0,1426.0,1493.0,1460.0,1516.0,1458.0,0.0,0.0,0.0,0.0,0.0,0.0,0.0,0.0
1751136022,8,1489.0,1427.0,1468.0,1429.0,1493.0,1462.0,1514.0,1459.0,0.0,0.0,0.0,0.0,0.0,0.0,0.0,0.0
1751179992,8,1492.0,1423.0,1471.0,1425.0,1495.0,1457.0,1516.0,1455.0,0.0,0.0,0.0,0.0,0.0,0.0,0.0,0.0
1751227990,8,1494.0,1420.0,1467.0,1420.0,1493.0,1457.0,1520.0,1457.0,0.0,0.0,0.0,0.0,0.0,0.0,0.0,0.0
1751272793,8,1496.0,1423.0,1471.0,1422.0,1493.0,1454.0,1517.0,1456.0,0.0,0.0,0.0,0.0,0.0,0.0,0.0,0.0
1751316868,8,1497.0,1422.0,1477.0,1424.0,1500.0,1454.0,1519.0,1452.0,0.0,0.0,0.0,0.0,0.0,0.0,0.0,0.0
1751360577,8,1492.0,1420.0,1472.0,1424.0,1498.0,1456.0,1518.0,1452.0,0.0,0.0,0.0,0.0,0.0,0.0,0.0,0.0
1751405602,8,1495.0,1417.0,1468.0,1416.0,1495.0,1455.0,1522.0,1455.0,0.0,0.0,0.0,0.0,0.0,0.0,0.0,0.0
1751428819,8,1494.0,1430.0,1478.0,1432.0,1496.0,1456.0,1512.0,1455.0,0.0,0.0,0.0,0.0,0.0,0.0,0.0,0.0
1751476978,8,1493.0,1421.0,1470.0,1424.0,1497.0,1460.0,1521.0,1457.0,0.0,0.0,0.0,0.0,0.0,0.0,0.0,0.0
1751520857,8,1493.0,1425.0,1472.0,1426.0,1495.0,1458.0,1517.0,1457.0,0.0,0.0,0.0,0.0,0.0,0.0,0.0,0.0
1751565673,8,1496.0,1431.0,1476.0,1429.0,1493.0,1455.0,1513.0,1457.0,0.0,0.0,0.0,0.0,0.0,0.0,0.0,0.0
1751609620,8,1495.0,1425.0,1472.0,1424.0,1493.0,1455.0,1517.0,1456.0,0.0,0.0,0.0,0.0,0.0,0.0,0.0,0.0
1751649621,8,1497.0,1428.0,1474.0,1427.0,1496.0,1458.0,1519.0,1459.0,0.0,0.0,0.0,0.0,0.0,0.0,0.0,0.0
1751697601,8,1499.0,1425.0,1475.0,1422.0,1495.0,1454.0,1520.0,1456.0,0.0,0.0,0.0,0.0,0.0,0.0,0.0,0.0
1751721628,8,1499.0,1428.0,1477.0,1425.0,1495.0,1454.0,1518.0,1457.0,0.0,0.0,0.0,0.0,0.0,0.0,0.0,0.0
1751785592,8,1494.0,1426.0,1477.0,1431.0,1501.0,1459.0,1517.0,1454.0,0.0,0.0,0.0,0.0,0.0,0.0,0.0,0.0
1751805624,8,1496.0,1425.0,1475.0,1426.0,1497.0,1457.0,1519.0,1456.0,0.0,0.0,0.0,0.0,0.0,0.0,0.0,0.0
1751850483,8,1498.0,1427.0,1480.0,1429.0,1501.0,1455.0,1518.0,1453.0,0.0,0.0,0.0,0.0,0.0,0.0,0.0,0.0
1751894485,8,1499.0,1432.0,1481.0,1431.0,1497.0,1455.0,1515.0,1456.0,0.0,0.0,0.0,0.0,0.0,0.0,0.0,0.0
1751942535,8,1497.0,1430.0,1475.0,1428.0,1494.0,1455.0,1515.0,1457.0,0.0,0.0,0.0,0.0,0.0,0.0,0.0,0.0
1751982448,8,1502.0,1428.0,1478.0,1424.0,1496.0,1454.0,1520.0,1458.0,0.0,0.0,0.0,0.0,0.0,0.0,0.0,0.0
1752026468,8,1500.0,1430.0,1478.0,1428.0,1497.0,1457.0,1519.0,1459.0,0.0,0.0,0.0,0.0,0.0,0.0,0.0,0.0
1752070444,8,1497.0,1432.0,1475.0,1433.0,1498.0,1464.0,1520.0,1463.0,0.0,0.0,0.0,0.0,0.0,0.0,0.0,0.0
1752111272,8,1500.0,1423.0,1472.0,1422.0,1498.0,1459.0,1525.0,1461.0,0.0,0.0,0.0,0.0,0.0,0.0,0.0,0.0
1752155265,8,1499.0,1430.0,1478.0,1433.0,1499.0,1461.0,1519.0,1460.0,0.0,0.0,0.0,0.0,0.0,0.0,0.0,0.0
1752199264,8,1497.0,1429.0,1478.0,1431.0,1501.0,1462.0,1521.0,1459.0,0.0,0.0,0.0,0.0,0.0,0.0,0.0,0.0
1752243355,8,1497.0,1428.0,1475.0,1428.0,1498.0,1459.0,1519.0,1459.0,0.0,0.0,0.0,0.0,0.0,0.0,0.0,0.0
1752287230,8,1496.0,1433.0,1478.0,1433.0,1495.0,1458.0,1513.0,1459.0,0.0,0.0,0.0,0.0,0.0,0.0,0.0,0.0
1752307235,8,1499.0,1432.0,1482.0,1433.0,1501.0,1458.0,1518.0,1457.0,0.0,0.0,0.0,0.0,0.0,0.0,0.0,0.0
1752371322,8,1492.0,1422.0,1472.0,1425.0,1495.0,1455.0,1515.0,1453.0,0.0,0.0,0.0,0.0,0.0,0.0,0.0,0.0
1752392000,8,1491.0,1429.0,1471.0,1424.0,1485.0,1448.0,1505.0,1452.0,0.0,0.0,0.0,0.0,0.0,0.0,0.0,0.0
1752440045,8,1482.0,1417.0,1455.0,1413.0,1476.0,1447.0,1503.0,1451.0,0.0,0.0,0.0,0.0,0.0,0.0,0.0,0.0
