timestamp,states[0],states[1],states[2],states[3],states[4],states[5],states[6],states[7],states[8],states[9],states[10],states[11],states[12],states[13],states[14],states[15],states[16],states[17],states[18],states[19],states[20],states[21],states[22],states[23],n_states,vibe[0],vibe[1],vibe[2],covariances[0],covariances[1],covariances[2],covariances[3],covariances[4],covariances[5],covariances[6],covariances[7],covariances[8],covariances[9],covariances[10],covariances[11],covariances[12],covariances[13],covariances[14],covariances[15],covariances[16],covariances[17],covariances[18],covariances[19],covariances[20],covariances[21],covariances[22],covariances[23],control_mode_flags,pos_horiz_accuracy,pos_vert_accuracy,mag_test_ratio,vel_test_ratio,pos_test_ratio,hgt_test_ratio,tas_test_ratio,hagl_test_ratio,beta_test_ratio,time_slip,gps_check_fail_flags,filter_fault_flags,innovation_check_flags,solution_status_flags,nan_flags,health_flags,timeout_flags,pre_flt_fail
1725780098,0.9999369,-0.002488053,-0.0015059911,0.0108535215,0.05008254,-0.005348504,0.0025278933,10.335315,8.140775,-0.35680315,1.410813e-05,-2.028794e-05,-1.7358612e-05,0.0004169019,2.7845568e-05,-0.0006825102,0.22258656,0.059641875,0.37848967,0.0,0.0,0.0,0.0,0.0,0.0,1.3433583e-10,9.9875515e-06,0.000703295,6.728831e-07,1.0754779e-05,1.0636379e-05,3.6892983e-05,0.011961898,0.01196176,0.009550278,0.048420854,0.048420884,0.05678275,1.044306e-11,1.0443172e-11,1.829948e-11,1.7765656e-07,1.804991e-07,5.0000036e-08,0.0,0.0,0.0,0.0,0.0,0.0,0.0,0.0,663,0.31119406,0.23829131,0.012535838,0.025097517,0.005337611,0.052599624,0.0,0.0,0.0,2.6e-05,0,0,0,831,0,0,0,0
1725979826,0.9999372,-0.002470197,-0.0014358475,0.010839088,0.0486792,-0.0022931674,0.006559037,10.340639,8.1442175,-0.3407537,1.4091305e-05,-2.0322208e-05,-1.7355958e-05,0.0004168757,2.782559e-05,-0.00068679114,0.22258656,0.059641875,0.37848967,0.0,0.0,0.0,0.0,0.0,0.0,1.300741e-10,9.803849e-06,0.00056472403,6.72891e-07,1.07541055e-05,1.0635672e-05,3.6915273e-05,0.0119580105,0.01195786,0.009557239,0.048404306,0.048404332,0.056872413,1.04421905e-11,1.0442309e-11,1.8303175e-11,1.7765761e-07,1.8050015e-07,5.0000036e-08,0.0,0.0,0.0,0.0,0.0,0.0,0.0,0.0,663,0.31114087,0.23847938,0.064577125,0.0300852,0.0075075547,0.0005571585,0.0,0.0,0.0,-0.000198,0,0,0,831,0,0,0,0
1726185434,0.9999378,-0.0024549393,-0.0013598074,0.010805053,0.04735879,-0.00010087614,-0.0006924787,10.345273,8.147493,-0.36365542,1.4076651e-05,-2.0354859e-05,-1.7334614e-05,0.00041686397,2.7853344e-05,-0.00067850243,0.22258656,0.059641875,0.37848967,0.0,0.0,0.0,0.0,0.0,0.0,1.5692562e-08,0.00012911895,0.0028877603,6.7291205e-07,1.0762347e-05,1.0643908e-05,3.6897676e-05,0.01202688,0.012026724,0.009519006,0.048746783,0.048746806,0.05646542,1.04483045e-11,1.0448429e-11,1.830036e-11,1.7765872e-07,1.8050126e-07,5e-08,0.0,0.0,0.0,0.0,0.0,0.0,0.0,0.0,663,0.31223965,0.23762454,0.02898704,0.024801457,0.0063951546,0.0097822435,0.0,0.0,0.0,-0.00017,0,0,0,831,0,0,0,0
1726389624,0.99993926,-0.0022013746,-0.0011729749,0.010741764,0.0396238,0.02998629,-0.0036448406,10.346745,8.149527,-0.3721366,1.407159e-05,-2.0395804e-05,-1.7221208e-05,0.0004168698,2.7855218e-05,-0.00067557103,0.22258656,0.059641875,0.37848967,0.0,0.0,0.0,0.0,0.0,0.0,1.542502e-08,0.00012398408,0.0034314205,6.7283935e-07,1.07604e-05,1.0641878e-05,3.69172e-05,0.01200444,0.012004077,0.009521062,0.04864213,0.048642147,0.056440476,1.0444133e-11,1.04442635e-11,1.8300313e-11,1.7765974e-07,1.8050228e-07,5e-08,0.0,0.0,0.0,0.0,0.0,0.0,0.0,0.0,663,0.31190428,0.23757204,0.11308843,0.029876472,0.0053378507,0.008927962,0.0,0.0,0.0,-4e-06,0,0,0,831,0,0,0,0
1726589400,0.999935,-0.0033635625,-0.0019356895,0.010721455,0.0364595,-0.017417187,-0.00886015,10.350994,8.151107,-0.37790766,1.4075563e-05,-2.0421538e-05,-1.7233317e-05,0.0004168781,2.7854818e-05,-0.0006732574,0.22258656,0.059641875,0.37848967,0.0,0.0,0.0,0.0,0.0,0.0,1.1914647e-08,0.00011833114,0.003067979,6.7386924e-07,1.0761121e-05,1.0643767e-05,3.6878617e-05,0.012018181,0.012018029,0.00953243,0.048690565,0.04869059,0.056550357,1.0444533e-11,1.04446694e-11,1.8291601e-11,1.7766081e-07,1.8050335e-07,5.0000036e-08,0.0,0.0,0.0,0.0,0.0,0.0,0.0,0.0,663,0.31205955,0.23780319,0.037564065,0.017562574,0.0072528813,0.008353173,0.0,0.0,0.0,-0.000227,0,0,0,831,0,0,0,0
1726794187,0.99994236,-0.0025169328,-0.0016565643,0.0103146555,0.041977204,0.018820466,0.00035442298,10.35002,8.153612,-0.37248966,1.4072361e-05,-2.0474754e-05,-1.723964e-05,0.00041687718,2.7830733e-05,-0.000674881,0.22258656,0.059641875,0.37848967,0.0,0.0,0.0,0.0,0.0,0.0,1.3375819e-08,0.00013382878,0.0034612487,6.72771e-07,1.07701135e-05,1.06513835e-05,3.6861074e-05,0.012079459,0.01207923,0.009577954,0.04902675,0.049026772,0.056958973,1.0448769e-11,1.0448912e-11,1.828703e-11,1.776619e-07,1.8050444e-07,5.000007e-08,0.0,0.0,0.0,0.0,0.0,0.0,0.0,0.0,663,0.313135,0.2386608,0.051290054,0.038997855,0.0069723194,0.0256591,0.0,0.0,0.0,-0.000248,0,0,0,831,0,0,0,0
1726994452,0.9998872,-0.004686888,-0.0013183481,0.014208727,0.024183169,0.012367686,-0.032190416,10.350466,8.157371,-0.3680764,1.40677e-05,-2.0511516e-05,-1.7342558e-05,0.0004168728,2.7809416e-05,-0.0006773024,0.22258656,0.059641875,0.37848967,0.0,0.0,0.0,0.0,0.0,0.0,3.0295496e-07,0.00045472817,0.008927636,6.7805286e-07,1.0763168e-05,1.0650819e-05,3.6880694e-05,0.012080791,0.012080608,0.0095104445,0.04896398,0.048963994,0.05629615,1.044759e-11,1.0447736e-11,1.8292706e-11,1.7766298e-07,1.8050551e-07,5e-08,0.0,0.0,0.0,0.0,0.0,0.0,0.0,0.0,663,0.31293446,0.2372681,0.13480194,0.026003415,0.0061037657,0.011818941,0.0,0.0,0.0,4.9e-05,0,0,0,831,0,0,0,0
1727195011,0.99943906,-0.015348586,-0.017565414,0.024032548,0.124278106,-0.12004742,-0.34072548,10.357746,8.157046,-0.49631855,1.4051011e-05,-2.0533967e-05,-1.7538152e-05,0.00041684636,2.781244e-05,-0.0006428149,0.22258656,0.059641875,0.37848967,0.0,0.0,0.0,0.0,0.0,0.0,3.8216498e-07,0.0006317999,0.012713289,7.040837e-07,1.0753503e-05,1.0658684e-05,3.687754e-05,0.01224816,0.012247218,0.009525262,0.048939668,0.0489397,0.05642197,1.0446399e-11,1.0446551e-11,1.8296297e-11,1.77664e-07,1.8050638e-07,5.0000036e-08,0.0,0.0,0.0,0.0,0.0,0.0,0.0,0.0,663,0.3128568,0.23753309,0.07537141,0.01928003,0.004712213,0.16499004,0.0,0.0,0.0,-0.000254,0,0,0,831,0,0,0,0
1727400009,0.9995449,-0.009419976,-0.0026932769,0.028529314,0.096134834,-0.11700682,-1.0116355,10.385068,8.13144,-0.6217464,1.4089945e-05,-2.0498219e-05,-1.756513e-05,0.00041713883,2.7321781e-05,-0.000653103,0.22258656,0.059641875,0.37848967,0.0,0.0,0.0,0.0,0.0,0.0,5.834552e-07,0.0010171398,0.01580609,7.036164e-07,1.07417645e-05,1.0650632e-05,3.6864905e-05,0.012738458,0.012737099,0.00949802,0.049308654,0.04930868,0.05608122,1.0448313e-11,1.0448461e-11,1.8293802e-11,1.7765801e-07,1.805002e-07,5e-08,0.0,0.0,0.0,0.0,0.0,0.0,0.0,0.0,663,0.31403396,0.23681474,0.030011147,0.043803122,0.005458842,0.11843847,0.0,0.0,0.0,-8.2e-05,0,0,0,831,0,0,0,0
1727600033,0.99944335,-0.0016012136,0.0122482525,0.030992448,0.022581406,-0.14218807,-1.0723962,10.379005,8.103624,-0.8968513,1.40911825e-05,-2.0629612e-05,-1.7595308e-05,0.0004149001,2.7082766e-05,-0.00063121435,0.22258656,0.059641875,0.37848967,0.0,0.0,0.0,0.0,0.0,0.0,4.9517746e-07,0.0011741059,0.015638798,7.0325495e-07,1.0722368e-05,1.0617445e-05,3.681874e-05,0.012694493,0.012691739,0.009512403,0.04922185,0.049221776,0.056130808,1.0438891e-11,1.0439024e-11,1.8281635e-11,1.776392e-07,1.8048071e-07,5.0000036e-08,0.0,0.0,0.0,0.0,0.0,0.0,0.0,0.0,663,0.31375727,0.23691942,0.09348167,0.101278484,0.0030173988,0.11686726,0.0,0.0,0.0,1.3e-05,0,0,0,831,0,0,0,0
1727800845,0.9994192,0.002996067,0.011728044,0.031855002,-0.04237432,-0.15704045,-1.0283631,10.376414,8.07622,-1.1782224,1.4083238e-05,-2.0633428e-05,-1.7607192e-05,0.00041484268,2.7288048e-05,-0.0006097315,0.22258656,0.059641875,0.37848967,0.0,0.0,0.0,0.0,0.0,0.0,4.6420448e-07,0.0010795263,0.0141900545,7.0094586e-07,1.0699613e-05,1.0592562e-05,3.683907e-05,0.012607142,0.012604577,0.009530202,0.049244896,0.04924461,0.05629152,1.0433998e-11,1.0434112e-11,1.8285455e-11,1.7762325e-07,1.8046418e-07,5.0000036e-08,0.0,0.0,0.0,0.0,0.0,0.0,0.0,0.0,663,0.31383038,0.23725834,0.04241326,0.014655858,0.0061283647,0.00409926,0.0,0.0,0.0,1e-05,0,0,0,831,0,0,0,0
1728005637,0.99946517,0.010762008,0.0017222576,0.030834258,-0.11515788,-0.11072485,-0.97913915,10.364241,8.063541,-1.364583,1.40107995e-05,-2.0608799e-05,-1.760143e-05,0.00041487406,2.8176686e-05,-0.00061556045,0.22258656,0.059641875,0.37848967,0.0,0.0,0.0,0.0,0.0,0.0,3.9968802e-07,0.0011441455,0.015269507,6.91033e-07,1.0682824e-05,1.0577735e-05,3.688134e-05,0.012561971,0.012563021,0.009499308,0.04939938,0.049398884,0.055850275,1.0430151e-11,1.0430244e-11,1.8289644e-11,1.7761013e-07,1.804506e-07,5e-08,0.0,0.0,0.0,0.0,0.0,0.0,0.0,0.0,663,0.3143219,0.23632663,0.0059686634,0.047953535,0.011427264,0.082635365,0.0,0.0,0.0,1e-05,0,0,0,831,0,0,0,0
1728209399,0.99953854,0.0110750105,-0.0005617182,0.028282173,-0.12598357,-0.083684124,-0.9373206,10.340512,8.045297,-1.5150853,1.4013095e-05,-2.061507e-05,-1.7705312e-05,0.00041476288,2.7899407e-05,-0.00062799134,0.22258656,0.059641875,0.37848967,0.0,0.0,0.0,0.0,0.0,0.0,3.994635e-07,0.0011364431,0.016112993,6.849202e-07,1.0662739e-05,1.0554528e-05,3.684881e-05,0.012496153,0.012497906,0.009522423,0.049357478,0.04935695,0.056068223,1.0427593e-11,1.0427669e-11,1.8282669e-11,1.7759928e-07,1.8043939e-07,5.0000036e-08,0.0,0.0,0.0,0.0,0.0,0.0,0.0,0.0,663,0.3141885,0.23678729,0.033246942,0.015304651,0.0091222515,0.06749936,0.0,0.0,0.0,-0.000224,0,0,0,831,0,0,0,0
1728410528,0.999636,0.0056791967,-0.0065241833,0.025558557,-0.13912088,-0.053703826,-0.8982406,10.315494,8.042284,-1.666795,1.3957795e-05,-2.0614263e-05,-1.7758459e-05,0.0004143175,2.8114426e-05,-0.0006393774,0.22258656,0.059641875,0.37848967,0.0,0.0,0.0,0.0,0.0,0.0,3.5258643e-07,0.0010527392,0.015858296,6.836467e-07,1.0641432e-05,1.052959e-05,3.6878064e-05,0.012429735,0.012432006,0.009541484,0.04928015,0.049279723,0.0562671,1.042564e-11,1.0425699e-11,1.8288197e-11,1.77589e-07,1.8042871e-07,5.0000054e-08,0.0,0.0,0.0,0.0,0.0,0.0,0.0,0.0,663,0.31394246,0.23720688,0.041501656,0.036324233,0.011861205,0.030757153,0.0,0.0,0.0,5.6e-05,0,0,0,831,0,0,0,0
1728611215,0.9996314,0.0041869367,-0.01350844,0.023177613,-0.12579224,-0.03280089,-0.8921603,10.280289,8.041235,-1.8461391,1.3928582e-05,-2.0677297e-05,-1.7793549e-05,0.00041353845,2.7784363e-05,-0.00064050977,0.22258656,0.059641875,0.37848967,0.0,0.0,0.0,0.0,0.0,0.0,3.5480883e-07,0.0010927235,0.015421552,6.816913e-07,1.0626097e-05,1.0506807e-05,3.684021e-05,0.012371126,0.012372333,0.009559776,0.04914375,0.04914347,0.056447722,1.0422423e-11,1.0422469e-11,1.8279751e-11,1.775792e-07,1.8041848e-07,5.0000075e-08,0.0,0.0,0.0,0.0,0.0,0.0,0.0,0.0,663,0.31350794,0.23758729,0.031103883,0.057870157,0.010039811,0.028700028,0.0,0.0,0.0,-1.2e-05,0,0,0,831,0,0,0,0
1728811242,0.9996054,0.004620907,-0.017543413,0.021448437,-0.09226444,-0.013709232,-0.8883062,10.241473,8.055002,-2.034188,1.3844317e-05,-2.0774245e-05,-1.7828672e-05,0.00041226012,2.7689655e-05,-0.00063831644,0.22258656,0.059641875,0.37848967,0.0,0.0,0.0,0.0,0.0,0.0,3.0650943e-07,0.0011001837,0.015860224,6.797456e-07,1.0613136e-05,1.0486475e-05,3.686216e-05,0.01231118,0.012310948,0.009502209,0.048953943,0.048953753,0.05586995,1.0421089e-11,1.04211275e-11,1.828535e-11,1.7757002e-07,1.8040889e-07,5e-08,0.0,0.0,0.0,0.0,0.0,0.0,0.0,0.0,663,0.31290206,0.23636825,0.03344017,0.07535178,0.021330878,0.032054875,0.0,0.0,0.0,3.5e-05,0,0,0,831,0,0,0,0
1729015845,0.9996396,0.0042829984,-0.016828647,0.02047851,-0.044433292,0.0064492067,-0.8982078,10.231899,8.060413,-2.2192159,1.3833184e-05,-2.0741516e-05,-1.7858649e-05,0.00041247977,2.8004424e-05,-0.0006392586,0.22258656,0.059641875,0.37848967,0.0,0.0,0.0,0.0,0.0,0.0,2.999028e-07,0.0011546962,0.015245273,6.783819e-07,1.06048565e-05,1.047757e-05,3.6847523e-05,0.012335466,0.0123344455,0.009556715,0.049112216,0.049111996,0.056377355,1.0425721e-11,1.0425758e-11,1.8282922e-11,1.7756143e-07,1.8039997e-07,5.0000075e-08,0.0,0.0,0.0,0.0,0.0,0.0,0.0,0.0,663,0.31340742,0.23743916,0.010758243,0.025051383,0.016811125,0.02394976,0.0,0.0,0.0,-0.000216,0,0,0,831,0,0,0,0
1729216611,0.9996955,0.0035704826,-0.01345645,0.020373065,-0.0154992435,0.018009393,-0.8877924,10.207848,8.072337,-2.384717,1.37947345e-05,-2.085144e-05,-1.7844848e-05,0.00041140534,2.719623e-05,-0.00064514217,0.22258656,0.059641875,0.37848967,0.0,0.0,0.0,0.0,0.0,0.0,3.0721822e-07,0.0011961104,0.015366343,6.781626e-07,1.0586462e-05,1.0462318e-05,3.6873895e-05,0.012283093,0.0122821005,0.009577576,0.048930015,0.048929665,0.056597754,1.0425324e-11,1.0425369e-11,1.8288525e-11,1.7755309e-07,1.8039125e-07,5.000009e-08,0.0,0.0,0.0,0.0,0.0,0.0,0.0,0.0,663,0.31282532,0.23790282,0.00015549888,0.08537731,0.017857678,0.05176618,0.0,0.0,0.0,-0.000192,0,0,0,831,0,0,0,0
1729417739,0.99972254,0.001953602,-0.011264219,0.020597648,0.01206376,0.015731892,-0.8806875,10.222437,8.07655,-2.5170596,1.3814484e-05,-2.076334e-05,-1.7851897e-05,0.0004118946,2.74539e-05,-0.0006587936,0.22258656,0.059641875,0.37848967,0.0,0.0,0.0,0.0,0.0,0.0,3.5389857e-07,0.0012566199,0.017154546,6.7936816e-07,1.0571287e-05,1.0449671e-05,3.6837704e-05,0.012250107,0.012249422,0.009515931,0.048784256,0.048783753,0.055980217,1.0424732e-11,1.04247895e-11,1.8279947e-11,1.775454e-07,1.8038307e-07,5e-08,0.0,0.0,0.0,0.0,0.0,0.0,0.0,0.0,663,0.31235877,0.23660138,0.024415696,0.0678523,0.014054504,0.06831041,0.0,0.0,0.0,0.000112,0,0,0,831,0,0,0,0
1729621695,0.9997717,0.0020521863,-0.007955891,0.019724986,0.021906681,0.022114176,-0.8765787,10.200302,8.086523,-2.6979232,1.3794252e-05,-2.0912481e-05,-1.784874e-05,0.00041103747,2.6404636e-05,-0.00065863767,0.22258656,0.059641875,0.37848967,0.0,0.0,0.0,0.0,0.0,0.0,3.0467987e-07,0.0011785369,0.016359145,6.7776693e-07,1.0558746e-05,1.04374485e-05,3.6864312e-05,0.012208668,0.012208457,0.009535076,0.048634835,0.048634224,0.056194972,1.0425488e-11,1.04255615e-11,1.8285833e-11,1.7753824e-07,1.803755e-07,5.000004e-08,0.0,0.0,0.0,0.0,0.0,0.0,0.0,0.0,663,0.31187987,0.23705478,0.009815045,0.1132529,0.015548053,0.06560148,0.0,0.0,0.0,6.8e-05,0,0,0,831,0,0,0,0
1729822219,0.9998086,0.004799817,-0.006650344,0.017760828,0.021874322,0.028973203,-0.8751993,10.209449,8.0900345,-2.8659682,1.3822011e-05,-2.0871978e-05,-1.7818267e-05,0.00041131405,2.653655e-05,-0.00066201104,0.22258656,0.059641875,0.37848967,0.0,0.0,0.0,0.0,0.0,0.0,2.659234e-07,0.0011787921,0.014800089,6.730109e-07,1.0551738e-05,1.0426529e-05,3.6829464e-05,0.012176187,0.012175864,0.009555155,0.048502885,0.048502207,0.056414235,1.0426521e-11,1.0426613e-11,1.8279144e-11,1.7753165e-07,1.8036847e-07,5.000007e-08,0.0,0.0,0.0,0.0,0.0,0.0,0.0,0.0,663,0.3114564,0.2375168,0.07349464,0.03642259,0.012444131,0.022081412,0.0,0.0,0.0,-0.000185,0,0,0,831,0,0,0,0
1730023301,0.99984705,0.004922709,-0.0063632396,0.015527676,0.0266116,0.040880788,-0.8738818,10.198046,8.096757,-3.0562887,1.3850682e-05,-2.0940075e-05,-1.7805298e-05,0.00041127528,2.6119655e-05,-0.0006602919,0.22258656,0.059641875,0.37848967,0.0,0.0,0.0,0.0,0.0,0.0,3.2223764e-07,0.001215781,0.015780102,6.704569e-07,1.0549559e-05,1.042113e-05,3.6874702e-05,0.012180079,0.01217994,0.009527886,0.048540518,0.048539788,0.056103073,1.0429439e-11,1.0429552e-11,1.8287e-11,1.7752569e-07,1.8036205e-07,5.0000036e-08,0.0,0.0,0.0,0.0,0.0,0.0,0.0,0.0,663,0.3115771,0.23686087,0.008002021,0.040771127,0.024096066,0.041945886,0.0,0.0,0.0,6.7e-05,0,0,0,831,0,0,0,0
1730223820,0.9998525,0.002699948,-0.009387161,0.014130918,0.03523188,0.045629673,-0.86565423,10.191646,8.099822,-3.25603,1.3903433e-05,-2.0987172e-05,-1.7861086e-05,0.00041171597,2.6126982e-05,-0.0006509877,0.22258656,0.059641875,0.37848967,0.0,0.0,0.0,0.0,0.0,0.0,2.7451415e-07,0.0011781408,0.014517285,6.7104116e-07,1.0541235e-05,1.0409985e-05,3.6895326e-05,0.012113677,0.012113908,0.009540837,0.048224512,0.04822381,0.05618332,1.0426192e-11,1.04263265e-11,1.8287127e-11,1.775204e-07,1.8035634e-07,5e-08,0.0,0.0,0.0,0.0,0.0,0.0,0.0,0.0,663,0.3105613,0.23703021,0.08423622,0.05390809,0.020076761,0.029837355,0.0,0.0,0.0,-0.000225,0,0,0,831,0,0,0,0
1730428136,0.9998577,0.00074764015,-0.010234902,0.013393044,0.05275227,0.045087475,-0.854185,10.186885,8.105423,-3.3871856,1.3940519e-05,-2.1036381e-05,-1.78379e-05,0.00041143413,2.5353229e-05,-0.00066532573,0.22258656,0.059641875,0.37848967,0.0,0.0,0.0,0.0,0.0,0.0,2.955902e-07,0.0012395814,0.016276963,6.7218e-07,1.0536393e-05,1.0404463e-05,3.6918107e-05,0.012091255,0.012092055,0.0095550595,0.048065532,0.04806489,0.056376863,1.0428332e-11,1.042849e-11,1.8292695e-11,1.7751607e-07,1.8035148e-07,5e-08,0.0,0.0,0.0,0.0,0.0,0.0,0.0,0.0,663,0.31004906,0.23743813,0.039687227,0.038056027,0.021572825,0.11802457,0.0,0.0,0.0,5.4e-05,0,0,0,831,0,0,0,0
1730628935,0.9998508,-0.00036568963,-0.010899463,0.0133961635,0.06694974,0.041139785,-0.8609496,10.188233,8.112244,-3.556336,1.3960519e-05,-2.1076043e-05,-1.7848677e-05,0.0004114342,2.5148995e-05,-0.0006659231,0.22258656,0.059641875,0.37848967,0.0,0.0,0.0,0.0,0.0,0.0,2.7693793e-07,0.0011791277,0.015637264,6.7323714e-07,1.0532177e-05,1.0399964e-05,3.687896e-05,0.012069233,0.012070567,0.009564421,0.04789861,0.047898073,0.056518555,1.0428413e-11,1.04285955e-11,1.8283746e-11,1.775124e-07,1.8034723e-07,5.0000036e-08,0.0,0.0,0.0,0.0,0.0,0.0,0.0,0.0,663,0.30951038,0.23773631,0.012129575,0.020481905,0.020228438,0.016741643,0.0,0.0,0.0,0.000103,0,0,0,831,0,0,0,0
1730833738,0.9998719,-6.244503e-05,-0.0068306015,0.014479772,0.09783824,0.03554976,-0.86840147,10.203017,8.119632,-3.7427514,1.3974668e-05,-2.1066862e-05,-1.7832104e-05,0.0004114749,2.5296127e-05,-0.0006637893,0.22258656,0.059641875,0.37848967,0.0,0.0,0.0,0.0,0.0,0.0,3.5603395e-07,0.0013004795,0.01710847,6.735162e-07,1.053472e-05,1.0405012e-05,3.686231e-05,0.012110903,0.012113237,0.009608287,0.048062686,0.04806232,0.056980465,1.0434747e-11,1.0434952e-11,1.8281147e-11,1.7750942e-07,1.803437e-07,5.0000075e-08,0.0,0.0,0.0,0.0,0.0,0.0,0.0,0.0,663,0.31004032,0.23870581,0.032921202,0.022214249,0.01741496,0.015757984,0.0,0.0,0.0,0.000103,0,0,0,831,0,0,0,0
1731033668,0.99986416,-0.0006522608,-0.005152027,0.015642757,0.09367447,0.026878884,-0.87124854,10.217944,8.125151,-3.89501,1.3989145e-05,-2.1070357e-05,-1.7849425e-05,0.0004111838,2.4956162e-05,-0.00067227444,0.22258656,0.059641875,0.37848967,0.0,0.0,0.0,0.0,0.0,0.0,3.3652853e-07,0.0013032809,0.017034467,6.7506835e-07,1.05326e-05,1.0404441e-05,3.688455e-05,0.012104557,0.012106552,0.009538646,0.04795763,0.0479575,0.056337506,1.04369855e-11,1.0437211e-11,1.8286718e-11,1.7750686e-07,1.8034046e-07,5e-08,0.0,0.0,0.0,0.0,0.0,0.0,0.0,0.0,663,0.30970168,0.23735523,0.046227705,0.042629465,0.018525958,0.019904943,0.0,0.0,0.0,5.8e-05,0,0,0,831,0,0,0,0
1731234423,0.9998668,0.00026775553,-0.003344256,0.015973357,0.108354166,0.021783728,-0.87741166,10.242036,8.134654,-4.0792665,1.3971458e-05,-2.102711e-05,-1.7786968e-05,0.00041110106,2.5229281e-05,-0.00066802005,0.22258656,0.059641875,0.37848967,0.0,0.0,0.0,0.0,0.0,0.0,3.1106043e-07,0.0012407481,0.016528958,6.747308e-07,1.0533675e-05,1.0404812e-05,3.684646e-05,0.012098228,0.012100361,0.009545638,0.047862075,0.04786219,0.056456424,1.0438142e-11,1.0438383e-11,1.8278195e-11,1.7750479e-07,1.8033771e-07,5e-08,0.0,0.0,0.0,0.0,0.0,0.0,0.0,0.0,663,0.30939338,0.2376056,0.0030484286,0.048215628,0.016198505,0.014121991,0.0,0.0,0.0,-6e-06,0,0,0,831,0,0,0,0
1731435000,0.9998726,0.0027788072,-0.0007465396,0.015703393,0.1035068,0.023694485,-0.87525034,10.2653675,8.141207,-4.2428546,1.3967929e-05,-2.0997319e-05,-1.7823913e-05,0.00041082554,2.5127212e-05,-0.00067228713,0.22258656,0.059641875,0.37848967,0.0,0.0,0.0,0.0,0.0,0.0,2.9453008e-07,0.0011743049,0.015997581,6.722628e-07,1.0538463e-05,1.0406502e-05,3.680992e-05,0.012100938,0.0121024735,0.009553577,0.047817484,0.047817808,0.05659812,1.0441255e-11,1.0441507e-11,1.8271802e-11,1.7750301e-07,1.8033515e-07,5e-08,0.0,0.0,0.0,0.0,0.0,0.0,0.0,0.0,663,0.30924958,0.2379036,0.04922969,0.034539822,0.013279627,0.04054204,0.0,0.0,0.0,-0.000241,0,0,0,831,0,0,0,0
1731635832,0.9998826,0.0013230079,0.0008296688,0.015246918,0.09616805,0.027819814,-0.87810093,10.293295,8.153159,-4.4262376,1.3948804e-05,-2.092615e-05,-1.790771e-05,0.00041054084,2.5345698e-05,-0.0006703477,0.22258656,0.059641875,0.37848967,0.0,0.0,0.0,0.0,0.0,0.0,3.0424732e-07,0.0012247053,0.016273309,6.729762e-07,1.0539664e-05,1.0407179e-05,3.683412e-05,0.012092746,0.012093633,0.009559091,0.04770615,0.047706638,0.05672098,1.0443515e-11,1.0443773e-11,1.8277702e-11,1.7750149e-07,1.8033282e-07,5e-08,0.0,0.0,0.0,0.0,0.0,0.0,0.0,0.0,663,0.3088896,0.23816167,0.03361665,0.07095248,0.017022973,0.004192254,0.0,0.0,0.0,-0.000206,0,0,0,831,0,0,0,0
1731836125,0.9998751,-0.0002717269,0.002496865,0.0156039,0.07942492,0.024906175,-0.88170993,10.3068075,8.159486,-4.6039934,1.3961077e-05,-2.0931418e-05,-1.7897517e-05,0.00041053095,2.5467818e-05,-0.0006685833,0.22258656,0.059641875,0.37848967,0.0,0.0,0.0,0.0,0.0,0.0,3.1750642e-07,0.0012519254,0.017412994,6.7492584e-07,1.0536737e-05,1.0404857e-05,3.6854126e-05,0.012047283,0.012047735,0.009557312,0.047433574,0.04743411,0.05669979,1.0439341e-11,1.0439599e-11,1.8278217e-11,1.7750011e-07,1.8033056e-07,5e-08,0.0,0.0,0.0,0.0,0.0,0.0,0.0,0.0,663,0.308006,0.23811717,0.02565545,0.021905784,0.015377577,0.034601294,0.0,0.0,0.0,3.3e-05,0,0,0,831,0,0,0,0
1732040808,0.9998692,-0.0017864618,0.0018995849,0.01595876,0.058650956,0.0026418478,-0.88090706,10.329227,8.159251,-4.792715,1.3994853e-05,-2.087251e-05,-1.7879998e-05,0.00041037,2.5777363e-05,-0.00066689093,0.22258656,0.059641875,0.37848967,0.0,0.0,0.0,0.0,0.0,0.0,2.913095e-07,0.0012318736,0.016301204,6.766526e-07,1.05442405e-05,1.0413743e-05,3.6836274e-05,0.012087563,0.012087639,0.009594159,0.047605477,0.047605973,0.057080097,1.0443209e-11,1.0443462e-11,1.8273797e-11,1.774988e-07,1.8032829e-07,5.000007e-08,0.0,0.0,0.0,0.0,0.0,0.0,0.0,0.0,663,0.30856353,0.23891442,0.03507965,0.053136595,0.009727248,0.05293134,0.0,0.0,0.0,-2.6e-05,0,0,0,831,0,0,0,0
1732241610,0.9998591,-0.0014094476,0.0034794307,0.016365718,0.03017565,-0.017711123,-0.882872,10.3426695,8.164309,-4.9508224,1.3972181e-05,-2.0841628e-05,-1.7876275e-05,0.00040996334,2.5425004e-05,-0.0006744288,0.22258656,0.059641875,0.37848967,0.0,0.0,0.0,0.0,0.0,0.0,2.726444e-07,0.0012301959,0.01652459,6.769707e-07,1.0549237e-05,1.0417531e-05,3.679887e-05,0.012089411,0.012089313,0.0095242765,0.04753927,0.047539655,0.056413308,1.0445082e-11,1.0445323e-11,1.8267362e-11,1.7749738e-07,1.8032574e-07,5e-08,0.0,0.0,0.0,0.0,0.0,0.0,0.0,0.0,663,0.30834872,0.23751485,0.035987847,0.032174304,0.012862136,0.0064610615,0.0,0.0,0.0,-2e-05,0,0,0,831,0,0,0,0
1732441775,0.99985486,-3.8552436e-05,0.0045513078,0.01641966,0.01415455,-0.032751054,-0.8704071,10.360578,8.157374,-5.0916896,1.4004259e-05,-2.0754249e-05,-1.7895049e-05,0.00040927302,2.517574e-05,-0.00068597816,0.22258656,0.059641875,0.37848967,0.0,0.0,0.0,0.0,0.0,0.0,3.412055e-07,0.001286259,0.017568005,6.759002e-07,1.0555592e-05,1.0421344e-05,3.682256e-05,0.012086348,0.012086369,0.009536057,0.047487278,0.047487516,0.056564454,1.0446823e-11,1.0447046e-11,1.8273293e-11,1.7749615e-07,1.8032343e-07,5e-08,0.0,0.0,0.0,0.0,0.0,0.0,0.0,0.0,663,0.3081798,0.23783283,0.00021637192,0.0698679,0.011270405,0.08797697,0.0,0.0,0.0,8.7e-05,0,0,0,831,0,0,0,0
1732642420,0.99987364,0.0017827289,-3.0639928e-06,0.015800213,-0.011025438,-0.035405565,-0.87949127,10.373676,8.153937,-5.239439,1.3998172e-05,-2.0684098e-05,-1.7890068e-05,0.00040871906,2.4844328e-05,-0.0006948691,0.22258656,0.059641875,0.37848967,0.0,0.0,0.0,0.0,0.0,0.0,3.3493868e-07,0.0012772445,0.016793385,6.7320866e-07,1.05609915e-05,1.042553e-05,3.6787194e-05,0.012089368,0.0120900115,0.009544534,0.047419216,0.047419325,0.056675807,1.044667e-11,1.044687e-11,1.8265101e-11,1.7749487e-07,1.8032092e-07,5.000004e-08,0.0,0.0,0.0,0.0,0.0,0.0,0.0,0.0,663,0.30795866,0.2380668,0.01807334,0.04798365,0.010691856,0.01778369,0.0,0.0,0.0,-1e-05,0,0,0,831,0,0,0,0
1732843410,0.999873,0.0032217717,-0.0028788499,0.015345152,-0.011517556,-0.032637034,-0.898362,10.392158,8.142384,-5.4237404,1.4035477e-05,-2.0582751e-05,-1.7889679e-05,0.0004084196,2.5240126e-05,-0.0006908858,0.22258656,0.059641875,0.37848967,0.0,0.0,0.0,0.0,0.0,0.0,3.240435e-07,0.0012497138,0.016743543,6.714292e-07,1.0567467e-05,1.043011e-05,3.6811725e-05,0.012096303,0.0120973205,0.009556903,0.04738656,0.047386568,0.056825683,1.0448028e-11,1.0448203e-11,1.8271006e-11,1.7749376e-07,1.8031864e-07,5.000007e-08,0.0,0.0,0.0,0.0,0.0,0.0,0.0,0.0,663,0.30785245,0.23838139,0.032231607,0.06945999,0.016340096,0.023188386,0.0,0.0,0.0,0.00013,0,0,0,831,0,0,0,0
1733043287,0.99988633,0.0020136244,-0.0016556109,0.014852616,-0.0060988194,-0.034724746,-0.90611374,10.4037695,8.134114,-5.596105,1.4051637e-05,-2.0529102e-05,-1.7861457e-05,0.00040812127,2.519872e-05,-0.0006944564,0.22258656,0.059641875,0.37848967,0.0,0.0,0.0,0.0,0.0,0.0,4.0450118e-07,0.0013701592,0.017599946,6.7204394e-07,1.0573558e-05,1.0436082e-05,3.683639e-05,0.012111051,0.012112049,0.009493812,0.047389846,0.047389816,0.05619298,1.0450384e-11,1.045053e-11,1.8277038e-11,1.7749257e-07,1.8031612e-07,5e-08,0.0,0.0,0.0,0.0,0.0,0.0,0.0,0.0,663,0.30786306,0.23705058,0.039092455,0.029576492,0.017500903,0.0294021,0.0,0.0,0.0,4.8e-05,0,0,0,831,0,0,0,0
1733244139,0.9998958,0.001277747,0.0011821251,0.01433391,-0.019220827,-0.044197466,-0.93846244,10.411694,8.119348,-5.774003,1.4101622e-05,-2.0499814e-05,-1.7858332e-05,0.00040797668,2.541352e-05,-0.0006956232,0.22258656,0.059641875,0.37848967,0.0,0.0,0.0,0.0,0.0,0.0,3.5746052e-07,0.0013058013,0.017237626,6.723189e-07,1.0579685e-05,1.0441269e-05,3.680043e-05,0.012137337,0.01213872,0.009511698,0.047398325,0.047398303,0.056372598,1.0452265e-11,1.0452381e-11,1.827069e-11,1.7749163e-07,1.8031398e-07,5.0000036e-08,0.0,0.0,0.0,0.0,0.0,0.0,0.0,0.0,663,0.30789062,0.23742914,0.005626882,0.042805083,0.021059714,0.025412349,0.0,0.0,0.0,7e-05,0,0,0,831,0,0,0,0
1733444886,0.9998905,0.002351409,0.0036349639,0.014150803,-0.035053976,-0.043097124,-0.9474401,10.415187,8.107805,-5.956752,1.4118358e-05,-2.0475607e-05,-1.7858529e-05,0.0004078523,2.5420677e-05,-0.0006975594,0.22258656,0.059641875,0.37848967,0.0,0.0,0.0,0.0,0.0,0.0,3.6714064e-07,0.0013917761,0.017115822,6.715122e-07,1.05858635e-05,1.0445131e-05,3.6823243e-05,0.012138861,0.012140843,0.009526762,0.047364905,0.04736496,0.05652025,1.0451848e-11,1.0451932e-11,1.8274823e-11,1.7749083e-07,1.8031196e-07,5.000004e-08,0.0,0.0,0.0,0.0,0.0,0.0,0.0,0.0,663,0.30778217,0.23773988,0.035700455,0.012984479,0.018842276,0.03116269,0.0,0.0,0.0,-1.6e-05,0,0,0,831,0,0,0,0
1733645413,0.9998921,0.005459578,0.0013652714,0.013571089,-0.05470221,-0.03993502,-0.9531323,10.400104,8.101357,-6.117841,1.4109235e-05,-2.0524356e-05,-1.7867102e-05,0.00040780642,2.5108668e-05,-0.0007064824,0.22258656,0.059641875,0.37848967,0.0,0.0,0.0,0.0,0.0,0.0,3.9698543e-07,0.0014697851,0.018245703,6.681857e-07,1.0592627e-05,1.0449782e-05,3.678714e-05,0.012142267,0.012144694,0.0095387995,0.04732572,0.0473259,0.056666117,1.0452675e-11,1.0452725e-11,1.8268262e-11,1.774902e-07,1.8031001e-07,5.0000036e-08,0.0,0.0,0.0,0.0,0.0,0.0,0.0,0.0,663,0.30765504,0.23804647,0.07588584,0.04587841,0.0073082843,0.001206009,0.0,0.0,0.0,-0.000228,0,0,0,831,0,0,0,0
1733849599,0.9999239,0.0030422595,-0.0010045737,0.0119164875,-0.056109406,-0.036645606,-0.9733254,10.404959,8.094987,-6.285365,1.4111998e-05,-2.0434862e-05,-1.789572e-05,0.0004073108,2.4642422e-05,-0.00071449316,0.22258656,0.059641875,0.37848967,0.0,0.0,0.0,0.0,0.0,0.0,4.4344836e-07,0.00154509,0.017914169,6.6856234e-07,1.0595373e-05,1.0452287e-05,3.6812617e-05,0.012154516,0.012157149,0.0095524285,0.047300648,0.047301,0.056821447,1.0453438e-11,1.0453449e-11,1.8274023e-11,1.7748972e-07,1.803082e-07,5.000007e-08,0.0,0.0,0.0,0.0,0.0,0.0,0.0,0.0,663,0.3075738,0.23837249,0.057440158,0.061886013,0.012214648,0.0086346185,0.0,0.0,0.0,-3.4e-05,0,0,0,831,0,0,0,0
1734050478,0.99992985,0.0005943433,-0.006024862,0.010185421,-0.04037604,-0.048550118,-0.99986994,10.406668,8.075649,-6.4946313,1.4189792e-05,-2.0387148e-05,-1.7902017e-05,0.0004071059,2.5043415e-05,-0.0007093986,0.22258656,0.059641875,0.37848967,0.0,0.0,0.0,0.0,0.0,0.0,4.4379505e-07,0.0015483558,0.017575173,6.693522e-07,1.0597746e-05,1.0453844e-05,3.683593e-05,0.012153683,0.0121555505,0.009566551,0.04723586,0.047236368,0.056961764,1.0452129e-11,1.0452101e-11,1.8277862e-11,1.7748921e-07,1.8030636e-07,5.000011e-08,0.0,0.0,0.0,0.0,0.0,0.0,0.0,0.0,663,0.30736336,0.23866664,0.020226283,0.06327486,0.014419056,0.020619903,0.0,0.0,0.0,-5e-06,0,0,0,831,0,0,0,0
1734251250,0.9999277,0.006718363,-0.005153299,0.008546303,-0.0098907435,-0.028342834,-1.0112864,10.405158,8.078135,-6.6576905,1.4126894e-05,-2.0395722e-05,-1.7889019e-05,0.0004069684,2.42527e-05,-0.00072640623,0.22258656,0.059641875,0.37848967,0.0,0.0,0.0,0.0,0.0,0.0,4.6742775e-07,0.0015275405,0.018322226,6.6342034e-07,1.04524315e-05,1.0302829e-05,3.6818998e-05,0.010851933,0.010852566,0.009372888,0.040696297,0.040696695,0.05603931,1.0352879e-11,1.0352775e-11,1.8275322e-11,1.7748741e-07,1.803026e-07,5e-08,0.0,0.0,0.0,0.0,0.0,0.0,0.0,0.0,663,0.28529456,0.23672624,0.039991472,0.047776632,0.011749449,0.017817399,0.0,0.0,0.0,-1.4e-05,0,0,0,831,0,0,0,0
1734455051,0.99991363,0.010531368,-0.0008141341,0.0078321,-0.007941646,-0.01181758,-1.0267267,10.398942,8.071788,-6.8505735,1.4153008e-05,-2.0444553e-05,-1.7927972e-05,0.00040693875,2.438059e-05,-0.0007301416,0.22258656,0.059641875,0.37848967,0.0,0.0,0.0,0.0,0.0,0.0,4.7485597e-07,0.0014959612,0.018426435,6.602767e-07,1.0455747e-05,1.0304491e-05,3.6839043e-05,0.01083207,0.010832461,0.009382296,0.040577147,0.04057755,0.056068674,1.0348252e-11,1.0348112e-11,1.827571e-11,1.7748651e-07,1.8030028e-07,5e-08,0.0,0.0,0.0,0.0,0.0,0.0,0.0,0.0,663,0.28487664,0.23678824,0.014242264,0.045547083,0.00887805,0.07004082,0.0,0.0,0.0,-0.000185,0,0,0,831,0,0,0,0
1734656176,0.9998964,0.010801288,0.0054485523,0.007808384,-0.018932378,0.033720814,-1.0329657,10.39775,8.073505,-7.072428,1.4152947e-05,-2.0444577e-05,-1.7950246e-05,0.00040703503,2.460512e-05,-0.0007250946,0.22258656,0.059641875,0.37848967,0.0,0.0,0.0,0.0,0.0,0.0,4.5265634e-07,0.0014906746,0.017274544,6.607726e-07,1.0620433e-05,1.0467209e-05,3.6862035e-05,0.012191074,0.012191361,0.00948279,0.047350775,0.047351375,0.05601993,1.0452488e-11,1.0452348e-11,1.8281533e-11,1.7748734e-07,1.8030005e-07,5e-08,0.0,0.0,0.0,0.0,0.0,0.0,0.0,0.0,663,0.30773714,0.23668529,0.027769536,0.045547083,0.00887805,0.03917361,0.0,0.0,0.0,9.1e-05,0,0,0,831,0,0,0,0
1734856834,0.9999362,0.00730896,0.0022338757,0.008314755,-0.016594231,0.05944453,-1.0398965,10.4119,8.067457,-7.2895646,1.4250539e-05,-2.0360641e-05,-1.8005167e-05,0.0004063858,2.480218e-05,-0.000720023,0.22258656,0.059641875,0.37848967,0.0,0.0,0.0,0.0,0.0,0.0,4.3812824e-07,0.0014526389,0.017625846,6.6294797e-07,1.061876e-05,1.0467956e-05,3.6826383e-05,0.012172877,0.01217259,0.009501744,0.047292065,0.047292694,0.056195732,1.0450513e-11,1.0450343e-11,1.8273176e-11,1.774861e-07,1.8029729e-07,5.000004e-08,0.0,0.0,0.0,0.0,0.0,0.0,0.0,0.0,663,0.30754635,0.23705639,0.05735002,0.07894886,0.01421467,0.051689874,0.0,0.0,0.0,7e-06,0,0,0,831,0,0,0,0
1735057743,0.9999316,0.0070187496,0.00024827884,0.009367584,0.0059790164,0.059741795,-1.0512878,10.438544,8.062467,-7.5013304,1.4373286e-05,-2.022097e-05,-1.7985692e-05,0.00040534913,2.4435054e-05,-0.00072177645,0.22258656,0.059641875,0.37848967,0.0,0.0,0.0,0.0,0.0,0.0,4.249689e-07,0.0014241039,0.017481167,6.634887e-07,1.04675955e-05,1.0318571e-05,3.686902e-05,0.010866168,0.010865439,0.00932113,0.040787194,0.040787634,0.055362128,1.0351592e-11,1.0351363e-11,1.828281e-11,1.7748195e-07,1.8029135e-07,5e-08,0.0,0.0,0.0,0.0,0.0,0.0,0.0,0.0,663,0.28561306,0.23529159,0.00465239,0.087526195,0.022522705,0.027547838,0.0,0.0,0.0,9.2e-05,0,0,0,831,0,0,0,0
1735257614,0.9999233,0.0049854247,0.003664975,0.010735146,0.0215109,0.07977294,-1.0549885,10.456916,8.067929,-7.718685,1.4433841e-05,-2.0150863e-05,-1.797638e-05,0.0004048442,2.4451529e-05,-0.0007185985,0.22258656,0.059641875,0.37848967,0.0,0.0,0.0,0.0,0.0,0.0,4.5440865e-07,0.0014647619,0.018415289,6.6628553e-07,1.0466364e-05,1.03191505e-05,3.6888243e-05,0.010833122,0.010831657,0.009334402,0.04067559,0.040675968,0.05542461,1.0346583e-11,1.0346329e-11,1.8282821e-11,1.7747963e-07,1.8028787e-07,5e-08,0.0,0.0,0.0,0.0,0.0,0.0,0.0,0.0,663,0.28522196,0.23542431,0.025975237,0.041442644,0.028427452,0.026170341,0.0,0.0,0.0,-1.3e-05,0,0,0,831,0,0,0,0
1735458473,0.9998864,-0.0009856661,0.0088453675,0.012172766,-0.0013134215,0.0868775,-1.0542355,10.458894,8.08436,-7.9260387,1.4433511e-05,-2.015071e-05,-1.8033445e-05,0.0004048434,2.4405936e-05,-0.0007200496,0.22258656,0.059641875,0.37848967,0.0,0.0,0.0,0.0,0.0,0.0,3.9982362e-07,0.0014356388,0.017440261,6.733889e-07,1.0625373e-05,1.04815435e-05,3.6908652e-05,0.012185259,0.01218394,0.009511024,0.047446523,0.047446888,0.05614949,1.0449038e-11,1.0448785e-11,1.8286678e-11,1.7748066e-07,1.8028791e-07,5e-08,0.0,0.0,0.0,0.0,0.0,0.0,0.0,0.0,663,0.30804774,0.23695883,0.00588331,0.041442644,0.028427452,0.019496331,0.0,0.0,0.0,4.5e-05,0,0,0,831,0,0,0,0
1735663321,0.9998587,-0.0018463209,0.010706491,0.0128360465,-0.02096552,0.059264187,-1.0573895,10.468871,8.080757,-8.129747,1.453191e-05,-2.0152565e-05,-1.8058641e-05,0.00040431222,2.4761051e-05,-0.0007224734,0.22258656,0.059641875,0.37848967,0.0,0.0,0.0,0.0,0.0,0.0,4.0536582e-07,0.0014852467,0.01864537,6.7506e-07,1.0472458e-05,1.0329603e-05,3.6886584e-05,0.010840439,0.01084008,0.009392722,0.04079105,0.04079126,0.055927545,1.0344427e-11,1.0344121e-11,1.8278589e-11,1.7747446e-07,1.8028055e-07,5.000004e-08,0.0,0.0,0.0,0.0,0.0,0.0,0.0,0.0,663,0.28562617,0.23649006,0.010589501,0.056481734,0.02204519,0.0059127677,0.0,0.0,0.0,0.000117999996,0,0,0,831,0,0,0,0
1735863275,0.9998457,-0.000108555316,0.011565388,0.013224922,-0.05981002,0.061910167,-1.0718696,10.468661,8.086507,-8.309528,1.4564823e-05,-2.0126909e-05,-1.805989e-05,0.00040405785,2.4365561e-05,-0.000733632,0.22258656,0.059641875,0.37848967,0.0,0.0,0.0,0.0,0.0,0.0,3.9922378e-07,0.0014924955,0.018295545,6.740366e-07,1.0478829e-05,1.033433e-05,3.684886e-05,0.010851329,0.010851884,0.009408469,0.040802013,0.040802196,0.056112066,1.0345306e-11,1.0344969e-11,1.827181e-11,1.7747175e-07,1.8027696e-07,5.0000036e-08,0.0,0.0,0.0,0.0,0.0,0.0,0.0,0.0,663,0.2856645,0.23687986,0.024902489,0.019395638,0.021847906,0.027251322,0.0,0.0,0.0,3.4e-05,0,0,0,831,0,0,0,0
1736064107,0.9998489,0.0026462215,0.009831164,0.01409277,-0.0871166,0.066617884,-1.0863094,10.467684,8.095089,-8.522016,1.4578775e-05,-2.0067735e-05,-1.8031014e-05,0.0004038249,2.4067383e-05,-0.0007356947,0.22258656,0.059641875,0.37848967,0.0,0.0,0.0,0.0,0.0,0.0,3.7702935e-07,0.0014217112,0.018024733,6.72019e-07,1.04833e-05,1.03391785e-05,3.6870933e-05,0.010851434,0.010852752,0.009423863,0.040794306,0.04079454,0.056278106,1.0344424e-11,1.03440485e-11,1.8275484e-11,1.7746915e-07,1.8027367e-07,5.0000036e-08,0.0,0.0,0.0,0.0,0.0,0.0,0.0,0.0,663,0.28563762,0.23723006,0.10637108,0.025621945,0.02734166,0.014408685,0.0,0.0,0.0,5.6e-05,0,0,0,831,0,0,0,0
1736268872,0.9998375,0.003213954,0.008510001,0.015566284,-0.13389015,0.06709634,-1.1222965,10.436197,8.104416,-8.766394,1.4600233e-05,-2.0157497e-05,-1.8006182e-05,0.0004040306,2.4844672e-05,-0.0007304566,0.22258656,0.059641875,0.37848967,0.0,0.0,0.0,0.0,0.0,0.0,3.9492272e-07,0.0014796131,0.018100515,6.726942e-07,1.0486037e-05,1.0344507e-05,3.68923e-05,0.010863507,0.010865954,0.009361331,0.0408099,0.040810242,0.05566763,1.0345269e-11,1.0344852e-11,1.8280915e-11,1.7746677e-07,1.8027063e-07,5e-08,0.0,0.0,0.0,0.0,0.0,0.0,0.0,0.0,663,0.2856924,0.23593989,0.03706451,0.08415957,0.0148884095,0.051142216,0.0,0.0,0.0,6.1e-05,0,0,0,831,0,0,0,0
1736469068,0.9998321,-0.0013445015,0.007433011,0.016699081,-0.16185129,0.05826059,-1.136046,10.407517,8.110189,-9.03483,1.4644664e-05,-2.0168107e-05,-1.8055001e-05,0.0004038023,2.5435487e-05,-0.0007183747,0.22258656,0.059641875,0.37848967,0.0,0.0,0.0,0.0,0.0,0.0,4.634946e-07,0.0015819594,0.020073786,6.7750733e-07,1.04834135e-05,1.0348195e-05,3.6913407e-05,0.0108504705,0.010853597,0.009372886,0.040808696,0.040809214,0.055827674,1.0345092e-11,1.03446245e-11,1.8286227e-11,1.7746456e-07,1.8026797e-07,5e-08,0.0,0.0,0.0,0.0,0.0,0.0,0.0,0.0,663,0.2856885,0.2362788,0.038937442,0.031547297,0.013397342,0.0030877492,0.0,0.0,0.0,0.000203,0,0,0,831,0,0,0,0
1736669421,0.99985254,-0.0064059403,0.0026227073,0.0157185,-0.17719465,0.023110876,-1.173591,10.39747,8.110138,-9.290635,1.4698797e-05,-2.002257e-05,-1.8077868e-05,0.0004031449,2.5147672e-05,-0.00071072933,0.22258656,0.059641875,0.37848967,0.0,0.0,0.0,0.0,0.0,0.0,4.2337675e-07,0.0013949637,0.017339544,6.804264e-07,1.048202e-05,1.0353896e-05,3.687507e-05,0.010863754,0.0108679095,0.009384673,0.040839907,0.040840667,0.055986997,1.0346128e-11,1.0345611e-11,1.8279359e-11,1.7746265e-07,1.8026577e-07,5e-08,0.0,0.0,0.0,0.0,0.0,0.0,0.0,0.0,663,0.28579813,0.23661572,0.013777035,0.101808704,0.020331692,0.006864255,0.0,0.0,0.0,-0.000213,0,0,0,831,0,0,0,0
1736874524,0.9998852,-0.005858791,-0.005452068,0.012867474,-0.17202555,-0.02064613,-1.193895,10.362707,8.1019535,-9.520636,1.47435285e-05,-2.0044714e-05,-1.8132925e-05,0.0004030115,2.5190651e-05,-0.0007153258,0.22258656,0.059641875,0.37848967,0.0,0.0,0.0,0.0,0.0,0.0,4.4511629e-07,0.0014277981,0.018359415,6.766517e-07,1.0495063e-05,1.03615575e-05,3.6857327e-05,0.010920018,0.010922967,0.009424894,0.041095555,0.041096635,0.05638727,1.0349256e-11,1.0348682e-11,1.827471e-11,1.7746093e-07,1.8026385e-07,5.000007e-08,0.0,0.0,0.0,0.0,0.0,0.0,0.0,0.0,663,0.2866918,0.23746005,0.03349614,0.03327062,0.019788256,0.035989776,0.0,0.0,0.0,0.000113,0,0,0,831,0,0,0,0
1737075026,0.9999308,-0.0017525146,-0.0071172216,0.009202748,-0.14762911,-0.038615696,-1.2020335,10.340652,8.091273,-9.785796,1.4760979e-05,-2.000426e-05,-1.8163326e-05,0.00040274108,2.5283296e-05,-0.00070775824,0.22258656,0.059641875,0.37848967,0.0,0.0,0.0,0.0,0.0,0.0,4.8107046e-07,0.001466434,0.01760989,6.7021745e-07,1.0505996e-05,1.0362617e-05,3.6882382e-05,0.0109258015,0.010927151,0.009361354,0.041154135,0.041155394,0.055760495,1.03510716e-11,1.0350445e-11,1.82801e-11,1.7745928e-07,1.8026208e-07,5e-08,0.0,0.0,0.0,0.0,0.0,0.0,0.0,0.0,663,0.28689638,0.2361366,0.023320185,0.016985158,0.019331342,0.0135974595,0.0,0.0,0.0,-0.000206,0,0,0,831,0,0,0,0
1737275027,0.99995136,0.005692662,-0.0055095884,0.0058720857,-0.12246504,-0.043638203,-1.2341206,10.321833,8.079102,-10.021519,1.47756755e-05,-1.9978002e-05,-1.8203313e-05,0.00040266797,2.5135507e-05,-0.0007105596,0.22258656,0.059641875,0.37848967,0.0,0.0,0.0,0.0,0.0,0.0,4.7207413e-07,0.001464326,0.017402362,6.623742e-07,1.0514979e-05,1.03628945e-05,3.6907102e-05,0.010938001,0.010938313,0.009375897,0.041175887,0.04117716,0.055932026,1.0351702e-11,1.0351032e-11,1.828569e-11,1.7745758e-07,1.802603e-07,5e-08,0.0,0.0,0.0,0.0,0.0,0.0,0.0,0.0,663,0.2869722,0.23649953,0.066606544,0.005861437,0.018851,0.04558588,0.0,0.0,0.0,-0.000241,0,0,0,831,0,0,0,0
1737480037,0.9999263,0.011227398,-0.003359273,0.0031830391,-0.11188016,-0.0058633233,-1.2649447,10.301168,8.066804,-10.279484,1.4806791e-05,-1.9980438e-05,-1.8261351e-05,0.00040250973,2.5158739e-05,-0.00071118376,0.22258656,0.059641875,0.37848967,0.0,0.0,0.0,0.0,0.0,0.0,4.94554e-07,0.0015827854,0.018830122,6.5776385e-07,1.05277595e-05,1.0371893e-05,3.6888425e-05,0.011003645,0.011003929,0.009418419,0.041456446,0.0414576,0.056338437,1.0355337e-11,1.0354631e-11,1.8281078e-11,1.7745572e-07,1.802585e-07,5.000007e-08,0.0,0.0,0.0,0.0,0.0,0.0,0.0,0.0,663,0.28794798,0.2373572,0.0066217105,0.015426405,0.017005935,0.0027404332,0.0,0.0,0.0,-1.7e-05,0,0,0,831,0,0,0,0
1737681012,0.99993867,0.010696359,-0.0027676565,0.0008431764,-0.11550608,0.023318235,-1.2725667,10.281317,8.068017,-10.523408,1.4793222e-05,-1.9986353e-05,-1.8310744e-05,0.00040256904,2.5162602e-05,-0.0007113856,0.22258656,0.059641875,0.37848967,0.0,0.0,0.0,0.0,0.0,0.0,4.077167e-07,0.0014514016,0.01816475,6.58083e-07,1.05272e-05,1.0369405e-05,3.6908736e-05,0.0109746605,0.010974812,0.009423866,0.041360646,0.04136161,0.0563528,1.0350569e-11,1.034984e-11,1.8281111e-11,1.7745329e-07,1.8025624e-07,5.000007e-08,0.0,0.0,0.0,0.0,0.0,0.0,0.0,0.0,663,0.2876148,0.23738745,0.0739656,0.026449274,0.013038128,0.015009947,0.0,0.0,0.0,0.000184,0,0,0,831,0,0,0,0
1737885312,0.99998164,0.0058265203,-0.0016022269,-0.0005829001,-0.1096963,0.047440946,-1.2568974,10.266721,8.071868,-10.810922,1.4806679e-05,-1.9946778e-05,-1.8389743e-05,0.0004022079,2.5186768e-05,-0.00070045353,0.22258656,0.059641875,0.37848967,0.0,0.0,0.0,0.0,0.0,0.0,4.335101e-07,0.0015382905,0.017991243,6.618307e-07,1.0526496e-05,1.0369835e-05,3.6933405e-05,0.010957804,0.010957667,0.009437534,0.04140412,0.04140488,0.056517106,1.0351648e-11,1.03509016e-11,1.8286777e-11,1.7745039e-07,1.8025344e-07,5.0000075e-08,0.0,0.0,0.0,0.0,0.0,0.0,0.0,0.0,663,0.28776553,0.23773326,0.051740352,0.024223518,0.010698419,0.02247317,0.0,0.0,0.0,-0.000349,0,0,0,831,0,0,0,0
1738089694,0.999999,0.0013366828,-9.367643e-05,0.00057888107,-0.12470081,0.04953942,-1.2688727,10.248708,8.079461,-11.092446,1.4811912e-05,-1.9916006e-05,-1.846625e-05,0.00040203208,2.511907e-05,-0.00069525576,0.22258656,0.059641875,0.37848967,0.0,0.0,0.0,0.0,0.0,0.0,4.1242322e-07,0.0014975215,0.017555395,6.6544743e-07,1.0530573e-05,1.0379269e-05,3.6916797e-05,0.011012809,0.011012777,0.009403502,0.04171029,0.041710854,0.056154195,1.035682e-11,1.0356057e-11,1.8284095e-11,1.7744703e-07,1.8025014e-07,5.0000036e-08,0.0,0.0,0.0,0.0,0.0,0.0,0.0,0.0,663,0.28882718,0.23696877,0.019501047,0.019090975,0.009525764,0.034806047,0.0,0.0,0.0,8.4e-05,0,0,0,831,0,0,0,0
1738290431,0.99999,-0.0023724353,-0.0026452867,0.0027268848,-0.13408084,0.02799583,-1.2598798,10.214491,8.08422,-11.332339,1.4814896e-05,-1.9984158e-05,-1.8542236e-05,0.0004022507,2.5558078e-05,-0.00070006854,0.22258656,0.059641875,0.37848967,0.0,0.0,0.0,0.0,0.0,0.0,4.109799e-07,0.0014773106,0.01824404,6.685714e-07,1.0528988e-05,1.038355e-05,3.687719e-05,0.011003025,0.011003042,0.009415962,0.04173099,0.041731425,0.056288455,1.0356141e-11,1.0355362e-11,1.827556e-11,1.7744311e-07,1.802463e-07,5.0000075e-08,0.0,0.0,0.0,0.0,0.0,0.0,0.0,0.0,663,0.28889862,0.23725188,0.0214437,0.056319833,0.008267924,0.020030916,0.0,0.0,0.0,-3e-06,0,0,0,831,0,0,0,0
1738491048,0.9999483,-0.00632507,-0.0061686863,0.005037304,-0.1300467,-0.026996663,-1.2589842,10.195973,8.0769415,-11.60168,1.4857066e-05,-1.9927407e-05,-1.8637691e-05,0.00040171223,2.526474e-05,-0.0006973105,0.22258656,0.059641875,0.37848967,0.0,0.0,0.0,0.0,0.0,0.0,4.6608065e-07,0.001522575,0.01961632,6.7262647e-07,1.053324e-05,1.0394099e-05,3.685381e-05,0.011028084,0.011027655,0.009378647,0.041913126,0.041913465,0.055806614,1.035641e-11,1.0355615e-11,1.8267578e-11,1.774387e-07,1.8024191e-07,5e-08,0.0,0.0,0.0,0.0,0.0,0.0,0.0,0.0,663,0.28952822,0.23623423,0.059098557,0.045406513,0.011072637,0.0030152425,0.0,0.0,0.0,-0.000225,0,0,0,831,0,0,0,0
1738692323,0.9998834,-0.0077836434,-0.010756016,0.007555616,-0.11337406,-0.07950295,-1.264681,10.176311,8.062956,-11.820061,1.4872897e-05,-1.9903247e-05,-1.8696292e-05,0.00040171563,2.4905627e-05,-0.00070612505,0.22258656,0.059641875,0.37848967,0.0,0.0,0.0,0.0,0.0,0.0,4.4991415e-07,0.0015205255,0.019448416,6.7514696e-07,1.0535984e-05,1.0398502e-05,3.6869227e-05,0.011018142,0.0110165775,0.009388853,0.041865,0.041865233,0.055847757,1.03530075e-11,1.0352197e-11,1.826772e-11,1.7743389e-07,1.8023702e-07,5e-08,0.0,0.0,0.0,0.0,0.0,0.0,0.0,0.0,663,0.28936177,0.2363213,0.043064043,0.018100517,0.011805316,0.007977472,0.0,0.0,0.0,0.000256,0,0,0,831,0,0,0,0
1738896114,0.99987113,-0.0023993703,-0.011875859,0.010533921,-0.10516268,-0.11920289,-1.2943482,10.14086,8.042206,-12.069093,1.4862653e-05,-1.9990468e-05,-1.8734625e-05,0.0004020535,2.5515355e-05,-0.0007073092,0.22258656,0.059641875,0.37848967,0.0,0.0,0.0,0.0,0.0,0.0,5.194579e-07,0.0015674045,0.020082988,6.714367e-07,1.0545372e-05,1.0403048e-05,3.6891557e-05,0.011043994,0.011041341,0.009404085,0.041938413,0.041938502,0.056019787,1.0354941e-11,1.0354124e-11,1.8273329e-11,1.7742936e-07,1.8023238e-07,5.0000036e-08,0.0,0.0,0.0,0.0,0.0,0.0,0.0,0.0,663,0.28961512,0.236685,0.020283133,0.06514312,0.007684359,0.014986562,0.0,0.0,0.0,8.2e-05,0,0,0,831,0,0,0,0
1739096812,0.99981254,0.008678468,-0.010877647,0.013468289,-0.08849552,-0.13232702,-1.2930672,10.109696,8.020135,-12.329477,1.4827869e-05,-2.0052295e-05,-1.8765068e-05,0.00040244436,2.5911504e-05,-0.00070614065,0.22258656,0.059641875,0.37848967,0.0,0.0,0.0,0.0,0.0,0.0,5.50979e-07,0.001563463,0.01942539,6.64263e-07,1.0555301e-05,1.0409318e-05,3.6911242e-05,0.011040889,0.011038194,0.009415182,0.041976433,0.041976318,0.056147743,1.0354619e-11,1.03538055e-11,1.8276852e-11,1.7742519e-07,1.8022797e-07,5.0000036e-08,0.0,0.0,0.0,0.0,0.0,0.0,0.0,0.0,663,0.28974602,0.23695515,0.008691247,0.038806673,0.0145308,0.042618755,0.0,0.0,0.0,-6.8e-05,0,0,0,831,0,0,0,0
1739297719,0.9996778,0.016978685,-0.00881455,0.016688729,-0.0798783,-0.12570474,-1.3064841,10.0966,7.9897647,-12.6030445,1.4848192e-05,-2.0012885e-05,-1.8857985e-05,0.00040216107,2.5667128e-05,-0.00070154906,0.22258656,0.059641875,0.37848967,0.0,0.0,0.0,0.0,0.0,0.0,4.8456684e-07,0.0014751061,0.018901097,6.6151983e-07,1.0560984e-05,1.0420388e-05,3.686683e-05,0.011047025,0.01104515,0.009429653,0.04203023,0.042029876,0.056313507,1.0356019e-11,1.035522e-11,1.8269894e-11,1.7742153e-07,1.802239e-07,5.000007e-08,0.0,0.0,0.0,0.0,0.0,0.0,0.0,0.0,663,0.2899312,0.23730467,0.039279528,0.039705213,0.009091946,0.058163125,0.0,0.0,0.0,9.1e-05,0,0,0,831,0,0,0,0
1739497647,0.9995642,0.019377012,-0.012491061,0.018441727,-0.06449432,-0.08734791,-1.2965658,10.077933,7.966242,-12.856525,1.485417e-05,-2.0034264e-05,-1.88914e-05,0.00040219637,2.5693329e-05,-0.0007044417,0.22258656,0.059641875,0.37848967,0.0,0.0,0.0,0.0,0.0,0.0,4.094205e-07,0.0013858806,0.01804971,6.626204e-07,1.0567893e-05,1.0427018e-05,3.6881982e-05,0.011039783,0.0110398345,0.009442623,0.042059526,0.04205901,0.056472592,1.0357299e-11,1.0356519e-11,1.8275438e-11,1.7741858e-07,1.8022027e-07,5.0000075e-08,0.0,0.0,0.0,0.0,0.0,0.0,0.0,0.0,663,0.29003197,0.23763962,0.03726658,0.014274332,0.0063110115,0.007628917,0.0,0.0,0.0,1.3e-05,0,0,0,831,0,0,0,0
1739702482,0.99954885,0.018651122,-0.013766152,0.019104665,-0.050177883,-0.05598883,-1.287134,10.048407,7.952928,-13.142316,1.4834041e-05,-2.0131762e-05,-1.883907e-05,0.00040245155,2.6381356e-05,-0.0006986791,0.22258656,0.059641875,0.37848967,0.0,0.0,0.0,0.0,0.0,0.0,4.5367707e-07,0.0015139912,0.01968388,6.641914e-07,1.0577623e-05,1.0436292e-05,3.6861835e-05,0.011075591,0.011077161,0.009406534,0.042316165,0.042315595,0.0560763,1.0360694e-11,1.0359937e-11,1.827079e-11,1.7741624e-07,1.8021694e-07,5e-08,0.0,0.0,0.0,0.0,0.0,0.0,0.0,0.0,663,0.29091537,0.23680435,0.022834623,0.06955305,0.011808787,0.040153246,0.0,0.0,0.0,4e-06,0,0,0,831,0,0,0,0
1739903331,0.9995219,0.019194322,-0.015634004,0.018521484,-0.04451151,-0.011002807,-1.2926401,10.025486,7.947027,-13.394823,1.4815461e-05,-2.0203846e-05,-1.8847391e-05,0.00040270624,2.6600708e-05,-0.0007003635,0.22258656,0.059641875,0.37848967,0.0,0.0,0.0,0.0,0.0,0.0,4.968415e-07,0.0016338165,0.019899677,6.636797e-07,1.0584047e-05,1.0440401e-05,3.6882473e-05,0.011078518,0.011080947,0.009417805,0.042337425,0.04233696,0.05621977,1.0362071e-11,1.0361351e-11,1.8276406e-11,1.7741439e-07,1.8021403e-07,5.0000036e-08,0.0,0.0,0.0,0.0,0.0,0.0,0.0,0.0,663,0.29098865,0.23710708,0.049782842,0.05038565,0.010036153,0.005603105,0.0,0.0,0.0,9.9e-05,0,0,0,831,0,0,0,0
1740103347,0.9995727,0.014021032,-0.020233154,0.015769122,-0.00066182064,0.019268863,-1.273512,10.008209,7.948602,-13.647058,1.4795658e-05,-2.0272217e-05,-1.8885417e-05,0.00040294044,2.6744096e-05,-0.0007021181,0.22258656,0.059641875,0.37848967,0.0,0.0,0.0,0.0,0.0,0.0,5.5596934e-07,0.0018504731,0.020953171,6.649005e-07,1.0591658e-05,1.043796e-05,3.6845762e-05,0.01106997,0.011074468,0.009431593,0.042369574,0.04236936,0.056376215,1.0363399e-11,1.0362729e-11,1.8269558e-11,1.7741277e-07,1.8021173e-07,5.000007e-08,0.0,0.0,0.0,0.0,0.0,0.0,0.0,0.0,663,0.29109952,0.23743676,0.02672323,0.046932373,0.010738733,0.0846638,0.0,0.0,0.0,0.00012,0,0,0,831,0,0,0,0
1740304011,0.99965006,0.009354799,-0.020643955,0.01364647,0.049755428,0.025568511,-1.2831621,10.011703,7.959853,-13.882907,1.4742131e-05,-2.0261768e-05,-1.8990093e-05,0.00040321995,2.6502608e-05,-0.0007085075,0.22258656,0.059641875,0.37848967,0.0,0.0,0.0,0.0,0.0,0.0,5.268544e-07,0.001958055,0.022060864,6.6608334e-07,1.0592737e-05,1.0437714e-05,3.6871126e-05,0.011074813,0.0110816695,0.009442461,0.042374406,0.042374544,0.056495413,1.0362865e-11,1.0362261e-11,1.8273123e-11,1.7741162e-07,1.8020982e-07,5.0000075e-08,0.0,0.0,0.0,0.0,0.0,0.0,0.0,0.0,663,0.29111674,0.23768763,0.020023568,0.04803159,0.006726302,0.0537159,0.0,0.0,0.0,-3.9e-05,0,0,0,831,0,0,0,0
1740504618,0.99971807,0.010438149,-0.017044097,0.012824095,0.08343416,0.025575291,-1.2828106,10.018322,7.96658,-14.127034,1.4730532e-05,-2.029767e-05,-1.9026553e-05,0.00040332493,2.6427282e-05,-0.0007133142,0.22258656,0.059641875,0.37848967,0.0,0.0,0.0,0.0,0.0,0.0,5.7796785e-07,0.001982396,0.022631884,6.636175e-07,1.0593399e-05,1.0443245e-05,3.6897545e-05,0.011081356,0.011089874,0.00937934,0.042418726,0.04241934,0.055858694,1.0364431e-11,1.0363904e-11,1.8278644e-11,1.7741077e-07,1.8020793e-07,5e-08,0.0,0.0,0.0,0.0,0.0,0.0,0.0,0.0,663,0.29126975,0.23634444,0.05629231,0.024244051,0.006356521,0.0124889305,0.0,0.0,0.0,-0.000209,0,0,0,831,0,0,0,0
1740704876,0.9997242,0.014255819,-0.013864309,0.012491621,0.11945364,0.040127825,-1.2716013,10.038518,7.9712996,-14.38505,1.4734374e-05,-2.0298783e-05,-1.902286e-05,0.00040333945,2.6521688e-05,-0.00071158836,0.22258656,0.059641875,0.37848967,0.0,0.0,0.0,0.0,0.0,0.0,6.095333e-07,0.0020079743,0.0231025,6.601933e-07,1.0596505e-05,1.0449995e-05,3.685999e-05,0.011077291,0.011087278,0.00939185,0.04245405,0.042455237,0.05600277,1.03658054e-11,1.0365358e-11,1.8271731e-11,1.7740996e-07,1.8020609e-07,5e-08,0.0,0.0,0.0,0.0,0.0,0.0,0.0,0.0,663,0.291392,0.23664904,0.01803792,0.022254499,0.007099923,0.030525163,0.0,0.0,0.0,4.9e-05,0,0,0,831,0,0,0,0
1741916853,0.99989283,0.010321098,-0.00082900655,0.0103528565,0.0478191,0.034823325,-1.2844073,10.197794,8.0586605,-15.807194,1.453003e-05,-2.0251211e-05,-1.9402578e-05,0.00040280842,2.423509e-05,-0.0007544725,0.22258656,0.059641875,0.37848967,0.0,0.0,0.0,0.0,0.0,0.0,5.4797647e-07,0.0021107423,0.02248744,6.6024865e-07,1.0614784e-05,1.0472746e-05,3.6855927e-05,0.011156279,0.011157398,0.0094577605,0.04271819,0.042721383,0.05641949,1.0367427e-11,1.0367233e-11,1.826243e-11,1.7740813e-07,1.8019385e-07,5.000007e-08,0.0,0.0,0.0,0.0,0.0,0.0,0.0,0.0,663,0.2923005,0.23752788,0.03988435,0.04472889,0.020464195,0.01586079,0.0,0.0,0.0,1.2e-05,0,0,0,831,0,0,0,0
1742923421,0.9998017,0.015428853,-0.0023727028,0.012371093,-0.08000509,0.02172134,-1.2711544,10.266527,8.093511,-17.181068,1.4380648e-05,-2.0009365e-05,-1.9543495e-05,0.00040320517,2.472494e-05,-0.00073293655,0.22258656,0.059641875,0.37848967,0.0,0.0,0.0,0.0,0.0,0.0,5.491517e-07,0.0019602862,0.022084245,6.579998e-07,1.0635764e-05,1.0493602e-05,3.6845744e-05,0.011145878,0.011147824,0.009449332,0.042704534,0.042705197,0.056374345,1.0372505e-11,1.03722985e-11,1.8264595e-11,1.7740284e-07,1.8017721e-07,5.0000036e-08,0.0,0.0,0.0,0.0,0.0,0.0,0.0,0.0,663,0.29224944,0.23743282,0.030199233,0.032753672,0.0453091,0.007991049,0.0,0.0,0.0,0.000156,0,0,0,831,0,0,0,0
1743123839,0.9998072,0.0130407745,-0.0068599423,0.012986362,-0.10428943,0.032942753,-1.284899,10.262649,8.111758,-17.464884,1.4313107e-05,-1.9971785e-05,-1.9634124e-05,0.00040365037,2.5190997e-05,-0.0007232254,0.22258656,0.059641875,0.37848967,0.0,0.0,0.0,0.0,0.0,0.0,4.8917155e-07,0.0018004434,0.020266082,6.598796e-07,1.06392345e-05,1.0496667e-05,3.6808724e-05,0.01115252,0.011155692,0.009462385,0.04270774,0.042708028,0.056521177,1.0373979e-11,1.03737505e-11,1.8258015e-11,1.7740078e-07,1.8017292e-07,5.000009e-08,0.0,0.0,0.0,0.0,0.0,0.0,0.0,0.0,663,0.29225975,0.23774183,0.021192955,0.042922765,0.040643558,0.018403482,0.0,0.0,0.0,-0.000204,0,0,0,831,0,0,0,0
1743328846,0.9997782,0.012081569,-0.011058048,0.013238722,-0.11902211,0.04751806,-1.2827027,10.241724,8.13045,-17.736792,1.42589e-05,-2.00079e-05,-1.9707159e-05,0.0004038953,2.5188276e-05,-0.0007206497,0.22258656,0.059641875,0.37848967,0.0,0.0,0.0,0.0,0.0,0.0,5.367718e-07,0.0018823725,0.020663576,6.610351e-07,1.06502e-05,1.0505535e-05,3.6849797e-05,0.011198461,0.011202166,0.00943013,0.042930372,0.042930428,0.05614251,1.0377544e-11,1.0377292e-11,1.826601e-11,1.7739826e-07,1.8016786e-07,5.0000036e-08,0.0,0.0,0.0,0.0,0.0,0.0,0.0,0.0,663,0.29302013,0.23694411,0.074185,0.059850007,0.035493575,0.021768685,0.0,0.0,0.0,1.9e-05,0,0,0,831,0,0,0,0
1743528849,0.999756,0.010730989,-0.014548808,0.012693447,-0.116345994,0.04204708,-1.2702457,10.231824,8.1495075,-17.984583,1.420851e-05,-1.9967843e-05,-1.9762625e-05,0.00040369597,2.478916e-05,-0.0007237655,0.22258656,0.059641875,0.37848967,0.0,0.0,0.0,0.0,0.0,0.0,5.2769747e-07,0.0017536865,0.020277895,6.62163e-07,1.06561165e-05,1.0508159e-05,3.6811354e-05,0.011195418,0.011198852,0.009447706,0.042918734,0.042918753,0.0563168,1.0378876e-11,1.0378598e-11,1.8259439e-11,1.7739531e-07,1.8016293e-07,5.000007e-08,0.0,0.0,0.0,0.0,0.0,0.0,0.0,0.0,663,0.29298034,0.23731162,0.025110018,0.026904792,0.03509295,0.058355156,0.0,0.0,0.0,2.2e-05,0,0,0,831,0,0,0,0
1743729421,0.9997099,0.009336921,-0.018264003,0.012626898,-0.08959619,0.035334416,-1.2528187,10.219497,8.168484,-18.197742,1.4153985e-05,-1.9962217e-05,-1.9873352e-05,0.00040317545,2.3796363e-05,-0.00073555345,0.22258656,0.059641875,0.37848967,0.0,0.0,0.0,0.0,0.0,0.0,4.825609e-07,0.0017153652,0.02023843,6.639005e-07,1.0662013e-05,1.0510171e-05,3.677139e-05,0.011190202,0.011192176,0.009388035,0.042886585,0.04288665,0.055689674,1.0378462e-11,1.0378162e-11,1.8251161e-11,1.7739188e-07,1.8015734e-07,5e-08,0.0,0.0,0.0,0.0,0.0,0.0,0.0,0.0,663,0.29287067,0.23598659,0.041994926,0.029136093,0.034030296,0.0405397,0.0,0.0,0.0,-0.000253,0,0,0,831,0,0,0,0
1743930273,0.9996279,0.009524254,-0.022069938,0.012899136,-0.054720275,0.03277074,-1.2556608,10.218621,8.182632,-18.461569,1.4125436e-05,-1.9915862e-05,-1.9934245e-05,0.00040348913,2.412546e-05,-0.00073076884,0.22258656,0.059641875,0.37848967,0.0,0.0,0.0,0.0,0.0,0.0,5.491579e-07,0.0018495215,0.02103634,6.650435e-07,1.06698435e-05,1.0512956e-05,3.6790625e-05,0.011190686,0.011191353,0.009403633,0.042864256,0.04286437,0.055858787,1.0379751e-11,1.0379436e-11,1.8256988e-11,1.7738832e-07,1.8015196e-07,5e-08,0.0,0.0,0.0,0.0,0.0,0.0,0.0,0.0,663,0.29279453,0.23634464,0.022790758,0.016418625,0.033346068,0.03898463,0.0,0.0,0.0,-0.000163,0,0,0,831,0,0,0,0
1744131255,0.99957585,0.010324952,-0.023630897,0.013531029,-0.012861629,0.02134935,-1.2543639,10.215882,8.197648,-18.681192,1.4079565e-05,-1.9933344e-05,-2.0019366e-05,0.00040291992,2.3195527e-05,-0.0007411667,0.22258656,0.059641875,0.37848967,0.0,0.0,0.0,0.0,0.0,0.0,5.379702e-07,0.0018256671,0.02095542,6.6536467e-07,1.067559e-05,1.0516378e-05,3.675158e-05,0.011198272,0.011197501,0.009420793,0.042848077,0.042848174,0.056038283,1.0381066e-11,1.0380756e-11,1.8250715e-11,1.7738454e-07,1.8014636e-07,5.0000036e-08,0.0,0.0,0.0,0.0,0.0,0.0,0.0,0.0,663,0.2927392,0.23672406,0.017184215,0.03848942,0.027853755,0.02416622,0.0,0.0,0.0,-1.4e-05,0,0,0,831,0,0,0,0
1744331025,0.9995904,0.012348887,-0.021136671,0.014829778,0.03822924,0.027727513,-1.2557981,10.219822,8.218977,-18.932783,1.39969125e-05,-1.9955813e-05,-2.0007317e-05,0.0004028767,2.3043975e-05,-0.0007411066,0.22258656,0.059641875,0.37848967,0.0,0.0,0.0,0.0,0.0,0.0,5.0121736e-07,0.0016650651,0.018988278,6.641052e-07,1.0676807e-05,1.052182e-05,3.6776397e-05,0.011201963,0.011200673,0.009438982,0.04283802,0.042838033,0.05622814,1.03823295e-11,1.03820355e-11,1.8256823e-11,1.7738051e-07,1.8014073e-07,5.0000075e-08,0.0,0.0,0.0,0.0,0.0,0.0,0.0,0.0,663,0.29270473,0.23712473,0.017902985,0.04825507,0.022075314,0.010597287,0.0,0.0,0.0,-0.000248,0,0,0,831,0,0,0,0
1744531809,0.99968964,0.012382202,-0.0151961995,0.015380858,0.06687688,0.042732216,-1.260301,10.232561,8.241038,-19.165848,1.3929508e-05,-1.9965475e-05,-2.0082718e-05,0.0004026956,2.2619723e-05,-0.0007455629,0.22258656,0.059641875,0.37848967,0.0,0.0,0.0,0.0,0.0,0.0,5.154376e-07,0.0016727705,0.02014619,6.628497e-07,1.0673279e-05,1.0525039e-05,3.6744255e-05,0.011200696,0.011199672,0.009452426,0.042785786,0.042785674,0.056371108,1.0381359e-11,1.0381092e-11,1.8248632e-11,1.7737608e-07,1.8013493e-07,5.0000068e-08,0.0,0.0,0.0,0.0,0.0,0.0,0.0,0.0,663,0.292526,0.237426,0.015685368,0.031942558,0.026087472,0.05444745,0.0,0.0,0.0,-0.000221,0,0,0,831,0,0,0,0
1744732864,0.9997999,0.008592025,-0.010356367,0.01480078,0.067215845,0.04220406,-1.2585802,10.24944,8.259596,-19.423727,1.3893936e-05,-1.9971492e-05,-2.0149388e-05,0.00040296986,2.2811711e-05,-0.00074288115,0.22258656,0.059641875,0.37848967,0.0,0.0,0.0,0.0,0.0,0.0,4.8189673e-07,0.0016503904,0.018923027,6.643129e-07,1.0672307e-05,1.0527615e-05,3.6773396e-05,0.011209637,0.011208442,0.009465396,0.042800356,0.042800095,0.056525763,1.0383435e-11,1.03832e-11,1.8254785e-11,1.7737159e-07,1.8012902e-07,5.0000068e-08,0.0,0.0,0.0,0.0,0.0,0.0,0.0,0.0,663,0.29257554,0.23775147,0.05683542,0.021806836,0.02459696,0.039127104,0.0,0.0,0.0,2.2e-05,0,0,0,831,0,0,0,0
1744932604,0.99985456,0.008092192,-0.007176289,0.013186774,0.061033368,0.036358643,-1.2537127,10.260812,8.282297,-19.679169,1.3831914e-05,-2.0001555e-05,-2.022428e-05,0.000403178,2.2902297e-05,-0.0007406414,0.22258656,0.059641875,0.37848967,0.0,0.0,0.0,0.0,0.0,0.0,4.5870505e-07,0.0015844151,0.018586019,6.633404e-07,1.0674346e-05,1.0528828e-05,3.6739984e-05,0.011206378,0.011204844,0.009401907,0.042783484,0.042783104,0.055897135,1.0384381e-11,1.0384172e-11,1.8248654e-11,1.7736659e-07,1.8012244e-07,5e-08,0.0,0.0,0.0,0.0,0.0,0.0,0.0,0.0,663,0.29251766,0.23642576,0.005145694,0.03405157,0.02427064,0.021607222,0.0,0.0,0.0,-0.000232,0,0,0,831,0,0,0,0
1745137399,0.9998967,0.006821334,-0.005117112,0.0115709165,0.032322854,0.042594034,-1.2533016,10.255151,8.303182,-19.943592,1.3779575e-05,-2.011011e-05,-2.0279289e-05,0.00040360753,2.315824e-05,-0.00073539163,0.22258656,0.059641875,0.37848967,0.0,0.0,0.0,0.0,0.0,0.0,4.6846623e-07,0.001635878,0.019403921,6.634214e-07,1.06769e-05,1.0530158e-05,3.6765425e-05,0.011205975,0.011204459,0.009412786,0.042761263,0.04276075,0.05602312,1.0384427e-11,1.0384237e-11,1.8252993e-11,1.7736187e-07,1.8011644e-07,5e-08,0.0,0.0,0.0,0.0,0.0,0.0,0.0,0.0,663,0.29244146,0.23669204,0.06882892,0.09272519,0.025930757,0.03442661,0.0,0.0,0.0,-0.000265,0,0,0,831,0,0,0,0
1745338228,0.99992687,0.0034965344,-0.006527073,0.009567311,0.0017047524,0.031910166,-1.260215,10.253577,8.322301,-20.223732,1.3730968e-05,-2.0148955e-05,-2.0322488e-05,0.00040442243,2.3957013e-05,-0.00072511286,0.22258656,0.059641875,0.37848967,0.0,0.0,0.0,0.0,0.0,0.0,4.6494247e-07,0.0016254361,0.019589508,6.654577e-07,1.0678837e-05,1.0531343e-05,3.6790836e-05,0.011210129,0.011208357,0.009426499,0.042748023,0.04274738,0.0561807,1.03860184e-11,1.0385851e-11,1.8259073e-11,1.77357e-07,1.8011069e-07,5.0000036e-08,0.0,0.0,0.0,0.0,0.0,0.0,0.0,0.0,663,0.29239595,0.23702468,0.09123362,0.035687782,0.025390526,0.11106754,0.0,0.0,0.0,-0.000209,0,0,0,831,0,0,0,0
1745538503,0.9998895,0.0022406531,-0.011528163,0.009125459,-0.011342257,0.009574351,-1.25124,10.248803,8.344323,-20.45805,1.3645954e-05,-2.0178943e-05,-2.0386784e-05,0.00040411108,2.3537365e-05,-0.0007288583,0.22258656,0.059641875,0.37848967,0.0,0.0,0.0,0.0,0.0,0.0,4.4602535e-07,0.0015871394,0.018187184,6.669128e-07,1.06797725e-05,1.0530004e-05,3.675299e-05,0.011193339,0.011190739,0.009437441,0.042672984,0.04267218,0.056327306,1.0385582e-11,1.0385441e-11,1.8252823e-11,1.77352e-07,1.8010506e-07,5.0000033e-08,0.0,0.0,0.0,0.0,0.0,0.0,0.0,0.0,663,0.29213893,0.23733374,0.025157852,0.04645994,0.028477049,0.08509335,0.0,0.0,0.0,6.8e-05,0,0,0,831,0,0,0,0
