timestamp,ref_timestamp,ref_lat,ref_lon,x,y,z,delta_xy[0],delta_xy[1],delta_z,vx,vy,vz,z_deriv,delta_vxy[0],delta_vxy[1],delta_vz,ax,ay,az,yaw,ref_alt,dist_bottom,dist_bottom_rate,eph,epv,evh,evv,vxy_max,vz_max,hagl_min,hagl_max,xy_valid,z_valid,v_xy_valid,v_z_valid,xy_reset_counter,z_reset_counter,vxy_reset_counter,vz_reset_counter,xy_global,z_global,dist_bottom_valid
1725984159,27968313,37.1024763,-76.3882094,10.275233,8.144735,-0.3515,-0.00058669725,-0.0025933315,0.0,0.05286639,-0.0006080068,0.0042302487,0.037601344,-0.051813073,-0.001055113,0.15508993,0.012661619,0.010187925,0.0030306333,0.021695692,2.5831757,0.1,-0.0042302487,0.31114087,0.23847938,0.15464757,0.09776113,inf,inf,inf,inf,1,1,1,1,2,0,2,2,1,1,0
1726085397,27968313,37.1024763,-76.3882094,10.277413,8.146348,-0.35002124,-0.00058669725,-0.0025933315,0.0,0.052927993,0.0011919981,0.004664311,0.035063412,-0.051813073,-0.001055113,0.15508993,-0.56556374,0.83905053,0.11623217,0.021770116,2.5831757,0.1,-0.004664311,0.30027792,0.23827136,0.15041964,0.0974419,inf,inf,inf,inf,1,1,1,1,2,0,2,2,1,1,0
1726189681,27968313,37.1024763,-76.3882094,10.279423,8.148111,-0.35088408,-0.00058669725,-0.0025933315,0.0,0.014095817,-0.0066520493,0.003874623,0.029532785,-0.051813073,-0.001055113,0.15508993,-3.3442326,1.3919662,0.20196934,0.021497322,2.5831757,0.1,-0.003874623,0.31223965,0.23762454,0.15509224,0.0975654,inf,inf,inf,inf,1,1,1,1,2,0,2,2,1,1,0
1726289666,27968313,37.1024763,-76.3882094,10.280701,8.150046,-0.3562918,-0.00058669725,-0.0025933315,0.0,0.009190585,0.00827273,0.004017165,0.021322478,-0.051813073,-0.001055113,0.15508993,-0.5891781,-2.2732327,0.3570149,0.023970874,2.5831757,0.1,-0.004017165,0.30093762,0.23718558,0.15066692,0.09722265,inf,inf,inf,inf,1,1,1,1,2,0,2,2,1,1,0
1726389624,27968313,37.1024763,-76.3882094,10.281881,8.151832,-0.35910252,-0.00058669725,-0.0025933315,0.0,0.03362247,0.01013127,0.0063924883,0.01891653,-0.051813073,-0.001055113,0.15508993,-0.2277155,1.0050061,0.0037227436,0.02184623,2.5831757,0.1,-0.0063924883,0.31190428,0.23757204,0.15494682,0.097575925,inf,inf,inf,inf,1,1,1,1,2,0,2,2,1,1,0
1726493669,27968313,37.1024763,-76.3882094,10.282704,8.153209,-0.3629807,-0.00058669725,-0.0025933315,0.0,0.052005474,0.019257462,-0.00027952413,0.0071068443,-0.051813073,-0.001055113,0.15508993,0.36580187,-0.3248683,0.16884647,0.020972077,2.5831757,0.1,0.00027952413,0.30108732,0.23739737,0.15072532,0.097271636,inf,inf,inf,inf,1,1,1,1,2,0,2,2,1,1,0
1726593751,27968313,37.1024763,-76.3882094,10.283559,8.154017,-0.36741936,-0.00058669725,-0.0025933315,0.0,0.03938022,0.0043736696,-0.003185514,-0.0006285192,-0.051813073,-0.001055113,0.15508993,-0.5564063,0.49824357,-0.39539424,0.020658107,2.5831757,0.1,0.003185514,0.31300735,0.23840638,0.15540478,0.09779929,inf,inf,inf,inf,1,1,1,1,2,0,2,2,1,1,0
1726697323,27968313,37.1024763,-76.3882094,10.283621,8.155631,-0.36832893,-0.00058669725,-0.0025933315,0.0,0.04507315,0.0007898527,0.00010101043,0.0018090839,-0.051813073,-0.001055113,0.15508993,0.3448726,-0.29617083,-0.11993139,0.021067098,2.5831757,0.1,-0.00010101043,0.30211112,0.23656622,0.15116134,0.09710185,inf,inf,inf,inf,1,1,1,1,2,0,2,2,1,1,0
1726798387,27968313,37.1024763,-76.3882094,10.283517,8.157042,-0.3691456,-0.00058669725,-0.0025933315,0.0,0.03036942,0.01425115,-0.018619876,-0.01712678,-0.051813073,-0.001055113,0.15508993,0.48987305,0.8892826,-0.85865116,0.02493447,2.5831757,0.1,0.018619876,0.313135,0.2386608,0.15543066,0.09786702,inf,inf,inf,inf,1,1,1,1,2,0,2,2,1,1,0
1726898464,27968313,37.1024763,-76.3882094,10.282861,8.158131,-0.37432998,-0.00058669725,-0.0025933315,0.0,0.035190392,0.005081482,-0.050729178,-0.05067846,-0.051813073,-0.001055113,0.15508993,-1.7780696,3.0651798,0.67693543,0.035884265,2.5831757,0.1,0.050729178,0.3018288,0.23679824,0.15100369,0.09715186,inf,inf,inf,inf,1,1,1,1,2,0,2,2,1,1,0
1726998481,27968313,37.1024763,-76.3882094,10.284621,8.156354,-0.3827577,-0.00058669725,-0.0025933315,0.0,0.09114546,-0.100767456,-0.22164065,-0.22156247,-0.051813073,-0.001055113,0.15508993,-2.3916852,-2.973539,-8.529604,0.045785416,2.5831757,0.10457775,0.22164065,0.31293446,0.2372681,0.15543938,0.097521506,inf,inf,inf,inf,1,1,1,1,2,0,2,2,1,1,0
1727102513,27968313,37.1024763,-76.3882094,10.292005,8.147258,-0.42562065,-0.00058669725,-0.0025933315,0.0,0.06687114,-0.06339943,-0.62996984,-0.62982476,-0.051813073,-0.001055113,0.15508993,-0.308355,2.0713606,-4.0923896,0.051178154,2.5831757,0.1474407,0.62996984,0.30182952,0.23710994,0.15102552,0.097223684,inf,inf,inf,inf,1,1,1,1,2,0,2,2,1,1,0
1727203309,27968313,37.1024763,-76.3882094,10.297731,8.138162,-0.5303836,-0.00058669725,-0.0025933315,0.0,0.11999078,-0.12770051,-0.91516274,-0.9396253,-0.051813073,-0.001055113,0.15508993,1.1828771,-3.067987,0.36940834,0.05476628,2.5831757,0.25220364,0.91516274,0.31380385,0.23813024,0.15693046,0.09776185,inf,inf,inf,inf,1,1,1,1,2,0,2,2,1,1,0
1727303286,27968313,37.1024763,-76.3882094,10.30573,8.125917,-0.6542934,-0.00058669725,-0.0025933315,0.0,0.08190904,-0.14359826,-1.0488242,-1.0945613,-0.051813073,-0.001055113,0.15508993,-1.7684613,1.3431841,-1.4078673,0.058624994,2.5831757,0.37611347,1.0488242,0.30188993,0.23745702,0.15390141,0.097315736,inf,inf,inf,inf,1,1,1,1,2,0,2,2,1,1,0
1727407987,27968313,37.1024763,-76.3882094,10.313587,8.1091585,-0.770667,-0.00058669725,-0.0025933315,0.0,0.04469325,-0.15181814,-1.0471421,-1.0942488,-0.051813073,-0.001055113,0.15508993,0.9441879,-0.48773897,0.016910208,0.061284266,2.5831757,0.49248707,1.0471421,0.31499395,0.23740809,0.1599769,0.09762143,inf,inf,inf,inf,1,1,1,1,2,0,2,2,1,1,0
1727511826,27968313,37.1024763,-76.3882094,10.31191,8.092927,-0.89255095,-0.00058669725,-0.0025933315,0.0,-0.0010840216,-0.14261653,-1.0150278,-1.0706899,-0.051813073,-0.001055113,0.15508993,-2.9716873,0.8727765,1.8082026,0.06290151,2.5831757,0.614371,1.0150278,0.3037969,0.23728906,0.15558724,0.097344175,inf,inf,inf,inf,1,1,1,1,2,0,2,2,1,1,0
1727612134,27968313,37.1024763,-76.3882094,10.30493,8.077679,-1.0156769,-0.00058669725,-0.0025933315,0.0,-0.03945122,-0.16028954,-0.98812896,-1.0593214,-0.051813073,-0.001055113,0.15508993,0.5368105,0.3746501,-1.4943894,0.06428983,2.5831757,0.7374969,0.98812896,0.31471846,0.23751466,0.15967748,0.097696014,inf,inf,inf,inf,1,1,1,1,2,0,2,2,1,1,0
1727712632,27968313,37.1024763,-76.3882094,10.295142,8.063645,-1.1494528,-0.00058669725,-0.0025933315,0.0,-0.07558966,-0.12315623,-0.980366,-1.07638,-0.051813073,-0.001055113,0.15508993,0.46115926,-0.90493137,1.028706,0.06335847,2.5831757,0.87127286,0.980366,0.30351046,0.23740162,0.15494159,0.0974136,inf,inf,inf,inf,1,1,1,1,2,0,2,2,1,1,0
1727816881,27968313,37.1024763,-76.3882094,10.283409,8.050143,-1.2886723,-0.00058669725,-0.0025933315,0.0,-0.10625027,-0.12092672,-0.9724122,-1.0943791,-0.051813073,-0.001055113,0.15508993,-0.99591947,-0.1067428,0.93013203,0.062002152,2.5831757,1.0104923,0.9724122,0.3157512,0.23677424,0.15949234,0.09754874,inf,inf,inf,inf,1,1,1,1,2,0,2,2,1,1,0
1727916608,27968313,37.1024763,-76.3882094,10.271039,8.042568,-1.412237,-0.00058669725,-0.0025933315,0.0,-0.11923433,-0.110227786,-0.96886563,-1.1027572,-0.051813073,-0.001055113,0.15508993,-1.142975,-2.670261,-0.49549967,0.059837453,2.5831757,1.134057,0.96886563,0.3039932,0.23644128,0.15458399,0.09724782,inf,inf,inf,inf,1,1,1,1,2,0,2,2,1,1,0
1728017416,27968313,37.1024763,-76.3882094,10.258012,8.036292,-1.5266229,-0.00058669725,-0.0025933315,0.0,-0.1367233,-0.093142554,-0.9559724,-1.092512,-0.051813073,-0.001055113,0.15508993,-1.0295162,-1.5578933,-3.4537287,0.056918774,2.5831757,1.2484429,0.9559724,0.3152792,0.23691918,0.15882027,0.097628154,inf,inf,inf,inf,1,1,1,1,2,0,2,2,1,1,0
1728121644,27968313,37.1024763,-76.3882094,10.244028,8.030854,-1.6313353,-0.00058669725,-0.0025933315,0.0,-0.14752367,-0.05493131,-0.93361557,-1.0599808,-0.051813073,-0.001055113,0.15508993,-0.24201435,2.867132,-0.25236842,0.0535555,2.5831757,1.3531554,0.93361557,0.30388013,0.23689616,0.15426077,0.09736558,inf,inf,inf,inf,1,1,1,1,2,0,2,2,1,1,0
1728221410,27968313,37.1024763,-76.3882094,10.230157,8.0268955,-1.7207048,-0.00058669725,-0.0025933315,0.0,-0.13897964,-0.054858547,-0.9354495,-1.0426345,-0.051813073,-0.001055113,0.15508993,1.8088393,0.99739856,2.380189,0.051071655,2.5831757,1.4425249,0.9354495,0.31610793,0.23797952,0.15878485,0.09791179,inf,inf,inf,inf,1,1,1,1,2,0,2,2,1,1,0
1728322473,27968313,37.1024763,-76.3882094,10.216672,8.026154,-1.801066,-0.00058669725,-0.0025933315,0.0,-0.13025935,-0.04526182,-0.9361608,-1.0186853,-0.051813073,-0.001055113,0.15508993,1.2453644,-0.49676043,1.747272,0.048577566,2.5831757,1.522886,0.9361608,0.3035584,0.23727308,0.15375656,0.09746158,inf,inf,inf,inf,1,1,1,1,2,0,2,2,1,1,0
1728422468,27968313,37.1024763,-76.3882094,10.204415,8.026528,-1.8777932,-0.00058669725,-0.0025933315,0.0,-0.12593688,-0.03574569,-0.9136309,-0.9721477,-0.051813073,-0.001055113,0.15508993,0.4929761,-1.5616666,0.46640024,0.046292342,2.5831757,1.5996132,0.9136309,0.31586054,0.23672682,0.15839958,0.09760743,inf,inf,inf,inf,1,1,1,1,2,0,2,2,1,1,0
1728527030,27968313,37.1024763,-76.3882094,10.191003,8.028188,-1.9646941,-0.00058669725,-0.0025933315,0.0,-0.10756845,-0.027489848,-0.92092043,-0.96489966,-0.051813073,-0.001055113,0.15508993,0.24310042,-1.9685048,0.9032328,0.044117313,2.5831757,1.6865141,0.92092043,0.3041503,0.23663117,0.15376216,0.09732779,inf,inf,inf,inf,1,1,1,1,2,0,2,2,1,1,0
1728627034,27968313,37.1024763,-76.3882094,10.179846,8.029606,-2.0472298,-0.00058669725,-0.0025933315,0.0,-0.0841452,-0.02518811,-0.91824293,-0.9504108,-0.051813073,-0.001055113,0.15508993,-0.71342385,0.7200309,-1.19067,0.04281844,2.5831757,1.7690499,0.91824293,0.31541318,0.23710464,0.15802732,0.097701326,inf,inf,inf,inf,1,1,1,1,2,0,2,2,1,1,0
1728731027,27968313,37.1024763,-76.3882094,10.166063,8.035975,-2.1336713,-0.00058669725,-0.0025933315,0.0,-0.06787636,0.0017935038,-0.888544,-0.91062343,-0.051813073,-0.001055113,0.15508993,1.6043898,1.1631247,2.084812,0.04132616,2.5831757,1.8554914,0.888544,0.3035778,0.23707777,0.15337025,0.0974323,inf,inf,inf,inf,1,1,1,1,2,0,2,2,1,1,0
1728832036,27968313,37.1024763,-76.3882094,10.154987,8.042263,-2.2227328,-0.00058669725,-0.0025933315,0.0,-0.046394937,0.016127206,-0.90317667,-0.9215941,-0.051813073,-0.001055113,0.15508993,0.040536728,1.2280447,1.9997244,0.040630322,2.5831757,1.9445529,0.90317667,0.3157643,0.2364841,0.15802278,0.09757027,inf,inf,inf,inf,1,1,1,1,2,0,2,2,1,1,0
1728935808,27968313,37.1024763,-76.3882094,10.149024,8.049219,-2.317178,-0.00058669725,-0.0025933315,0.0,-0.020727089,-0.00028031995,-0.9060455,-0.92353815,-0.051813073,-0.001055113,0.15508993,1.5952572,-1.3520994,1.9937785,0.040445615,2.5831757,2.0389981,0.9060455,0.30396107,0.236414,0.15345626,0.0973024,inf,inf,inf,inf,1,1,1,1,2,0,2,2,1,1,0
1729035788,27968313,37.1024763,-76.3882094,10.145863,8.054779,-2.4050736,-0.00058669725,-0.0025933315,0.0,-0.009358351,0.010051576,-0.91136384,-0.9255304,-0.051813073,-0.001055113,0.15508993,-0.86346257,0.4116059,-0.91043824,0.040575307,2.5831757,2.1268938,0.91136384,0.31531712,0.23696229,0.1577696,0.09768633,inf,inf,inf,inf,1,1,1,1,2,0,2,2,1,1,0
1729140833,27968313,37.1024763,-76.3882094,10.138966,8.062714,-2.4937356,-0.00058669725,-0.0025933315,0.0,0.0036961667,0.010793467,-0.89060783,-0.89840007,-0.051813073,-0.001055113,0.15508993,1.523618,1.0431684,-0.48015743,0.040918544,2.5831757,2.2155557,0.89060783,0.30340576,0.2368895,0.15313646,0.0974139,inf,inf,inf,inf,1,1,1,1,2,0,2,2,1,1,0
1729240837,27968313,37.1024763,-76.3882094,10.133944,8.069468,-2.575714,-0.00058669725,-0.0025933315,0.0,0.009727955,0.019504175,-0.8933975,-0.8933387,-0.051813073,-0.001055113,0.15508993,1.58448,1.6986665,1.204957,0.041268226,2.5831757,2.2975342,0.8933975,0.31569293,0.23801853,0.15780047,0.09795484,inf,inf,inf,inf,1,1,1,1,2,0,2,2,1,1,0
1729341386,27968313,37.1024763,-76.3882094,10.136431,8.074911,-2.6564302,-0.00058669725,-0.0025933315,0.0,0.022306183,0.009742265,-0.8943642,-0.88557935,-0.051813073,-0.001055113,0.15508993,0.75114965,-2.343618,0.92104065,0.040530197,2.5831757,2.3782504,0.8943642,0.3030453,0.2373219,0.15297708,0.097509414,inf,inf,inf,inf,1,1,1,1,2,0,2,2,1,1,0
1729441647,27968313,37.1024763,-76.3882094,10.139346,8.079532,-2.7310672,-0.00058669725,-0.0025933315,0.0,0.017787402,0.012858309,-0.9067574,-0.8850261,-0.051813073,-0.001055113,0.15508993,-2.8427165,-0.3948887,-2.142784,0.039529655,2.5831757,2.4528873,0.9067574,0.31522483,0.23671961,0.1575781,0.09763961,inf,inf,inf,inf,1,1,1,1,2,0,2,2,1,1,0
1729545599,27968313,37.1024763,-76.3882094,10.13443,8.085671,-2.8068113,-0.00058669725,-0.0025933315,0.0,0.021357253,0.03510701,-0.87804985,-0.84317607,-0.051813073,-0.001055113,0.15508993,0.1471189,-0.025181783,0.23125425,0.037607834,2.5831757,2.5286314,0.87804985,0.3034875,0.23669362,0.15308511,0.09736984,inf,inf,inf,inf,1,1,1,1,2,0,2,2,1,1,0
1729646479,27968313,37.1024763,-76.3882094,10.131368,8.090933,-2.8865762,-0.00058669725,-0.0025933315,0.0,0.023212073,0.039138988,-0.87966734,-0.8401502,-0.051813073,-0.001055113,0.15508993,0.4367617,0.5216087,-0.19879319,0.03572243,2.5831757,2.6083963,0.87966734,0.31473655,0.23717225,0.15736504,0.09773853,inf,inf,inf,inf,1,1,1,1,2,0,2,2,1,1,0
1729746368,27968313,37.1024763,-76.3882094,10.131153,8.095733,-2.9677176,-0.00058669725,-0.0025933315,0.0,0.023467468,0.034803927,-0.87607354,-0.83515304,-0.051813073,-0.001055113,0.15508993,-0.6324555,1.0278878,0.26484716,0.03369738,2.5831757,2.6895378,0.87607354,0.30298942,0.23709014,0.15278812,0.097461924,inf,inf,inf,inf,1,1,1,1,2,0,2,2,1,1,0
1729850574,27968313,37.1024763,-76.3882094,10.132313,8.100867,-3.0549893,-0.00058669725,-0.0025933315,0.0,0.023771385,0.047279812,-0.87795335,-0.838499,-0.051813073,-0.001055113,0.15508993,-2.733258,-0.7659701,-1.6316288,0.031190263,2.5831757,2.7768095,0.87795335,0.31527174,0.23656544,0.15748386,0.09760408,inf,inf,inf,inf,1,1,1,1,2,0,2,2,1,1,0
1729955220,27968313,37.1024763,-76.3882094,10.1288595,8.106166,-3.1458395,-0.00058669725,-0.0025933315,0.0,0.031622354,0.061314758,-0.8624416,-0.82740414,-0.051813073,-0.001055113,0.15508993,1.3151588,1.4954908,1.7940419,0.029481586,2.5831757,2.8676596,0.8624416,0.30319402,0.23649321,0.15287802,0.0973317,inf,inf,inf,inf,1,1,1,1,2,0,2,2,1,1,0
1730055201,27968313,37.1024763,-76.3882094,10.127005,8.111193,-3.2312942,-0.00058669725,-0.0025933315,0.0,0.04106311,0.061529286,-0.8646122,-0.8324813,-0.051813073,-0.001055113,0.15508993,1.7652333,-1.4366498,4.2406654,0.028038291,2.5831757,2.9531143,0.8646122,0.29185012,0.23641732,0.14841104,0.097047456,inf,inf,inf,inf,1,1,1,1,2,0,2,2,1,1,0
1730159256,27968313,37.1024763,-76.3882094,10.124152,8.114862,-3.3243484,-0.00058669725,-0.0025933315,0.0,0.042264026,0.056588884,-0.8539571,-0.8289296,-0.051813073,-0.001055113,0.15508993,-0.08641413,-1.2922133,-0.8061787,0.027207749,2.5831757,3.0461686,0.8539571,0.30311862,0.237271,0.1528625,0.0975693,inf,inf,inf,inf,1,1,1,1,2,0,2,2,1,1,0
1730263992,27968313,37.1024763,-76.3882094,10.12366,8.118577,-3.4215243,-0.00058669725,-0.0025933315,0.0,0.051917847,0.056826364,-0.86778426,-0.85233295,-0.051813073,-0.001055113,0.15508993,-1.6150674,1.1517767,-0.9326595,0.026719509,2.5831757,3.1433444,0.86778426,0.2917913,0.23716451,0.14842324,0.097267754,inf,inf,inf,inf,1,1,1,1,2,0,2,2,1,1,0
1730367808,27968313,37.1024763,-76.3882094,10.122489,8.12125,-3.5119333,-0.00058669725,-0.0025933315,0.0,0.07336287,0.054718234,-0.8794928,-0.8659733,-0.051813073,-0.001055113,0.15508993,0.21335636,-0.7216491,4.8116617,0.026418379,2.5831757,3.2337534,0.8794928,0.30343306,0.2365578,0.15296426,0.09740196,inf,inf,inf,inf,1,1,1,1,2,0,2,2,1,1,0
1730467818,27968313,37.1024763,-76.3882094,10.124041,8.123889,-3.5915267,-0.00058669725,-0.0025933315,0.0,0.07719619,0.05271742,-0.8705125,-0.8513435,-0.051813073,-0.001055113,0.15508993,-0.81998503,-0.37840602,3.0619414,0.026725737,2.5831757,3.3133469,0.8705125,0.2913704,0.23755874,0.14826117,0.097335294,inf,inf,inf,inf,1,1,1,1,2,0,2,2,1,1,0
1730568928,27968313,37.1024763,-76.3882094,10.1248455,8.125814,-3.6706,-0.00058669725,-0.0025933315,0.0,0.08668813,0.051013086,-0.8783285,-0.8531678,-0.051813073,-0.001055113,0.15508993,-0.13560653,-1.5055522,-0.85885066,0.027486438,2.5831757,3.39242,0.8783285,0.30300406,0.23692288,0.15287673,0.09745953,inf,inf,inf,inf,1,1,1,1,2,0,2,2,1,1,0
1730673097,27968313,37.1024763,-76.3882094,10.128731,8.127777,-3.7562249,-0.00058669725,-0.0025933315,0.0,0.08903793,0.037776995,-0.8623612,-0.83556795,-0.051813073,-0.001055113,0.15508993,-1.0104539,2.411671,-1.1670904,0.029146139,2.5831757,3.478045,0.8623612,0.29183728,0.23685177,0.14853182,0.09715901,inf,inf,inf,inf,1,1,1,1,2,0,2,2,1,1,0
1730773794,27968313,37.1024763,-76.3882094,10.134247,8.12952,-3.840371,-0.00058669725,-0.0025933315,0.0,0.104342856,0.03770867,-0.87797296,-0.8509268,-0.051813073,-0.001055113,0.15508993,2.8534565,-0.84555143,4.7781434,0.030210815,2.5831757,3.562191,0.87797296,0.3025876,0.23729962,0.15281549,0.09752333,inf,inf,inf,inf,1,1,1,1,2,0,2,2,1,1,0
1730873668,27968313,37.1024763,-76.3882094,10.140777,8.131072,-3.9249198,-0.00058669725,-0.0025933315,0.0,0.1026572,0.024473144,-0.88669634,-0.8603898,-0.051813073,-0.001055113,0.15508993,-0.6809582,-0.16384876,-0.18628569,0.031359192,2.5831757,3.64674,0.88669634,0.29141682,0.23714203,0.14841248,0.097204894,inf,inf,inf,inf,1,1,1,1,2,0,2,2,1,1,0
1730977633,27968313,37.1024763,-76.3882094,10.147851,8.132301,-4.0090857,-0.00058669725,-0.0025933315,0.0,0.10274085,0.032133535,-0.8712415,-0.8419876,-0.051813073,-0.001055113,0.15508993,0.17063712,2.2878635,3.2081704,0.0318084,2.5831757,3.7309058,0.8712415,0.30317217,0.23822898,0.15309356,0.09773471,inf,inf,inf,inf,1,1,1,1,2,0,2,2,1,1,0
1731077663,27968313,37.1024763,-76.3882094,10.1563,8.1338825,-4.090256,-0.00058669725,-0.0025933315,0.0,0.100761354,0.027042843,-0.86793315,-0.83627063,-0.051813073,-0.001055113,0.15508993,-0.1738556,0.025781574,-0.6876253,0.03209711,2.5831757,3.8120763,0.86793315,0.29119843,0.2374861,0.14842291,0.09726079,inf,inf,inf,inf,1,1,1,1,2,0,2,2,1,1,0
1731178550,27968313,37.1024763,-76.3882094,10.166156,8.13645,-4.174174,-0.00058669725,-0.0025933315,0.0,0.10922464,0.027041908,-0.8746901,-0.8430255,-0.051813073,-0.001055113,0.15508993,2.3614023,-1.1584604,2.298901,0.03172447,2.5831757,3.895994,0.8746901,0.30286703,0.23849504,0.15303832,0.09777482,inf,inf,inf,inf,1,1,1,1,2,0,2,2,1,1,0
1731282549,27968313,37.1024763,-76.3882094,10.17692,8.139241,-4.263577,-0.00058669725,-0.0025933315,0.0,0.09404448,0.018022638,-0.8765257,-0.84734184,-0.051813073,-0.001055113,0.15508993,-0.7708682,-0.39324102,-1.6385002,0.031215467,2.5831757,3.985397,0.8765257,0.2919143,0.23671025,0.14880653,0.09706641,inf,inf,inf,inf,1,1,1,1,2,0,2,2,1,1,0
1731383324,27968313,37.1024763,-76.3882094,10.187469,8.142286,-4.3487296,-0.00058669725,-0.0025933315,0.0,0.09821175,0.031213833,-0.8765294,-0.8477122,-0.051813073,-0.001055113,0.15508993,0.34396946,3.3241794,1.9489404,0.030400906,2.5831757,4.0705495,0.8765294,0.30271977,0.23880938,0.15306503,0.09782123,inf,inf,inf,inf,1,1,1,1,2,0,2,2,1,1,0
1731483334,27968313,37.1024763,-76.3882094,10.19852,8.146244,-4.4346757,-0.00058669725,-0.0025933315,0.0,0.08679802,0.026111534,-0.86221564,-0.8353177,-0.051813073,-0.001055113,0.15508993,1.2451316,-0.89630604,0.80168456,0.030045487,2.5831757,4.1564956,0.86221564,0.2914739,0.23693849,0.14870067,0.09709492,inf,inf,inf,inf,1,1,1,1,2,0,2,2,1,1,0
1731587200,27968313,37.1024763,-76.3882094,10.21048,8.151198,-4.5246677,-0.00058669725,-0.0025933315,0.0,0.07890808,0.01911204,-0.887891,-0.8632443,-0.051813073,-0.001055113,0.15508993,-2.240204,-0.7401304,-2.240868,0.030380083,2.5831757,4.2464876,0.887891,0.30328107,0.23797762,0.15339345,0.09760853,inf,inf,inf,inf,1,1,1,1,2,0,2,2,1,1,0
1731688138,27968313,37.1024763,-76.3882094,10.220146,8.1553335,-4.6132946,-0.00058669725,-0.0025933315,0.0,0.070094794,0.008232149,-0.8783216,-0.8570605,-0.051813073,-0.001055113,0.15508993,0.36670446,-0.32758763,-2.5379755,0.031310152,2.5831757,4.3351145,0.8783216,0.29194275,0.23777415,0.14897442,0.09727947,inf,inf,inf,inf,1,1,1,1,2,0,2,2,1,1,0
1731787807,27968313,37.1024763,-76.3882094,10.227581,8.158338,-4.7043166,-0.00058669725,-0.0025933315,0.0,0.060887598,0.020587081,-0.88052326,-0.8647716,-0.051813073,-0.001055113,0.15508993,1.3788894,2.9395282,1.0074118,0.03161764,2.5831757,4.4261365,0.88052326,0.30240336,0.23792683,0.1530821,0.09759802,inf,inf,inf,inf,1,1,1,1,2,0,2,2,1,1,0
1731888056,27968313,37.1024763,-76.3882094,10.235075,8.159717,-4.7949705,-0.00058669725,-0.0025933315,0.0,0.05016586,-0.0007525922,-0.87523234,-0.8635904,-0.051813073,-0.001055113,0.15508993,1.5825613,-2.952369,0.6334451,0.032152757,2.5831757,4.5167904,0.87523234,0.291219,0.2377268,0.14870463,0.097270995,inf,inf,inf,inf,1,1,1,1,2,0,2,2,1,1,0
1731992632,27968313,37.1024763,-76.3882094,10.24285,8.159229,-4.8892736,-0.00058669725,-0.0025933315,0.0,0.03184069,-0.0071601924,-0.88244826,-0.8736111,-0.051813073,-0.001055113,0.15508993,-0.7552069,0.05567997,1.4332037,0.03269412,2.5831757,4.6110935,0.88244826,0.30295423,0.23872018,0.1533578,0.09778226,inf,inf,inf,inf,1,1,1,1,2,0,2,2,1,1,0
1732096605,27968313,37.1024763,-76.3882094,10.249293,8.15869,-4.983216,-0.00058669725,-0.0025933315,0.0,0.025481941,-0.014023031,-0.89723516,-0.8909368,-0.051813073,-0.001055113,0.15508993,0.78015465,1.1440496,1.1334903,0.03313787,2.5831757,4.7050357,0.89723516,0.29187992,0.23691034,0.14909273,0.097071156,inf,inf,inf,inf,1,1,1,1,2,0,2,2,1,1,0
1732197745,27968313,37.1024763,-76.3882094,10.253894,8.157994,-5.073572,-0.00058669725,-0.0025933315,0.0,0.004950347,-0.03317921,-0.8926298,-0.8875353,-0.051813073,-0.001055113,0.15508993,-0.59140754,-3.2239347,-2.7913997,0.033151027,2.5831757,4.795392,0.8926298,0.3027361,0.23731582,0.15334134,0.09742197,inf,inf,inf,inf,1,1,1,1,2,0,2,2,1,1,0
1732297676,27968313,37.1024763,-76.3882094,10.259054,8.155936,-5.157091,-0.00058669725,-0.0025933315,0.0,-0.014241028,-0.017612612,-0.87539,-0.86523384,-0.051813073,-0.001055113,0.15508993,-2.4405642,2.771924,-0.92987525,0.032746244,2.5831757,4.878911,0.87539,0.29161635,0.23715316,0.14905234,0.097116716,inf,inf,inf,inf,1,1,1,1,2,0,2,2,1,1,0
1732401642,27968313,37.1024763,-76.3882094,10.264431,8.152696,-5.2396965,-0.00058669725,-0.0025933315,0.0,-0.010479473,-0.047326867,-0.90894175,-0.88975364,-0.051813073,-0.001055113,0.15508993,0.039676744,-1.3558896,-0.2840757,0.03240151,2.5831757,4.9615164,0.90894175,0.3034893,0.23822851,0.15367861,0.09764546,inf,inf,inf,inf,1,1,1,1,2,0,2,2,1,1,0
1732502516,27968313,37.1024763,-76.3882094,10.269341,8.149695,-5.318736,-0.00058669725,-0.0025933315,0.0,-0.02345006,-0.03938528,-0.89355916,-0.86535645,-0.051813073,-0.001055113,0.15508993,-1.2201024,0.1821461,-3.4376998,0.031547572,2.5831757,5.040556,0.89355916,0.2914787,0.23745799,0.14902972,0.097171575,inf,inf,inf,inf,1,1,1,1,2,0,2,2,1,1,0
1732602454,27968313,37.1024763,-76.3882094,10.275052,8.147044,-5.3930573,-0.00058669725,-0.0025933315,0.0,-0.02267294,-0.04580552,-0.9021045,-0.8619809,-0.051813073,-0.001055113,0.15508993,-2.1282105,-1.4781357,-3.448263,0.031040382,2.5831757,5.114877,0.9021045,0.3032616,0.23845775,0.15369336,0.09768769,inf,inf,inf,inf,1,1,1,1,2,0,2,2,1,1,0
1732706375,27968313,37.1024763,-76.3882094,10.282651,8.143376,-5.4722185,-0.00058669725,-0.0025933315,0.0,-0.018150669,-0.03394741,-0.89735055,-0.84817266,-0.051813073,-0.001055113,0.15508993,1.4764844,-0.9767285,0.7521005,0.030542303,2.5831757,5.1940384,0.89735055,0.2922567,0.23667395,0.14942859,0.096989974,inf,inf,inf,inf,1,1,1,1,2,0,2,2,1,1,0
1732807023,27968313,37.1024763,-76.3882094,10.290327,8.139175,-5.551237,-0.00058669725,-0.0025933315,0.0,-0.01650531,-0.04178675,-0.9015123,-0.84624916,-0.051813073,-0.001055113,0.15508993,-0.33594364,1.0731903,-0.7363053,0.030429872,2.5831757,5.273057,0.9015123,0.30315867,0.2370855,0.15372574,0.097344965,inf,inf,inf,inf,1,1,1,1,2,0,2,2,1,1,0
1732907201,27968313,37.1024763,-76.3882094,10.298978,8.134963,-5.6334505,-0.00058669725,-0.0025933315,0.0,-0.016200688,-0.046728052,-0.9109498,-0.85408986,-0.051813073,-0.001055113,0.15508993,-0.6427156,-1.9999365,-1.7807256,0.029936459,2.5831757,5.3552704,0.9109498,0.29215875,0.23694572,0.1494669,0.09705423,inf,inf,inf,inf,1,1,1,1,2,0,2,2,1,1,0
1733011364,27968313,37.1024763,-76.3882094,10.306347,8.130601,-5.7232904,-0.00058669725,-0.0025933315,0.0,-0.022741692,-0.02607283,-0.90363586,-0.84846205,-0.051813073,-0.001055113,0.15508993,-0.0041729226,1.7914305,0.21521418,0.029001398,2.5831757,5.4451103,0.90363586,0.30410105,0.23803098,0.15420738,0.09758827,inf,inf,inf,inf,1,1,1,1,2,0,2,2,1,1,0
1733112017,27968313,37.1024763,-76.3882094,10.312632,8.124669,-5.814332,-0.00058669725,-0.0025933315,0.0,-0.02127227,-0.0412194,-0.9388516,-0.8869539,-0.051813073,-0.001055113,0.15508993,0.09565242,-0.46350232,1.6104027,0.028839702,2.5831757,5.536152,0.9388516,0.29216298,0.23729956,0.14959878,0.0971359,inf,inf,inf,inf,1,1,1,1,2,0,2,2,1,1,0
1733211851,27968313,37.1024763,-76.3882094,10.317475,8.118114,-5.902783,-0.00058669725,-0.0025933315,0.0,-0.03594558,-0.052738782,-0.9403235,-0.8889201,-0.051813073,-0.001055113,0.15508993,-1.6319919,-1.1592613,-2.2282233,0.02872839,2.5831757,5.624603,0.9403235,0.3040259,0.23666696,0.15424338,0.09726688,inf,inf,inf,inf,1,1,1,1,2,0,2,2,1,1,0
1733312566,27968313,37.1024763,-76.3882094,10.320645,8.111413,-5.9972057,-0.00058669725,-0.0025933315,0.0,-0.04123113,-0.05716794,-0.9723863,-0.92528796,-0.051813073,-0.001055113,0.15508993,-1.3058933,2.0362732,-0.8525383,0.028676478,2.5831757,5.7190256,0.9723863,0.29212913,0.23602137,0.1497074,0.09683216,inf,inf,inf,inf,1,1,1,1,2,0,2,2,1,1,0
1733416851,27968313,37.1024763,-76.3882094,10.322252,8.1048355,-6.092983,-0.00058669725,-0.0025933315,0.0,-0.04434722,-0.03289517,-0.95256615,-0.9068284,-0.051813073,-0.001055113,0.15508993,1.6005216,0.76390123,0.5102892,0.027477367,2.5831757,5.8148026,0.95256615,0.30400833,0.23704016,0.15438053,0.097354986,inf,inf,inf,inf,1,1,1,1,2,0,2,2,1,1,0
1733516834,27968313,37.1024763,-76.3882094,10.319863,8.0997715,-6.1868153,-0.00058669725,-0.0025933315,0.0,-0.05593959,-0.045270465,-0.98478144,-0.9409483,-0.051813073,-0.001055113,0.15508993,0.23781867,0.5040774,1.7581748,0.026588518,2.5831757,5.908635,0.98478144,0.2928859,0.2369488,0.15008873,0.09706959,inf,inf,inf,inf,1,1,1,1,2,0,2,2,1,1,0
1733617686,27968313,37.1024763,-76.3882094,10.315198,8.095558,-6.2765203,-0.00058669725,-0.0025933315,0.0,-0.05792607,-0.04287858,-0.9909113,-0.9428372,-0.051813073,-0.001055113,0.15508993,0.36459148,-2.3384132,-0.6093475,0.02484069,2.5831757,5.99834,0.9909113,0.30388647,0.23735574,0.154431,0.09741867,inf,inf,inf,inf,1,1,1,1,2,0,2,2,1,1,0
1733721626,27968313,37.1024763,-76.3882094,10.313884,8.091828,-6.3675528,-0.00058669725,-0.0025933315,0.0,-0.062572256,-0.03656064,-0.9912642,-0.9372487,-0.051813073,-0.001055113,0.15508993,-2.0745838,1.4161574,-0.4139018,0.023014497,2.5831757,6.0893726,0.9912642,0.29271477,0.23719816,0.15008987,0.09712224,inf,inf,inf,inf,1,1,1,1,2,0,2,2,1,1,0
1733821709,27968313,37.1024763,-76.3882094,10.313497,8.088298,-6.4532065,-0.00058669725,-0.0025933315,0.0,-0.05172008,-0.053190943,-1.0028521,-0.9414898,-0.051813073,-0.001055113,0.15508993,-1.5186558,0.31318966,-2.6665254,0.021463376,2.5831757,6.1750264,1.0028521,0.30473524,0.23826881,0.15483399,0.097649425,inf,inf,inf,inf,1,1,1,1,2,0,2,2,1,1,0
1733922410,27968313,37.1024763,-76.3882094,10.315132,8.081704,-6.543341,-0.00058669725,-0.0025933315,0.0,-0.044936225,-0.032150824,-1.0050884,-0.93955815,-0.051813073,-0.001055113,0.15508993,-1.7996336,3.1030324,-0.017391272,0.019509112,2.5831757,6.265161,1.0050884,0.29258573,0.23752736,0.15014665,0.0971937,inf,inf,inf,inf,1,1,1,1,2,0,2,2,1,1,0
1734022558,27968313,37.1024763,-76.3882094,10.317531,8.07484,-6.6400666,-0.00058669725,-0.0025933315,0.0,-0.025360553,-0.036059014,-1.0161381,-0.95341486,-0.051813073,-0.001055113,0.15508993,0.060720377,-0.53225046,-0.11236623,0.01777791,2.5831757,6.3618865,1.0161381,0.30452314,0.2368784,0.15482119,0.09731738,inf,inf,inf,inf,1,1,1,1,2,0,2,2,1,1,0
1734126209,27968313,37.1024763,-76.3882094,10.320321,8.068772,-6.7373166,-0.00058669725,-0.0025933315,0.0,-0.015334817,-0.02475898,-1.0185208,-0.95390964,-0.051813073,-0.001055113,0.15508993,0.29196292,2.5029614,-1.1289988,0.01634497,2.5831757,6.4591365,1.0185208,0.293389,0.23677835,0.15050383,0.09702975,inf,inf,inf,inf,1,1,1,1,2,0,2,2,1,1,0
1734226989,27968313,37.1024763,-76.3882094,10.3230095,8.064178,-6.8269725,-0.00058669725,-0.0025933315,0.0,0.00042266905,-0.026792994,-1.0196272,-0.94892144,-0.051813073,-0.001055113,0.15508993,1.8621466,-0.49303836,-0.41120595,0.0154757425,2.5831757,6.5487924,1.0196272,0.30538207,0.23778372,0.15523206,0.09754506,inf,inf,inf,inf,1,1,1,1,2,0,2,2,1,1,0
1734330997,27968313,37.1024763,-76.3882094,10.325899,8.065144,-6.921361,-0.00058669725,-0.0025933315,0.0,0.0036212706,0.00034699216,-1.0226029,-0.9477317,-0.051813073,-0.001055113,0.15508993,1.5975654,0.6392804,1.9069923,0.015253942,2.5831757,6.643181,1.0226029,0.2941487,0.23763968,0.15091707,0.097254865,inf,inf,inf,inf,1,1,1,1,2,0,2,2,1,1,0
1734435017,27968313,37.1024763,-76.3882094,10.327945,8.06817,-7.019687,-0.00058669725,-0.0025933315,0.0,1.0102798e-05,0.019752417,-1.0256156,-0.9512179,-0.051813073,-0.001055113,0.15508993,-2.240632,-1.9122862,-1.6423625,0.015047347,2.5831757,6.741507,1.0256156,0.30580777,0.23675895,0.15543716,0.09735293,inf,inf,inf,inf,1,1,1,1,2,0,2,2,1,1,0
1734539831,27968313,37.1024763,-76.3882094,10.326677,8.072034,-7.117757,-0.00058669725,-0.0025933315,0.0,-0.00906021,0.037118167,-1.0204428,-0.94562304,-0.051813073,-0.001055113,0.15508993,0.44444746,0.8761827,1.46121,0.0154966265,2.5831757,6.8395767,1.0204428,0.2946206,0.23665331,0.15106438,0.09707862,inf,inf,inf,inf,1,1,1,1,2,0,2,2,1,1,0
1734639789,27968313,37.1024763,-76.3882094,10.324647,8.077027,-7.219579,-0.00058669725,-0.0025933315,0.0,-0.021184593,0.045690358,-1.0265791,-0.95923364,-0.051813073,-0.001055113,0.15508993,-1.9152874,2.8299458,-0.19253097,0.016348565,2.5831757,6.941399,1.0265791,0.3057429,0.23711035,0.15538058,0.09744606,inf,inf,inf,inf,1,1,1,1,2,0,2,2,1,1,0
1734744022,27968313,37.1024763,-76.3882094,10.327102,8.079648,-7.3288813,-0.00058669725,-0.0025933315,0.0,-0.009984537,0.06359256,-1.0333056,-0.9758505,-0.051813073,-0.001055113,0.15508993,2.3744855,-0.074290134,1.5758715,0.017114418,2.5831757,7.050701,1.0333056,0.2945258,0.23706692,0.15096332,0.09717894,inf,inf,inf,inf,1,1,1,1,2,0,2,2,1,1,0
1734844629,27968313,37.1024763,-76.3882094,10.329251,8.083369,-7.436887,-0.00058669725,-0.0025933315,0.0,-0.012330279,0.07762972,-1.0309485,-0.98346084,-0.051813073,-0.001055113,0.15508993,0.9153512,1.4148599,1.1340903,0.01820305,2.5831757,7.1587067,1.0309485,0.30659068,0.23646046,0.15561219,0.09731381,inf,inf,inf,inf,1,1,1,1,2,0,2,2,1,1,0
1734944828,27968313,37.1024763,-76.3882094,10.332036,8.08638,-7.5427594,-0.00058669725,-0.0025933315,0.0,-0.00017980956,0.07668792,-1.048235,-1.0067416,-0.051813073,-0.001055113,0.15508993,2.2513816,-1.6414093,0.9729808,0.019795755,2.5831757,7.2645793,1.048235,0.29437143,0.23578995,0.15090849,0.09688347,inf,inf,inf,inf,1,1,1,1,2,0,2,2,1,1,0
1735045686,27968313,37.1024763,-76.3882094,10.334489,8.091003,-7.6513205,-0.00058669725,-0.0025933315,0.0,-0.006085796,0.09151346,-1.0489663,-1.0145141,-0.051813073,-0.001055113,0.15508993,-0.9691039,0.9687201,1.073746,0.021395063,2.5831757,7.3731403,1.0489663,0.30652022,0.23690546,0.15561529,0.09742519,inf,inf,inf,inf,1,1,1,1,2,0,2,2,1,1,0
1735149589,27968313,37.1024763,-76.3882094,10.344894,8.093998,-7.761237,-0.00058669725,-0.0025933315,0.0,-0.003805901,0.08362571,-1.0560873,-1.0257102,-0.051813073,-0.001055113,0.15508993,-0.17848688,0.6176132,-2.1243913,0.022940392,2.5831757,7.483057,1.0560873,0.2953948,0.23682873,0.15132785,0.09716137,inf,inf,inf,inf,1,1,1,1,2,0,2,2,1,1,0
1735249683,27968313,37.1024763,-76.3882094,10.35213,8.098456,-7.868012,-0.00058669725,-0.0025933315,0.0,-0.011768624,0.10307306,-1.0309515,-1.005294,-0.051813073,-0.001055113,0.15508993,-0.08578477,0.77619094,-1.5675364,0.023756642,2.5831757,7.589832,1.0309515,0.30712855,0.23764406,0.15583026,0.097664006,inf,inf,inf,inf,1,1,1,1,2,0,2,2,1,1,0
1735349421,27968313,37.1024763,-76.3882094,10.361925,8.100661,-7.9769864,-0.00058669725,-0.0025933315,0.0,-0.0136824,0.095729575,-1.0446987,-1.0250853,-0.051813073,-0.001055113,0.15508993,0.40080762,0.105432205,2.4177837,0.024413068,2.5831757,7.6988063,1.0446987,0.2949974,0.23696607,0.1511257,0.09722921,inf,inf,inf,inf,1,1,1,1,2,0,2,2,1,1,0
1735454505,27968313,37.1024763,-76.3882094,10.368873,8.103643,-8.088667,-0.00058669725,-0.0025933315,0.0,-0.025595494,0.07708843,-1.0822935,-1.0659188,-0.051813073,-0.001055113,0.15508993,-1.7505782,0.2618203,-2.496266,0.025151221,2.5831757,7.810487,1.0822935,0.30804774,0.23695883,0.15610637,0.09752448,inf,inf,inf,inf,1,1,1,1,2,0,2,2,1,1,0
1735558480,27968313,37.1024763,-76.3882094,10.37625,8.102171,-8.196234,-0.00058669725,-0.0025933315,0.0,-0.030925157,0.067316994,-1.0695359,-1.0519096,-0.051813073,-0.001055113,0.15508993,3.4364443,1.6472186,2.55183,0.025810478,2.5831757,7.9180536,1.0695359,0.29635686,0.23661102,0.15153784,0.097215086,inf,inf,inf,inf,1,1,1,1,2,0,2,2,1,1,0
1735659212,27968313,37.1024763,-76.3882094,10.378604,8.10262,-8.3006,-0.00058669725,-0.0025933315,0.0,-0.054873995,0.05360655,-1.0884966,-1.0687003,-0.051813073,-0.001055113,0.15508993,-1.041241,-0.9934076,0.6983473,0.02659953,2.5831757,8.02242,1.0884966,0.2847528,0.2358974,0.1469318,0.096751876,inf,inf,inf,inf,1,1,1,1,2,0,2,2,1,1,0
1735759024,27968313,37.1024763,-76.3882094,10.376992,8.102973,-8.403516,-0.00058669725,-0.0025933315,0.0,-0.06630193,0.05499845,-1.1006618,-1.0773346,-0.051813073,-0.001055113,0.15508993,1.5920116,-2.6812804,-0.18076634,0.026768029,2.5831757,8.125336,1.1006618,0.2963204,0.23694159,0.15151492,0.097286716,inf,inf,inf,inf,1,1,1,1,2,0,2,2,1,1,0
1735863275,27968313,37.1024763,-76.3882094,10.372128,8.104832,-8.50635,-0.00058669725,-0.0025933315,0.0,-0.09433025,0.061332196,-1.0968355,-1.0652928,-0.051813073,-0.001055113,0.15508993,0.43821505,0.46956822,-0.49347106,0.028097019,2.5831757,8.228169,1.0968355,0.2856645,0.23687986,0.1473201,0.09699726,inf,inf,inf,inf,1,1,1,1,2,0,2,2,1,1,0
1735963820,27968313,37.1024763,-76.3882094,10.366713,8.106503,-8.61082,-0.00058669725,-0.0025933315,0.0,-0.1023995,0.064767,-1.1113572,-1.076342,-0.051813073,-0.001055113,0.15508993,1.6867765,1.5087862,0.98265433,0.029566728,2.5831757,8.33264,1.1113572,0.29637378,0.23734733,0.15161262,0.09737358,inf,inf,inf,inf,1,1,1,1,2,0,2,2,1,1,0
1736064107,27968313,37.1024763,-76.3882094,10.359247,8.109333,-8.713367,-0.00058669725,-0.0025933315,0.0,-0.12100403,0.071927756,-1.1130549,-1.0736377,-0.051813073,-0.001055113,0.15508993,0.4534469,-2.5117283,0.10738747,0.030687952,2.5831757,8.435187,1.1130549,0.28563762,0.23723006,0.1473234,0.09707659,inf,inf,inf,inf,1,1,1,1,2,0,2,2,1,1,0
1736168188,27968313,37.1024763,-76.3882094,10.352668,8.112729,-8.825774,-0.00058669725,-0.0025933315,0.0,-0.14220285,0.05516975,-1.1138784,-1.0753368,-0.051813073,-0.001055113,0.15508993,0.35177636,-0.7547411,-3.349432,0.032594737,2.5831757,8.547594,1.1138784,0.29735377,0.23665544,0.15204756,0.09721526,inf,inf,inf,inf,1,1,1,1,2,0,2,2,1,1,0
1736272601,27968313,37.1024763,-76.3882094,10.341309,8.116865,-8.946017,-0.00058669725,-0.0025933315,0.0,-0.15731172,0.05559494,-1.1399043,-1.1079283,-0.051813073,-0.001055113,0.15508993,-2.0149355,-2.7338238,-3.931649,0.03325196,2.5831757,8.667837,1.1399043,0.28657007,0.23653229,0.14775917,0.09691751,inf,inf,inf,inf,1,1,1,1,2,0,2,2,1,1,0
1736372790,27968313,37.1024763,-76.3882094,10.325076,8.119785,-9.066548,-0.00058669725,-0.0025933315,0.0,-0.1728208,0.05283507,-1.130941,-1.109068,-0.051813073,-0.001055113,0.15508993,-0.7832927,1.7624779,-1.6824224,0.032956265,2.5831757,8.788368,1.130941,0.2974121,0.23702136,0.15203416,0.09728819,inf,inf,inf,inf,1,1,1,1,2,0,2,2,1,1,0
1736473725,27968313,37.1024763,-76.3882094,10.307074,8.12178,-9.196664,-0.00058669725,-0.0025933315,0.0,-0.17549445,0.04247113,-1.148896,-1.1430775,-0.051813073,-0.001055113,0.15508993,1.8767618,0.097128674,0.33091018,0.03155096,2.5831757,8.918484,1.148896,0.2865651,0.23687145,0.14773393,0.09697673,inf,inf,inf,inf,1,1,1,1,2,0,2,2,1,1,0
1736577632,27968313,37.1024763,-76.3882094,10.287921,8.120603,-9.33412,-0.00058669725,-0.0025933315,0.0,-0.18112463,0.010819049,-1.1740894,-1.1843021,-0.051813073,-0.001055113,0.15508993,1.4053147,-1.9947802,0.5735893,0.029249433,2.5831757,9.05594,1.1740894,0.29823884,0.2378984,0.15234752,0.09750268,inf,inf,inf,inf,1,1,1,1,2,0,2,2,1,1,0
1736681715,27968313,37.1024763,-76.3882094,10.271649,8.117559,-9.470597,-0.00058669725,-0.0025933315,0.0,-0.18464911,0.005330924,-1.1723167,-1.1944687,-0.051813073,-0.001055113,0.15508993,-1.2947632,0.11165943,-1.6517422,0.026100472,2.5831757,9.192417,1.1723167,0.28755045,0.23780008,0.14812657,0.097200744,inf,inf,inf,inf,1,1,1,1,2,0,2,2,1,1,0
1736782503,27968313,37.1024763,-76.3882094,10.261443,8.112002,-9.599084,-0.00058669725,-0.0025933315,0.0,-0.16396475,-0.0011082012,-1.1848583,-1.2130469,-0.051813073,-0.001055113,0.15508993,1.7567343,2.7252204,5.2384396,0.02245507,2.5831757,9.320904,1.1848583,0.2983535,0.23821451,0.15240237,0.09755568,inf,inf,inf,inf,1,1,1,1,2,0,2,2,1,1,0
1736882434,27968313,37.1024763,-76.3882094,10.251295,8.105219,-9.723137,-0.00058669725,-0.0025933315,0.0,-0.15997125,-0.014261889,-1.1809374,-1.2103916,-0.051813073,-0.001055113,0.15508993,-1.6049311,1.1275868,-0.5054898,0.019001637,2.5831757,9.444957,1.1809374,0.28756943,0.2363846,0.14810379,0.096847765,inf,inf,inf,inf,1,1,1,1,2,0,2,2,1,1,0
1736986521,27968313,37.1024763,-76.3882094,10.24036,8.096581,-9.856077,-0.00058669725,-0.0025933315,0.0,-0.13390517,-0.042422578,-1.2033721,-1.2369096,-0.051813073,-0.001055113,0.15508993,2.5473516,0.99057174,1.3467561,0.015595798,2.5831757,9.577897,1.2033721,0.29938862,0.23745786,0.15278272,0.09737739,inf,inf,inf,inf,1,1,1,1,2,0,2,2,1,1,0
1737087004,27968313,37.1024763,-76.3882094,10.231142,8.089085,-9.986891,-0.00058669725,-0.0025933315,0.0,-0.13007803,-0.041036386,-1.2244816,-1.2624933,-0.051813073,-0.001055113,0.15508993,0.20973307,-2.0388365,-0.6631483,0.012492239,2.5831757,9.708711,1.2244816,0.28777382,0.23672569,0.14819211,0.09691706,inf,inf,inf,inf,1,1,1,1,2,0,2,2,1,1,0
1737187401,27968313,37.1024763,-76.3882094,10.223764,8.082198,-10.121376,-0.00058669725,-0.0025933315,0.0,-0.115067,-0.028549755,-1.2520006,-1.2960484,-0.051813073,-0.001055113,0.15508993,1.5354278,-1.8896661,0.37237015,0.009299373,2.5831757,9.843196,1.2520006,0.299519,0.23775983,0.152836,0.097445935,inf,inf,inf,inf,1,1,1,1,2,0,2,2,1,1,0
1737291294,27968313,37.1024763,-76.3882094,10.216335,8.07704,-10.2544,-0.00058669725,-0.0025933315,0.0,-0.10891451,-0.0072518107,-1.2593563,-1.3009224,-0.051813073,-0.001055113,0.15508993,0.33886442,-0.8844491,-0.39420852,0.0061801104,2.5831757,9.97622,1.2593563,0.2887283,0.23767878,0.14861736,0.09715443,inf,inf,inf,inf,1,1,1,1,2,0,2,2,1,1,0
1737391804,27968313,37.1024763,-76.3882094,10.209786,8.073823,-10.379663,-0.00058669725,-0.0025933315,0.0,-0.107356496,0.010990687,-1.2775259,-1.3121867,-0.051813073,-0.001055113,0.15508993,0.39864296,0.045187972,4.8359547,0.004117681,2.5831757,10.101483,1.2775259,0.30052167,0.237014,0.1532775,0.09727283,inf,inf,inf,inf,1,1,1,1,2,0,2,2,1,1,0
1737491820,27968313,37.1024763,-76.3882094,10.202508,8.072119,-10.505039,-0.00058669725,-0.0025933315,0.0,-0.10530495,0.031363565,-1.2719265,-1.3013579,-0.051813073,-0.001055113,0.15508993,0.27581748,1.0224773,2.4093876,0.0016360551,2.5831757,10.226859,1.2719265,0.28882948,0.23628244,0.14867747,0.09681482,inf,inf,inf,inf,1,1,1,1,2,0,2,2,1,1,0
1737596191,27968313,37.1024763,-76.3882094,10.19442,8.071724,-10.633082,-0.00058669725,-0.0025933315,0.0,-0.1081574,0.027394384,-1.2625945,-1.2849979,-0.051813073,-0.001055113,0.15508993,-0.29238075,0.761468,-0.28437123,-5.115706e-05,2.5831757,10.354902,1.2625945,0.30025926,0.23704997,0.15317976,0.09730554,inf,inf,inf,inf,1,1,1,1,2,0,2,2,1,1,0
1737696858,27968313,37.1024763,-76.3882094,10.185757,8.073362,-10.75646,-0.00058669725,-0.0025933315,0.0,-0.110735886,0.057519905,-1.2345158,-1.2518067,-0.051813073,-0.001055113,0.15508993,0.9950306,1.165641,4.7210207,-0.00155236,2.5831757,10.47828,1.2345158,0.2893815,0.23690386,0.14886515,0.09700589,inf,inf,inf,inf,1,1,1,1,2,0,2,2,1,1,0
1737796606,27968313,37.1024763,-76.3882094,10.176148,8.07638,-10.883767,-0.00058669725,-0.0025933315,0.0,-0.116667554,0.055407874,-1.2404218,-1.2581131,-0.051813073,-0.001055113,0.15508993,-0.58261245,0.89153254,-1.1481571,-0.0009841135,2.5831757,10.605587,1.2404218,0.30028027,0.237338,0.1530428,0.09736805,inf,inf,inf,inf,1,1,1,1,2,0,2,2,1,1,0
1737897604,27968313,37.1024763,-76.3882094,10.16678,8.079318,-11.021484,-0.00058669725,-0.0025933315,0.0,-0.11421847,0.042422075,-1.2559727,-1.2827828,-0.051813073,-0.001055113,0.15508993,2.3211358,-0.8081699,1.4307208,0.00029405885,2.5831757,10.743304,1.2559727,0.289537,0.23724721,0.14878018,0.097074956,inf,inf,inf,inf,1,1,1,1,2,0,2,2,1,1,0
1738001608,27968313,37.1024763,-76.3882094,10.157047,8.08165,-11.167742,-0.00058669725,-0.0025933315,0.0,-0.123829216,0.038128037,-1.2559445,-1.2949722,-0.051813073,-0.001055113,0.15508993,-1.0061414,-0.8176844,-3.2578974,0.0021633343,2.5831757,10.889562,1.2559445,0.30136317,0.23825502,0.15340745,0.09759267,inf,inf,inf,inf,1,1,1,1,2,0,2,2,1,1,0
1738105422,27968313,37.1024763,-76.3882094,10.147129,8.083144,-11.3097725,-0.00058669725,-0.0025933315,0.0,-0.12898906,0.026577335,-1.247205,-1.292557,-0.051813073,-0.001055113,0.15508993,0.24945727,0.23340866,-0.9753781,0.004425542,2.5831757,11.031592,1.247205,0.29060125,0.23648351,0.14909816,0.0969002,inf,inf,inf,inf,1,1,1,1,2,0,2,2,1,1,0
1738206423,27968313,37.1024763,-76.3882094,10.137277,8.08332,-11.439672,-0.00058669725,-0.0025933315,0.0,-0.12524012,0.019817723,-1.2493081,-1.2922349,-0.051813073,-0.001055113,0.15508993,0.86175394,1.3487042,0.37974197,0.0069206464,2.5831757,11.161492,1.2493081,0.3024724,0.23749697,0.15368618,0.09742069,inf,inf,inf,inf,1,1,1,1,2,0,2,2,1,1,0
1738310441,27968313,37.1024763,-76.3882094,10.123801,8.081505,-11.572244,-0.00058669725,-0.0025933315,0.0,-0.12301423,-0.011726608,-1.2643719,-1.3037552,-0.051813073,-0.001055113,0.15508993,0.34742013,-2.7557101,2.9468431,0.009106099,2.5831757,11.294064,1.2643719,0.2915631,0.23736133,0.14938608,0.09712899,inf,inf,inf,inf,1,1,1,1,2,0,2,2,1,1,0
1738414421,27968313,37.1024763,-76.3882094,10.109152,8.077361,-11.709181,-0.00058669725,-0.0025933315,0.0,-0.12691027,-0.042159043,-1.2709899,-1.3111392,-0.051813073,-0.001055113,0.15508993,-0.20740522,-0.21396737,0.98821497,0.0119763855,2.5831757,11.431001,1.2709899,0.30310267,0.23815101,0.15388435,0.09762653,inf,inf,inf,inf,1,1,1,1,2,0,2,2,1,1,0
1738515186,27968313,37.1024763,-76.3882094,10.097862,8.068826,-11.841059,-0.00058669725,-0.0025933315,0.0,-0.11658554,-0.06783895,-1.2598312,-1.2991164,-0.051813073,-0.001055113,0.15508993,1.1223359,0.26853806,-1.5236093,0.01435583,2.5831757,11.562879,1.2598312,0.2922091,0.23634823,0.14957437,0.096936114,inf,inf,inf,inf,1,1,1,1,2,0,2,2,1,1,0
1738614984,27968313,37.1024763,-76.3882094,10.08794,8.0577,-11.965421,-0.00058669725,-0.0025933315,0.0,-0.104272276,-0.08855562,-1.2840245,-1.3157223,-0.051813073,-0.001055113,0.15508993,0.8664045,1.4116277,3.538395,0.017167473,2.5831757,11.687241,1.2840245,0.30283022,0.2365466,0.15371735,0.09727187,inf,inf,inf,inf,1,1,1,1,2,0,2,2,1,1,0
1738716121,27968313,37.1024763,-76.3882094,10.0796,8.043197,-12.087314,-0.00058669725,-0.0025933315,0.0,-0.096072696,-0.12925547,-1.2807996,-1.301277,-0.051813073,-0.001055113,0.15508993,-0.34538445,-2.2766192,-0.9888631,0.020457262,2.5831757,11.809134,1.2807996,0.29202795,0.23642668,0.14945659,0.09698748,inf,inf,inf,inf,1,1,1,1,2,0,2,2,1,1,0
1738819820,27968313,37.1024763,-76.3882094,10.072066,8.026869,-12.214843,-0.00058669725,-0.0025933315,0.0,-0.089704044,-0.12836975,-1.2872611,-1.2983024,-0.051813073,-0.001055113,0.15508993,-3.1726851,1.8075297,-3.7185109,0.023501879,2.5831757,11.936663,1.2872611,0.30396315,0.23745231,0.15422443,0.09750921,inf,inf,inf,inf,1,1,1,1,2,0,2,2,1,1,0
1738920075,27968313,37.1024763,-76.3882094,10.061382,8.011166,-12.33971,-0.00058669725,-0.0025933315,0.0,-0.07400096,-0.14803013,-1.3095436,-1.3142852,-0.051813073,-0.001055113,0.15508993,1.422519,0.9956629,-0.3473447,0.026760051,2.5831757,12.06153,1.3095436,0.29228684,0.23679493,0.1496631,0.09706779,inf,inf,inf,inf,1,1,1,1,2,0,2,2,1,1,0
1739023828,27968313,37.1024763,-76.3882094,10.050043,7.9952645,-12.466395,-0.00058669725,-0.0025933315,0.0,-0.071009696,-0.15443975,-1.3018557,-1.2979909,-0.051813073,-0.001055113,0.15508993,-0.55887264,-1.5266918,-0.9322934,0.030131062,2.5831757,12.188215,1.3018557,0.30423558,0.237801,0.15431187,0.0975816,inf,inf,inf,inf,1,1,1,1,2,0,2,2,1,1,0
1739124783,27968313,37.1024763,-76.3882094,10.036444,7.982346,-12.593516,-0.00058669725,-0.0025933315,0.0,-0.073305935,-0.12985606,-1.2945262,-1.2880014,-0.051813073,-0.001055113,0.15508993,-0.9606001,1.0711522,-1.8191961,0.032607153,2.5831757,12.315336,1.2945262,0.29331827,0.23765549,0.15002196,0.09728701,inf,inf,inf,inf,1,1,1,1,2,0,2,2,1,1,0
1739224875,27968313,37.1024763,-76.3882094,10.024096,7.9713507,-12.722851,-0.00058669725,-0.0025933315,0.0,-0.070025235,-0.105165765,-1.288727,-1.2829103,-0.051813073,-0.001055113,0.15508993,0.097864285,2.1996608,-1.704435,0.03452349,2.5831757,12.444671,1.288727,0.3044638,0.2381457,0.15434404,0.09765412,inf,inf,inf,inf,1,1,1,1,2,0,2,2,1,1,0
1739325686,27968313,37.1024763,-76.3882094,10.014131,7.9609756,-12.856963,-0.00058669725,-0.0025933315,0.0,-0.059071414,-0.08963973,-1.2945217,-1.2926177,-0.051813073,-0.001055113,0.15508993,0.24695161,0.063434005,0.48927757,0.036022577,2.5831757,12.578783,1.2945217,0.29350477,0.23634169,0.1500154,0.096964665,inf,inf,inf,inf,1,1,1,1,2,0,2,2,1,1,0
1739429635,27968313,37.1024763,-76.3882094,10.005716,7.9520006,-12.993994,-0.00058669725,-0.0025933315,0.0,-0.05443595,-0.081297584,-1.291171,-1.2916437,-0.051813073,-0.001055113,0.15508993,-0.46077797,1.6122239,-1.2861291,0.037342057,2.5831757,12.715814,1.291171,0.30550393,0.23734692,0.15466923,0.09747818,inf,inf,inf,inf,1,1,1,1,2,0,2,2,1,1,0
1739529629,27968313,37.1024763,-76.3882094,9.997785,7.944808,-13.124052,-0.00058669725,-0.0025933315,0.0,-0.046332456,-0.049878962,-1.2806593,-1.2821095,-0.051813073,-0.001055113,0.15508993,1.5858495,2.9025621,0.41898176,0.03807867,2.5831757,12.845872,1.2806593,0.2936008,0.23666243,0.15000762,0.09702807,inf,inf,inf,inf,1,1,1,1,2,0,2,2,1,1,0
1739630231,27968313,37.1024763,-76.3882094,9.990914,7.939686,-13.2582035,-0.00058669725,-0.0025933315,0.0,-0.036316425,-0.04801979,-1.2837639,-1.2894582,-0.051813073,-0.001055113,0.15508993,-0.5213471,-1.6224315,-1.3797294,0.038042463,2.5831757,12.980023,1.2837639,0.3055989,0.23766613,0.15460964,0.09754033,inf,inf,inf,inf,1,1,1,1,2,0,2,2,1,1,0
1739734197,27968313,37.1024763,-76.3882094,9.98044,7.9372005,-13.397673,-0.00058669725,-0.0025933315,0.0,-0.027045717,-0.029325923,-1.2848881,-1.2954602,-0.051813073,-0.001055113,0.15508993,-0.024537249,1.5710266,-3.2602537,0.036577348,2.5831757,13.119493,1.2848881,0.29450068,0.23749787,0.15028383,0.09723931,inf,inf,inf,inf,1,1,1,1,2,0,2,2,1,1,0
1739834228,27968313,37.1024763,-76.3882094,9.972939,7.9368205,-13.525672,-0.00058669725,-0.0025933315,0.0,-0.011399169,0.014258534,-1.2776166,-1.2863818,-0.051813073,-0.001055113,0.15508993,-0.47429422,2.1922514,0.19879113,0.03329992,2.5831757,13.247492,1.2776166,0.30569103,0.23796403,0.15460889,0.09759573,inf,inf,inf,inf,1,1,1,1,2,0,2,2,1,1,0
1739935021,27968313,37.1024763,-76.3882094,9.964072,7.9383297,-13.65561,-0.00058669725,-0.0025933315,0.0,0.017384114,0.029016756,-1.2973671,-1.3048922,-0.051813073,-0.001055113,0.15508993,2.8265367,-0.34488198,6.6608086,0.03080485,2.5831757,13.37743,1.2973671,0.29456943,0.23780246,0.1502446,0.09729865,inf,inf,inf,inf,1,1,1,1,2,0,2,2,1,1,0
1740039290,27968313,37.1024763,-76.3882094,9.959033,7.9412084,-13.79051,-0.00058669725,-0.0025933315,0.0,0.03009069,0.027111169,-1.2997679,-1.306653,-0.051813073,-0.001055113,0.15508993,-1.2594261,-2.1905286,0.8514515,0.028014127,2.5831757,13.51233,1.2997679,0.30670193,0.23719718,0.15495218,0.09742292,inf,inf,inf,inf,1,1,1,1,2,0,2,2,1,1,0
1740143276,27968313,37.1024763,-76.3882094,9.953949,7.944653,-13.923821,-0.00058669725,-0.0025933315,0.0,0.04971731,0.02649054,-1.2802525,-1.2850809,-0.051813073,-0.001055113,0.15508993,0.62080723,1.5997872,-0.50367695,0.02623523,2.5831757,13.645641,1.2802525,0.29558837,0.23705974,0.15062547,0.09713692,inf,inf,inf,inf,1,1,1,1,2,0,2,2,1,1,0
1740244048,27968313,37.1024763,-76.3882094,9.95366,7.9478483,-14.047333,-0.00058669725,-0.0025933315,0.0,0.07765211,0.04238236,-1.2805043,-1.2786299,-0.051813073,-0.001055113,0.15508993,1.0534034,0.143371,4.4506216,0.024435785,2.5831757,13.769153,1.2805043,0.30672187,0.2374571,0.15497069,0.09748213,inf,inf,inf,inf,1,1,1,1,2,0,2,2,1,1,0
1740343816,27968313,37.1024763,-76.3882094,9.95642,7.953109,-14.168597,-0.00058669725,-0.0025933315,0.0,0.092510425,0.014129341,-1.280297,-1.2719786,-0.051813073,-0.001055113,0.15508993,-0.47183943,0.5555089,1.0570924,0.024866806,2.5831757,13.890417,1.280297,0.29570022,0.23736404,0.1506653,0.09719898,inf,inf,inf,inf,1,1,1,1,2,0,2,2,1,1,0
1740447821,27968313,37.1024763,-76.3882094,9.962815,7.9583864,-14.290752,-0.00058669725,-0.0025933315,0.0,0.10219433,0.038096324,-1.2814612,-1.2633427,-0.051813073,-0.001055113,0.15508993,-3.6783073,2.1220918,0.23704869,0.024491506,2.5831757,14.012572,1.2814612,0.307783,0.23837101,0.1553401,0.097714566,inf,inf,inf,inf,1,1,1,1,2,0,2,2,1,1,0
1740548896,27968313,37.1024763,-76.3882094,9.969166,7.9637394,-14.41285,-0.00058669725,-0.0025933315,0.0,0.116547145,0.03634891,-1.2631209,-1.2403272,-0.051813073,-0.001055113,0.15508993,0.800581,1.9926144,0.6344711,0.024666516,2.5831757,14.13467,1.2631209,0.2957536,0.23763064,0.1506336,0.09726467,inf,inf,inf,inf,1,1,1,1,2,0,2,2,1,1,0
1740648903,27968313,37.1024763,-76.3882094,9.977436,7.969376,-14.535427,-0.00058669725,-0.0025933315,0.0,0.13046512,0.035013147,-1.2843574,-1.2594365,-0.051813073,-0.001055113,0.15508993,1.8691677,1.962879,0.6680098,0.025448013,2.5831757,14.257247,1.2843574,0.307931,0.23869318,0.15534513,0.0977859,inf,inf,inf,inf,1,1,1,1,2,0,2,2,1,1,0
1740753680,27968313,37.1024763,-76.3882094,9.988073,7.9749885,-14.666903,-0.00058669725,-0.0025933315,0.0,0.12319052,0.039682623,-1.276446,-1.2520376,-0.051813073,-0.001055113,0.15508993,-2.9553545,2.3424635,-1.7339716,0.025623105,2.5831757,14.388722,1.276446,0.29678985,0.23685172,0.15106419,0.09709177,inf,inf,inf,inf,1,1,1,1,2,0,2,2,1,1,0
1740857588,27968313,37.1024763,-76.3882094,9.999524,7.9810057,-14.795975,-0.00058669725,-0.0025933315,0.0,0.1335923,0.04389346,-1.2983553,-1.2724174,-0.051813073,-0.001055113,0.15508993,0.8578502,-0.11706452,-1.2161257,0.025886023,2.5831757,14.517795,1.2983553,0.28614488,0.23669696,0.1468051,0.096788704,inf,inf,inf,inf,1,1,1,1,2,0,2,2,1,1,0
1741880655,27968313,37.1024763,-76.3882094,10.110201,8.050393,-16.015345,-0.00058669725,-0.0025933315,0.0,0.020052781,0.037456587,-1.3061225,-1.2180861,-0.051813073,-0.001055113,0.15508993,-0.04072201,-1.7756855,4.361612,0.01890286,2.5831757,15.7371645,1.3061225,0.28788063,0.23624045,0.14760001,0.09683207,inf,inf,inf,inf,1,1,1,1,2,0,2,2,1,1,0
1742794983,27968313,37.1024763,-76.3882094,10.146589,8.077516,-17.21315,-0.00058669725,-0.0025933315,0.0,-0.09413526,7.727556e-05,-1.2585626,-1.2476919,-0.051813073,-0.001055113,0.15508993,0.6959688,-0.4696452,1.682435,0.025666352,2.5831757,16.93497,1.2585626,0.30041763,0.23742718,0.15251836,0.09740783,inf,inf,inf,inf,1,1,1,1,2,0,2,2,1,1,0
1742899330,27968313,37.1024763,-76.3882094,10.146455,8.083588,-17.352758,-0.00058669725,-0.0025933315,0.0,-0.11353738,0.008977219,-1.280487,-1.2771791,-0.051813073,-0.001055113,0.15508993,0.33352616,1.3951582,-0.9020997,0.025923416,2.5831757,17.07458,1.280487,0.2895836,0.23733073,0.14824323,0.09711615,inf,inf,inf,inf,1,1,1,1,2,0,2,2,1,1,0
1742999841,27968313,37.1024763,-76.3882094,10.145983,8.090482,-17.488987,-0.00058669725,-0.0025933315,0.0,-0.11458175,0.024425307,-1.2915635,-1.2957891,-0.051813073,-0.001055113,0.15508993,0.71044296,0.9813566,2.1547894,0.02604939,2.5831757,17.210808,1.2915635,0.30135843,0.23833208,0.15290987,0.09763769,inf,inf,inf,inf,1,1,1,1,2,0,2,2,1,1,0
1743104066,27968313,37.1024763,-76.3882094,10.144233,8.099368,-17.63232,-0.00058669725,-0.0025933315,0.0,-0.12022596,0.033149805,-1.2643591,-1.278446,-0.051813073,-0.001055113,0.15508993,0.7799226,0.7901516,2.258106,0.025401259,2.5831757,17.354141,1.2643591,0.2903913,0.23649912,0.14860003,0.096939944,inf,inf,inf,inf,1,1,1,1,2,0,2,2,1,1,0
1743204011,27968313,37.1024763,-76.3882094,10.141343,8.108285,-17.771282,-0.00058669725,-0.0025933315,0.0,-0.12021751,0.03560234,-1.2613336,-1.2851567,-0.051813073,-0.001055113,0.15508993,0.3547969,-1.3592417,-0.82858354,0.02518757,2.5831757,17.493103,1.2613336,0.30137262,0.23697369,0.15293247,0.09730862,inf,inf,inf,inf,1,1,1,1,2,0,2,2,1,1,0
1743308887,27968313,37.1024763,-76.3882094,10.136582,8.118477,-17.915636,-0.00058669725,-0.0025933315,0.0,-0.11779862,0.020542942,-1.2728058,-1.3041686,-0.051813073,-0.001055113,0.15508993,0.60440814,2.4464746,0.44300473,0.0251265,2.5831757,17.637457,1.2728058,0.2903443,0.23683491,0.1485796,0.0970169,inf,inf,inf,inf,1,1,1,1,2,0,2,2,1,1,0
1743408949,27968313,37.1024763,-76.3882094,10.130814,8.128276,-18.049063,-0.00058669725,-0.0025933315,0.0,-0.11193086,0.020225275,-1.2680366,-1.3015912,-0.051813073,-0.001055113,0.15508993,0.86167765,-1.6423308,1.5365454,0.024634598,2.5831757,17.770884,1.2680366,0.3021607,0.23786268,0.15324551,0.09754672,inf,inf,inf,inf,1,1,1,1,2,0,2,2,1,1,0
1743508816,27968313,37.1024763,-76.3882094,10.126573,8.137907,-18.180481,-0.00058669725,-0.0025933315,0.0,-0.10095382,0.016376156,-1.2959884,-1.329623,-0.051813073,-0.001055113,0.15508993,-1.7112974,0.66496503,-1.9001142,0.024525708,2.5831757,17.902302,1.2959884,0.2903072,0.2372006,0.14858393,0.09710414,inf,inf,inf,inf,1,1,1,1,2,0,2,2,1,1,0
1743609626,27968313,37.1024763,-76.3882094,10.123521,8.147573,-18.30522,-0.00058669725,-0.0025933315,0.0,-0.087501995,0.022711525,-1.2673932,-1.2934053,-0.051813073,-0.001055113,0.15508993,1.2700323,0.5523406,3.2737324,0.02428255,2.5831757,18.02704,1.2673932,0.3021255,0.23657255,0.15319878,0.09724077,inf,inf,inf,inf,1,1,1,1,2,0,2,2,1,1,0
1743713710,27968313,37.1024763,-76.3882094,10.121715,8.157588,-18.424536,-0.00058669725,-0.0025933315,0.0,-0.06723413,0.032267846,-1.2726583,-1.2832773,-0.051813073,-0.001055113,0.15508993,-0.009824085,-0.8573675,2.1015563,0.024184626,2.5831757,18.146357,1.2726583,0.2910915,0.2364671,0.14887655,0.096960284,inf,inf,inf,inf,1,1,1,1,2,0,2,2,1,1,0
1743813415,27968313,37.1024763,-76.3882094,10.120876,8.165815,-18.53927,-0.00058669725,-0.0025933315,0.0,-0.04634529,0.010537321,-1.2605592,-1.258495,-0.051813073,-0.001055113,0.15508993,1.2898314,2.9795635,0.48649082,0.025660144,2.5831757,18.261091,1.2605592,0.30210266,0.23695944,0.15317439,0.09733356,inf,inf,inf,inf,1,1,1,1,2,0,2,2,1,1,0
1743914222,27968313,37.1024763,-76.3882094,10.124305,8.174435,-18.658102,-0.00058669725,-0.0025933315,0.0,-0.019317029,0.026155647,-1.250129,-1.2401443,-0.051813073,-0.001055113,0.15508993,1.7323047,-2.8133578,1.9949944,0.025753107,2.5831757,18.379923,1.250129,0.29100925,0.23682693,0.1489034,0.097043924,inf,inf,inf,inf,1,1,1,1,2,0,2,2,1,1,0
1744018519,27968313,37.1024763,-76.3882094,10.129907,8.181769,-18.78523,-0.00058669725,-0.0025933315,0.0,-0.0018483198,0.024327818,-1.2442019,-1.231366,-0.051813073,-0.001055113,0.15508993,-0.29164758,0.10248033,-0.29423815,0.026764538,2.5831757,18.507051,1.2442019,0.3028694,0.23786063,0.15354802,0.09757204,inf,inf,inf,inf,1,1,1,1,2,0,2,2,1,1,0
1744122206,27968313,37.1024763,-76.3882094,10.137119,8.190192,-18.906693,-0.00058669725,-0.0025933315,0.0,0.032237034,0.023026507,-1.2694814,-1.2487103,-0.051813073,-0.001055113,0.15508993,0.63628983,-2.0730836,1.416905,0.027947802,2.5831757,18.628513,1.2694814,0.29184026,0.23613058,0.1492381,0.096895725,inf,inf,inf,inf,1,1,1,1,2,0,2,2,1,1,0
1744223046,27968313,37.1024763,-76.3882094,10.144829,8.19739,-19.026588,-0.00058669725,-0.0025933315,0.0,0.04783199,0.020394512,-1.2680931,-1.2425618,-0.051813073,-0.001055113,0.15508993,-1.1718293,1.5301287,-0.013571942,0.029301152,2.5831757,18.74841,1.2680931,0.30281276,0.23657732,0.15356103,0.09726046,inf,inf,inf,inf,1,1,1,1,2,0,2,2,1,1,0
1744327002,27968313,37.1024763,-76.3882094,10.153676,8.208285,-19.150686,-0.00058669725,-0.0025933315,0.0,0.06629723,0.021650149,-1.2644554,-1.2351391,-0.051813073,-0.001055113,0.15508993,0.004221635,-1.454834,0.5767238,0.029926004,2.5831757,18.872507,1.2644554,0.29180488,0.23652998,0.14934301,0.0969913,inf,inf,inf,inf,1,1,1,1,2,0,2,2,1,1,0
1744427818,27968313,37.1024763,-76.3882094,10.162601,8.218618,-19.270184,-0.00058669725,-0.0025933315,0.0,0.0719382,0.019225268,-1.2529685,-1.220058,-0.051813073,-0.001055113,0.15508993,-0.22803839,2.039296,-2.8918183,0.03035692,2.5831757,18.992004,1.2529685,0.30371836,0.23755851,0.15398821,0.09751326,inf,inf,inf,inf,1,1,1,1,2,0,2,2,1,1,0
1744528154,27968313,37.1024763,-76.3882094,10.171555,8.230674,-19.386606,-0.00058669725,-0.0025933315,0.0,0.081266694,0.03296387,-1.2524134,-1.2145443,-0.051813073,-0.001055113,0.15508993,2.925569,-1.2509304,2.7290838,0.029319275,2.5831757,19.108427,1.2524134,0.291632,0.23683417,0.14933175,0.09706176,inf,inf,inf,inf,1,1,1,1,2,0,2,2,1,1,0
1744628107,27968313,37.1024763,-76.3882094,10.1799965,8.242247,-19.505869,-0.00058669725,-0.0025933315,0.0,0.06958712,0.02798734,-1.2543077,-1.215441,-0.051813073,-0.001055113,0.15508993,-1.7440758,-0.5975523,-2.8400633,0.028271234,2.5831757,19.22769,1.2543077,0.30362988,0.23790202,0.15393652,0.097584,inf,inf,inf,inf,1,1,1,1,2,0,2,2,1,1,0
1744728826,27968313,37.1024763,-76.3882094,10.1882925,8.254171,-19.629591,-0.00058669725,-0.0025933315,0.0,0.068002634,0.028369049,-1.2503469,-1.213516,-0.051813073,-0.001055113,0.15508993,0.060689088,0.09442391,-0.8361181,0.02665216,2.5831757,19.351412,1.2503469,0.29168034,0.23715839,0.1493432,0.09712639,inf,inf,inf,inf,1,1,1,1,2,0,2,2,1,1,0
1744829071,27968313,37.1024763,-76.3882094,10.19545,8.264633,-19.753637,-0.00058669725,-0.0025933315,0.0,0.06315696,0.03934025,-1.2558788,-1.2223883,-0.051813073,-0.001055113,0.15508993,0.5514337,-0.9187923,1.9466277,0.024656042,2.5831757,19.475458,1.2558788,0.3035923,0.23817529,0.15402998,0.0976451,inf,inf,inf,inf,1,1,1,1,2,0,2,2,1,1,0
1744932604,27968313,37.1024763,-76.3882094,10.200512,8.277041,-19.881395,-0.00058669725,-0.0025933315,0.0,0.041990906,0.035806116,-1.2413689,-1.2097317,-0.051813073,-0.001055113,0.15508993,-1.0482081,0.23371412,-2.0505126,0.022801502,2.5831757,19.603216,1.2413689,0.29251766,0.23642576,0.14970379,0.096963435,inf,inf,inf,inf,1,1,1,1,2,0,2,2,1,1,0
1745033661,27968313,37.1024763,-76.3882094,10.203866,8.286874,-20.006449,-0.00058669725,-0.0025933315,0.0,0.035897266,0.02993847,-1.2385128,-1.2097652,-0.051813073,-0.001055113,0.15508993,2.7842119,-2.3809216,0.9649496,0.021058774,2.5831757,19.72827,1.2385128,0.30353442,0.23852564,0.15400141,0.09772,inf,inf,inf,inf,1,1,1,1,2,0,2,2,1,1,0
1745133722,27968313,37.1024763,-76.3882094,10.201185,8.298525,-20.137264,-0.00058669725,-0.0025933315,0.0,0.018917728,0.024832917,-1.2476783,-1.2282015,-0.051813073,-0.001055113,0.15508993,-1.6751609,-1.6188244,-1.2022861,0.019213943,2.5831757,19.859085,1.2476783,0.29244146,0.23669204,0.14970115,0.097019516,inf,inf,inf,inf,1,1,1,1,2,0,2,2,1,1,0
1745233793,27968313,37.1024763,-76.3882094,10.198023,8.306927,-20.266497,-0.00058669725,-0.0025933315,0.0,0.0016393363,0.023458777,-1.225951,-1.2127795,-0.051813073,-0.001055113,0.15508993,-2.4510176,0.5859852,-1.653771,0.018294644,2.5831757,19.988317,1.225951,0.3035503,0.2371609,0.15402852,0.09737935,inf,inf,inf,inf,1,1,1,1,2,0,2,2,1,1,0
