timestamp,roll,pitch,yaw,thrust
1725899326,0.012298771,0.08191629,-0.00050343113,0.5154809
1725943302,0.012035793,0.08139077,-0.00056979887,0.5248222
1725983314,0.01066493,0.08108781,-0.00048536155,0.53309083
1726028126,0.0103236,0.08068314,-0.0004994238,0.5422756
1726068909,0.009940832,0.0798071,-0.0005044197,0.55080086
1726108883,0.022245409,0.077872545,-0.0006273711,0.56026614
1726148872,-0.017388871,0.12225292,0.00017126401,0.5658661
1726192868,0.016635198,-0.005877592,-0.00029222737,0.5762732
1726236923,0.008097631,0.16848487,-0.0016534985,0.58549255
1726276917,-0.018680593,0.033693686,-0.0035099974,0.5929268
1726320889,0.0021477935,0.09756361,-0.0022399342,0.60339755
1726360892,0.00371309,0.09728333,-0.0015317516,0.6105107
1726404928,0.023943841,0.063694455,-0.0007757198,0.62067914
1726444933,0.013807628,0.087000355,-4.2809384e-05,0.6283136
1726484912,-0.014817089,0.08471273,0.00080964935,0.63752764
1726528883,0.025313232,0.062879205,0.00095067755,0.64595413
1726572933,0.017812788,0.07934762,0.0014572015,0.65641034
1726612909,-0.014717664,0.07851155,0.0014979853,0.66544193
1726656914,0.015710283,0.07227109,0.0009857503,0.67371964
1726696880,0.015474787,0.08114541,0.0006164847,0.6829091
1726740942,-0.0013429252,0.083517544,-0.0004055829,0.69215965
1726788899,0.0120048225,0.071573384,-0.0043049525,0.69550663
1726829691,0.029823937,0.05177366,-0.011205988,0.6903881
1726869655,0.03361114,0.05499381,-0.018184425,0.6911955
1726913664,0.044410996,0.1261337,-0.026896378,0.6942575
1726957646,0.1413119,0.17541327,-0.03545546,0.68486893
1726997650,0.2108927,0.25143734,-0.04152657,0.66099787
1727037727,0.216506,0.2778266,-0.04518634,0.6336863
1727081687,0.11230847,0.19134289,-0.048110623,0.59105366
1727122528,0.16207224,0.17454953,-0.05197802,0.5633871
1727162481,0.2197699,0.22595495,-0.054963414,0.541591
1727202482,0.1848037,0.20775919,-0.05827708,0.52217567
1727246519,0.12749243,0.13047099,-0.060996167,0.5027591
1727286490,0.16148748,0.1126249,-0.06371749,0.49831116
1727330497,0.21371305,0.099559575,-0.06670535,0.49522364
1727371357,0.15641297,0.045199823,-0.067735635,0.49313614
1727411302,0.1473779,0.00395833,-0.06915061,0.49451327
1727455266,0.13751486,0.0022082154,-0.070105165,0.49616352
1727495304,0.1383853,-0.00997644,-0.071673125,0.4966641
1727539272,0.08594384,-0.04583561,-0.072083145,0.4964151
1727579263,0.09488394,-0.058173504,-0.07242811,0.50203115
1727623303,0.1524534,-0.056054033,-0.0735077,0.50006104
1727663313,0.117604315,-0.043002144,-0.07325046,0.50547594
1727708157,0.069194324,-0.051927134,-0.07238188,0.50710887
1727752140,0.08771607,-0.0310749,-0.07157037,0.51008385
1727792078,0.078593746,-0.026845742,-0.07084674,0.5078926
1727832079,0.035341904,-0.036935534,-0.06962473,0.5095327
1727876145,0.06811602,-0.026512528,-0.06862429,0.5099224
1727916088,0.060705625,-0.011990799,-0.0671978,0.5102422
1727956916,0.0005369381,-0.026825605,-0.064457096,0.5116237
1728000920,0.02559298,-0.027930735,-0.06241129,0.51151687
1728040925,0.024913114,-0.018185144,-0.060015917,0.51395255
1728080878,0.026280766,-0.046680227,-0.057480514,0.51641816
1728124847,0.0023266133,-0.04760374,-0.05532515,0.5175133
1728168905,0.025827764,-0.023517327,-0.053416427,0.5177076
1728208875,0.061396632,-0.012612979,-0.052101824,0.5178524
1728253738,0.05893995,-0.0046050325,-0.05008951,0.5172367
1728297684,0.079654835,0.022636374,-0.048491474,0.5172093
1728341742,0.0836909,0.019579848,-0.04662356,0.51791245
1728385678,0.060651336,0.017667854,-0.044656597,0.5203693
1728425688,0.07915201,0.04294178,-0.043595865,0.52193207
1728465682,0.06444056,0.050346863,-0.04211828,0.5227354
1728506493,0.098783605,0.05382225,-0.04130629,0.5227755
1728546470,0.06174542,0.05683336,-0.039344206,0.52202785
1728590534,0.08126144,0.058860384,-0.038969338,0.5227568
1728634462,0.048677612,0.062615655,-0.03733282,0.5260558
1728674468,0.061974376,0.073572,-0.036744382,0.52412903
1728718509,0.053899102,0.07727493,-0.035779215,0.5265617
1728758497,0.037981976,0.07581508,-0.034979258,0.52575207
1728802478,0.06505397,0.08713291,-0.03512747,0.5242547
1728843287,0.039919652,0.07393168,-0.03377183,0.52722424
1728887317,0.06792427,0.07783684,-0.034273885,0.5242998
1728931267,0.054374557,0.06613517,-0.03390144,0.52583593
1728975386,0.027952831,0.06483885,-0.033320803,0.5283159
1729019331,0.053051136,0.081722245,-0.033896036,0.52682114
1729060072,0.03472042,0.06725024,-0.03372665,0.5289672
1729104100,0.057198215,0.07001071,-0.034378346,0.525621
1729144134,0.057227585,0.06714457,-0.034334026,0.5277892
1729188137,0.06759164,0.07205762,-0.03501676,0.5259777
1729228084,0.033669706,0.045956317,-0.034469552,0.52947354
1729272068,0.02338597,0.060556464,-0.034363795,0.5288492
1729312105,0.041660145,0.05534275,-0.03419782,0.5283814
1729356914,0.048975475,0.051557105,-0.033088665,0.5294639
1729396922,0.028728124,0.049545508,-0.032432407,0.5266754
1729440885,0.034429368,0.05952587,-0.03142493,0.52668035
1729480875,0.039402544,0.04873144,-0.030659618,0.5300902
1729524931,0.04207538,0.032073416,-0.029371357,0.52946717
1729564872,0.010769442,0.03084526,-0.02791269,0.52983975
1729608886,0.017640598,0.025577676,-0.02656668,0.5292612
1729649703,-0.014826249,0.023396246,-0.024978029,0.5311238
1729689680,0.018643787,0.0176377,-0.023714835,0.5311423
1729733714,-0.006897841,0.017587336,-0.021835374,0.532116
1729773676,0.0012361155,0.028070318,-0.020479448,0.5305541
1729817649,-0.013473798,0.029064618,-0.018874947,0.53268987
1729857674,-0.006712608,0.012351609,-0.01743327,0.5342705
1729901656,-0.023398615,0.020081196,-0.016023431,0.53508127
1729942542,-0.016450228,0.021872051,-0.015070551,0.53588724
1729986533,0.00080730394,0.04840964,-0.014070519,0.534186
1730026506,-0.031385727,0.03755469,-0.012439665,0.5371866
1730070566,0.00024657874,0.051250774,-0.012048527,0.5346201
1730110518,-0.012847852,0.055052023,-0.010767737,0.5345656
1730154522,0.0068106097,0.060690016,-0.010458059,0.5352548
1730194484,0.012098612,0.058559086,-0.009842792,0.5342849
1730235337,0.007361104,0.06911292,-0.009573296,0.533754
1730275291,0.027661724,0.07992756,-0.00951135,0.5339891
1730319356,0.014644029,0.06899214,-0.009092692,0.5349679
1730363341,0.014600318,0.056774795,-0.009140812,0.53664017
1730403387,-0.00014809173,0.067970626,-0.0085476,0.53489554
1730443284,0.028173134,0.08729843,-0.009513714,0.5338268
1730484121,0.033642787,0.08366765,-0.010210715,0.5335518
1730528180,0.022078916,0.0713386,-0.010708084,0.5335802
1730568196,0.029671907,0.07563796,-0.011619579,0.5358191
1730612161,0.028979136,0.079128295,-0.011941262,0.53578603
1730652151,0.0291976,0.06588409,-0.013295159,0.5370488
1730696146,0.0245198,0.07430205,-0.013824183,0.5351997
1730736154,0.045723446,0.07254101,-0.014977534,0.53560394
1730780897,0.04368058,0.05453122,-0.015851863,0.5356423
1730820883,0.017674118,0.06315825,-0.016216308,0.5329776
1730864910,0.0006756437,0.043401353,-0.016534932,0.53462553
1730904935,0.018607689,0.064160585,-0.017280139,0.5351499
1730948882,0.011862791,0.061969068,-0.017524276,0.5380494
1730988877,0.016087022,0.056208163,-0.018180482,0.5369506
1731032899,0.025438465,0.06847143,-0.01864136,0.53469735
1731076854,0.034453236,0.053628456,-0.019219315,0.53585374
1731117690,0.0127816945,0.03499488,-0.018868778,0.5368374
1731161734,0.019961037,0.02565675,-0.01884855,0.5385104
1731201719,0.018114839,0.03252845,-0.018271588,0.5359619
1731245681,0.014706491,0.037568726,-0.017700601,0.5389231
1731285687,0.006162483,0.031181654,-0.017194185,0.5359954
1731329706,-0.0034033884,0.048240125,-0.016532304,0.5360825
1731370523,0.00017902006,0.052559048,-0.016125552,0.5359407
1731414538,0.0018569542,0.048283473,-0.01587439,0.5371747
1731454525,0.0093937535,0.032260474,-0.015466057,0.53613925
1731498563,-0.0016245482,0.02261221,-0.015308437,0.5388541
1731538518,0.0110596875,0.029343918,-0.015648095,0.53647846
1731582529,-0.0034660161,0.02745269,-0.015367006,0.54077864
1731623345,0.023297511,0.018866464,-0.01616242,0.53842837
1731663365,0.011960632,0.025348032,-0.016478758,0.53572994
1731707364,0.01928771,0.040448084,-0.017081922,0.5368664
1731747378,0.016516991,0.022104133,-0.017361857,0.5391769
1731787331,0.029081073,0.016758863,-0.017799674,0.5381519
1731831333,0.031058028,0.027629353,-0.018413024,0.5371912
1731875378,0.007898464,0.02994673,-0.018319957,0.53885925
1731916107,0.03789742,0.015339354,-0.01956516,0.53711694
1731960064,0.023882998,0.029346919,-0.01933153,0.5354188
1732000134,0.05153566,0.030174742,-0.019913603,0.5371822
1732044106,0.024731826,0.02719577,-0.01969578,0.5356868
1732084115,0.023373246,0.015045022,-0.020213058,0.53718525
1732128101,0.026143054,0.017593862,-0.020270552,0.53391707
1732168853,0.025523135,-0.003014015,-0.020468492,0.5378111
1732212890,0.04864032,-0.012175797,-0.020379016,0.53495055
1732252922,0.033152413,0.0014540883,-0.020196512,0.5338776
1732296894,0.07422216,0.0014186554,-0.020502662,0.53127056
1732336868,0.048854526,0.007900794,-0.019835796,0.5342577
1732380947,0.06484401,0.003214418,-0.01959329,0.5326259
1732420933,0.044592734,0.014164591,-0.018918732,0.5341737
1732464896,0.0206602,0.02258325,-0.018291831,0.53568876
1732505697,0.031482227,0.022246988,-0.017770004,0.53544974
1732545705,0.032754343,0.04333063,-0.017435627,0.5327902
1732589703,0.027444754,0.049856268,-0.01675533,0.53361225
1732629691,0.036868893,0.068562806,-0.017160684,0.53105736
1732673670,0.011583999,0.06176512,-0.015900645,0.53272134
1732713671,0.03855399,0.07381529,-0.016176963,0.5353933
1732757714,0.02022229,0.06133882,-0.015730765,0.5349176
1732798484,0.011227061,0.06014405,-0.015474856,0.53678274
1732842589,0.049771428,0.071869425,-0.015799776,0.53426856
1732882487,0.039570596,0.060569584,-0.014969466,0.53752345
1732922492,0.0028005028,0.07288392,-0.01398728,0.53542614
1732966498,0.06576065,0.067833215,-0.014659716,0.5328128
1733010568,0.058748595,0.04076851,-0.014042421,0.5329893
1733050496,0.055116963,0.040099896,-0.013483434,0.53117126
1733095321,0.040969044,0.03444757,-0.013046335,0.5348855
1733135360,0.05213144,0.032450248,-0.012734175,0.5342389
1733175340,0.07291978,0.022441536,-0.013033337,0.5316077
1733219370,0.038243506,0.025474759,-0.012187718,0.5323388
1733259372,0.048435476,0.022900008,-0.012147073,0.53341925
1733300081,0.08366973,0.028844206,-0.01287617,0.53049105
1733340111,0.073958844,0.038609527,-0.012423145,0.53068244
1733384092,0.053410362,0.037340455,-0.011660018,0.5293437
1733424175,0.042704925,0.043575466,-0.011223478,0.5274222
1733468193,0.014211587,0.02143984,-0.009559701,0.52961344
1733508157,0.01790573,0.031115644,-0.008796453,0.5315948
1733552137,0.046744578,0.025914997,-0.008199535,0.5297893
1733592142,0.024444886,0.03978075,-0.006650786,0.5297652
1733636920,0.08163328,0.039474152,-0.0060872408,0.5285991
1733680881,0.06861302,0.046066705,-0.004503131,0.52901024
1733724919,0.06787438,0.047022708,-0.0032358381,0.5291454
1733768878,0.09875915,0.05437709,-0.002416227,0.529104
1733808918,0.11182946,0.08417086,-0.0014420331,0.5267505
1733852926,0.076635234,0.081705384,0.00089295174,0.52859324
1733893694,0.10279782,0.098864086,0.0010828036,0.5245956
1733937642,0.0778219,0.0974205,0.0026569422,0.5262828
1733977681,0.053004943,0.11054852,0.004524128,0.5277059
1734021726,0.07808232,0.11569465,0.0045642564,0.5259597
1734065720,0.04616622,0.122749664,0.006337283,0.5258883
1734109767,0.05036723,0.12250138,0.0071487566,0.5249963
1734149758,0.041439667,0.13126817,0.0077723684,0.5277053
1734189721,-0.0017095646,0.13286716,0.009177967,0.52696633
1734230575,0.02983222,0.1148082,0.008785336,0.5293775
1734274530,-0.012206138,0.10271053,0.009981123,0.5301468
1734314529,-0.007308776,0.081033,0.009980384,0.529715
1734358547,-0.01740986,0.07050464,0.009946059,0.53170764
1734398560,-0.017464554,0.056244723,0.01031534,0.5305486
1734442537,-0.010817786,0.03603493,0.01007784,0.5308932
1734483286,-0.042360745,0.031401135,0.01052261,0.5316115
1734523297,-0.040301267,0.049305215,0.010056689,0.5327539
1734567284,-0.035754688,0.045183923,0.00971685,0.53431827
1734607387,-0.042499967,0.05614563,0.009572391,0.5336865
1734651284,0.008071246,0.07733854,0.008054664,0.5310025
1734691324,-0.019945182,0.082692415,0.0076755993,0.5333894
1734735326,-0.009300719,0.09003503,0.0069435714,0.53120255
1734775432,-0.010743381,0.100155555,0.0060970252,0.5320611
1734820079,-0.05053064,0.09520853,0.00613668,0.5348058
1734860096,-0.04032311,0.07671336,0.004870444,0.5346167
1734904104,-0.045153502,0.09875901,0.0037820977,0.5347625
1734944119,-0.07569885,0.086504474,0.003412041,0.5365195
1734988120,-0.03323005,0.097353,0.0008529849,0.5323393
1735028891,-0.021247273,0.09153502,5.4641474e-05,0.533154
1735068856,-0.016440492,0.080011204,-0.0010353143,0.53322154
1735112897,-0.0032618444,0.06896793,-0.0020388924,0.53302217
1735152894,0.009556438,0.067578666,-0.0030518463,0.5342066
1735196895,-0.037927393,0.05102144,-0.0029381309,0.54055005
1735236892,-0.017739737,0.02920194,-0.004038901,0.53799075
1735280923,0.0043722736,0.05248689,-0.004678116,0.5393744
1735320917,0.019629315,0.039127734,-0.0053248303,0.53888
1735365677,0.03860344,0.036902297,-0.0061387382,0.53692937
1735405686,0.03792809,0.03426685,-0.006158084,0.53783035
1735449713,0.018186126,0.02423427,-0.0062967343,0.54109454
1735489702,0.021002933,0.013261288,-0.006974085,0.5387733
1735533671,-0.009198719,0.034735948,-0.0067500467,0.5398611
1735573679,0.01001775,0.015726797,-0.0072097834,0.5424879
1735614479,0.026641602,0.009366775,-0.008060827,0.5395055
1735654456,0.06879836,0.016627636,-0.009418115,0.53614414
1735698469,-0.0063626864,0.009008186,-0.008690144,0.537993
1735738464,0.026164958,-0.0017865092,-0.009410861,0.53521687
1735782529,-0.008679828,-0.013129941,-0.009505179,0.53839576
1735826531,0.019620905,0.0017155637,-0.0109299105,0.53796566
1735870585,-0.023637516,0.009350047,-0.0112545,0.5365833
1735915277,-0.015448264,-0.0035335638,-0.0123122735,0.5334275
1735955271,-0.031214925,-0.004923729,-0.013573527,0.53524876
1735999314,-0.0032000516,-0.0059039937,-0.014711227,0.5336338
1736039348,0.015965454,-0.011726374,-0.016045712,0.53527945
1736083305,-0.018246567,-0.0054836725,-0.016916864,0.53233045
1736123350,0.0029429148,-0.0075718923,-0.018246043,0.53569496
1736167349,-0.03883631,-0.037182335,-0.0184386,0.5350075
1736208141,9.82785e-05,-0.03723023,-0.019316593,0.53424263
1736252052,0.02932141,-0.0404203,-0.020280285,0.53458416
1736296092,-0.0070701395,-0.038243853,-0.020023465,0.53735656
1736336098,0.010650281,-0.047294457,-0.020281747,0.5347935
1736380146,0.01614078,-0.029685872,-0.019877903,0.5339587
1736420074,0.022495255,-0.045411054,-0.019031147,0.5355324
1736464132,0.09599465,-0.030844918,-0.018665858,0.53172266
1736508915,0.06044922,-0.031133048,-0.016806459,0.5288789
1736552938,0.09202789,-0.01899791,-0.014943531,0.52954364
1736593024,0.106580324,-0.020503854,-0.013229673,0.53123224
1736636881,0.09058237,-0.0015891674,-0.010957827,0.52759606
1736676923,0.10773035,0.020886317,-0.008870688,0.5292952
1736720969,0.08907296,0.011385954,-0.0057953047,0.5301735
1736761717,0.09453605,0.018524636,-0.0040660114,0.5314029
1736801708,0.05228619,0.032753475,-0.0009813992,0.5336954
1736845653,0.08676562,0.026922049,0.001079671,0.5327337
1736885652,0.05513461,0.011049042,0.0040157177,0.5341314
1736929667,0.10390367,0.024428204,0.0059108483,0.53295404
1736969713,0.075099595,0.010198069,0.009237161,0.5312433
1737013676,0.06947367,0.0075031174,0.01157912,0.53107905
1737053672,0.06711291,0.015114967,0.0136146415,0.5285993
1737098505,0.06029991,0.01187979,0.015789822,0.5289189
1737142535,0.02699054,0.009364286,0.018379495,0.52901495
1737186554,-0.02952544,0.00624168,0.021302193,0.53104496
1737230516,-0.022584002,-0.0016724175,0.023457509,0.5313081
1737270520,-0.014730859,-0.012654528,0.025218558,0.5254534
1737314492,-0.03319492,-0.021234853,0.027440917,0.5266234
1737355332,-0.0087792985,-0.012694675,0.028318092,0.52541745
1737399337,-0.015773293,-0.020654634,0.030443396,0.52577436
1737439323,-0.024425304,-0.01753896,0.031850003,0.52309513
1737483316,-0.035157837,-0.024888216,0.03390648,0.52379006
1737523304,-0.026021076,-0.003495732,0.03509419,0.5244809
1737567360,-0.030609343,-0.011909566,0.03682721,0.5266065
1737607363,-0.0041270875,-0.036943752,0.037708305,0.5280275
1737648184,-0.04055887,-0.033480912,0.038965248,0.5261715
1737688178,-0.009173004,-0.037231285,0.0391042,0.53113467
1737732102,-0.014569933,-0.04291922,0.039790455,0.5303007
1737776145,-0.0054173097,-0.04908602,0.03966517,0.52908605
1737820108,0.016797954,-0.06268753,0.03899692,0.52811223
1737864125,0.035523072,-0.083410606,0.03789103,0.52710634
1737904928,0.034760825,-0.08150603,0.036874246,0.5254036
1737948847,0.050424907,-0.08336312,0.035307925,0.52535766
1737988851,0.032329656,-0.07091734,0.034276888,0.5273428
1738032898,0.033984438,-0.085970275,0.032626085,0.5278011
1738072896,0.06679607,-0.08412299,0.030762129,0.52845204
1738116859,0.08063324,-0.08174749,0.029130375,0.5289254
1738157687,0.07926962,-0.06570908,0.027233146,0.52820486
1738197671,0.07916608,-0.07599027,0.0253013,0.52889824
1738241728,0.1249546,-0.065951206,0.02365055,0.52710867
1738281710,0.120113626,-0.060817495,0.02186793,0.5269399
1738325670,0.16630957,-0.063496254,0.019964209,0.5252651
1738365685,0.14281034,-0.053258196,0.018505555,0.524669
1738409715,0.16448314,-0.046035677,0.0164392,0.5226436
1738450566,0.17118193,-0.067146614,0.014851492,0.5273803
1738494648,0.1589367,-0.04583664,0.013693369,0.52515686
1738534507,0.20919684,-0.036007043,0.011299323,0.5249032
1738578562,0.20231819,-0.040738784,0.009290896,0.5257912
1738618512,0.17559528,-0.042843334,0.0074962163,0.52230275
1738662486,0.2372569,-0.04282871,0.004554233,0.52160084
1738703373,0.18796581,-0.04991376,0.0030745626,0.52283275
1738747285,0.1746853,-0.039978687,0.0012831916,0.5195762
1738787372,0.20080334,-0.029764794,-0.0014601464,0.52063626
1738831305,0.18236658,-0.038096078,-0.0036490476,0.5208898
1738871286,0.14561313,-0.043250255,-0.005046489,0.5197166
1738915295,0.19342339,-0.054221395,-0.008024393,0.51707435
1738959278,0.10822562,-0.078394115,-0.008752592,0.52069205
1738999301,0.1090191,-0.08261747,-0.011214436,0.519737
1739040097,0.08465668,-0.074905194,-0.013250889,0.5210007
1739080095,0.10000095,-0.08829366,-0.015361506,0.5208405
1739124073,0.11342101,-0.096493885,-0.016920283,0.51904505
1739164068,0.089353286,-0.090421416,-0.018592814,0.5220902
1739204101,0.07328237,-0.08092315,-0.01990715,0.52180207
1739244134,0.07888574,-0.08809095,-0.021217335,0.5223082
1739288867,0.09760485,-0.078120425,-0.022595452,0.5184621
1739328871,0.06742207,-0.07744314,-0.023583248,0.52124405
1739372895,0.06541877,-0.07802037,-0.024303142,0.5192233
1739412887,0.06664827,-0.07540565,-0.025229407,0.52060133
1739452933,0.056233726,-0.07833974,-0.026164025,0.5229375
1739496877,0.09205905,-0.07033863,-0.026913889,0.5220702
1739540919,0.09022784,-0.08856159,-0.026827319,0.519717
1739580898,0.07795546,-0.07006011,-0.027218778,0.5181368
1739621729,0.06381433,-0.07738988,-0.026707109,0.52039677
1739661728,0.03751264,-0.065549135,-0.02632531,0.5216729
1739705697,0.07177017,-0.07387274,-0.025591407,0.52180964
1739745656,0.083256476,-0.058592625,-0.0246302,0.520427
1739789682,0.044926915,-0.048391975,-0.021959545,0.519994
1739833651,0.08627486,-0.044629447,-0.020506907,0.51950747
1739874529,0.070986636,-0.046301674,-0.018415002,0.5213577
1739914472,0.07909299,-0.028132563,-0.017324582,0.5176241
1739958515,0.12628023,-0.0371128,-0.015810955,0.52251583
1740002482,0.09449552,-0.030837355,-0.013336898,0.5247547
1740042511,0.09654941,-0.015354304,-0.01129385,0.51989824
1740086516,0.14637208,-0.013384104,-0.010315626,0.5189024
1740126516,0.12169379,-0.0028371394,-0.008622513,0.5173934
1740171359,0.12556821,-0.024864431,-0.0073360647,0.5216921
1740211371,0.14391749,-0.0052256067,-0.006510856,0.5218892
1740255322,0.07869618,-0.01640473,-0.004588151,0.5245245
1740299360,0.12914167,-0.018621836,-0.005262292,0.5227894
1740343269,0.06711502,-0.009654013,-0.0047959327,0.52372557
1740383288,0.10516051,-0.026622228,-0.0050368425,0.5266489
1740427313,0.056109663,-0.0246533,-0.004947535,0.52707237
1740468152,0.052591205,-0.031564444,-0.0044003897,0.5250308
1740508153,0.046381705,-0.04073497,-0.0043924903,0.52769166
1740552071,0.06772328,-0.026266411,-0.00527865,0.5270474
1740592105,0.055323265,-0.024333058,-0.0050872136,0.524655
1740636121,0.080576666,-0.01773204,-0.006668238,0.5229686
1740676127,0.09491829,-0.048707258,-0.0068012583,0.5266506
1740720070,0.00659815,-0.041214626,-0.0061711594,0.52761996
1740760875,0.03468489,-0.048918996,-0.005972658,0.5259414
1740804922,0.08488603,-0.04055378,-0.006713479,0.5229642
1740844932,0.07321718,-0.050006293,-0.006724393,0.5252438
1740888878,0.059922542,-0.039680257,-0.00650928,0.5191822
1741815304,0.105776444,-0.12428327,0.004541977,0.5181898
1741855337,0.13502005,-0.10975555,0.004440708,0.5182244
1741900075,0.051298976,-0.11362396,0.005309599,0.51962644
1741940080,0.04806364,-0.10517804,0.0045798705,0.51457024
1742818525,0.023045179,-0.17452794,-0.00431573,0.5226802
1742862571,0.04256219,-0.18255767,-0.004428322,0.5284854
1742902582,0.059869457,-0.16634668,-0.004945634,0.5228592
1742947292,0.033989567,-0.14187771,-0.005501667,0.5215389
1742987334,0.012370912,-0.13047576,-0.0058524893,0.523845
1743031328,0.02795863,-0.13231198,-0.0058388645,0.5230996
1743071379,0.02010768,-0.13733317,-0.0055379067,0.5256658
1743115302,0.014032044,-0.13845637,-0.0051624645,0.5243291
1743155287,0.051149953,-0.13232358,-0.005191808,0.52436846
1743199356,0.017345153,-0.12893829,-0.0049561015,0.5265083
1743239275,0.036405742,-0.112305626,-0.004828819,0.52111495
1743280113,0.0072237374,-0.11286251,-0.004456651,0.52467567
1743324088,0.01800791,-0.122678995,-0.0043624956,0.5278576
1743364100,0.030378044,-0.123302676,-0.0041604578,0.5240457
1743408190,-0.005528671,-0.111733474,-0.0040623443,0.52671033
1743448157,0.015347185,-0.091299236,-0.004033703,0.52651495
1743492097,0.019982155,-0.070896044,-0.0041004578,0.5270003
1743532074,0.019175328,-0.075924374,-0.0044131293,0.526879
1743572890,0.028278498,-0.07141799,-0.0042108167,0.5276997
1743613051,0.036823858,-0.06268894,-0.0044118958,0.525816
1743656920,0.05292698,-0.04652837,-0.00503782,0.52647024
1743700887,0.0013011823,-0.035980683,-0.0046961713,0.52574235
1743744914,0.07977413,-0.018780438,-0.0061182585,0.5237116
1743784906,0.043711763,-0.02767028,-0.006071212,0.52871424
1743828878,0.012958501,-0.021318737,-0.006767148,0.5266727
1743869667,0.0027117415,-0.011375579,-0.0073311827,0.524953
1743909682,-0.014638742,-0.006265713,-0.0073610228,0.5270683
1743949682,-0.005969003,0.018042084,-0.0085049085,0.52271223
1743993711,0.043242358,0.012302045,-0.010178896,0.52559555
1744037682,-0.025021467,0.02868354,-0.009568173,0.52937
1744077680,-0.02072902,0.016393084,-0.010608841,0.52974075
1744121747,-0.007148427,0.031843733,-0.012423719,0.5285914
1744162557,-0.054523304,0.028566206,-0.012497484,0.5296519
1744206536,-0.0343512,0.040162403,-0.013663822,0.5258968
1744246522,-0.02770885,0.037827257,-0.014597533,0.52795005
1744290560,0.0015578327,0.035076376,-0.015395671,0.5235883
1744330568,-0.022293448,0.023993079,-0.0151112005,0.52606755
1744374508,-0.020512298,0.013346759,-0.015319808,0.5258398
1744414537,-0.010973894,0.011094112,-0.015201236,0.5261229
1744459291,-0.08184745,0.0011059179,-0.014199322,0.5302457
1744503306,-0.024623897,0.008606897,-0.014532678,0.5301792
1744543307,-0.032336865,0.0020314162,-0.013833439,0.53074676
1744587341,-0.052454993,-0.0032321715,-0.012391547,0.5266311
1744627340,-0.0599669,-0.010629918,-0.011469848,0.5296078
1744671289,-0.005555662,-0.025875479,-0.01136114,0.5270789
1744711300,-0.043723475,-0.021007597,-0.009694388,0.52732855
1744752092,-0.060685463,-0.035238326,-0.0076706614,0.5318585
1744792094,-0.04496898,-0.043196294,-0.0068418058,0.5280686
1744836142,-0.01827573,-0.05453367,-0.0057632998,0.52924573
1744876165,-0.0054776743,-0.038223427,-0.0047132885,0.52567214
1744920078,-0.02959381,-0.05604959,-0.0029308968,0.52745813
1744960078,-0.010909957,-0.05733565,-0.0019975656,0.5293989
1745004885,-0.046995766,-0.07469627,-0.0008813931,0.5312463
1745044896,-0.053102225,-0.0755542,0.00085859664,0.5309527
1745088886,-0.05968085,-0.06329047,0.0020647033,0.5309534
1745128876,-0.075979635,-0.06720811,0.003471106,0.53411907
1745172900,-0.011027764,-0.05711089,0.0037820127,0.5319225
1745212912,-0.047048874,-0.049291067,0.004795348,0.5302995
1745252919,-0.04952078,-0.06110346,0.005357857,0.5347739
1745296870,-0.012642872,-0.041768417,0.0054882895,0.53158534
1745337679,-0.025984384,-0.040762406,0.0059446003,0.5284994
1745377679,-0.019495659,-0.031800132,0.006138831,0.5298377
1745421722,-0.0025331774,-0.019550005,0.006004597,0.5290896
1745465681,-0.045581825,-0.014985171,0.0068283416,0.52830374
1745509708,0.005162497,-0.012196732,0.005870307,0.5260733
1745549742,-0.03995225,-0.004354117,0.006160942,0.52788424
1745590495,-0.060305048,-0.00022835724,0.005839488,0.5305666
1745634504,-0.042623624,-0.0068330346,0.0050488007,0.5284217
1745674495,-0.04167888,-0.0021446485,0.0042834566,0.5292868
1745718557,-0.024163894,-0.0042014145,0.0024792464,0.5296939
1745758573,-0.059012774,-0.0010472664,0.0021146704,0.531529
1745802531,-0.06565282,0.0059197447,0.0008779018,0.5335423
1745842535,-0.072451845,0.0012221433,-4.01536e-05,0.5355563
1745886553,-0.09303141,0.035075847,-0.0008441003,0.53406525
1745927353,-0.07800874,0.037209798,-0.0022185612,0.53495383
1745971312,-0.09255033,0.0458056,-0.0032779195,0.5343074
1746011338,-0.10896003,0.05167442,-0.00396475,0.5353028
1746051332,-0.099634215,0.03715192,-0.0050918455,0.5368009
1746095334,-0.09703406,0.0374791,-0.0061263577,0.5377353
1746139308,-0.055450182,0.035019152,-0.007169123,0.5355302
1746180049,-0.05556432,0.040268786,-0.006376881,0.53491515
1746220058,-0.05873763,0.038411483,-0.0065630674,0.5356651
1746264062,-0.03639418,0.010228277,-0.0075890115,0.5338269
1746304138,-0.02132405,0.010818905,-0.007859946,0.5337818
1746348123,-0.023650061,-0.0068686404,-0.0077861324,0.5353469
1746388138,-0.03431666,-0.0306192,-0.007370678,0.53944933
1746432883,-0.04636657,-0.015540355,-0.0068817483,0.5360718
1746472886,-0.050779656,-0.010733027,-0.0067245383,0.5346154
1746516923,-0.028391711,-0.016215552,-0.006645665,0.53145176
1746556924,-0.06558244,-0.008557237,-0.005273966,0.53352416
1746600887,-0.0151147675,-0.015927412,-0.0053527276,0.5311411
1746644933,-0.024629002,-0.025725987,-0.0043460904,0.5335155
1746688891,-0.077017136,-0.030115357,-0.0031388896,0.53654164
1746729686,-0.050382406,-0.026777986,-0.0025181978,0.536164
1746769708,-0.0198161,-0.024493966,-0.0019556708,0.5364747
1746813714,-0.053793717,-0.021451607,-0.001070356,0.5396401
1746853730,-0.04578961,-0.024850637,-0.0005673741,0.5392281
1746897711,-0.059746377,0.0017339523,0.00022641213,0.54121464
1746937722,-0.048012692,-0.0033971462,0.0005134675,0.54096806
1746981774,-0.029008843,0.017785957,0.00065878214,0.53969467
1747021779,-0.0368732,0.017462598,0.00065155444,0.54062897
1747066499,-0.024128383,0.015447514,0.00055274693,0.5366421
1747106513,-0.032862205,0.01852501,0.0002678663,0.54077715
1747150533,0.019854115,0.018286787,-0.0011480734,0.5391235
1747190585,-0.007299371,0.03240114,-0.0009923624,0.5379
1747234489,0.05375208,0.033787202,-0.0030624075,0.5363224
1747278523,0.021292364,0.037155315,-0.002906342,0.53916675
1747319294,0.034984857,0.04224614,-0.0033823955,0.538223
1747363274,0.055140276,0.054761365,-0.00332586,0.53296256
1747403364,0.086277455,0.056027807,-0.0039399588,0.5347929
1747447300,0.123341165,0.0460834,-0.0048777885,0.531512
1747487318,0.10237527,0.03070429,-0.00455296,0.5333854
1747531281,0.07563558,0.023271654,-0.0036893145,0.534807
1747571282,0.10271247,0.039925802,-0.004563179,0.53097653
1747616079,0.04072339,0.016875653,-0.0033651942,0.5319856
1747656132,0.058178812,0.0206623,-0.0034279241,0.53245264
1747700141,0.05848667,0.0261406,-0.0036564688,0.53568006
1747740076,0.041851956,0.02564845,-0.003315561,0.53659546
1747784110,0.07916493,0.04215743,-0.003940082,0.53761125
1747824964,0.06840012,0.045391068,-0.0033475652,0.5368832
1747864922,0.06486667,0.049090646,-0.0034505483,0.537211
1747904894,0.042840417,0.0514909,-0.0026242593,0.5379925
1747948856,0.060466997,0.055596866,-0.003122712,0.5361762
1747988854,0.067072935,0.06112882,-0.003753446,0.53664917
1748032884,0.056900963,0.058876313,-0.0035388158,0.5361845
1748072900,0.056716964,0.05097032,-0.003628262,0.53962624
1748113752,0.03137828,0.063622326,-0.0031119927,0.5364221
1748157752,0.065967605,0.061645888,-0.0035106298,0.5334235
1748197725,0.057646923,0.06535287,-0.0036190064,0.5348651
1748241751,0.039737802,0.04501674,-0.0030995447,0.5346082
1748281734,0.050331827,0.053576708,-0.0036872718,0.5333981
1748325700,0.005621314,0.04169265,-0.0023648483,0.5387308
1748366520,0.050505754,0.041741624,-0.0033827408,0.5359247
1748410506,-0.032198444,0.033114947,-0.0022266032,0.53598094
1748454485,-0.03851845,0.049040228,-0.003233999,0.5370573
1748498459,0.012700681,0.060615454,-0.004179755,0.53544384
1748538480,-0.0022271487,0.047556467,-0.0032942323,0.5377011
1748578463,-0.03055645,0.046789072,-0.0030752132,0.53723556
1748618542,-0.041692328,0.05351519,-0.0027975405,0.53755903
1748658572,-0.025790518,0.025672343,-0.003099912,0.5387022
1748702540,-0.020934857,0.046061218,-0.004065413,0.53486276
1748746506,-0.016073316,0.04360994,-0.004609401,0.5335493
1748787331,-0.022987265,0.022754813,-0.0049633086,0.5370863
1748827331,-0.040217962,0.024068043,-0.0056056906,0.5338299
1748871279,-0.048553776,0.023258964,-0.0058992878,0.535135
1748911297,-0.026697375,0.03368693,-0.0069793304,0.5345748
1748955332,-0.065986544,0.012899465,-0.0065127783,0.53741086
1748996081,-0.04245876,0.004949288,-0.008000582,0.53759366
1749040140,-0.09545391,-0.004948588,-0.007801786,0.54142016
1749080055,-0.08133305,-0.013826799,-0.008742875,0.5427875
1749124062,-0.08205712,0.010421913,-0.009650044,0.54122007
1749164100,-0.08544512,0.010539369,-0.010151372,0.54086846
1749208091,-0.045773447,0.004288056,-0.011405695,0.5392499
1749248101,-0.08160999,0.011442185,-0.011642969,0.5419391
1749288886,-0.08770227,0.0008832864,-0.012066372,0.54187614
1749328870,-0.07531767,-0.0045243157,-0.012808294,0.5398518
1749372868,-0.06957167,-0.0038304836,-0.013722325,0.53889865
1749412938,-0.06383401,-0.0070631914,-0.014382233,0.5378733
1749456897,-0.067622006,-0.028557092,-0.01528139,0.5377996
1749500882,-0.09097756,-0.011592966,-0.015606289,0.5403967
1749541695,-0.07740236,-0.025254,-0.015946846,0.5408296
1749585759,-0.039507754,-0.021512141,-0.015951617,0.53693026
1749625746,-0.049771037,-0.021960417,-0.015767356,0.5370921
1749669690,-0.0066454494,-0.046975996,-0.016469164,0.53598166
1749709653,0.001433974,-0.047001176,-0.015702883,0.5379227
1749753740,-0.01908344,-0.041209325,-0.014335038,0.53967166
1749793754,0.0047282036,-0.039010316,-0.013589275,0.53952855
1749838486,-0.018764652,-0.03796251,-0.011754306,0.5416742
1749882515,0.019869814,-0.027803704,-0.009842031,0.53754663
1749926504,0.014267465,-0.025453107,-0.007497868,0.5374405
1749970538,-0.019546818,-0.03431586,-0.0051157055,0.5407672
1750010529,-0.007963559,-0.042688794,-0.0032841726,0.5407471
1750054498,0.017816272,-0.025267178,-0.0017063065,0.5422429
1750098547,0.0794289,-0.001797934,-0.000750427,0.5366429
1750143397,0.07991595,-0.0031780594,0.0011099516,0.5315245
1750183358,0.058494877,-0.004730055,0.0022998727,0.5347601
1750223309,0.057092264,0.0033584177,0.0029781698,0.53385067
1750267319,0.0784766,0.011990699,0.003401755,0.5302056
1750311294,0.06583645,0.0040141596,0.0037719526,0.5308752
1750351253,0.05318477,0.016645024,0.0040186197,0.5280337
1750395304,0.04564627,0.0023523387,0.0038895947,0.5316771
1750436148,0.03874206,0.02369521,0.004011818,0.52995443
1750476158,0.039747562,0.024041178,0.0043467055,0.53045136
1750520145,0.077996224,0.024861036,0.0036938877,0.5326567
1750560124,0.080118224,0.035262458,0.0042539244,0.527813
1750604152,0.03914111,0.023338528,0.005076055,0.53318226
1750644165,0.074576765,0.026211556,0.005141768,0.5274893
1750688157,-0.0031288897,0.014212524,0.006672047,0.532495
1750728881,0.03411054,0.019307246,0.0061437,0.5296828
1750772870,0.001817922,0.03626053,0.007088283,0.5304683
1750812903,-0.004170885,0.031685032,0.0070413616,0.5297998
1750856849,0.022147266,0.036827676,0.0061704395,0.5289644
1750900840,0.020563005,0.04887768,0.005849241,0.52729267
1750944903,-0.011820996,0.050042998,0.0063461084,0.5276264
1750985708,-0.019545596,0.053715326,0.005918652,0.52787524
1751025723,0.030842822,0.07099838,0.0047045555,0.5285489
1751069687,-0.018014079,0.071524456,0.005001955,0.52751786
1751109681,-0.035274822,0.08141702,0.004350623,0.5251808
1751153716,-0.022464275,0.073302016,0.0031903768,0.52594626
1751193742,-0.0363839,0.08170157,0.0023630229,0.52760535
1751237678,0.016753359,0.07922754,0.00010207895,0.5266698
1751278479,0.00036745396,0.08698547,-0.00089116767,0.52865887
1751322557,0.00096871704,0.07233931,-0.0016658498,0.52935994
1751362524,0.009192298,0.07062719,-0.0027145077,0.5263831
1751406528,-0.057241708,0.056822512,-0.0024842515,0.52925295
1751446461,-0.04861451,0.060672604,-0.0033779575,0.53045404
1751490539,-0.0024726675,0.058448415,-0.005218092,0.53170973
1751530484,-0.010253356,0.06306339,-0.0056307013,0.5320577
1751571390,-0.05263321,0.058109865,-0.0053239753,0.5340832
1751611347,-0.04699513,0.054743547,-0.005836779,0.5318018
1751655348,-0.013226923,0.05630116,-0.007506972,0.53133076
1751699366,-0.053772416,0.06277035,-0.0075533385,0.5347802
1751743324,-0.07544708,0.08141956,-0.007133142,0.5330768
1751783349,-0.089129604,0.078707784,-0.0073854066,0.53488356
1751823353,-0.08264977,0.05951709,-0.0074219643,0.5369709
1751868168,-0.094419844,0.07374618,-0.007888289,0.5356486
1751908181,-0.10299696,0.06737132,-0.007981191,0.53378046
1751952067,-0.07075934,0.056829188,-0.008748626,0.5342074
1751992118,-0.09182127,0.070753865,-0.008465662,0.5344918
1752036089,-0.03241709,0.06329817,-0.009490819,0.532302
1752076938,-0.03809029,0.07438229,-0.009252907,0.5347978
1752120881,-0.047719847,0.053480037,-0.009335807,0.53448564
1752160884,-0.038274445,0.04811842,-0.008890153,0.53550106
1752204919,-0.060498722,0.04028221,-0.008502889,0.53957385
1752248874,-0.077932745,0.06950798,-0.00796628,0.5362169
1752288890,-0.08442072,0.04566741,-0.0071579716,0.539707
1752328867,-0.069161385,0.043150797,-0.0072913836,0.5363835
1752372924,-0.09262744,0.055432834,-0.006920907,0.5243328
1752413715,-0.09689806,0.05051106,-0.006162877,0.51950717
1752453708,-0.07647399,0.02364487,-0.00554428,0.5141182
1752497673,-0.07701994,0.04889382,-0.0047392184,0.50600445
1752537687,-0.073980734,0.029594162,-0.0039240536,0.50128645
1752581745,-0.019579671,0.04302072,-0.0041246926,0.49647716
1752621743,-0.042079788,0.0344663,-0.0025719434,0.49642894
1752665680,-0.051743656,0.03560827,-0.0015491706,0.49172592
1752706472,-0.074449115,0.031676847,-2.7362683e-05,0.4911773
1752750523,-0.03363924,0.031479966,-4.305499e-05,0.49045005
1752790527,-0.016071862,0.04881057,0.00030381235,0.48838374
1752834528,-0.030416394,0.04287978,0.0010236616,0.48829174
1752874483,0.585179,0.87266463,-0.06166574,0.47801238
1752918571,0.5695327,0.87266463,-0.058426842,0.4846996
1752958499,0.5505301,0.87266463,-0.058037236,0.49410808
1752999372,0.5004841,0.87266463,-0.058922917,0.50527555
1753039334,0.4337704,0.87266463,-0.058512375,0.5218485
1753083336,0.37022188,0.87266463,-0.060425527,0.53071594
1753123347,0.29535818,0.87266463,-0.060747717,0.5452844
1753167382,0.21156937,0.8618248,-0.058442973,0.5544158
1753211329,0.16227627,0.73910594,-0.057874355,0.55498993
1753252093,0.12220351,0.62539,-0.056688085,0.5592723
1753296105,0.099799365,0.5119088,-0.05562459,0.5620271
1753336166,0.07048359,0.42679515,-0.053871397,0.56408584
1753380068,0.19993657,-0.766259,0.7853982,0.52210844
1753420072,0.16343892,-0.87266463,0.7853982,0.50858724
1753468148,0.07576851,-0.87266463,0.7853982,0.49674374
1753508914,0.057213493,-0.87266463,0.7853982,0.49626637
1753548911,0.011401532,-0.87266463,0.7853982,0.49763742
1753592874,-0.0423447,-0.87266463,0.7853982,0.5083349
1753636893,-0.08237562,-0.81774265,0.7853982,0.51625645
1753684958,-0.12033507,-0.6643816,0.7853982,0.52405596
1753724960,-0.16197607,-0.55533934,0.7853982,0.52708787
1753772974,-0.20039345,-0.42117047,0.7853982,0.5345942
1753813062,-0.18909055,-0.3200441,0.7853982,0.5330752
1753853714,-0.19458692,-0.2111193,0.7853982,0.5333785
1753897680,-0.20007078,-0.14243695,0.7853982,0.5311602
1753937670,-0.20593192,-0.057676017,0.7853982,0.53144634
1753981757,-0.189399,-0.009239478,0.7853982,0.5291212
1754025679,-0.17259595,0.032870196,0.77254915,0.527991
1754065697,-0.10915823,0.07002016,0.71676064,0.5231529
1754105679,-0.07663574,0.09182327,0.66246986,0.52220756
1754150484,-0.026515536,0.13165307,0.6043683,0.5142674
1754190532,-0.008523637,0.13633591,0.5560803,0.5137042
1754234479,0.045573745,0.12558505,0.49801826,0.5085478
1754274474,0.036106884,0.17766008,0.4494378,0.5039328
1754322557,0.05636035,0.17015752,0.3973062,0.49891898
1754362470,0.13113028,0.13588916,0.35560668,0.5034618
1754403270,0.10691243,0.14848222,0.31852177,0.49607038
1754451354,0.1277304,0.09162515,0.27911848,0.49597955
1754491389,0.19740565,0.07430229,0.2467384,0.4947774
1754535319,0.14749086,0.061748736,0.20873415,0.4946679
1754579395,0.18905541,0.015087706,0.17745353,0.4912524
1754623311,0.20426536,0.0057493607,0.14924632,0.49359697
1754668163,0.18814974,-0.013910597,0.123478174,0.48988315
1754708159,0.20933339,-0.034056265,0.104236424,0.48905972
1754752102,0.17187467,-0.067973346,0.08657099,0.4900476
1754792108,0.20404233,-0.07735258,0.06581392,0.4895237
1754832093,0.2190536,-0.096152864,0.05064258,0.49162585
1754872074,0.20200847,-0.1063298,0.037158605,0.4924655
1754916137,0.23484315,-0.07862454,0.02577722,0.48814815
1754956873,0.19025852,-0.10814448,0.016083913,0.49386284
1755000847,0.17668448,-0.11796599,0.009049412,0.49376422
1755040871,0.17194696,-0.12063795,0.0040844153,0.49670026
1755084923,0.15470436,-0.124886855,-0.0011740202,0.5003963
1755124917,0.1621991,-0.106304556,-0.005542358,0.496784
1755168888,0.14806394,-0.10554013,-0.019207861,0.49757084
1755212918,0.15238923,-0.10049199,-0.024370912,0.49946916
1755253029,0.20381236,-0.09302836,-0.029291593,0.4951219
1755293718,0.16030312,-0.09801456,-0.032660075,0.50343966
1755333716,0.17224146,-0.108003214,-0.032551832,0.49662167
1755377679,0.16259862,-0.12279317,-0.03228091,0.49496335
1755417672,0.15222818,-0.14343959,-0.037531093,0.5021147
1755461721,0.14351839,-0.1414398,-0.03636768,0.5028111
1755502527,0.0887682,-0.13318995,-0.03793797,0.4993331
1755550470,0.19687138,-0.1220369,-0.039529644,0.50044864
1755590507,0.077172875,-0.11407295,-0.038831398,0.5014612
1755638531,0.20035946,-0.12982762,-0.03634221,0.5046562
1755678492,0.12751192,-0.113722235,-0.03347832,0.50133175
1755722523,0.09453827,-0.3529492,-0.02367839,0.5069558
1755762475,-0.01092476,-0.58007336,-0.027391423,0.50230944
1755802480,-0.021055074,-0.700948,-0.026720073,0.5007226
1755847282,-0.04255146,-0.72698134,-0.028201232,0.5022362
1755891345,-0.060359906,-0.7718755,-0.030676942,0.5015411
1755935294,-0.16452739,-0.7824558,-0.035740357,0.50998676
1755979327,-0.17429985,-0.7162513,-0.03770361,0.5098408
1756023364,-0.18852961,-0.6483502,-0.039092824,0.5103099
1756067363,-0.18457335,-0.6168431,-0.040499885,0.51187783
1756108173,-0.18118422,-0.5654458,-0.051566996,0.5120518
1756156052,-0.12180835,-0.4843813,-0.051783025,0.5170629
1756196101,-0.16343395,-0.40949687,-0.053482518,0.5070962
1756244080,-0.13975474,-0.39634758,-0.054630063,0.5170971
1756284157,-0.14402288,-0.31404856,-0.04959833,0.5132963
1756328156,-0.04593844,-0.24870849,-0.04399293,0.5083433
1756372080,-0.032065243,-0.23156057,-0.040032566,0.5072464
1756412916,-0.08950718,-0.20653087,-0.034704175,0.50919884
1756456985,-0.051104005,-0.18151507,-0.039062493,0.5113284
1756500915,0.021075957,-0.14585344,-0.03449796,0.5087404
1756544974,0.082784,-0.12984294,-0.030656071,0.5068577
1756584948,0.046408046,-0.091142714,-0.023138138,0.5055558
1756628879,0.067614935,-0.10477217,-0.021140702,0.50863826
1756669657,0.050248995,-0.071278766,-0.013763175,0.5035843
1756709652,0.06832046,-0.05534826,-0.0076352684,0.5064659
1756753688,0.115890905,-0.025271943,-0.006919627,0.5049734
1756793721,0.0551312,-0.023019336,-0.0036355087,0.5155433
1756837677,0.044491995,0.0027533073,2.1718286e-07,0.518618
1756877675,0.08158771,0.028011877,0.005415385,0.51552993
1756921722,0.049112454,0.03910692,0.0075465115,0.51961005
1756961703,0.022391407,0.030958435,0.009861418,0.52744836
1757006493,-0.0013822289,0.018576268,0.013069083,0.531229
1757046489,0.015059101,0.021737043,0.013007373,0.5280225
1757090535,0.010870794,0.01843097,0.011103944,0.53351396
1757130522,0.031109177,-0.0019027835,0.00930757,0.5378408
1757174502,-0.0066178055,0.005719262,0.010096416,0.536945
1757218552,-0.015383089,-0.013609221,0.00881644,0.53681296
1757259269,-0.03975363,-0.022258766,0.008991648,0.5379604
1757303301,-0.027964704,-0.014444998,0.01014376,0.5389602
1757343295,0.004294583,-0.032742664,0.00665983,0.5429302
1757387328,-0.011520148,-0.027475704,0.0074730352,0.53509676
1757427299,-0.028398104,-0.057288103,0.0064442386,0.53878856
1757471317,-0.033727933,-0.07450569,0.006604469,0.54023945
1757511285,-0.032907195,-0.09037827,0.005882142,0.53770155
1757556120,-0.044161938,-0.10438365,0.006320244,0.53345144
1757596159,-0.02152673,-0.12106107,0.005719767,0.53146744
1757640128,-0.047661707,-0.12347482,0.0061016623,0.53522146
1757684117,-0.016225368,-0.13267818,0.005878078,0.527397
1757724891,-0.03747545,-0.13933817,0.006270014,0.52641606
1757768903,-0.05642944,-0.14753695,0.0064975894,0.5307568
1757808878,-0.0951324,-0.15327476,0.0066398894,0.5342498
1757852858,-0.033336792,-0.15969206,0.0056202137,0.5310307
1757892850,-0.055473827,-0.15657009,0.0050723464,0.5286919
1757940850,-0.04963115,-0.17345528,0.0040042177,0.52844083
1757980899,-0.07970272,-0.16662566,0.0032884553,0.5317603
1758024926,-0.06595436,-0.16303897,0.0024149334,0.5257614
1758064923,-0.0657161,-0.17108633,0.0017085171,0.5256296
1758108872,-0.06413515,-0.18434213,0.0011725309,0.52848446
1758153772,-0.08074934,-0.16396074,0.0017050033,0.52725977
1758193775,-0.07402594,-0.1654488,0.002313997,0.52922636
1758241748,-0.06604185,-0.18430819,0.002049052,0.5289486
1758281777,-0.09209961,-0.1880748,0.0030363745,0.5311984
1758325738,-0.09090508,-0.17754376,0.0049257837,0.5312581
1758365725,-0.031748123,-0.16992395,0.0057341624,0.52636504
1758406465,-0.05068104,-0.18625316,0.007094113,0.5256178
1758450455,-0.07152919,-0.19129525,0.007936754,0.5299827
1758498457,0.009472373,-0.17573202,0.0097413,0.5216658
1758546498,-0.061779916,-0.18178368,0.011251084,0.5269619
1758586509,-0.039802987,-0.18079579,0.012430085,0.52677065
1758634523,-0.026326928,-0.1777556,0.012604443,0.5228377
1758683310,-0.06296601,-0.18049052,0.012879942,0.52185905
1758731346,0.013354412,-0.19337799,0.013692876,0.52443826
1758771317,-0.026582874,-0.1936015,0.015883371,0.5253251
1758815338,-0.02538314,-0.20632115,0.016044512,0.5224599
1758855304,-0.0011206977,-0.21343322,0.015433268,0.5218074
1758899396,-0.044679176,-0.21692117,0.01464271,0.5265235
1758940139,-0.005687983,-0.21680498,0.014273031,0.52561593
1758988126,-0.0229351,-0.21391809,0.013968427,0.5239493
1759028132,-0.011132994,-0.22536004,0.013269817,0.5215388
1759068153,-0.020657657,-0.20917167,0.013055704,0.5195768
1759116097,0.0097579425,-0.20103134,0.012826138,0.51633626
1759156108,0.05026955,-0.20859791,0.012178074,0.515813
1759200884,-0.023486095,-0.21368076,0.010641186,0.5213713
1759244909,-0.0064222775,-0.19307241,0.008897873,0.5194092
1759288888,0.054358438,-0.2215796,0.006943036,0.5237484
1759328875,0.041100156,-0.22657603,0.0052940696,0.52069575
1759372926,0.05538372,-0.20588055,0.0056193015,0.5178504
1759412935,0.06613153,-0.20088947,0.0044887094,0.51277006
1759456903,0.08356492,-0.22090264,0.0031569027,0.51451445
1759500916,0.04541524,-0.20835966,0.0021516855,0.512772
1759541724,0.05551061,-0.20537011,0.0015097521,0.51565826
1759585709,0.028292546,-0.22050579,0.0010487871,0.51792264
1759625739,-0.0152552165,-0.2224115,-0.00023984571,0.5231041
1759669645,-0.03383608,-0.1843926,-0.0017944595,0.52107114
1759717656,-0.00011131312,-0.19130403,-0.0032522355,0.5213068
1759757692,-0.013257402,-0.17306037,-0.0045135147,0.52259314
1759797681,-0.05808378,-0.15590525,-0.0063142227,0.52513283
1759838500,-0.040938057,-0.16238566,-0.007862148,0.5214921
1759882530,-0.069338255,-0.15776204,-0.009828975,0.5218458
1759926485,-0.027254429,-0.15526085,-0.010166631,0.52525973
1759966517,-0.055869,-0.1713412,-0.01094033,0.5278758
1760006513,-0.07405032,-0.13573468,-0.011510282,0.51929575
1760050513,-0.010452377,-0.1516984,-0.01212599,0.5182799
1760090558,-0.072070986,-0.16319025,-0.011297023,0.522001
1760131314,-0.0598808,-0.17441878,-0.011039125,0.519857
1760171287,-0.050589897,-0.16395116,-0.011229711,0.51455545
1760215284,-0.06705002,-0.1498486,-0.010590395,0.51015157
1760255271,-0.07376745,-0.16875191,-0.009547763,0.51432884
1760303266,-0.014785449,-0.1286641,-0.010354252,0.51033646
1760343289,-0.046947584,-0.12621063,-0.009790851,0.5121669
1760384125,-0.09389176,-0.14030735,-0.0096013285,0.5142421
1760424067,-0.055753417,-0.11735976,-0.01057059,0.52146065
1760472134,-0.073970675,-0.118952975,-0.010390551,0.514635
1760512143,-0.0465942,-0.107256,-0.011759658,0.5134846
1760556170,-0.06724165,-0.11263327,-0.012248589,0.5159542
1760596159,-0.092832774,-0.122878626,-0.012382057,0.5192924
1760640133,-0.060859594,-0.10606329,-0.013632272,0.51558995
1760680911,-0.04684425,-0.11428235,-0.013651448,0.51825976
1760720909,-0.068215504,-0.07987724,-0.01385604,0.5126232
1760764930,-0.07592278,-0.08966486,-0.014416372,0.51406515
1760808875,-0.09591065,-0.08215108,-0.014446899,0.51421994
1760856848,-0.0668026,-0.08539352,-0.015483881,0.5077177
1760904869,0.0024196822,-0.09036363,-0.015449168,0.51434505
1760945759,0.013991858,-0.08342002,-0.016020175,0.51058084
1760993734,-0.0775023,-0.09361556,-0.01908001,0.51601493
1761037694,-0.025111113,-0.09187244,-0.020182759,0.5118933
1761081709,-0.028638292,-0.07280022,-0.021502737,0.50695807
1761121717,0.013239304,-0.08081353,-0.022505926,0.5091169
1761161715,-0.045335215,-0.06350005,-0.023247268,0.50970477
1761202538,-0.046452533,-0.07868042,-0.023652863,0.5089195
1761246492,-0.053594656,-0.077622935,-0.024543442,0.51248294
1761290522,-0.06451351,-0.06993395,-0.024405045,0.50853807
1761330478,0.006908303,-0.11153102,-0.025498329,0.5121606
1761374461,-0.018418407,-0.08810834,-0.025785927,0.51284164
1761414459,0.012803001,-0.09009991,-0.026159104,0.51055264
1761458487,0.014567725,-0.10565792,-0.026851157,0.5108124
1761498508,-0.015682803,-0.10895522,-0.026107423,0.5069151
1761539324,-0.011612038,-0.10772485,-0.025507614,0.51046425
1761579325,0.021056725,-0.102177724,-0.02539584,0.51205146
1761623308,0.01291261,-0.08230653,-0.023961855,0.50819594
1761663300,-0.035714034,-0.0763759,-0.022171693,0.5089554
1761707311,-0.049194686,-0.0797055,-0.021582132,0.51238143
1761747323,-0.103824474,-0.098039016,-0.019671269,0.5164133
1761791298,-0.030374132,-0.08363624,-0.019269537,0.5127475
1761832071,-0.042120337,-0.09259319,-0.018895626,0.5094676
1761872108,-0.07655842,-0.087419845,-0.01893006,0.5059857
1761916148,-0.04097765,-0.07806561,-0.018578455,0.5111968
1761956133,0.0089307465,-0.08713953,-0.018970113,0.5128745
1762000052,0.007444732,-0.07740463,-0.019135993,0.5072935
1762040050,0.033224016,-0.08192097,-0.018970968,0.5080291
1762084915,0.0035332097,-0.07078804,-0.019677587,0.5107981
1762124901,0.018154144,-0.082212456,-0.019736668,0.5056864
1762168956,0.014192027,-0.115458004,-0.020135967,0.5043717
1762208900,0.06247476,-0.12713471,-0.020591501,0.5048842
1762256983,0.04533372,-0.16060661,-0.021340342,0.5023631
1762296942,0.044657804,-0.16051377,-0.021676354,0.504983
1762336914,0.12740722,-0.19317402,-0.022054391,0.5033861
1762381686,0.1528117,-0.206452,-0.021999437,0.5010445
1762421682,0.04034906,-0.21422389,-0.023073958,0.4996151
1762465712,0.057099685,-0.2293772,-0.02364713,0.5006153
1762505718,0.08498572,-0.2343819,-0.022862868,0.5035105
1762549650,-0.035202038,-0.2507293,-0.024640603,0.5004509
1762589648,0.04544249,-0.25534156,-0.023852106,0.50055766
1762634517,0.024752432,-0.2682481,-0.024935322,0.50003415
1762674516,-0.03914041,-0.27534708,-0.025538925,0.49667683
1762718475,-0.037824992,-0.25543585,-0.026424237,0.49549422
1762758469,0.0031084174,-0.25689477,-0.02597569,0.49838272
1762798538,0.006427239,-0.2786492,-0.025464201,0.49148867
1762838510,-0.05321379,-0.25944594,-0.025469983,0.49492824
1762879296,0.016072232,-0.26990306,-0.024526712,0.49496728
1762919288,-0.07172595,-0.25071913,-0.023549112,0.49609375
1762963318,-0.02388756,-0.24531558,-0.02221368,0.49639744
1763003298,-0.01961406,-0.24836746,-0.020546172,0.4979486
1763047285,0.026389865,-0.24407758,-0.017913315,0.50331664
1763091352,-0.04277532,-0.23056892,-0.016872294,0.503537
1763135360,0.01437668,-0.20570338,-0.014932413,0.50450927
1763175294,0.05258529,-0.20547172,-0.013360267,0.4988856
1763219272,0.08784938,-0.22713852,-0.011370384,0.5065714
1763260128,0.023679197,-0.16979522,-0.009760093,0.50388366
1763300121,0.06622103,-0.17031536,-0.00832842,0.50423586
1763340080,0.027610917,-0.14096768,-0.006066709,0.50314474
1763384108,0.033057794,-0.1434229,-0.004789155,0.5079024
1763424110,0.075347126,-0.13071692,-0.003960599,0.5058206
1763468151,0.07362308,-0.119795725,-0.0017192326,0.5147708
1763508931,0.09848906,-0.081975915,-0.0024311894,0.5108822
1763548913,-0.016446099,-0.07009563,-0.00019431551,0.51624674
1763592880,0.04453575,-0.064748056,-0.00020905347,0.51862913
1763632876,0.0022494588,-0.046390034,0.00031103508,0.51993334
1763676927,0.038858198,-0.024245279,0.00027206016,0.5122138
1763716867,0.048310325,-0.05259105,0.00013412171,0.5158708
1763760853,-0.009138933,-0.04840367,5.7176625e-05,0.5175627
1763801729,0.015513546,-0.038440444,-0.00055914966,0.5158899
1763845781,0.017920386,-0.08418753,-0.00031350204,0.5181622
1763885752,-0.015847046,-0.07527859,-0.00036391438,0.5160945
1763929743,0.03351046,-0.071847185,-0.0008350772,0.51294214
1763969719,-0.034172304,-0.07235492,-0.00035242978,0.5100173
1764009699,0.024637628,-0.06806797,-0.00094991806,0.50666285
1764049688,-0.048105378,-0.065057844,0.0005447149,0.51069134
1764090511,-0.08225822,-0.06104229,0.0012753569,0.5091071
1764134556,-0.06781362,-0.047682103,0.0015411224,0.5022907
1764174580,-0.0038387042,-0.07927251,0.0020202845,0.5044663
1764214498,-0.016018227,-0.07254277,0.0025526772,0.5070153
1764258532,-0.051459223,-0.060042612,0.0035296143,0.50545573
1764298496,-0.064330325,-0.052046694,0.0037105775,0.502401
1764338459,0.03388521,-0.05645681,0.002793497,0.50007915
1764379337,-0.017589604,-0.06148101,0.0038879954,0.500491
1764423353,-0.029183477,-0.067250334,0.0031979755,0.5011577
1764463326,-0.094193235,-0.05031782,0.0039965054,0.5018336
1764507342,-0.060531057,-0.05103486,0.0040926086,0.49901175
1764551362,-0.12481535,-0.063568376,0.0042866794,0.5031947
1764591332,-0.05156818,-0.06322873,0.0035900716,0.50326896
1764635346,-0.07065513,-0.035574667,0.0035643538,0.49792793
1764676109,0.010077411,-0.061933123,0.0035508655,0.4972938
1764720129,-0.06222937,-0.062542185,0.0034940306,0.49839178
1764760172,-0.11991989,-0.05095871,0.004878981,0.5002688
1764804076,-0.062262557,-0.043419883,0.0055244314,0.49367306
1764844851,-0.074136436,-0.054189652,0.00598077,0.49319857
1764888899,-0.064519174,-0.058380887,0.0072927126,0.49687204
1764928933,-0.0026590899,-0.06206631,0.007369563,0.49294907
1764972898,0.017113434,-0.054385886,0.008894526,0.49288583
1765012904,-0.009043466,-0.054529063,0.010763312,0.496486
1765052915,-0.017248608,-0.061169207,0.011763771,0.49440116
1765092882,0.026691563,-0.054082286,0.01184293,0.49575984
1765136916,-0.0074158343,-0.07755528,0.012852698,0.50092095
1765176889,-0.047685374,-0.06536268,0.0132423015,0.49312326
1765217735,0.016895792,-0.07438363,0.012607519,0.499971
1765261766,0.05570552,-0.071858115,0.012383717,0.4920726
1765301671,-0.017511996,-0.07395628,0.012741886,0.49453115
1765345740,-0.014544965,-0.07681864,0.011610854,0.50144875
1765385695,0.009428443,-0.06853892,0.010723804,0.498753
1765429679,0.011584223,-0.060017664,0.011185382,0.49764618
1765470456,0.018202929,-0.083578676,0.010046387,0.50338775
1765514487,0.008647577,-0.05963718,0.009048081,0.50484055
1765554499,-0.029087521,-0.05809594,0.00780554,0.4971483
1765598480,-0.008380939,-0.055148732,0.006565173,0.4955544
1765638491,0.032557473,-0.06260554,0.0048370208,0.49911824
1765682528,0.053832434,-0.04901693,0.002959387,0.50206035
1765722529,-0.062928,-0.031705253,0.0029213263,0.49972367
1765767328,-0.05861144,-0.024838753,0.0010547175,0.50005716
1765807301,-0.037671827,-0.039607897,-0.0004603574,0.5027818
1765851368,-0.016025057,-0.03171665,-0.0029169417,0.49808887
1765891334,0.022196772,-0.030706123,-0.0043267333,0.50182605
1765935329,-0.0025181493,-0.04607858,-0.0057701943,0.50025666
1765979386,0.0009504206,-0.03402553,-0.006924015,0.49920774
1766019415,-0.04810247,-0.030294018,-0.007953774,0.4958648
1766060138,-0.030047938,-0.042591058,-0.009738809,0.50101155
1766100139,-0.10591764,-0.032262083,-0.009594822,0.49879497
1766144128,-0.12593998,-0.0136194825,-0.010443738,0.4994405
1766184150,-0.027828213,-0.036186896,-0.013286128,0.49786663
1766228245,-0.054958362,-0.041638266,-0.013531279,0.4956844
1766268199,-0.08568412,-0.013695335,-0.013229413,0.49676424
1766312128,-0.089162365,-0.03349718,-0.013857509,0.50218314
1766352871,-0.123727,-0.008312222,-0.01425142,0.4891497
1766396934,-0.1352152,-0.019664127,-0.012881585,0.49739784
1766436915,-0.053812914,-0.02349571,-0.014123572,0.49523684
1766476966,-0.14536008,-0.026703466,-0.011684223,0.49822262
1766516944,-0.075425476,-0.02759556,-0.012328055,0.5015794
1766560915,-0.053073537,-0.006506237,-0.012039424,0.4941352
1766601655,-0.10825059,-0.03256905,-0.011296745,0.49777842
1766645697,-0.11833667,-0.022256676,-0.010654424,0.4983678
1766685686,-0.08681817,-0.029987495,-0.012001172,0.49697235
1766729675,-0.059994742,-0.018971348,-0.011883443,0.49262324
1766769674,-0.05515744,-0.030208983,-0.011431044,0.5025286
1766813698,-0.0400364,-0.032381337,-0.01155667,0.5010533
1766853716,-0.108179644,-0.018855367,-0.010501567,0.49698043
1766897681,-0.119776696,-0.03061912,-0.010289422,0.49370322
1766938484,-0.07218323,-0.038355913,-0.010534893,0.4958111
1766978512,-0.03974014,-0.047558714,-0.010177014,0.49549565
1767022531,-0.07143146,-0.030019445,-0.008614079,0.49679685
1767062526,-0.058799952,-0.030765917,-0.008483578,0.4915829
1767106482,-0.097077794,-0.059857134,-0.007441064,0.4937541
1767146485,-0.055208765,-0.049642537,-0.00676434,0.49726683
1767190538,-0.023450049,-0.03193093,-0.006058146,0.4941328
1767231298,-0.099797726,-0.045373894,-0.0037114609,0.49437928
1767271296,-0.03297823,-0.060511317,-0.0042731194,0.49274522
1767315470,-0.048071146,-0.06708996,-0.0037049546,0.4905469
1767359317,-0.012000933,-0.06682581,-0.0026591974,0.49296275
1767403280,-0.04077688,-0.058882616,-0.001012294,0.48876035
1767447371,-0.05417804,-0.05571836,-0.00011628864,0.48773694
1767492080,-0.062166654,-0.054356147,0.0013572173,0.49039188
1767532097,0.009202788,-0.048555404,0.0025841661,0.49092048
1767576147,-0.0111217,-0.06089079,0.00372819,0.49542758
1767620143,-0.009914988,-0.047182288,0.0050356784,0.49511343
1767664080,0.012732216,-0.058219712,0.0058929636,0.4969316
1767708148,-0.048018713,-0.06985032,0.0071077514,0.5035966
1767748879,-0.014479052,-0.04895241,0.006862853,0.5010826
1767792857,0.05781923,-0.04946273,0.007090755,0.49731627
1767832860,-0.034380082,-0.021997662,0.008769562,0.49692732
1767876892,-0.039641853,-0.027176198,0.009682099,0.5020849
1767917004,-0.028056141,-0.02470812,0.009455202,0.49730512
1767960874,-0.008266195,-0.028421193,0.009885954,0.49739292
1768000878,0.08245705,-0.019693037,0.009028321,0.4942547
1768044907,0.030854944,-0.048133165,0.009667939,0.5029965
1768085762,0.023092976,-0.00784864,0.009965802,0.50212544
1768129746,0.014714669,-0.016487315,0.01109366,0.50393224
1768173764,0.039940305,-0.03030359,0.010611648,0.50098366
1768213845,-0.039220653,-0.028982073,0.012446182,0.5011033
1768257734,0.04181058,-0.022506779,0.012371669,0.50209004
1768297724,0.0051968973,-0.0049625747,0.012900982,0.49693888
1768342478,-0.0065709576,-0.02441096,0.013069642,0.5022933
1768382492,0.027583472,-0.0289394,0.013495883,0.5055082
1768426465,0.009679588,-0.010276828,0.013936185,0.5034751
1768466457,0.089656144,-0.0040008887,0.013571899,0.5047777
1768510503,0.04800724,-0.021171253,0.014343861,0.50397944
1768550525,0.0011238971,-0.018849181,0.014928105,0.5041511
1768594492,0.022110086,0.004466507,0.01496533,0.50001276
1768634480,-0.010748298,0.020316476,0.015244937,0.5016894
1768675339,0.041472133,0.01075183,0.014537776,0.49875015
1768719319,-0.030345745,-0.007299461,0.0153949065,0.5034136
1768763305,-0.0028637378,0.036702663,0.01519302,0.5012864
1768803319,0.035135116,0.030979788,0.013739214,0.5021402
1768843306,0.030201223,0.04098256,0.014119001,0.5064848
1768884067,-0.012018801,0.036771342,0.014028339,0.5066952
1768928092,-0.020956215,0.025428327,0.013180498,0.509563
1768968140,-0.043224253,0.024187744,0.012997693,0.5109976
1769012050,-0.076028004,0.070294544,0.012745249,0.5077095
1769052077,0.02301195,0.0760715,0.010036453,0.5086269
1769096152,-0.056055248,0.07968974,0.011479102,0.5094001
1769136146,0.049186707,0.076342985,0.008591645,0.5092288
1769176940,0.02809102,0.08347481,0.008881147,0.5127913
1769220892,0.02542083,0.1068249,0.008053771,0.50952256
1769260893,0.018731873,0.11974401,0.00910188,0.512297
1769304909,0.062497973,0.080695614,0.00751032,0.51221
1769344917,0.007476334,0.06913327,0.00901232,0.51392597
1769388875,0.09905812,0.07947585,0.007739017,0.5086001
1769428890,-0.0016782484,0.07641527,0.010119999,0.5096622
1769473722,0.04109986,0.060975157,0.010223387,0.5025652
1769517693,0.10492931,0.0664468,0.009811736,0.506202
1769557688,0.051581196,0.06840342,0.010055348,0.5016323
1769601710,0.1025577,0.052189004,0.009240914,0.5053503
1769641705,0.16362345,0.02413932,0.008059784,0.5045231
1769685808,0.18000606,0.03564056,0.006684503,0.5033325
1769729686,0.12343737,0.03865909,0.0061427793,0.49725845
1769770489,0.1186175,0.011288979,0.005417443,0.502288
1769810491,0.17003943,0.0108664865,0.0030471534,0.5040338
1769854545,0.14086957,0.03174404,0.002003462,0.50110334
1769898485,0.11343226,0.012261974,0.0012024209,0.49917835
1769942536,0.17002988,0.0071473927,-0.00063579355,0.5019591
1769982548,0.07275421,0.03177656,-0.00055832206,0.49818885
1770023342,0.12217166,-0.008152172,-0.002485289,0.49666706
1770067279,0.09451368,-0.013458237,-0.0026054676,0.49511403
1770107275,0.033973623,-0.01314904,-0.003130868,0.5014421
1770151316,0.0992026,-0.009830241,-0.0047562206,0.49554265
1770191331,0.11814536,-0.036833428,-0.0058052246,0.49886292
1770235283,0.12623312,-0.022166986,-0.0066238353,0.5040212
1770275287,0.108008586,-0.02290186,-0.006970912,0.4989407
1770316098,0.10611917,-0.03774585,-0.006554841,0.50269353
1770356098,0.0899223,-0.04198682,-0.0077356505,0.49890882
1770400139,0.0681519,-0.03803624,-0.008538118,0.50355697
1770440142,0.025379714,-0.027809754,-0.0077053034,0.5025316
1770484077,0.053034004,-0.03390677,-0.008255258,0.49563098
1770524091,0.111187026,-0.046737984,-0.0093399435,0.50073105
1770568153,0.12042815,-0.042504035,-0.008128451,0.50157267
1770608979,0.04429269,-0.029626828,-0.007397349,0.5010833
1770652917,0.041083984,-0.047441013,-0.007456785,0.5024745
1770692932,0.11945294,-0.047589086,-0.008317326,0.50091386
1770736904,0.13879976,-0.03565698,-0.0074815415,0.5023514
1770776931,0.1424896,-0.021660678,-0.0078898035,0.5016134
1770816915,0.1310157,-0.040230103,-0.0073396936,0.5023155
1770857759,0.066124685,-0.043874733,-0.0065638684,0.5059225
1770901747,0.14362673,-0.017814154,-0.007420661,0.49995413
1770945755,0.10068113,-0.017581914,-0.006562914,0.5022981
1770985766,0.11123733,-0.04692311,-0.0052853683,0.50664794
1771025757,0.1162301,-0.020672742,-0.0057216976,0.50142074
