timestamp,timestamp_sample,control[0],control[1],control[2],control[3],control[4],control[5],control[6],control[7]
4384791051,4384790882,0.03645874,0.034369268,-0.00085235963,0.51771057,0.0,0.0,0.0,-1.0
4384959864,4384959681,0.03725806,0.035932776,-0.002990052,0.55262035,0.0,0.0,0.0,-1.0
4385003821,4385003682,0.039250083,0.038500946,-0.0039873878,0.56100285,0.0,0.0,0.0,-1.0
4385043835,4385043682,0.034716472,0.029070204,0.0005518002,0.568786,0.0,0.0,0.0,-1.0
4385088661,4385088485,0.031637702,0.05216998,-0.013011402,0.5789406,0.0,0.0,0.0,-1.0
4385128674,4385128487,0.039901987,0.029017616,-0.00462491,0.5885838,0.0,0.0,0.0,-1.0
4385168671,4385168484,0.036603007,0.051981308,0.018087462,0.59552467,0.0,0.0,0.0,-1.0
4385212628,4385212488,0.04960953,0.05703709,0.0076045725,0.6062704,0.0,0.0,0.0,-1.0
4385256666,4385256481,0.05803415,0.041639257,-0.0065201395,0.61395705,0.0,0.0,0.0,-1.0
4385300689,4385300524,0.05458975,0.04210954,-0.0052505173,0.6245198,0.0,0.0,0.0,-1.0
4385341418,4385341282,0.039049603,0.037703063,0.0043878,0.6322828,0.0,0.0,0.0,-1.0
4385385611,4385385329,0.038901135,0.036165666,-0.0038781683,0.64247674,0.0,0.0,0.0,-1.0
4385425463,4385425282,0.035231978,0.037150428,-0.0030250254,0.65036577,0.0,0.0,0.0,-1.0
4385469447,4385469297,0.038936693,0.04017635,-0.0010913013,0.6611422,0.0,0.0,0.0,-1.0
4385509430,4385509281,0.04149355,0.044894204,-0.004609359,0.6701506,0.0,0.0,0.0,-1.0
4385553461,4385553283,0.046348393,0.040511943,-0.005305234,0.67933124,0.0,0.0,0.0,-1.0
4385593469,4385593288,0.035797883,0.027570933,-0.003688894,0.6867347,0.0,0.0,0.0,-1.0
4385634284,4385634092,-0.006019284,4.9006194e-05,-0.012044518,0.6944563,0.0,0.0,0.0,-1.0
4385674262,4385674088,-0.07127066,-0.037335705,-0.018621014,0.70233387,0.0,0.0,0.0,-1.0
4385714272,4385714081,-0.12582359,-0.058542486,-0.021967886,0.7096956,0.0,0.0,0.0,-1.0
4385754256,4385754081,-0.12142097,-0.047199447,-0.03472857,0.6991087,0.0,0.0,0.0,-1.0
4385802253,4385802082,-0.0795397,0.014261922,-0.027601518,0.6642857,0.0,0.0,0.0,-1.0
4385846311,4385846124,-0.040418603,0.042463206,-0.022298383,0.62866175,0.0,0.0,0.0,-1.0
4385887027,4385886882,-0.029714469,0.013904439,-0.018255355,0.6179423,0.0,0.0,0.0,-1.0
4385931066,4385930931,-0.032008544,-0.026867442,-0.026649395,0.5873593,0.0,0.0,0.0,-1.0
4385971039,4385970901,-0.014032705,-0.010964334,-0.03426642,0.56548405,0.0,0.0,0.0,-1.0
4386015042,4386014898,0.007580402,-0.018444743,-0.0324687,0.54154617,0.0,0.0,0.0,-1.0
4386055026,4386054888,0.01045272,-0.007024456,-0.025792994,0.5245559,0.0,0.0,0.0,-1.0
4386099047,4386098894,0.006357665,0.001604754,-0.02146057,0.518063,0.0,0.0,0.0,-1.0
4386139831,4386139691,-0.0069161775,0.00043828978,-0.025666632,0.51616436,0.0,0.0,0.0,-1.0
4386183819,4386183681,-0.0019426649,0.0034879444,-0.030001728,0.5151473,0.0,0.0,0.0,-1.0
4386223824,4386223681,0.01817899,0.020686997,-0.027877035,0.5125068,0.0,0.0,0.0,-1.0
4386267819,4386267681,0.0059415554,0.038319692,-0.03243335,0.5163122,0.0,0.0,0.0,-1.0
4386307849,4386307716,0.007677365,0.037968364,-0.029346406,0.5171874,0.0,0.0,0.0,-1.0
4386347872,4386347723,0.0031880182,0.045402378,-0.034936916,0.51540107,0.0,0.0,0.0,-1.0
4386392628,4386392493,0.0066086254,0.029928755,-0.036426723,0.5198831,0.0,0.0,0.0,-1.0
4386432627,4386432484,0.011852456,0.023741756,-0.03657646,0.52028334,0.0,0.0,0.0,-1.0
4386476655,4386476513,0.0064498466,0.023281408,-0.03980061,0.5204961,0.0,0.0,0.0,-1.0
4386516645,4386516503,0.009827664,0.019908551,-0.04295051,0.5227501,0.0,0.0,0.0,-1.0
4386556643,4386556504,0.012089476,0.014473586,-0.043454934,0.5258471,0.0,0.0,0.0,-1.0
4386600630,4386600483,0.01107762,0.009652875,-0.04505876,0.5298872,0.0,0.0,0.0,-1.0
4386641437,4386641281,0.015836207,0.013292976,-0.047303546,0.5335556,0.0,0.0,0.0,-1.0
4386681446,4386681286,0.016890498,0.020052705,-0.046749398,0.5351201,0.0,0.0,0.0,-1.0
4386725465,4386725320,0.02046695,0.027454,-0.04826986,0.5351431,0.0,0.0,0.0,-1.0
4386765438,4386765292,0.021218393,0.027265891,-0.04707126,0.53880996,0.0,0.0,0.0,-1.0
4386809433,4386809281,0.009118855,0.03176758,-0.05042647,0.5425131,0.0,0.0,0.0,-1.0
4386850262,4386850082,0.0063759414,0.040925488,-0.052650757,0.5401674,0.0,0.0,0.0,-1.0
4386894223,4386894082,0.001179398,0.04783885,-0.055723995,0.53905934,0.0,0.0,0.0,-1.0
4386934218,4386934081,0.001245812,0.04895495,-0.05943975,0.5392757,0.0,0.0,0.0,-1.0
4386978247,4386978088,0.008842123,0.052846055,-0.06010863,0.537925,0.0,0.0,0.0,-1.0
4387018238,4387018082,0.006892706,0.05267658,-0.060152344,0.5371617,0.0,0.0,0.0,-1.0
4387062243,4387062097,0.0010129777,0.047157686,-0.063663654,0.53409654,0.0,0.0,0.0,-1.0
4387102298,4387102140,-0.004232166,0.048597112,-0.061748922,0.53243756,0.0,0.0,0.0,-1.0
4387143062,4387142888,-0.0022018894,0.03898094,-0.06230548,0.5312305,0.0,0.0,0.0,-1.0
4387183079,4387182927,-0.0031544515,0.028698975,-0.065630615,0.5347281,0.0,0.0,0.0,-1.0
4387227059,4387226881,0.0114242,0.030072657,-0.066947885,0.5298308,0.0,0.0,0.0,-1.0
4387267019,4387266881,0.017565683,0.032699373,-0.067480825,0.52816457,0.0,0.0,0.0,-1.0
4387311046,4387310881,0.018359343,0.029290503,-0.06188164,0.5309422,0.0,0.0,0.0,-1.0
4387351047,4387350910,0.017373774,0.036879424,-0.059512015,0.5347041,0.0,0.0,0.0,-1.0
4387395252,4387394882,0.021871492,0.040151384,-0.05914647,0.5338471,0.0,0.0,0.0,-1.0
4387435868,4387435681,0.028785747,0.037757732,-0.056745335,0.5346487,0.0,0.0,0.0,-1.0
4387475870,4387475681,0.021962047,0.033311415,-0.052992158,0.53822154,0.0,0.0,0.0,-1.0
4387515817,4387515681,0.016692948,0.031257696,-0.053331602,0.53912055,0.0,0.0,0.0,-1.0
4387559864,4387559682,0.008754197,0.026177874,-0.04845964,0.54269594,0.0,0.0,0.0,-1.0
4387599854,4387599707,0.004469189,0.031592716,-0.05050195,0.5445938,0.0,0.0,0.0,-1.0
4387640690,4387640491,0.0060716826,0.033359434,-0.04489952,0.5446169,0.0,0.0,0.0,-1.0
4387684629,4387684482,0.00011533778,0.035645667,-0.04716705,0.53941774,0.0,0.0,0.0,-1.0
4387724651,4387724484,-0.004425112,0.037562322,-0.052207045,0.53581864,0.0,0.0,0.0,-1.0
4387768636,4387768496,-0.010325346,0.030560365,-0.053058177,0.5374888,0.0,0.0,0.0,-1.0
4387808681,4387808501,-0.01797296,0.03294164,-0.0552219,0.5413939,0.0,0.0,0.0,-1.0
4387852624,4387852481,-0.010255209,0.037807293,-0.0590989,0.53965586,0.0,0.0,0.0,-1.0
4387893419,4387893282,-0.012975626,0.039547652,-0.060522128,0.5371635,0.0,0.0,0.0,-1.0
4387937419,4387937281,-0.012846449,0.035602175,-0.06560744,0.53760314,0.0,0.0,0.0,-1.0
4387977430,4387977282,-0.012446137,0.038713444,-0.069634944,0.53412527,0.0,0.0,0.0,-1.0
4388021433,4388021294,-0.023660287,0.041560955,-0.06886542,0.5316971,0.0,0.0,0.0,-1.0
4388061435,4388061281,-0.018638251,0.039569248,-0.07079326,0.52776253,0.0,0.0,0.0,-1.0
4388105425,4388105281,-0.021066494,0.034816314,-0.076299064,0.5298966,0.0,0.0,0.0,-1.0
4388145458,4388145319,-0.024777662,0.038240507,-0.07338823,0.5273195,0.0,0.0,0.0,-1.0
4388186269,4388186100,-0.024533624,0.045959357,-0.07593595,0.5233127,0.0,0.0,0.0,-1.0
4388230325,4388230100,-0.021455154,0.047747437,-0.07074129,0.5226862,0.0,0.0,0.0,-1.0
4388270262,4388270081,-0.0179025,0.051260862,-0.07542631,0.5241207,0.0,0.0,0.0,-1.0
4388314220,4388314081,-0.017601367,0.05734446,-0.07644401,0.5208032,0.0,0.0,0.0,-1.0
4388354221,4388354088,-0.015509134,0.05982653,-0.0753096,0.5180201,0.0,0.0,0.0,-1.0
4388398242,4388398081,-0.019352086,0.05835669,-0.073798716,0.51884735,0.0,0.0,0.0,-1.0
4388438222,4388438081,-0.019765422,0.062290166,-0.07322814,0.5193713,0.0,0.0,0.0,-1.0
4388479021,4388478882,-0.01575017,0.06578552,-0.07004695,0.51842254,0.0,0.0,0.0,-1.0
4388519024,4388518893,-0.01909881,0.06450945,-0.07112661,0.51613814,0.0,0.0,0.0,-1.0
4388563014,4388562881,-0.018317327,0.06414528,-0.06877125,0.5174204,0.0,0.0,0.0,-1.0
4388603068,4388602926,-0.012200657,0.058673885,-0.06484412,0.5171927,0.0,0.0,0.0,-1.0
4388647021,4388646881,-0.007344398,0.05757727,-0.061771158,0.5161985,0.0,0.0,0.0,-1.0
4388687878,4388687682,-0.0027017922,0.05461168,-0.057691243,0.5153772,0.0,0.0,0.0,-1.0
4388731817,4388731681,-0.00017904886,0.052075084,-0.050783563,0.51694554,0.0,0.0,0.0,-1.0
4388771828,4388771683,0.0008897086,0.054643176,-0.04991532,0.51485914,0.0,0.0,0.0,-1.0
4388815859,4388815688,-0.0054311743,0.04771832,-0.048312705,0.51695305,0.0,0.0,0.0,-1.0
4388855832,4388855688,0.0019855117,0.04736585,-0.040872343,0.5159893,0.0,0.0,0.0,-1.0
4388899817,4388899681,0.0060013533,0.049086325,-0.03922222,0.5166416,0.0,0.0,0.0,-1.0
4388939832,4388939692,-0.0020762966,0.04597239,-0.03643676,0.5191944,0.0,0.0,0.0,-1.0
4388980633,4388980494,-7.9990365e-05,0.047546756,-0.034713052,0.5189905,0.0,0.0,0.0,-1.0
4389020639,4389020500,-0.0018324007,0.05251583,-0.030693922,0.51629347,0.0,0.0,0.0,-1.0
4389064617,4389064481,0.0029098855,0.05237504,-0.026736198,0.5146321,0.0,0.0,0.0,-1.0
4389104614,4389104481,0.005456804,0.047885068,-0.025190799,0.5166754,0.0,0.0,0.0,-1.0
4389148639,4389148500,0.0029978522,0.041373633,-0.025534822,0.5210941,0.0,0.0,0.0,-1.0
4389189467,4389189282,-0.004228591,0.04033175,-0.02557247,0.52079767,0.0,0.0,0.0,-1.0
4389229453,4389229284,0.0013549104,0.03731177,-0.028252661,0.519151,0.0,0.0,0.0,-1.0
4389273509,4389273288,-0.0030996166,0.034891985,-0.022307862,0.52184296,0.0,0.0,0.0,-1.0
4389313439,4389313295,-0.008882753,0.03142695,-0.027382886,0.52285594,0.0,0.0,0.0,-1.0
4389357454,4389357281,0.0027536452,0.037089452,-0.024546074,0.5198355,0.0,0.0,0.0,-1.0
4389397487,4389397327,-0.0055745794,0.03877697,-0.026030794,0.52501804,0.0,0.0,0.0,-1.0
4389438279,4389438081,-0.003527935,0.043062992,-0.029490829,0.52644515,0.0,0.0,0.0,-1.0
4389478259,4389478081,-0.011481244,0.043325584,-0.029635686,0.5260498,0.0,0.0,0.0,-1.0
4389522246,4389522081,-0.010947422,0.04039753,-0.03147691,0.52517647,0.0,0.0,0.0,-1.0
4389562258,4389562081,-0.014440021,0.04220652,-0.029232668,0.52620673,0.0,0.0,0.0,-1.0
4389606286,4389606094,-0.012181028,0.038138457,-0.037277892,0.52583903,0.0,0.0,0.0,-1.0
4389646282,4389646088,-0.012293726,0.035998657,-0.037985045,0.52902544,0.0,0.0,0.0,-1.0
4389690402,4389690082,-0.014099984,0.04167069,-0.041586086,0.5321718,0.0,0.0,0.0,-1.0
4389731044,4389730882,-0.0047556087,0.0463572,-0.043507278,0.53507555,0.0,0.0,0.0,-1.0
4389775020,4389774881,-0.008939312,0.054195017,-0.047157016,0.5349698,0.0,0.0,0.0,-1.0
4389819073,4389818882,-0.00037600333,0.052325405,-0.04816951,0.53359497,0.0,0.0,0.0,-1.0
4389859069,4389858882,0.009482535,0.047106642,-0.048033066,0.5347798,0.0,0.0,0.0,-1.0
4389903053,4389902918,0.017563183,0.046056513,-0.05023256,0.539408,0.0,0.0,0.0,-1.0
4389943014,4389942881,0.011085105,0.047379076,-0.04807499,0.53562456,0.0,0.0,0.0,-1.0
4389987864,4389987682,0.016490292,0.04458332,-0.047092434,0.53534883,0.0,0.0,0.0,-1.0
4390027868,4390027681,0.012562416,0.043345682,-0.04502386,0.5365798,0.0,0.0,0.0,-1.0
4390071829,4390071683,0.008237256,0.04408824,-0.04891731,0.53563577,0.0,0.0,0.0,-1.0
4390111833,4390111692,0.0019948038,0.04582496,-0.04751359,0.53303367,0.0,0.0,0.0,-1.0
4390155864,4390155681,-0.0023620236,0.045631204,-0.04826723,0.5327533,0.0,0.0,0.0,-1.0
4390195859,4390195682,-0.006430284,0.048608318,-0.044239383,0.5327908,0.0,0.0,0.0,-1.0
4390240661,4390240518,0.003044927,0.04401344,-0.0487955,0.53602624,0.0,0.0,0.0,-1.0
4390280614,4390280481,0.0060371393,0.03795022,-0.047332235,0.53219265,0.0,0.0,0.0,-1.0
4390320616,4390320485,0.01483713,0.030543122,-0.047407743,0.53346735,0.0,0.0,0.0,-1.0
4390360616,4390360481,0.0110639,0.028532503,-0.046004053,0.53375304,0.0,0.0,0.0,-1.0
4390404661,4390404481,0.00978013,0.028549159,-0.048695527,0.53376365,0.0,0.0,0.0,-1.0
4390444650,4390444481,0.013043182,0.025886105,-0.048985444,0.53472036,0.0,0.0,0.0,-1.0
4390489438,4390489295,0.002417528,0.020985324,-0.04156754,0.5390267,0.0,0.0,0.0,-1.0
4390533515,4390533281,0.004825484,0.022217263,-0.04360772,0.5384365,0.0,0.0,0.0,-1.0
4390573500,4390573293,-0.006132306,0.02436395,-0.041258022,0.53934336,0.0,0.0,0.0,-1.0
4390617467,4390617281,-0.010105043,0.028244354,-0.043916207,0.5403404,0.0,0.0,0.0,-1.0
4390657448,4390657295,-0.017965589,0.02642593,-0.04208803,0.53982127,0.0,0.0,0.0,-1.0
4390701493,4390701281,-0.017749246,0.026972804,-0.042945366,0.54210746,0.0,0.0,0.0,-1.0
4390742244,4390742108,-0.014807292,0.028850567,-0.043977723,0.54469407,0.0,0.0,0.0,-1.0
4390786247,4390786087,-0.01166523,0.03033088,-0.045468755,0.5417936,0.0,0.0,0.0,-1.0
4390826242,4390826093,-0.014912685,0.030943992,-0.04350276,0.54453313,0.0,0.0,0.0,-1.0
4390870259,4390870080,-0.01254439,0.02960697,-0.045413263,0.5447232,0.0,0.0,0.0,-1.0
4390914217,4390914081,-0.016385144,0.029753737,-0.04860242,0.5471163,0.0,0.0,0.0,-1.0
4390958238,4390958082,-0.013213052,0.036088567,-0.046564016,0.54328245,0.0,0.0,0.0,-1.0
4391002230,4391002090,-0.008783667,0.0350741,-0.049841702,0.54123,0.0,0.0,0.0,-1.0
4391043026,4391042894,-0.013574891,0.034365322,-0.047598008,0.5453055,0.0,0.0,0.0,-1.0
4391087017,4391086881,-0.0116669815,0.03725903,-0.051647358,0.5415447,0.0,0.0,0.0,-1.0
4391127014,4391126881,-0.015321169,0.039570853,-0.054071978,0.5380105,0.0,0.0,0.0,-1.0
4391171070,4391170881,-0.013908766,0.03625844,-0.054709658,0.53891057,0.0,0.0,0.0,-1.0
4391211025,4391210882,-0.008998668,0.039623637,-0.05621129,0.53897923,0.0,0.0,0.0,-1.0
4391255862,4391255681,-0.017155271,0.044171553,-0.055047356,0.5356638,0.0,0.0,0.0,-1.0
4391300001,4391299722,-0.0038045512,0.03692845,-0.054775596,0.53371227,0.0,0.0,0.0,-1.0
4391339905,4391339688,-0.006199161,0.034822885,-0.051715054,0.5338322,0.0,0.0,0.0,-1.0
4391383868,4391383682,-0.0070175966,0.036854114,-0.056859925,0.53273404,0.0,0.0,0.0,-1.0
4391423864,4391423681,-0.011799404,0.03967835,-0.05462571,0.5332401,0.0,0.0,0.0,-1.0
4391467911,4391467688,-0.017158993,0.035162576,-0.052154463,0.5304381,0.0,0.0,0.0,-1.0
4391507898,4391507681,-0.021363264,0.03722502,-0.05276743,0.5295425,0.0,0.0,0.0,-1.0
4391552618,4391552481,-0.019800417,0.036826823,-0.05187967,0.5276553,0.0,0.0,0.0,-1.0
4391592620,4391592481,-0.02337616,0.036492053,-0.052514873,0.52854145,0.0,0.0,0.0,-1.0
4391636675,4391636484,-0.026692227,0.036739912,-0.05863873,0.5269436,0.0,0.0,0.0,-1.0
4391676668,4391676481,-0.027990233,0.034388375,-0.061904475,0.52977836,0.0,0.0,0.0,-1.0
4391720634,4391720488,-0.036307704,0.034045905,-0.05960937,0.5329345,0.0,0.0,0.0,-1.0
4391761418,4391761282,-0.0360557,0.043960083,-0.0644016,0.52709323,0.0,0.0,0.0,-1.0
4391805479,4391805329,-0.030917184,0.05003645,-0.070051104,0.52481896,0.0,0.0,0.0,-1.0
4391845477,4391845281,-0.032124728,0.052141145,-0.07237427,0.5224876,0.0,0.0,0.0,-1.0
4391885475,4391885281,-0.0343171,0.05052125,-0.07312882,0.52614856,0.0,0.0,0.0,-1.0
4391929410,4391929281,-0.038606614,0.05786191,-0.07685476,0.5213854,0.0,0.0,0.0,-1.0
4391973469,4391973296,-0.037130162,0.057594083,-0.0838024,0.5216735,0.0,0.0,0.0,-1.0
4392013454,4392013282,-0.040716715,0.058797907,-0.07804465,0.51684,0.0,0.0,0.0,-1.0
4392053479,4392053281,-0.037174217,0.05786308,-0.07868933,0.5149535,0.0,0.0,0.0,-1.0
4392094283,4392094081,-0.034583468,0.056132734,-0.082809776,0.51461214,0.0,0.0,0.0,-1.0
4392134271,4392134081,-0.037467055,0.04758639,-0.07954596,0.51307744,0.0,0.0,0.0,-1.0
4392178243,4392178088,-0.035252124,0.046361778,-0.076855674,0.5166227,0.0,0.0,0.0,-1.0
4392218250,4392218082,-0.027481519,0.033502605,-0.07464835,0.5217363,0.0,0.0,0.0,-1.0
4392258242,4392258082,-0.025738029,0.027396537,-0.07256108,0.5203461,0.0,0.0,0.0,-1.0
4392302277,4392302081,-0.022334851,0.03506397,-0.06686388,0.52302307,0.0,0.0,0.0,-1.0
4392343043,4392342881,-0.016698694,0.040474854,-0.0655818,0.52137375,0.0,0.0,0.0,-1.0
4392383057,4392382882,-0.022268686,0.042260334,-0.058655728,0.52109575,0.0,0.0,0.0,-1.0
4392427021,4392426882,-0.019977458,0.04333823,-0.05426033,0.52358603,0.0,0.0,0.0,-1.0
4392467020,4392466882,-0.026424648,0.04067699,-0.05776011,0.52590036,0.0,0.0,0.0,-1.0
4392511056,4392510888,-0.03394769,0.02674977,-0.04975075,0.53245306,0.0,0.0,0.0,-1.0
4392551849,4392551682,-0.030214325,0.029586405,-0.050207406,0.5309942,0.0,0.0,0.0,-1.0
4392595823,4392595681,-0.027884735,0.028598696,-0.050168782,0.53242826,0.0,0.0,0.0,-1.0
4392635827,4392635681,-0.02480016,0.023296881,-0.052278228,0.53210646,0.0,0.0,0.0,-1.0
4392679876,4392679681,-0.030414391,0.019878324,-0.04516618,0.5345078,0.0,0.0,0.0,-1.0
4392723814,4392723685,-0.02944353,0.020985894,-0.050574694,0.53237635,0.0,0.0,0.0,-1.0
4392767871,4392767703,-0.03085567,0.020677403,-0.047422122,0.53408146,0.0,0.0,0.0,-1.0
4392808630,4392808498,-0.01841635,0.019834384,-0.044971224,0.5329911,0.0,0.0,0.0,-1.0
4392848703,4392848499,-0.023228958,0.019322291,-0.045462888,0.5376636,0.0,0.0,0.0,-1.0
4392892616,4392892481,-0.017723091,0.0125544835,-0.045946095,0.53995085,0.0,0.0,0.0,-1.0
4392932671,4392932499,-0.022986244,0.0044311187,-0.04625763,0.54285985,0.0,0.0,0.0,-1.0
4392976832,4392976491,-0.016789831,-0.0022422252,-0.047590125,0.54150987,0.0,0.0,0.0,-1.0
4393016713,4393016490,-0.014446692,-0.0030366397,-0.046089116,0.5431482,0.0,0.0,0.0,-1.0
4393061424,4393061281,-0.011321897,-0.0056473943,-0.04507921,0.5460624,0.0,0.0,0.0,-1.0
4393105439,4393105288,-0.017646486,-0.0013599307,-0.047387917,0.55272406,0.0,0.0,0.0,-1.0
4393145473,4393145323,-0.00955265,0.002156016,-0.047860593,0.5531749,0.0,0.0,0.0,-1.0
4393185477,4393185331,-0.007995779,-0.0012736404,-0.045276448,0.55770284,0.0,0.0,0.0,-1.0
4393229442,4393229287,-0.008445312,0.008855557,-0.04449978,0.55967474,0.0,0.0,0.0,-1.0
4393269425,4393269288,-0.017883444,0.015506976,-0.044724792,0.5633042,0.0,0.0,0.0,-1.0
4393313441,4393313303,-0.01937804,0.020180058,-0.044120308,0.56146985,0.0,0.0,0.0,-1.0
4393354217,4393354081,-0.023977911,0.030349445,-0.040374078,0.56094396,0.0,0.0,0.0,-1.0
4393394267,4393394094,-0.032039143,0.032908477,-0.0372566,0.5634321,0.0,0.0,0.0,-1.0
4393434246,4393434089,-0.04318571,0.022932827,-0.0353706,0.56655735,0.0,0.0,0.0,-1.0
4393478250,4393478092,-0.03719275,0.025507804,-0.03336952,0.5632232,0.0,0.0,0.0,-1.0
4393522214,4393522081,-0.030529875,0.018801853,-0.032607593,0.5614371,0.0,0.0,0.0,-1.0
4393562257,4393562107,-0.033684954,0.015705274,-0.02789148,0.56207633,0.0,0.0,0.0,-1.0
4393603029,4393602882,-0.032073807,0.014719449,-0.031822473,0.56081134,0.0,0.0,0.0,-1.0
4393643070,4393642940,-0.031832904,0.015271577,-0.034745205,0.5622477,0.0,0.0,0.0,-1.0
4393687019,4393686881,-0.034212843,0.019087581,-0.036293812,0.55804276,0.0,0.0,0.0,-1.0
4393727014,4393726882,-0.031446356,0.019493448,-0.030016486,0.56139034,0.0,0.0,0.0,-1.0
4393771022,4393770886,-0.028734235,0.022698564,-0.03192336,0.55770075,0.0,0.0,0.0,-1.0
4393811079,4393810935,-0.033444732,0.025217662,-0.03027814,0.5561997,0.0,0.0,0.0,-1.0
4393855835,4393855682,-0.035099808,0.027036065,-0.030947624,0.5553218,0.0,0.0,0.0,-1.0
4393899833,4393899685,-0.031494923,0.033546004,-0.033115987,0.5549538,0.0,0.0,0.0,-1.0
4393943896,4393943681,-0.042116772,0.033605896,-0.03368286,0.55739224,0.0,0.0,0.0,-1.0
4393983827,4393983685,-0.03945959,0.03351874,-0.030005842,0.5527937,0.0,0.0,0.0,-1.0
4394027876,4394027681,-0.038280237,0.040542707,-0.029517978,0.54642,0.0,0.0,0.0,-1.0
4394067833,4394067683,-0.039196454,0.046758268,-0.030167608,0.542937,0.0,0.0,0.0,-1.0
4394108671,4394108485,-0.034758408,0.044703804,-0.024844468,0.54573995,0.0,0.0,0.0,-1.0
4394152665,4394152491,-0.040533155,0.048542023,-0.023182172,0.5439942,0.0,0.0,0.0,-1.0
4394192710,4394192488,-0.04173266,0.046936344,-0.03128252,0.5458403,0.0,0.0,0.0,-1.0
4394236623,4394236481,-0.038974036,0.042722967,-0.02735985,0.53877515,0.0,0.0,0.0,-1.0
4394276675,4394276482,-0.04199538,0.034544498,-0.027530296,0.539335,0.0,0.0,0.0,-1.0
4394320618,4394320481,-0.03936006,0.034872755,-0.024701223,0.5391449,0.0,0.0,0.0,-1.0
4394361443,4394361282,-0.04424313,0.028478526,-0.026629964,0.53993773,0.0,0.0,0.0,-1.0
4394405417,4394405281,-0.03977307,0.020474061,-0.024599783,0.54010916,0.0,0.0,0.0,-1.0
4394445414,4394445281,-0.04193647,0.0125190485,-0.025759967,0.5375442,0.0,0.0,0.0,-1.0
4394489469,4394489281,-0.032513253,0.0023854729,-0.027106091,0.5380417,0.0,0.0,0.0,-1.0
4394529464,4394529281,-0.040981364,0.002865376,-0.02355225,0.5437251,0.0,0.0,0.0,-1.0
4394573441,4394573288,-0.03603774,0.0018368015,-0.024697958,0.5470127,0.0,0.0,0.0,-1.0
4394614240,4394614082,-0.03325039,0.007311607,-0.026497483,0.54576755,0.0,0.0,0.0,-1.0
4394654237,4394654087,-0.040975016,0.011409353,-0.02592872,0.54963505,0.0,0.0,0.0,-1.0
4394698272,4394698081,-0.04245664,0.011122721,-0.020666583,0.5482787,0.0,0.0,0.0,-1.0
4394738265,4394738081,-0.038289346,0.013145961,-0.026909463,0.5451428,0.0,0.0,0.0,-1.0
4394782235,4394782081,-0.034612563,0.015709838,-0.024785101,0.5470331,0.0,0.0,0.0,-1.0
4394822240,4394822081,-0.041403763,0.018409545,-0.02926564,0.54876626,0.0,0.0,0.0,-1.0
4394862235,4394862081,-0.033711005,0.020637065,-0.025612213,0.54707116,0.0,0.0,0.0,-1.0
4394903032,4394902892,-0.040198676,0.020872194,-0.02462396,0.55028343,0.0,0.0,0.0,-1.0
4394947075,4394946883,-0.041555073,0.025957676,-0.024716113,0.54945785,0.0,0.0,0.0,-1.0
4394987059,4394986881,-0.03856155,0.023170063,-0.022577878,0.54935485,0.0,0.0,0.0,-1.0
4395031046,4395030895,-0.034865756,0.028341819,-0.02550298,0.548824,0.0,0.0,0.0,-1.0
4395071024,4395070885,-0.04163074,0.030207261,-0.027606606,0.5483786,0.0,0.0,0.0,-1.0
4395115046,4395114881,-0.040157918,0.025279518,-0.028775197,0.5460188,0.0,0.0,0.0,-1.0
4395155857,4395155681,-0.040655114,0.022027945,-0.024958089,0.5485168,0.0,0.0,0.0,-1.0
4395199823,4395199681,-0.034513615,0.01761433,-0.026625685,0.5498055,0.0,0.0,0.0,-1.0
4395239825,4395239688,-0.040851846,0.015527812,-0.023292497,0.55073476,0.0,0.0,0.0,-1.0
4395283849,4395283681,-0.04145789,0.019813916,-0.028495084,0.54875416,0.0,0.0,0.0,-1.0
4395323855,4395323681,-0.030051874,0.026749728,-0.027281204,0.5407572,0.0,0.0,0.0,-1.0
4395367816,4395367681,-0.029746164,0.03184065,-0.02838984,0.5445093,0.0,0.0,0.0,-1.0
4395408660,4395408486,-0.03538202,0.030754289,-0.03319195,0.54492337,0.0,0.0,0.0,-1.0
4395448623,4395448486,-0.038450107,0.027006267,-0.030414449,0.54664063,0.0,0.0,0.0,-1.0
4395492667,4395492481,-0.038001694,0.029039755,-0.031254247,0.55094165,0.0,0.0,0.0,-1.0
4395532644,4395532484,-0.033795733,0.024449341,-0.031137208,0.5453622,0.0,0.0,0.0,-1.0
4395576663,4395576481,-0.03220816,0.019264953,-0.033413634,0.5479739,0.0,0.0,0.0,-1.0
4395616632,4395616491,-0.035386816,0.020294039,-0.03372609,0.55063605,0.0,0.0,0.0,-1.0
4395660711,4395660488,-0.039650332,0.013489628,-0.034845915,0.55445933,0.0,0.0,0.0,-1.0
4395701485,4395701287,-0.038125098,0.009598255,-0.033452585,0.55471593,0.0,0.0,0.0,-1.0
4395745422,4395745286,-0.040508967,0.009102558,-0.033577815,0.5542094,0.0,0.0,0.0,-1.0
4395785465,4395785282,-0.042124297,-0.003489291,-0.033629984,0.55662864,0.0,0.0,0.0,-1.0
4395829477,4395829281,-0.04758642,-0.0116463145,-0.03322652,0.5575324,0.0,0.0,0.0,-1.0
4395869517,4395869281,-0.056327462,-0.0037710834,-0.026804678,0.5565335,0.0,0.0,0.0,-1.0
4395913414,4395913281,-0.061346643,-0.005762527,-0.020957481,0.55633426,0.0,0.0,0.0,-1.0
4395954218,4395954081,-0.052206416,0.0011330559,-0.021543756,0.55552584,0.0,0.0,0.0,-1.0
4395994239,4395994081,-0.041619435,0.0026250673,-0.021551147,0.5515527,0.0,0.0,0.0,-1.0
4396034225,4396034081,-0.041038677,-0.005487207,-0.024927136,0.5544956,0.0,0.0,0.0,-1.0
4396078271,4396078081,-0.03958322,0.005994948,-0.027591,0.5515596,0.0,0.0,0.0,-1.0
4396118300,4396118081,-0.031069618,0.017752536,-0.031324875,0.5520791,0.0,0.0,0.0,-1.0
4396162228,4396162081,-0.02938021,0.04223847,-0.037061334,0.5476809,0.0,0.0,0.0,-1.0
4396207055,4396206908,-0.022375995,0.050299082,-0.041890565,0.55054766,0.0,0.0,0.0,-1.0
4396247042,4396246893,-0.025424996,0.04912464,-0.048015162,0.5559531,0.0,0.0,0.0,-1.0
4396291022,4396290882,-0.017785376,0.050133273,-0.047261912,0.5575623,0.0,0.0,0.0,-1.0
4396331030,4396330892,-0.0057556354,0.026075259,-0.048311412,0.5623481,0.0,0.0,0.0,-1.0
4396375028,4396374881,-0.02113295,0.01701201,-0.048818346,0.5714918,0.0,0.0,0.0,-1.0
4396415138,4396414911,-0.01621482,0.010956153,-0.04721605,0.58158475,0.0,0.0,0.0,-1.0
4396455862,4396455724,-0.014269884,-0.0024645934,-0.043335315,0.5862329,0.0,0.0,0.0,-1.0
4396499827,4396499682,-0.0061158077,-0.006756463,-0.04196988,0.5909079,0.0,0.0,0.0,-1.0
4396543830,4396543688,-0.004388244,-0.016146522,-0.03916384,0.60049087,0.0,0.0,0.0,-1.0
4396587815,4396587682,-0.0004998739,-0.012289104,-0.036362737,0.60381144,0.0,0.0,0.0,-1.0
4396631880,4396631681,0.003440098,-0.005891424,-0.028964624,0.602605,0.0,0.0,0.0,-1.0
4396672621,4396672485,-0.0012240973,-0.008328602,-0.027867831,0.60824674,0.0,0.0,0.0,-1.0
4396712667,4396712481,0.00067321653,-0.016197229,-0.029822877,0.6129092,0.0,0.0,0.0,-1.0
4396756666,4396756482,-0.0016556368,-0.019123003,-0.033752378,0.609608,0.0,0.0,0.0,-1.0
4396796659,4396796482,0.01167349,-0.023666063,-0.030081095,0.6099295,0.0,0.0,0.0,-1.0
4396840629,4396840491,0.017248109,-0.050024398,-0.024017958,0.61372095,0.0,0.0,0.0,-1.0
4396880659,4396880481,0.013965084,-0.049119636,-0.025765117,0.61164635,0.0,0.0,0.0,-1.0
4396924614,4396924481,0.02143098,-0.028356142,-0.027036391,0.60938704,0.0,0.0,0.0,-1.0
4396965452,4396965281,0.013384353,-0.022628393,-0.031042527,0.60689527,0.0,0.0,0.0,-1.0
4397009417,4397009282,-0.0039348416,-0.010136891,-0.032555584,0.60849625,0.0,0.0,0.0,-1.0
4397049418,4397049281,-0.0062605934,0.0048127994,-0.037248194,0.6061973,0.0,0.0,0.0,-1.0
4397093469,4397093281,-0.018886251,-0.00020299503,-0.03954039,0.6151658,0.0,0.0,0.0,-1.0
4397133465,4397133281,-0.02586704,0.0011534856,-0.040930364,0.61590767,0.0,0.0,0.0,-1.0
4397173423,4397173281,-0.030300576,0.013192198,-0.04523863,0.611813,0.0,0.0,0.0,-1.0
4397218247,4397218090,-0.019765852,0.018127637,-0.05062969,0.6074088,0.0,0.0,0.0,-1.0
4397258248,4397258082,-0.028045101,0.022010826,-0.051926155,0.6073915,0.0,0.0,0.0,-1.0
4397302273,4397302088,-0.032664545,0.031012777,-0.057283007,0.5997804,0.0,0.0,0.0,-1.0
4397342276,4397342081,-0.029561935,0.029185582,-0.054517142,0.5964574,0.0,0.0,0.0,-1.0
4397386231,4397386081,-0.027508408,0.02928847,-0.05879958,0.5861415,0.0,0.0,0.0,-1.0
4397426246,4397426088,-0.029382134,0.025640342,-0.057994835,0.58121514,0.0,0.0,0.0,-1.0
4397471045,4397470882,-0.029774575,0.027358657,-0.055855617,0.5821733,0.0,0.0,0.0,-1.0
4397511067,4397510881,-0.032821096,0.025355903,-0.054146983,0.5795201,0.0,0.0,0.0,-1.0
4397555021,4397554881,-0.02758193,0.030780697,-0.052359123,0.57363737,0.0,0.0,0.0,-1.0
4397595038,4397594891,-0.026927346,0.03181723,-0.04635775,0.57067686,0.0,0.0,0.0,-1.0
4397639070,4397638881,-0.028258426,0.028892668,-0.045332782,0.56724775,0.0,0.0,0.0,-1.0
4397679075,4397678881,-0.02421088,0.02772264,-0.038980722,0.5622574,0.0,0.0,0.0,-1.0
4397719859,4397719682,-0.029439468,0.029793797,-0.039015766,0.56024075,0.0,0.0,0.0,-1.0
4397759865,4397759683,-0.027030362,0.02826283,-0.03872706,0.55622065,0.0,0.0,0.0,-1.0
4397803833,4397803682,-0.020514635,0.02736192,-0.036628228,0.5513115,0.0,0.0,0.0,-1.0
4397843830,4397843682,-0.021567406,0.025399659,-0.03475813,0.5511871,0.0,0.0,0.0,-1.0
4397887864,4397887688,-0.023929471,0.030202787,-0.033710346,0.5489573,0.0,0.0,0.0,-1.0
4397927840,4397927681,-0.021456929,0.030298319,-0.036162317,0.54458946,0.0,0.0,0.0,-1.0
4397971824,4397971681,-0.017706748,0.029099677,-0.035864756,0.5416192,0.0,0.0,0.0,-1.0
4398012659,4398012484,-0.012834748,0.022974625,-0.038700275,0.5393834,0.0,0.0,0.0,-1.0
4398052645,4398052492,-0.0131782815,0.017114274,-0.036115244,0.54039663,0.0,0.0,0.0,-1.0
4398096708,4398096481,-0.010897028,0.014580243,-0.038892556,0.5378042,0.0,0.0,0.0,-1.0
4398136655,4398136482,-0.019625654,0.014056543,-0.04079247,0.5352857,0.0,0.0,0.0,-1.0
4398180669,4398180486,-0.014892057,0.01403121,-0.04362168,0.53196675,0.0,0.0,0.0,-1.0
4398221470,4398221282,-0.018995553,0.0129297245,-0.04322467,0.5319151,0.0,0.0,0.0,-1.0
4398261463,4398261281,-0.028311096,0.016994735,-0.04569304,0.53138053,0.0,0.0,0.0,-1.0
4398301460,4398301299,-0.022224119,0.023555582,-0.042673282,0.53222,0.0,0.0,0.0,-1.0
4398345483,4398345281,-0.0224313,0.029802078,-0.043405864,0.5318625,0.0,0.0,0.0,-1.0
4398385475,4398385296,-0.02371082,0.031130796,-0.03766233,0.5293702,0.0,0.0,0.0,-1.0
4398429482,4398429281,-0.022055732,0.03038165,-0.039682806,0.52972436,0.0,0.0,0.0,-1.0
4398469452,4398469295,-0.022787346,0.028397907,-0.0341053,0.53108203,0.0,0.0,0.0,-1.0
4398514247,4398514087,-0.02834837,0.031003524,-0.037534364,0.5287419,0.0,0.0,0.0,-1.0
4398554275,4398554088,-0.025346337,0.035697673,-0.039477352,0.52430475,0.0,0.0,0.0,-1.0
4398598236,4398598081,-0.027980333,0.031060766,-0.039941985,0.52418596,0.0,0.0,0.0,-1.0
4398638228,4398638081,-0.028004423,0.026131637,-0.0434353,0.5247753,0.0,0.0,0.0,-1.0
4398678286,4398678088,-0.023364743,0.02425115,-0.047622558,0.5243739,0.0,0.0,0.0,-1.0
4398718259,4398718081,-0.021149764,0.02497348,-0.048925333,0.5244298,0.0,0.0,0.0,-1.0
4398759069,4398758881,-0.024824679,0.023304084,-0.055069488,0.5239658,0.0,0.0,0.0,-1.0
4398799062,4398798881,-0.02443289,0.025353862,-0.056615684,0.520464,0.0,0.0,0.0,-1.0
4398843123,4398842888,-0.02675244,0.023405453,-0.056413494,0.5192337,0.0,0.0,0.0,-1.0
4398883130,4398882888,-0.029680053,0.023387102,-0.054657467,0.5210421,0.0,0.0,0.0,-1.0
4398927056,4398926881,-0.032185856,0.028278109,-0.063988924,0.51571953,0.0,0.0,0.0,-1.0
4398967045,4398966881,-0.031446967,0.028513761,-0.060810015,0.5161014,0.0,0.0,0.0,-1.0
4399011865,4399011681,-0.02644483,0.0307794,-0.06634298,0.5167732,0.0,0.0,0.0,-1.0
4399055826,4399055681,-0.030209558,0.030549712,-0.060515694,0.5173092,0.0,0.0,0.0,-1.0
4399095840,4399095681,-0.031021714,0.032035492,-0.063425355,0.5180485,0.0,0.0,0.0,-1.0
4399139870,4399139696,-0.040834915,0.03486174,-0.056305744,0.51740766,0.0,0.0,0.0,-1.0
4399179875,4399179681,-0.035789195,0.029407978,-0.06476956,0.51897556,0.0,0.0,0.0,-1.0
4399223820,4399223682,-0.03850128,0.028379891,-0.059316453,0.51741165,0.0,0.0,0.0,-1.0
4399264622,4399264484,-0.035601445,0.035147674,-0.056271542,0.51990825,0.0,0.0,0.0,-1.0
4399308672,4399308496,-0.035511486,0.040065236,-0.059365656,0.5158755,0.0,0.0,0.0,-1.0
4399348658,4399348484,-0.03513763,0.039757904,-0.055410914,0.5201097,0.0,0.0,0.0,-1.0
4399392622,4399392484,-0.03367025,0.037325934,-0.052345704,0.51909345,0.0,0.0,0.0,-1.0
4399432635,4399432481,-0.030053863,0.037252564,-0.0497057,0.5216095,0.0,0.0,0.0,-1.0
4399476671,4399476495,-0.023205245,0.042703357,-0.05038735,0.52149284,0.0,0.0,0.0,-1.0
4399516637,4399516481,-0.023466997,0.04475251,-0.049401656,0.51787776,0.0,0.0,0.0,-1.0
4399557457,4399557281,-0.024939036,0.042815544,-0.04537036,0.5179787,0.0,0.0,0.0,-1.0
4399601432,4399601287,-0.028997669,0.03396859,-0.035951007,0.517594,0.0,0.0,0.0,-1.0
4399645496,4399645333,-0.034669522,0.03103241,-0.0390333,0.52058387,0.0,0.0,0.0,-1.0
4399689468,4399689281,-0.03574291,0.035239574,-0.035539813,0.51945573,0.0,0.0,0.0,-1.0
4399729475,4399729334,-0.036511876,0.03787629,-0.038527474,0.5185657,0.0,0.0,0.0,-1.0
4399773628,4399773313,-0.034138244,0.039393034,-0.03695399,0.52120507,0.0,0.0,0.0,-1.0
4399814231,4399814081,-0.035132017,0.032635134,-0.039036132,0.5210173,0.0,0.0,0.0,-1.0
4399854308,4399854119,-0.036147933,0.02891949,-0.038682416,0.5210399,0.0,0.0,0.0,-1.0
4399898550,4399898081,-0.029404012,0.025411159,-0.037535816,0.52344954,0.0,0.0,0.0,-1.0
4399942238,4399942081,-0.036768854,0.027864771,-0.04188909,0.52037394,0.0,0.0,0.0,-1.0
4399982296,4399982098,-0.037523415,0.029934194,-0.039241187,0.5229489,0.0,0.0,0.0,-1.0
4400026221,4400026085,-0.03644545,0.027955465,-0.04353091,0.52350086,0.0,0.0,0.0,-1.0
4400067025,4400066881,-0.026872298,0.02989824,-0.048618816,0.5219354,0.0,0.0,0.0,-1.0
4400107019,4400106881,-0.027212625,0.02553188,-0.040226728,0.5257275,0.0,0.0,0.0,-1.0
4400151025,4400150890,-0.032826886,0.024710335,-0.044251103,0.52746576,0.0,0.0,0.0,-1.0
4400191024,4400190882,-0.027975857,0.024733977,-0.04186135,0.5267156,0.0,0.0,0.0,-1.0
4400235024,4400234882,-0.023052648,0.027954407,-0.041735243,0.5235814,0.0,0.0,0.0,-1.0
4400275013,4400274881,-0.030428782,0.033325918,-0.0424391,0.5254422,0.0,0.0,0.0,-1.0
4400319822,4400319688,-0.035485744,0.03959702,-0.038902488,0.5265842,0.0,0.0,0.0,-1.0
4400359817,4400359681,-0.031272568,0.046182666,-0.0410383,0.5232507,0.0,0.0,0.0,-1.0
4400403863,4400403681,-0.030602252,0.044379607,-0.03642239,0.52659506,0.0,0.0,0.0,-1.0
4400443824,4400443687,-0.029740956,0.042315293,-0.0366653,0.52582204,0.0,0.0,0.0,-1.0
4400487818,4400487681,-0.03342985,0.04619356,-0.037042465,0.5225133,0.0,0.0,0.0,-1.0
4400528620,4400528490,-0.029196516,0.04509115,-0.039411955,0.5189762,0.0,0.0,0.0,-1.0
4400572668,4400572486,-0.01833871,0.044784956,-0.032954995,0.51704836,0.0,0.0,0.0,-1.0
4400612673,4400612481,-0.025780138,0.04342712,-0.034648787,0.5195953,0.0,0.0,0.0,-1.0
4400656625,4400656486,-0.029412843,0.044043235,-0.041607734,0.5206748,0.0,0.0,0.0,-1.0
4400696625,4400696485,-0.026318278,0.04792725,-0.039454892,0.51993257,0.0,0.0,0.0,-1.0
4400740679,4400740495,-0.022984095,0.056944706,-0.03835895,0.51695186,0.0,0.0,0.0,-1.0
4400780671,4400780485,-0.019627428,0.05903903,-0.038059734,0.5192838,0.0,0.0,0.0,-1.0
4400824624,4400824491,-0.018225942,0.053506125,-0.039595947,0.5149766,0.0,0.0,0.0,-1.0
4400865472,4400865281,-0.023971673,0.046540946,-0.041969944,0.5173996,0.0,0.0,0.0,-1.0
4400905489,4400905340,-0.024338294,0.03993698,-0.043799132,0.5196374,0.0,0.0,0.0,-1.0
4400945449,4400945309,-0.025855776,0.036340725,-0.044298448,0.5196666,0.0,0.0,0.0,-1.0
4400989489,4400989299,-0.01878791,0.037788,-0.048112404,0.5224237,0.0,0.0,0.0,-1.0
4401029416,4401029283,-0.021894662,0.047615856,-0.04811784,0.52464336,0.0,0.0,0.0,-1.0
4401070322,4401070081,-0.022904096,0.049941495,-0.05403923,0.52683127,0.0,0.0,0.0,-1.0
4401114277,4401114084,-0.021192504,0.04423437,-0.04631496,0.52823,0.0,0.0,0.0,-1.0
4401154280,4401154081,-0.022411333,0.046165396,-0.047685042,0.5325924,0.0,0.0,0.0,-1.0
4401198312,4401198081,-0.020332772,0.040970504,-0.05696118,0.5352845,0.0,0.0,0.0,-1.0
4401238288,4401238082,-0.019960918,0.037455548,-0.062312603,0.53693336,0.0,0.0,0.0,-1.0
4401282273,4401282081,-0.011514899,0.038877126,-0.058430396,0.53353566,0.0,0.0,0.0,-1.0
4401323019,4401322882,-0.008480033,0.03938073,-0.055916425,0.5337767,0.0,0.0,0.0,-1.0
4401363061,4401362881,-0.00929015,0.039297912,-0.05811743,0.53468573,0.0,0.0,0.0,-1.0
4401403066,4401402887,-0.015898729,0.037642132,-0.058121447,0.53168845,0.0,0.0,0.0,-1.0
4401447088,4401446881,-0.015972825,0.03303658,-0.0645702,0.5303305,0.0,0.0,0.0,-1.0
4401487088,4401486881,-0.02173557,0.037023913,-0.06097523,0.5307206,0.0,0.0,0.0,-1.0
4401531086,4401530899,-0.0273997,0.02982367,-0.060155503,0.536101,0.0,0.0,0.0,-1.0
4401571824,4401571688,-0.030419616,0.02701745,-0.061934076,0.5376443,0.0,0.0,0.0,-1.0
4401615886,4401615681,-0.008141631,0.026086988,-0.06564285,0.5353611,0.0,0.0,0.0,-1.0
4401655852,4401655682,-0.0018979965,0.024424387,-0.06516484,0.5352191,0.0,0.0,0.0,-1.0
4401699833,4401699681,-0.008054243,0.024829077,-0.062436238,0.54183143,0.0,0.0,0.0,-1.0
4401739814,4401739681,-0.0015564566,0.027425548,-0.064002715,0.5376136,0.0,0.0,0.0,-1.0
4401783871,4401783682,0.00085518055,0.03079975,-0.06638761,0.5374426,0.0,0.0,0.0,-1.0
4401824661,4401824488,-0.008682758,0.028724935,-0.06870808,0.5404011,0.0,0.0,0.0,-1.0
4401864650,4401864482,-0.0006041786,0.034363527,-0.07263752,0.5347316,0.0,0.0,0.0,-1.0
4401908633,4401908496,0.00682202,0.037657276,-0.07790557,0.537859,0.0,0.0,0.0,-1.0
4401948614,4401948481,0.0040331865,0.042929586,-0.07687688,0.5329781,0.0,0.0,0.0,-1.0
4401992673,4401992490,-0.0052867797,0.03992927,-0.0714597,0.52627367,0.0,0.0,0.0,-1.0
4402032675,4402032481,-0.0147583345,0.045466557,-0.07049575,0.52767634,0.0,0.0,0.0,-1.0
4402076636,4402076497,-0.025598727,0.053980235,-0.07005994,0.5271885,0.0,0.0,0.0,-1.0
4402116619,4402116483,-0.03125725,0.059564896,-0.071031265,0.5231752,0.0,0.0,0.0,-1.0
4402161455,4402161281,-0.027568288,0.06279355,-0.0697216,0.52193236,0.0,0.0,0.0,-1.0
4402201463,4402201282,-0.028732881,0.06380387,-0.0711349,0.5213384,0.0,0.0,0.0,-1.0
4402245418,4402245281,-0.027241293,0.05892137,-0.07000047,0.5177378,0.0,0.0,0.0,-1.0
4402285423,4402285281,-0.02682276,0.056362152,-0.065361865,0.5103325,0.0,0.0,0.0,-1.0
4402329462,4402329288,-0.029492227,0.059175566,-0.069263645,0.5131641,0.0,0.0,0.0,-1.0
4402369464,4402369281,-0.03867817,0.06990069,-0.06294968,0.5109809,0.0,0.0,0.0,-1.0
4402410329,4402410082,-0.040559936,0.06885869,-0.061725844,0.50758535,0.0,0.0,0.0,-1.0
4402450309,4402450081,-0.031770788,0.067639224,-0.060208764,0.503168,0.0,0.0,0.0,-1.0
4402494240,4402494081,-0.037301682,0.06985451,-0.0604321,0.5041877,0.0,0.0,0.0,-1.0
4402538262,4402538081,-0.03952988,0.067664064,-0.06365187,0.49853924,0.0,0.0,0.0,-1.0
4402578295,4402578098,-0.037333973,0.06373376,-0.068289794,0.49912617,0.0,0.0,0.0,-1.0
4402619065,4402618889,-0.04439158,0.059621327,-0.06699635,0.50231886,0.0,0.0,0.0,-1.0
4402659075,4402658886,-0.031424742,0.06017523,-0.065847084,0.49898833,0.0,0.0,0.0,-1.0
4402703058,4402702920,-0.034542307,0.062162165,-0.06424709,0.49598894,0.0,0.0,0.0,-1.0
4402743024,4402742888,-0.046623826,0.053439774,-0.06046332,0.49934524,0.0,0.0,0.0,-1.0
4402787057,4402786885,-0.045668945,0.049050294,-0.058297683,0.5038354,0.0,0.0,0.0,-1.0
4402827055,4402826882,-0.04017311,0.044488344,-0.049479283,0.50194114,0.0,0.0,0.0,-1.0
4402871827,4402871689,-0.040760893,0.036373306,-0.052827623,0.5009081,0.0,0.0,0.0,-1.0
4402911851,4402911681,-0.04044793,0.03646028,-0.05033952,0.50032157,0.0,0.0,0.0,-1.0
4402955837,4402955681,-0.058026105,0.031696163,-0.044492174,0.5012671,0.0,0.0,0.0,-1.0
4402995868,4402995681,-0.059498474,0.025289897,-0.05024448,0.5035601,0.0,0.0,0.0,-1.0
4403039825,4403039688,-0.06685142,0.018167272,-0.044750337,0.50296986,0.0,0.0,0.0,-1.0
4403079860,4403079681,-0.06699818,0.021660514,-0.046106547,0.5013772,0.0,0.0,0.0,-1.0
4403119858,4403119682,-0.07271501,0.017079033,-0.043424256,0.50229484,0.0,0.0,0.0,-1.0
4403164644,4403164505,-0.059133764,0.011328851,-0.04085543,0.50095576,0.0,0.0,0.0,-1.0
4403204661,4403204488,-0.056549057,0.0066430992,-0.035980307,0.50124043,0.0,0.0,0.0,-1.0
4403244695,4403244488,-0.044386167,0.01057894,-0.041792087,0.49904203,0.0,0.0,0.0,-1.0
4403288625,4403288484,-0.032327916,0.017547768,-0.04320276,0.49941474,0.0,0.0,0.0,-1.0
4403332655,4403332481,-0.03234323,0.015770515,-0.045901973,0.50331575,0.0,0.0,0.0,-1.0
4403372664,4403372484,-0.0402526,0.015626226,-0.044171855,0.5057628,0.0,0.0,0.0,-1.0
4403417437,4403417281,-0.034429178,0.0161004,-0.045281686,0.5063129,0.0,0.0,0.0,-1.0
4403457435,4403457281,-0.051548325,0.020559128,-0.04378837,0.5087128,0.0,0.0,0.0,-1.0
4403501477,4403501328,-0.05672004,0.025204664,-0.036034755,0.50667614,0.0,0.0,0.0,-1.0
4403541467,4403541281,-0.055737384,0.02824859,-0.038838938,0.5062203,0.0,0.0,0.0,-1.0
4403585429,4403585284,-0.060352486,0.027852567,-0.03621663,0.5043813,0.0,0.0,0.0,-1.0
4403625454,4403625289,-0.05063794,0.029961335,-0.03890213,0.50153106,0.0,0.0,0.0,-1.0
4403670268,4403670084,-0.049138248,0.03625738,-0.043306537,0.5035523,0.0,0.0,0.0,-1.0
4403714222,4403714082,-0.050478753,0.03013131,-0.04798228,0.5071845,0.0,0.0,0.0,-1.0
4403754219,4403754081,-0.043230604,0.024775557,-0.04556153,0.5054517,0.0,0.0,0.0,-1.0
4403798249,4403798099,-0.04393478,0.023688123,-0.047240954,0.5103997,0.0,0.0,0.0,-1.0
4403838254,4403838099,-0.043453537,0.023701064,-0.046165273,0.51294893,0.0,0.0,0.0,-1.0
4403882236,4403882093,-0.035231624,0.029545113,-0.038174316,0.510788,0.0,0.0,0.0,-1.0
4403923097,4403922887,-0.031149376,0.03571192,-0.04098994,0.5115257,0.0,0.0,0.0,-1.0
4403967052,4403966881,-0.035923343,0.03654376,-0.036589522,0.5144238,0.0,0.0,0.0,-1.0
4404007057,4404006882,-0.026061894,0.035934217,-0.033425685,0.51532984,0.0,0.0,0.0,-1.0
4404051116,4404050881,-0.037907984,0.027668528,-0.041105643,0.51723486,0.0,0.0,0.0,-1.0
4404091061,4404090881,-0.037934467,0.024724202,-0.037209153,0.51977664,0.0,0.0,0.0,-1.0
4404135070,4404134888,-0.030882416,0.022993414,-0.034544047,0.5200665,0.0,0.0,0.0,-1.0
4404175827,4404175682,-0.037809283,0.02583035,-0.033614423,0.5194292,0.0,0.0,0.0,-1.0
4404219885,4404219699,-0.04311197,0.024310516,-0.0340822,0.52107406,0.0,0.0,0.0,-1.0
4404259870,4404259691,-0.036855206,0.0263637,-0.032824256,0.5206791,0.0,0.0,0.0,-1.0
4404303821,4404303681,-0.03655094,0.023171758,-0.029913653,0.52310187,0.0,0.0,0.0,-1.0
4404343835,4404343699,-0.04288903,0.026821224,-0.029471483,0.5202841,0.0,0.0,0.0,-1.0
4404383827,4404383688,-0.045380585,0.025076097,-0.029356781,0.52043194,0.0,0.0,0.0,-1.0
4404424645,4404424504,-0.047896247,0.020791518,-0.030540189,0.5191044,0.0,0.0,0.0,-1.0
4404464625,4404464481,-0.053129602,0.017348122,-0.03339772,0.5184309,0.0,0.0,0.0,-1.0
4404508626,4404508484,-0.049802046,0.008147067,-0.035028532,0.51896036,0.0,0.0,0.0,-1.0
4404548627,4404548488,-0.051150363,-0.001909691,-0.035912234,0.52203226,0.0,0.0,0.0,-1.0
4404592646,4404592497,-0.050562922,-0.0020125145,-0.031176964,0.5233938,0.0,0.0,0.0,-1.0
4404632635,4404632487,-0.053058356,-0.0046572275,-0.034920204,0.52215517,0.0,0.0,0.0,-1.0
4404676710,4404676515,-0.04576022,-0.0059362524,-0.040857825,0.521246,0.0,0.0,0.0,-1.0
4404717453,4404717281,-0.046652567,-0.0042998856,-0.045788698,0.520485,0.0,0.0,0.0,-1.0
4404761420,4404761281,-0.038384978,0.0022781051,-0.043759026,0.5179206,0.0,0.0,0.0,-1.0
4404801420,4404801282,-0.046181682,0.0066436976,-0.04957875,0.5153904,0.0,0.0,0.0,-1.0
4404845475,4404845288,-0.05997997,0.012007545,-0.05914992,0.5175201,0.0,0.0,0.0,-1.0
4404889413,4404889281,-0.046396866,0.01817022,-0.059275087,0.5164443,0.0,0.0,0.0,-1.0
4404930280,4404930092,-0.0601164,0.021976693,-0.06262398,0.5150319,0.0,0.0,0.0,-1.0
4404970262,4404970088,-0.06061562,0.018799033,-0.06853256,0.5180578,0.0,0.0,0.0,-1.0
4405014273,4405014081,-0.046717733,0.030129706,-0.061728816,0.5168839,0.0,0.0,0.0,-1.0
4405054270,4405054081,-0.0555968,0.038971327,-0.056053173,0.5143122,0.0,0.0,0.0,-1.0
4405094283,4405094081,-0.0590623,0.032541074,-0.050669085,0.51637524,0.0,0.0,0.0,-1.0
4405138220,4405138081,-0.05633516,0.03560694,-0.053228453,0.5137046,0.0,0.0,0.0,-1.0
4405182284,4405182081,-0.062236577,0.03314997,-0.052090976,0.5148919,0.0,0.0,0.0,-1.0
4405223073,4405222890,-0.05809176,0.027233843,-0.042624384,0.5124513,0.0,0.0,0.0,-1.0
4405263069,4405262882,-0.05213614,0.02534431,-0.03961205,0.5090339,0.0,0.0,0.0,-1.0
4405307030,4405306885,-0.04823268,0.024770861,-0.03508576,0.5068154,0.0,0.0,0.0,-1.0
4405347023,4405346882,-0.044349585,0.014591575,-0.02785589,0.50702155,0.0,0.0,0.0,-1.0
4405391113,4405390927,-0.04951369,0.011942698,-0.03133621,0.50653106,0.0,0.0,0.0,-1.0
4405431096,4405430890,-0.04082306,0.013375681,-0.0184378,0.50828147,0.0,0.0,0.0,-1.0
4405475823,4405475681,-0.040756106,0.007367747,-0.02369229,0.5090576,0.0,0.0,0.0,-1.0
4405515858,4405515681,-0.047887087,0.0038796882,-0.018892454,0.5054345,0.0,0.0,0.0,-1.0
4405559908,4405559682,-0.050225522,0.012896689,-0.017426135,0.50728667,0.0,0.0,0.0,-1.0
4405603856,4405603682,-0.04429482,0.013440793,-0.0192079,0.51165605,0.0,0.0,0.0,-1.0
4405647859,4405647713,-0.050429065,0.010540673,-0.01563214,0.51326954,0.0,0.0,0.0,-1.0
4405687858,4405687688,-0.04304148,0.018904395,-0.018139856,0.51460725,0.0,0.0,0.0,-1.0
4405728651,4405728514,-0.03476816,0.016610725,-0.015874332,0.51314217,0.0,0.0,0.0,-1.0
4405772643,4405772481,-0.030180372,0.018908953,-0.014894055,0.5162097,0.0,0.0,0.0,-1.0
4405812630,4405812487,-0.040673625,0.022521049,-0.018369291,0.5206101,0.0,0.0,0.0,-1.0
4405856649,4405856497,-0.034840763,0.02719548,-0.020444157,0.5222061,0.0,0.0,0.0,-1.0
4405900632,4405900481,-0.040331256,0.028628116,-0.02092483,0.5205065,0.0,0.0,0.0,-1.0
4405944650,4405944502,-0.040011466,0.029424462,-0.02173789,0.5191203,0.0,0.0,0.0,-1.0
4405985455,4405985312,-0.035471845,0.02944024,-0.023578031,0.52095723,0.0,0.0,0.0,-1.0
4406029480,4406029295,-0.029577,0.024990564,-0.024589136,0.5254579,0.0,0.0,0.0,-1.0
4406073469,4406073281,-0.034052793,0.018073045,-0.024811551,0.52778476,0.0,0.0,0.0,-1.0
4406113470,4406113318,-0.027276095,0.016243987,-0.026114892,0.5229974,0.0,0.0,0.0,-1.0
4406157497,4406157283,-0.029297937,0.017204557,-0.023405712,0.5250422,0.0,0.0,0.0,-1.0
4406197430,4406197284,-0.040069085,0.015742073,-0.027209178,0.5308122,0.0,0.0,0.0,-1.0
4406238293,4406238082,-0.03463388,0.016767278,-0.025931412,0.53028166,0.0,0.0,0.0,-1.0
4406278295,4406278081,-0.028898582,0.019430244,-0.02792887,0.5312547,0.0,0.0,0.0,-1.0
4406322264,4406322081,-0.034061797,0.022141313,-0.030395547,0.5341825,0.0,0.0,0.0,-1.0
4406362243,4406362081,-0.025059175,0.020606928,-0.030520083,0.53274256,0.0,0.0,0.0,-1.0
4406406279,4406406087,-0.025294343,0.021671154,-0.027390815,0.5333734,0.0,0.0,0.0,-1.0
4406446278,4406446092,-0.0363711,0.018794494,-0.030122384,0.53724074,0.0,0.0,0.0,-1.0
4406491028,4406490881,-0.03975554,0.014204073,-0.031292047,0.5369273,0.0,0.0,0.0,-1.0
4406531017,4406530881,-0.044968836,0.014542333,-0.03267114,0.5377512,0.0,0.0,0.0,-1.0
4406575061,4406574881,-0.044263367,0.006277874,-0.03304614,0.5391856,0.0,0.0,0.0,-1.0
4406615080,4406614883,-0.05175958,0.0048657865,-0.03357209,0.53997076,0.0,0.0,0.0,-1.0
4406655063,4406654881,-0.055989575,0.0047929054,-0.036522638,0.54127884,0.0,0.0,0.0,-1.0
4406699021,4406698882,-0.05677599,-0.0037712038,-0.038951766,0.54091007,0.0,0.0,0.0,-1.0
4406739822,4406739681,-0.057800505,-0.004615932,-0.03979156,0.53508013,0.0,0.0,0.0,-1.0
4406779832,4406779682,-0.0628063,-0.0009813554,-0.03958497,0.532433,0.0,0.0,0.0,-1.0
4406823879,4406823681,-0.049779974,0.004806075,-0.046705183,0.52516586,0.0,0.0,0.0,-1.0
4406867833,4406867688,-0.045177724,0.0114776045,-0.044639573,0.5251993,0.0,0.0,0.0,-1.0
4406907822,4406907681,-0.046289783,0.009994296,-0.044139877,0.52511346,0.0,0.0,0.0,-1.0
4406951881,4406951681,-0.05498558,0.00872033,-0.052068103,0.5219556,0.0,0.0,0.0,-1.0
4406992687,4406992496,-0.048254903,0.0040765284,-0.054308586,0.5204658,0.0,0.0,0.0,-1.0
4407036621,4407036484,-0.055957798,0.004405845,-0.05205665,0.5193631,0.0,0.0,0.0,-1.0
4407076615,4407076481,-0.056934245,0.0019109484,-0.057541206,0.5201508,0.0,0.0,0.0,-1.0
4407120671,4407120496,-0.055059314,0.001626402,-0.056109544,0.51743895,0.0,0.0,0.0,-1.0
4407160667,4407160488,-0.0507081,0.0040862793,-0.052427594,0.51563096,0.0,0.0,0.0,-1.0
4407204624,4407204482,-0.051094368,0.0027387696,-0.060775787,0.5197967,0.0,0.0,0.0,-1.0
4407244624,4407244481,-0.03162898,0.0026108865,-0.05632861,0.5175658,0.0,0.0,0.0,-1.0
4407285440,4407285284,-0.0152898,0.0032316502,-0.05640067,0.516962,0.0,0.0,0.0,-1.0
4407325414,4407325281,-0.013485574,-0.0038944918,-0.055491604,0.51836216,0.0,0.0,0.0,-1.0
4407369482,4407369281,-0.026379254,-0.013610045,-0.052817713,0.52179486,0.0,0.0,0.0,-1.0
4407409455,4407409285,-0.03190214,-0.015411815,-0.052654177,0.52040136,0.0,0.0,0.0,-1.0
4407453449,4407453288,-0.026993541,-0.018396057,-0.04944693,0.5237877,0.0,0.0,0.0,-1.0
4407493423,4407493281,-0.033065073,-0.014471928,-0.047965616,0.5254429,0.0,0.0,0.0,-1.0
4407534220,4407534081,-0.035909362,-0.009403803,-0.04778977,0.5238775,0.0,0.0,0.0,-1.0
4407574239,4407574082,-0.04049156,-0.004794099,-0.048517648,0.52709293,0.0,0.0,0.0,-1.0
4407618285,4407618088,-0.027784726,-0.0030527252,-0.053582698,0.52677244,0.0,0.0,0.0,-1.0
4407658263,4407658088,-0.028246004,0.00081483833,-0.052108377,0.5266039,0.0,0.0,0.0,-1.0
4407702240,4407702081,-0.03675992,0.0003162125,-0.050104868,0.5297447,0.0,0.0,0.0,-1.0
4407746248,4407746082,-0.03907247,-0.0016686798,-0.051396497,0.5290527,0.0,0.0,0.0,-1.0
4407787104,4407786883,-0.044390928,-0.0054270485,-0.050615367,0.52768004,0.0,0.0,0.0,-1.0
4407831062,4407830881,-0.047666997,-0.007379387,-0.045858886,0.5280292,0.0,0.0,0.0,-1.0
4407871062,4407870881,-0.047518056,-0.010890447,-0.04656361,0.5265012,0.0,0.0,0.0,-1.0
4407915084,4407914888,-0.03699152,-0.011678792,-0.049109604,0.52736396,0.0,0.0,0.0,-1.0
4407955241,4407954881,-0.03009173,-0.014031635,-0.046157427,0.52606016,0.0,0.0,0.0,-1.0
4407999072,4407998881,-0.040769376,-0.012522462,-0.041901756,0.52965266,0.0,0.0,0.0,-1.0
4408039818,4408039682,-0.03568138,-0.010271533,-0.044638164,0.52974445,0.0,0.0,0.0,-1.0
4408079823,4408079688,-0.03482574,-0.006678865,-0.042055823,0.5270814,0.0,0.0,0.0,-1.0
4408123850,4408123681,-0.03997282,0.0006600239,-0.040828206,0.5271401,0.0,0.0,0.0,-1.0
4408167835,4408167681,-0.029176261,0.005972976,-0.039416093,0.52467614,0.0,0.0,0.0,-1.0
4408211845,4408211710,-0.0311779,0.004645661,-0.038184628,0.5257394,0.0,0.0,0.0,-1.0
4408251875,4408251681,-0.0363894,0.0028650088,-0.038445607,0.5253092,0.0,0.0,0.0,-1.0
4408295832,4408295688,-0.032036934,0.0034904168,-0.036953423,0.5266396,0.0,0.0,0.0,-1.0
4408336622,4408336487,-0.036574133,0.0035780636,-0.03444229,0.5284197,0.0,0.0,0.0,-1.0
4408380637,4408380491,-0.028948275,0.004920437,-0.035509214,0.5261268,0.0,0.0,0.0,-1.0
4408420624,4408420483,-0.036466267,0.0063192747,-0.033556864,0.5273828,0.0,0.0,0.0,-1.0
4408464625,4408464481,-0.032910332,0.0044740466,-0.03738517,0.5278044,0.0,0.0,0.0,-1.0
4408504620,4408504482,-0.03945924,-2.0375584e-05,-0.038294997,0.53025544,0.0,0.0,0.0,-1.0
4408549462,4408549312,-0.04144462,0.003612494,-0.03593293,0.527256,0.0,0.0,0.0,-1.0
4408593503,4408593281,-0.032672472,0.0006938962,-0.03550528,0.52742416,0.0,0.0,0.0,-1.0
4408633515,4408633306,-0.037575778,0.0013459958,-0.034635004,0.5260594,0.0,0.0,0.0,-1.0
4408677459,4408677281,-0.03334048,0.006120124,-0.034950033,0.5258311,0.0,0.0,0.0,-1.0
4408717486,4408717328,-0.037368074,0.0033397854,-0.034151684,0.52903897,0.0,0.0,0.0,-1.0
4408761483,4408761281,-0.036664754,0.005039841,-0.032705378,0.5273851,0.0,0.0,0.0,-1.0
4408801527,4408801334,-0.035810627,0.0020469977,-0.033306513,0.52609205,0.0,0.0,0.0,-1.0
4408842276,4408842081,-0.03299751,-2.0946143e-05,-0.03763297,0.5247631,0.0,0.0,0.0,-1.0
4408882262,4408882081,-0.031023085,-0.00018560339,-0.03301483,0.5251132,0.0,0.0,0.0,-1.0
4408926255,4408926081,-0.03929635,-0.0011773854,-0.035060525,0.5256603,0.0,0.0,0.0,-1.0
4408966258,4408966083,-0.041382626,-0.00013639915,-0.033325724,0.52659696,0.0,0.0,0.0,-1.0
4409010332,4409010082,-0.038811322,-0.0059044706,-0.029724803,0.5274172,0.0,0.0,0.0,-1.0
4409050302,4409050081,-0.034467332,0.001690805,-0.030347114,0.52532667,0.0,0.0,0.0,-1.0
4409095039,4409094887,-0.033556532,0.0065684775,-0.030786853,0.52797157,0.0,0.0,0.0,-1.0
4409135021,4409134881,-0.030250715,0.012868082,-0.027973298,0.5265864,0.0,0.0,0.0,-1.0
4409179060,4409178882,-0.0306503,0.020476863,-0.032329805,0.52848685,0.0,0.0,0.0,-1.0
4409219033,4409218896,-0.03656087,0.02020254,-0.03290938,0.53049475,0.0,0.0,0.0,-1.0
4409263019,4409262881,-0.03578248,0.023465816,-0.034859855,0.52622634,0.0,0.0,0.0,-1.0
4409303839,4409303689,-0.03794911,0.0215997,-0.037489835,0.5291776,0.0,0.0,0.0,-1.0
4409343827,4409343681,-0.027064739,0.01917259,-0.03165146,0.5257833,0.0,0.0,0.0,-1.0
4409387865,4409387702,-0.026086777,0.017405558,-0.03739816,0.52592707,0.0,0.0,0.0,-1.0
4409427885,4409427682,-0.028443003,0.01516537,-0.037183773,0.5265236,0.0,0.0,0.0,-1.0
4409471820,4409471681,-0.025861181,0.016334984,-0.032572616,0.5250487,0.0,0.0,0.0,-1.0
4409511829,4409511681,-0.031579725,0.018846618,-0.03167417,0.52759945,0.0,0.0,0.0,-1.0
4409555813,4409555681,-0.027412299,0.020137852,-0.029894408,0.52793807,0.0,0.0,0.0,-1.0
4409596662,4409596486,-0.03427347,0.020076845,-0.026921239,0.52704644,0.0,0.0,0.0,-1.0
4409640626,4409640494,-0.035242192,0.0220246,-0.026829302,0.52557886,0.0,0.0,0.0,-1.0
4409680629,4409680487,-0.04013113,0.016844269,-0.022381475,0.52927715,0.0,0.0,0.0,-1.0
4409724677,4409724492,-0.045212597,0.01021286,-0.02275227,0.5281789,0.0,0.0,0.0,-1.0
4409764668,4409764484,-0.038651314,0.008654451,-0.019139377,0.5271737,0.0,0.0,0.0,-1.0
4409808629,4409808494,-0.045950025,0.0026968357,-0.013282305,0.5292059,0.0,0.0,0.0,-1.0
4409848629,4409848481,-0.043934498,-0.0055391164,-0.010913802,0.5260923,0.0,0.0,0.0,-1.0
4409893527,4409893333,-0.048021205,-0.011073995,-0.0077131893,0.52679455,0.0,0.0,0.0,-1.0
4409937462,4409937288,-0.041488774,-0.0131485835,-0.005970545,0.52410567,0.0,0.0,0.0,-1.0
4409977468,4409977309,-0.04855233,-0.015880246,-0.0028913505,0.52954024,0.0,0.0,0.0,-1.0
4410021503,4410021281,-0.044542555,-0.016512318,-0.004552072,0.52791506,0.0,0.0,0.0,-1.0
4410061500,4410061299,-0.0437093,-0.014567857,-0.007811412,0.52596813,0.0,0.0,0.0,-1.0
4410105474,4410105281,-0.048934296,-0.017218517,-0.0076274723,0.5255724,0.0,0.0,0.0,-1.0
4410146238,4410146081,-0.049591087,-0.019322112,-0.012568228,0.5262609,0.0,0.0,0.0,-1.0
4410190290,4410190108,-0.056704804,-0.016118981,-0.017896157,0.52831197,0.0,0.0,0.0,-1.0
4410230442,4410230081,-0.049446113,-0.013664497,-0.016438078,0.527405,0.0,0.0,0.0,-1.0
4410274222,4410274081,-0.057775,-0.0120584695,-0.024003386,0.5257438,0.0,0.0,0.0,-1.0
4410314239,4410314082,-0.05091288,-0.008831232,-0.0248443,0.52416897,0.0,0.0,0.0,-1.0
4410355026,4410354882,-0.04981135,-0.00787076,-0.026556786,0.52193934,0.0,0.0,0.0,-1.0
4410395019,4410394882,-0.04670017,-0.0073428336,-0.02808733,0.52114934,0.0,0.0,0.0,-1.0
4410439099,4410438888,-0.041087236,-0.003171949,-0.0391019,0.5235367,0.0,0.0,0.0,-1.0
4410479053,4410478881,-0.03314049,-0.0048719663,-0.03650461,0.5242914,0.0,0.0,0.0,-1.0
4410523020,4410522881,-0.03618583,0.0029998887,-0.039976764,0.52260816,0.0,0.0,0.0,-1.0
4410563024,4410562888,-0.039798625,0.0074792188,-0.038966946,0.5246384,0.0,0.0,0.0,-1.0
4410603851,4410603700,-0.048337176,0.0075274576,-0.0400768,0.5259211,0.0,0.0,0.0,-1.0
4410643838,4410643681,-0.044716146,0.01108665,-0.040384393,0.5258526,0.0,0.0,0.0,-1.0
4410687855,4410687683,-0.042541727,0.013193233,-0.03592705,0.5234928,0.0,0.0,0.0,-1.0
4410727850,4410727688,-0.0392184,0.01211535,-0.03658487,0.5245812,0.0,0.0,0.0,-1.0
4410767850,4410767687,-0.036494624,0.018901145,-0.038236585,0.5261887,0.0,0.0,0.0,-1.0
4410811824,4410811681,-0.030847205,0.018927226,-0.040078625,0.5261679,0.0,0.0,0.0,-1.0
4410855859,4410855681,-0.031063486,0.013793812,-0.033327606,0.5254977,0.0,0.0,0.0,-1.0
4410900637,4410900488,-0.029667916,0.008534018,-0.034199495,0.53042215,0.0,0.0,0.0,-1.0
4410940623,4410940487,-0.03492731,0.007397366,-0.035098586,0.53242487,0.0,0.0,0.0,-1.0
4410984647,4410984511,-0.03614376,0.008690055,-0.038360808,0.5316099,0.0,0.0,0.0,-1.0
4411024657,4411024516,-0.03791622,0.014500503,-0.037028976,0.53277546,0.0,0.0,0.0,-1.0
4411064680,4411064492,-0.0400918,0.013926992,-0.035268568,0.5341431,0.0,0.0,0.0,-1.0
4411108620,4411108481,-0.03611329,0.014200007,-0.035993144,0.5304819,0.0,0.0,0.0,-1.0
4411149423,4411149282,-0.041287407,0.0074048163,-0.036769394,0.53653467,0.0,0.0,0.0,-1.0
4411189446,4411189288,-0.033397138,0.009815067,-0.037777714,0.5355316,0.0,0.0,0.0,-1.0
4411233424,4411233280,-0.044610683,0.006955485,-0.037200667,0.5382451,0.0,0.0,0.0,-1.0
4411273471,4411273286,-0.044980414,0.0070490604,-0.03946822,0.53640574,0.0,0.0,0.0,-1.0
4411317425,4411317281,-0.04941421,0.012417493,-0.039584726,0.53625643,0.0,0.0,0.0,-1.0
4411357414,4411357281,-0.050159346,0.015680414,-0.039435133,0.5330843,0.0,0.0,0.0,-1.0
4411398258,4411398082,-0.05035118,0.015969887,-0.042079084,0.53454703,0.0,0.0,0.0,-1.0
4411442240,4411442097,-0.039285373,0.016328786,-0.04411689,0.5348681,0.0,0.0,0.0,-1.0
4411482273,4411482117,-0.031973265,0.014702806,-0.043248087,0.5315156,0.0,0.0,0.0,-1.0
4411522259,4411522081,-0.031437416,0.009626828,-0.04037894,0.53194934,0.0,0.0,0.0,-1.0
4411566239,4411566081,-0.033258196,0.012750229,-0.036621686,0.5295107,0.0,0.0,0.0,-1.0
4411606227,4411606082,-0.03433524,0.015220917,-0.038619634,0.5348606,0.0,0.0,0.0,-1.0
4411647018,4411646882,-0.026952429,0.016341973,-0.039027076,0.5277539,0.0,0.0,0.0,-1.0
4411691080,4411690930,-0.041776687,0.012967178,-0.033171408,0.5179472,0.0,0.0,0.0,-1.0
4411731063,4411730882,-0.03860679,0.013881274,-0.032687,0.5102518,0.0,0.0,0.0,-1.0
4411775037,4411774882,-0.037606508,0.01859172,-0.032654393,0.5062245,0.0,0.0,0.0,-1.0
4411815035,4411814888,-0.036937103,0.023232086,-0.028892446,0.5000975,0.0,0.0,0.0,-1.0
4411855061,4411854912,-0.033746198,0.03264549,-0.027733168,0.49562937,0.0,0.0,0.0,-1.0
4411895831,4411895684,-0.039312568,0.034073304,-0.029754559,0.4963994,0.0,0.0,0.0,-1.0
4411939894,4411939713,-0.037327517,0.028804991,-0.027063478,0.49083227,0.0,0.0,0.0,-1.0
4411979870,4411979693,-0.02714371,0.029685706,-0.031721458,0.48666465,0.0,0.0,0.0,-1.0
4412023865,4412023681,-0.039602973,0.03785889,-0.027998846,0.48726994,0.0,0.0,0.0,-1.0
4412063834,4412063695,-0.03706979,0.042034864,-0.028501462,0.48442775,0.0,0.0,0.0,-1.0
4412107880,4412107681,0.078295894,-0.10090756,-0.022830304,0.43458483,0.0,0.0,0.0,1.0
4412147848,4412147682,0.06431283,-0.08539043,-0.025922162,0.43225747,0.0,0.0,0.0,1.0
4412192628,4412192486,0.017415155,-0.014022803,-0.021464081,0.43828714,0.0,0.0,0.0,1.0
4412232686,4412232482,0.0010985332,0.03045164,-0.02459338,0.44913718,0.0,0.0,0.0,1.0
4412272661,4412272484,-0.050675713,0.030411072,0.2857201,0.4636942,0.0,0.0,0.0,1.0
4412316696,4412316506,-0.09315646,0.06318711,0.23963214,0.47170812,0.0,0.0,0.0,1.0
4412360620,4412360484,-0.10782169,0.091858,0.17453513,0.48033935,0.0,0.0,0.0,1.0
4412404635,4412404502,-0.09700987,0.09393813,0.14089385,0.4779251,0.0,0.0,0.0,1.0
4412445450,4412445316,-0.0840912,0.09194841,0.11010983,0.47768328,0.0,0.0,0.0,1.0
4412489429,4412489282,-0.081730254,0.09055704,0.09071523,0.47851714,0.0,0.0,0.0,1.0
4412529420,4412529281,-0.07341813,0.08280672,0.08034025,0.4761775,0.0,0.0,0.0,1.0
4412573418,4412573283,-0.056793217,0.07495794,0.067528784,0.4732015,0.0,0.0,0.0,1.0
4412613419,4412613282,-0.06174374,0.069216385,0.06349105,0.47598073,0.0,0.0,0.0,1.0
4412657441,4412657288,-0.054084722,0.06255714,0.054259706,0.48482737,0.0,0.0,0.0,1.0
4412702232,4412702083,-0.046357334,0.05736922,0.043344505,0.4846215,0.0,0.0,0.0,1.0
4412742239,4412742082,-0.045946583,0.053310018,0.036982127,0.48549297,0.0,0.0,0.0,1.0
4412786283,4412786088,-0.037078943,0.044047963,0.02842754,0.49060658,0.0,0.0,0.0,1.0
4412826286,4412826081,-0.03089103,0.04082959,0.027215386,0.49824214,0.0,0.0,0.0,1.0
4412870291,4412870120,-0.03170061,0.03900626,0.01877752,0.49905908,0.0,0.0,0.0,1.0
4412910257,4412910081,-0.0382939,0.038326588,0.016145557,0.50760925,0.0,0.0,0.0,1.0
4412955081,4412954882,-0.041809537,0.04186596,0.013780965,0.508031,0.0,0.0,0.0,1.0
4412999026,4412998888,-0.0403527,0.039754104,0.014562571,0.5131865,0.0,0.0,0.0,1.0
4413039070,4413038881,-0.037447497,0.04328802,0.006631382,0.5107182,0.0,0.0,0.0,1.0
4413079074,4413078892,-0.02755227,0.044404138,0.0073743556,0.51517767,0.0,0.0,0.0,1.0
4413123097,4413122881,-0.020545067,0.04736248,0.0032845943,0.51358014,0.0,0.0,0.0,1.0
4413163104,4413162882,-0.019793943,0.04353197,-0.00040733372,0.51854485,0.0,0.0,0.0,1.0
4413203864,4413203682,-0.019931901,0.040432002,-0.019024247,0.52028745,0.0,0.0,0.0,1.0
4413243915,4413243681,-0.0118505275,0.039244812,-0.034215495,0.522401,0.0,0.0,0.0,1.0
4413287814,4413287681,-0.0016700452,0.037682265,-0.048747487,0.52223325,0.0,0.0,0.0,1.0
4413327863,4413327681,-0.00088118645,0.03958263,-0.05617606,0.5201053,0.0,0.0,0.0,1.0
4413371850,4413371682,-0.0025548413,0.037682183,-0.07105643,0.5200759,0.0,0.0,0.0,1.0
4413411848,4413411681,0.0038612704,0.03852657,-0.07774126,0.5158805,0.0,0.0,0.0,1.0
4413459848,4413459682,0.0023370543,0.034821026,-0.07996694,0.51463115,0.0,0.0,0.0,1.0
4413500659,4413500484,0.005960117,0.03435496,-0.084583625,0.5220623,0.0,0.0,0.0,1.0
4413544648,4413544501,0.008336809,0.03560327,-0.087018244,0.5187142,0.0,0.0,0.0,1.0
4413588650,4413588503,0.008108268,0.036214136,-0.08922985,0.5202825,0.0,0.0,0.0,1.0
4413628672,4413628484,0.0035674237,0.035161436,-0.08947331,0.52051705,0.0,0.0,0.0,1.0
4413672628,4413672488,0.0011508097,0.039371084,-0.09062439,0.5193977,0.0,0.0,0.0,1.0
4413712629,4413712481,0.002727043,0.033649668,-0.09206648,0.51965445,0.0,0.0,0.0,1.0
4413753416,4413753282,0.0018928773,0.035987575,-0.09115679,0.5197917,0.0,0.0,0.0,1.0
4413793418,4413793282,-0.0023810063,0.039397877,-0.09174479,0.52029675,0.0,0.0,0.0,1.0
4413837465,4413837287,0.0009690061,0.04368841,-0.09199926,0.518789,0.0,0.0,0.0,1.0
4413881455,4413881313,-0.003592786,0.036879573,-0.08971008,0.51468056,0.0,0.0,0.0,1.0
