timestamp,states[0],states[1],states[2],states[3],states[4],states[5],states[6],states[7],states[8],states[9],states[10],states[11],states[12],states[13],states[14],states[15],states[16],states[17],states[18],states[19],states[20],states[21],states[22],states[23],n_states,vibe[0],vibe[1],vibe[2],covariances[0],covariances[1],covariances[2],covariances[3],covariances[4],covariances[5],covariances[6],covariances[7],covariances[8],covariances[9],covariances[10],covariances[11],covariances[12],covariances[13],covariances[14],covariances[15],covariances[16],covariances[17],covariances[18],covariances[19],covariances[20],covariances[21],covariances[22],covariances[23],control_mode_flags,pos_horiz_accuracy,pos_vert_accuracy,mag_test_ratio,vel_test_ratio,pos_test_ratio,hgt_test_ratio,tas_test_ratio,hagl_test_ratio,beta_test_ratio,time_slip,gps_check_fail_flags,filter_fault_flags,innovation_check_flags,solution_status_flags,nan_flags,health_flags,timeout_flags,pre_flt_fail
4384791733,0.9991213,-0.008580735,-0.0034075247,-0.040883534,0.099392734,-0.09392485,0.033411883,24.057005,-81.34371,-0.47681427,1.2449619e-05,-1.4790615e-05,-1.7533943e-05,0.00037364598,-0.00047502303,-0.00048001818,0.18932068,0.05072833,0.35865054,0.0,0.0,0.0,0.0,0.0,0.0,1.7995849e-10,9.063625e-06,0.0003994524,5.2403493e-07,5.894688e-06,5.910477e-06,3.700916e-05,0.013129282,0.013129788,0.010132874,0.06025868,0.06025915,0.05779075,1.0497216e-11,1.0498539e-11,1.8309073e-11,5.8497243e-08,5.849687e-08,5.000007e-08,0.0,0.0,0.0,0.0,0.0,0.0,0.0,0.0,663,0.34715676,0.24039707,0.021171227,0.053888705,0.03020553,0.02293338,0.0,0.0,0.0,0.007983,0,0,0,831,0,0,0,0
4384996378,0.99912727,-0.008378397,-0.0028980046,-0.040819533,0.10026219,-0.095372185,0.0405586,24.07195,-81.36747,-0.4492131,1.2437131e-05,-1.4837913e-05,-1.7544484e-05,0.0003736427,-0.00047502015,-0.00048537506,0.18932068,0.05072833,0.35865054,0.0,0.0,0.0,0.0,0.0,0.0,2.4333326e-08,0.00017964125,0.0029316195,5.238474e-07,5.8935043e-06,5.909221e-06,3.7029306e-05,0.013120899,0.013121401,0.010062299,0.06026275,0.060263198,0.057143398,1.0497014e-11,1.0498337e-11,1.8313878e-11,5.8498156e-08,5.8497783e-08,5e-08,0.0,0.0,0.0,0.0,0.0,0.0,0.0,0.0,663,0.34716848,0.23904686,0.02389847,0.04202869,0.030276408,0.0037737167,0.0,0.0,0.0,0.007817,0,0,0,831,0,0,0,0
4385197352,0.99915254,-0.008229364,-0.002862588,-0.04023009,0.13042386,-0.086703606,0.035255864,24.087036,-81.39247,-0.45315576,1.242671e-05,-1.4882316e-05,-1.7546594e-05,0.00037364775,-0.00047501596,-0.0004806437,0.18932068,0.05072833,0.35865054,0.0,0.0,0.0,0.0,0.0,0.0,3.771131e-08,0.00021664183,0.0039488617,5.220752e-07,5.8946903e-06,5.9103536e-06,3.698921e-05,0.013129499,0.013130395,0.01007368,0.06030963,0.060310077,0.057274852,1.0496966e-11,1.0498286e-11,1.8304365e-11,5.8499054e-08,5.849868e-08,5e-08,0.0,0.0,0.0,0.0,0.0,0.0,0.0,0.0,663,0.34730348,0.23932165,0.0209825,0.03751009,0.031388037,0.0041709403,0.0,0.0,0.0,0.008002,0,0,0,831,0,0,0,0
4385398171,0.9991243,-0.006656794,-0.0032464187,-0.041181162,0.10951374,-0.08663185,0.049282912,24.099045,-81.41643,-0.42081025,1.2411132e-05,-1.4939187e-05,-1.7553863e-05,0.00037363227,-0.0004750099,-0.0004881789,0.18932068,0.05072833,0.35865054,0.0,0.0,0.0,0.0,0.0,0.0,3.00763e-08,0.00017385819,0.003565744,5.241157e-07,5.8971254e-06,5.9112303e-06,3.6946512e-05,0.013139406,0.013139959,0.010083746,0.060397357,0.060397763,0.057417024,1.0498672e-11,1.0499996e-11,1.8296975e-11,5.8499964e-08,5.849959e-08,5e-08,0.0,0.0,0.0,0.0,0.0,0.0,0.0,0.0,663,0.3475559,0.2396185,0.11139873,0.046217166,0.029537521,0.06425662,0.0,0.0,0.0,0.008015,0,0,0,831,0,0,0,0
4385602946,0.9991211,-0.00818898,-0.0027766926,-0.04101577,0.10252095,-0.10936815,0.04757066,24.108686,-81.43831,-0.39414582,1.23815635e-05,-1.5010224e-05,-1.7518096e-05,0.00037362636,-0.00047499806,-0.0004926834,0.18932068,0.05072833,0.35865054,0.0,0.0,0.0,0.0,0.0,0.0,3.932817e-08,0.00019467791,0.0038734074,5.242162e-07,5.9045346e-06,5.920106e-06,3.6987516e-05,0.013215431,0.013215907,0.010127723,0.060814917,0.06081532,0.05784336,1.0504362e-11,1.0505682e-11,1.830612e-11,5.8500913e-08,5.850054e-08,5.0000036e-08,0.0,0.0,0.0,0.0,0.0,0.0,0.0,0.0,663,0.34875527,0.24050647,0.043924306,0.053402573,0.02779132,0.010118147,0.0,0.0,0.0,0.00799,0,0,0,831,0,0,0,0
4385806955,0.9992095,-0.00047817524,0.0013639806,-0.03972847,0.10946058,-0.104653955,0.020533906,24.124418,-81.46262,-0.36505398,1.2365342e-05,-1.5040219e-05,-1.7688857e-05,0.00037361824,-0.00047498787,-0.00049819367,0.18932068,0.05072833,0.35865054,0.0,0.0,0.0,0.0,0.0,0.0,1.0921166e-06,0.0006895478,0.012560549,5.180143e-07,5.910817e-06,5.9217355e-06,3.7012087e-05,0.013260036,0.013260561,0.010139626,0.060942728,0.06094312,0.057985306,1.0506785e-11,1.050811e-11,1.8311108e-11,5.8501826e-08,5.8501453e-08,5.000007e-08,0.0,0.0,0.0,0.0,0.0,0.0,0.0,0.0,663,0.34912154,0.24080138,0.26961794,0.03286379,0.027103812,0.0002723019,0.0,0.0,0.0,0.008005,0,0,0,831,0,0,0,0
4386007725,0.99706095,0.06259436,0.02694002,-0.03501007,-0.057025906,0.2820538,-0.2938551,24.133144,-81.4683,-0.4042622,1.2354745e-05,-1.5071677e-05,-1.8025692e-05,0.00037362002,-0.00047480562,-0.00049130945,0.18932068,0.05072833,0.35865054,0.0,0.0,0.0,0.0,0.0,0.0,1.0497776e-06,0.0009461409,0.014286921,5.06273e-07,5.9444565e-06,6.049559e-06,3.685911e-05,0.013534713,0.013516986,0.01009197,0.061312936,0.06131323,0.05753536,1.0508881e-11,1.0510216e-11,1.830588e-11,5.8502735e-08,5.8502206e-08,5e-08,0.0,0.0,0.0,0.0,0.0,0.0,0.0,0.0,663,0.3501802,0.2398653,0.11115655,0.025994169,0.023924101,0.0047460725,0.0,0.0,0.0,0.007964,0,0,0,831,0,0,0,0
4386208518,0.99818265,0.04342299,0.027860694,-0.031141706,-0.13402021,0.408595,-0.88914305,24.099447,-81.41319,-0.65927047,1.23844875e-05,-1.5169108e-05,-1.8056757e-05,0.0003734405,-0.00047479224,-0.0004468896,0.18932068,0.05072833,0.35865054,0.0,0.0,0.0,0.0,0.0,0.0,1.1124841e-06,0.0010990544,0.016643899,4.9387467e-07,5.938715e-06,5.9720387e-06,3.6884416e-05,0.013875182,0.013847788,0.010092418,0.06126644,0.061266165,0.057516474,1.0501495e-11,1.0503065e-11,1.8291783e-11,5.8503172e-08,5.8502415e-08,5e-08,0.0,0.0,0.0,0.0,0.0,0.0,0.0,0.0,663,0.35004658,0.23982592,0.07493202,0.06907402,0.024277985,0.15658402,0.0,0.0,0.0,0.007963,0,0,0,831,0,0,0,0
4386409327,0.9993426,0.00904286,0.019785091,-0.029005049,-0.21339698,0.543524,-0.93936956,24.062847,-81.3203,-0.8122213,1.2375572e-05,-1.520577e-05,-1.8157396e-05,0.00037322566,-0.00047460615,-0.00045992425,0.18932068,0.05072833,0.35865054,0.0,0.0,0.0,0.0,0.0,0.0,1.0698229e-06,0.0011027115,0.016023768,4.919984e-07,5.909011e-06,5.9062413e-06,3.6970785e-05,0.013899038,0.013860456,0.010100953,0.061368376,0.061366748,0.05763001,1.0497587e-11,1.0499443e-11,1.8295159e-11,5.8502323e-08,5.8501488e-08,5e-08,0.0,0.0,0.0,0.0,0.0,0.0,0.0,0.0,663,0.35033575,0.24006252,0.10729194,0.03715123,0.031521488,0.08665038,0.0,0.0,0.0,0.007967,0,0,0,831,0,0,0,0
4386614138,0.99955595,-0.013126323,-0.003555164,-0.026516274,-0.2296298,0.52571136,-0.89907813,24.025175,-81.20649,-0.9550871,1.2326776e-05,-1.5179818e-05,-1.825412e-05,0.00037323512,-0.00047426866,-0.0004729144,0.18932068,0.05072833,0.35865054,0.0,0.0,0.0,0.0,0.0,0.0,8.606987e-07,0.0011511998,0.01527498,4.958715e-07,5.8820788e-06,5.9077806e-06,3.6954694e-05,0.0138936415,0.013865449,0.010146893,0.061815053,0.06181153,0.058054518,1.0498127e-11,1.0500303e-11,1.829025e-11,5.8501584e-08,5.850068e-08,5.0000075e-08,0.0,0.0,0.0,0.0,0.0,0.0,0.0,0.0,663,0.3516057,0.24094506,0.11201642,0.06098425,0.025214544,0.0015432831,0.0,0.0,0.0,0.007988,0,0,0,831,0,0,0,0
4386814138,0.9993773,-0.02585107,-0.0046305037,-0.023565136,-0.21615066,0.4769523,-0.84564155,23.9648,-81.094604,-1.0770084,1.2231776e-05,-1.529528e-05,-1.8355753e-05,0.00037262146,-0.00047390666,-0.0004895914,0.18932068,0.05072833,0.35865054,0.0,0.0,0.0,0.0,0.0,0.0,6.890132e-07,0.001129228,0.014814961,4.9876627e-07,5.8598125e-06,5.9124945e-06,3.6891186e-05,0.013782295,0.013764521,0.010068415,0.06171917,0.061714284,0.057225186,1.04897905e-11,1.04922685e-11,1.8276332e-11,5.8500973e-08,5.8500024e-08,5e-08,0.0,0.0,0.0,0.0,0.0,0.0,0.0,0.0,663,0.35133097,0.23921786,0.059227902,0.088529624,0.018236995,0.016440341,0.0,0.0,0.0,0.007948,0,0,0,831,0,0,0,0
4387014726,0.99914265,-0.033922415,-0.010866264,-0.021099826,-0.18003297,0.37875468,-0.8065538,23.914108,-81.00178,-1.2341896,1.2175272e-05,-1.5362593e-05,-1.844595e-05,0.0003722995,-0.0004737523,-0.00048953557,0.18932068,0.05072833,0.35865054,0.0,0.0,0.0,0.0,0.0,0.0,6.290663e-07,0.0010928571,0.014377637,5.017479e-07,5.8487485e-06,5.921268e-06,3.6950147e-05,0.013715101,0.013708269,0.0100818,0.06183426,0.06182879,0.057379074,1.0488503e-11,1.0491248e-11,1.8293003e-11,5.8500806e-08,5.8499822e-08,5e-08,0.0,0.0,0.0,0.0,0.0,0.0,0.0,0.0,663,0.35165757,0.2395393,0.0030129466,0.05409462,0.011859038,0.0013948397,0.0,0.0,0.0,0.00776,0,0,0,831,0,0,0,0
4387215856,0.99905366,-0.031918056,-0.023856198,-0.017436488,-0.10155622,0.25954044,-0.8385405,23.877636,-80.92498,-1.380026,1.2097107e-05,-1.5412726e-05,-1.8480177e-05,0.00037203848,-0.00047358472,-0.0004962492,0.18932068,0.05072833,0.35865054,0.0,0.0,0.0,0.0,0.0,0.0,5.8089637e-07,0.001283015,0.016633507,4.981708e-07,5.8569426e-06,5.9057834e-06,3.6960944e-05,0.0136977,0.013696981,0.010093928,0.061908845,0.06190368,0.05750241,1.0485681e-11,1.0488619e-11,1.8295617e-11,5.8500717e-08,5.849965e-08,5e-08,0.0,0.0,0.0,0.0,0.0,0.0,0.0,0.0,663,0.35187003,0.23979661,0.024593055,0.064273,0.005001618,0.0047779046,0.0,0.0,0.0,0.0081009995,0,0,0,831,0,0,0,0
4387416547,0.9992912,-0.028552866,-0.019676546,-0.01465234,-0.012583145,0.1724168,-0.8692033,23.851057,-80.86911,-1.5061871,1.20316145e-05,-1.5497126e-05,-1.8545217e-05,0.00037166514,-0.000473582,-0.000511012,0.18932068,0.05072833,0.35865054,0.0,0.0,0.0,0.0,0.0,0.0,5.306357e-07,0.001271957,0.017005311,4.9137105e-07,5.845303e-06,5.89234e-06,3.6935842e-05,0.013698829,0.01370003,0.010107126,0.062026557,0.062022153,0.0576483,1.0485055e-11,1.0488095e-11,1.8288236e-11,5.8500547e-08,5.8499364e-08,5.0000036e-08,0.0,0.0,0.0,0.0,0.0,0.0,0.0,0.0,663,0.3522055,0.2401006,0.00357077,0.05398922,0.008345447,0.00025071597,0.0,0.0,0.0,0.007998,0,0,0,831,0,0,0,0
4387616572,0.9992273,-0.034135483,-0.012587869,-0.014872061,0.06035586,0.06455153,-0.84289265,23.8511,-80.83774,-1.6794602,1.1990113e-05,-1.551118e-05,-1.8710014e-05,0.00037155396,-0.00047357325,-0.00051114906,0.18932068,0.05072833,0.35865054,0.0,0.0,0.0,0.0,0.0,0.0,5.0868925e-07,0.0013247733,0.017853163,4.9458345e-07,5.8259234e-06,5.8991955e-06,3.695075e-05,0.013657531,0.013658576,0.010123771,0.06215578,0.062152624,0.05781033,1.0484756e-11,1.04878484e-11,1.8293395e-11,5.85003e-08,5.849908e-08,5.000007e-08,0.0,0.0,0.0,0.0,0.0,0.0,0.0,0.0,663,0.35257396,0.24043779,0.0654506,0.029410476,0.013929248,0.07620075,0.0,0.0,0.0,0.008015,0,0,0,831,0,0,0,0
4387821387,0.999391,-0.029560637,-0.0051076557,-0.017824885,0.086985245,-0.03296333,-0.84472746,23.842188,-80.80863,-1.8987521,1.1863687e-05,-1.5629495e-05,-1.8800036e-05,0.000370927,-0.00047348693,-0.0004943098,0.18932068,0.05072833,0.35865054,0.0,0.0,0.0,0.0,0.0,0.0,5.496746e-07,0.0012908346,0.017707579,4.942164e-07,5.8171468e-06,5.8817654e-06,3.69214e-05,0.013619673,0.013616292,0.010136893,0.06223691,0.062235173,0.057954006,1.0484214e-11,1.04872725e-11,1.8286244e-11,5.8500085e-08,5.8498866e-08,5.000009e-08,0.0,0.0,0.0,0.0,0.0,0.0,0.0,0.0,663,0.352806,0.24073638,0.0040596724,0.09393858,0.020002676,0.02179341,0.0,0.0,0.0,0.008029,0,0,0,831,0,0,0,0
4388022253,0.999709,-0.0142210405,-0.0029974699,-0.019253062,0.12231075,-0.081745476,-0.870427,23.886347,-80.813614,-2.1305711,1.1824041e-05,-1.5480327e-05,-1.8815168e-05,0.00037119965,-0.0004729243,-0.0004795335,0.18932068,0.05072833,0.35865054,0.0,0.0,0.0,0.0,0.0,0.0,5.730718e-07,0.0013764541,0.01826919,4.863109e-07,5.8271366e-06,5.8570668e-06,3.6924335e-05,0.013663185,0.013656857,0.010101701,0.06268949,0.06268903,0.057545416,1.0487208e-11,1.0490175e-11,1.8281146e-11,5.8499833e-08,5.8498625e-08,5.0000036e-08,0.0,0.0,0.0,0.0,0.0,0.0,0.0,0.0,663,0.3540883,0.23988625,0.007870484,0.12347387,0.014270439,0.05087138,0.0,0.0,0.0,0.008091,0,0,0,831,0,0,0,0
4388222978,0.999823,-0.003946912,-0.0017622682,-0.018315151,0.1339556,-0.08576373,-0.9158514,23.87974,-80.81115,-2.3501408,1.1741784e-05,-1.5634152e-05,-1.8857092e-05,0.00037063667,-0.00047314572,-0.00046740458,0.18932068,0.05072833,0.35865054,0.0,0.0,0.0,0.0,0.0,0.0,5.129585e-07,0.0013475108,0.018305326,4.798719e-07,5.823697e-06,5.840374e-06,3.6950772e-05,0.0136258425,0.013620046,0.010111828,0.06260946,0.062609725,0.0575605,1.0482264e-11,1.0485111e-11,1.8280833e-11,5.8499513e-08,5.8498323e-08,5.0000036e-08,0.0,0.0,0.0,0.0,0.0,0.0,0.0,0.0,663,0.3538632,0.2399177,0.03386066,0.09578042,0.022829356,0.021507276,0.0,0.0,0.0,0.008029,0,0,0,831,0,0,0,0
4388427047,0.9998498,0.0010217039,-0.00047624344,-0.017298333,0.14849098,-0.04629273,-0.9516931,23.88153,-80.8087,-2.5974326,1.1676163e-05,-1.5748547e-05,-1.8843002e-05,0.0003701451,-0.00047326105,-0.0004487537,0.18932068,0.05072833,0.35865054,0.0,0.0,0.0,0.0,0.0,0.0,4.139449e-07,0.0012819975,0.017750679,4.7626654e-07,5.8259666e-06,5.839297e-06,3.699062e-05,0.013648906,0.0136474315,0.010158341,0.06294293,0.06294363,0.057880834,1.0482558e-11,1.0485288e-11,1.8284563e-11,5.8499168e-08,5.849799e-08,5.000007e-08,0.0,0.0,0.0,0.0,0.0,0.0,0.0,0.0,663,0.35480496,0.24058436,0.01377466,0.06361499,0.026798613,0.047270566,0.0,0.0,0.0,0.00809,0,0,0,831,0,0,0,0
4388627730,0.99984276,-0.0030171324,-0.0041715275,-0.016968466,0.18466069,-0.010025488,-0.9771238,23.891497,-80.80694,-2.846287,1.1655966e-05,-1.5832773e-05,-1.88667e-05,0.00036985695,-0.00047337313,-0.00042970243,0.18932068,0.05072833,0.35865054,0.0,0.0,0.0,0.0,0.0,0.0,3.9898362e-07,0.0012882492,0.01783307,4.778643e-07,5.8220758e-06,5.837112e-06,3.6947247e-05,0.013633703,0.013637337,0.010091004,0.063073464,0.06307449,0.057228517,1.0484028e-11,1.0486666e-11,1.8277218e-11,5.8498824e-08,5.849768e-08,5e-08,0.0,0.0,0.0,0.0,0.0,0.0,0.0,0.0,663,0.35517314,0.23922482,0.053389333,0.039427787,0.033168025,0.07535422,0.0,0.0,0.0,0.007981,0,0,0,831,0,0,0,0
4388828580,0.99976915,-0.010352231,-0.0032043434,-0.018553404,0.21872436,0.0071376655,-1.00146,23.89899,-80.79154,-3.0910318,1.1592584e-05,-1.5971016e-05,-1.8888e-05,0.00036934594,-0.0004736525,-0.00041392952,0.18932068,0.05072833,0.35865054,0.0,0.0,0.0,0.0,0.0,0.0,4.940515e-07,0.0014044842,0.018541373,4.835781e-07,5.8160795e-06,5.83928e-06,3.695997e-05,0.013624161,0.01363145,0.010105705,0.06321457,0.063216016,0.05738554,1.04857355e-11,1.0488322e-11,1.8282313e-11,5.8498387e-08,5.84973e-08,5e-08,0.0,0.0,0.0,0.0,0.0,0.0,0.0,0.0,663,0.3555708,0.2395528,0.029951245,0.073935606,0.038900062,0.07598784,0.0,0.0,0.0,0.008031,0,0,0,831,0,0,0,0
4389029317,0.9994703,-0.021869851,0.005538497,-0.023457881,0.22430336,-0.027640488,-1.01221,23.902437,-80.79275,-3.341779,1.161358e-05,-1.613375e-05,-1.8990599e-05,0.000369065,-0.00047411662,-0.00039486928,0.18932068,0.05072833,0.35865054,0.0,0.0,0.0,0.0,0.0,0.0,5.715598e-07,0.0015307803,0.018620308,4.981534e-07,5.8078613e-06,5.850284e-06,3.689587e-05,0.013600633,0.013607019,0.010120855,0.06331148,0.06331335,0.057527024,1.0485742e-11,1.0488282e-11,1.8273268e-11,5.849788e-08,5.8496852e-08,5.0000036e-08,0.0,0.0,0.0,0.0,0.0,0.0,0.0,0.0,663,0.3558438,0.23984791,0.028620915,0.09087104,0.04905575,0.03889906,0.0,0.0,0.0,0.0079499995,0,0,0,831,0,0,0,0
4389230001,0.9990934,-0.027695395,0.012179637,-0.029951544,0.19486375,-0.098173454,-1.0074189,23.908764,-80.80175,-3.5842493,1.1622366e-05,-1.6268119e-05,-1.907498e-05,0.000368808,-0.00047444846,-0.00037942667,0.18932068,0.05072833,0.35865054,0.0,0.0,0.0,0.0,0.0,0.0,5.481913e-07,0.0015544058,0.018721834,5.1597226e-07,5.8058877e-06,5.8562687e-06,3.6827973e-05,0.013568676,0.013568421,0.010138493,0.06338087,0.063382976,0.05771137,1.04869915e-11,1.0489471e-11,1.8266232e-11,5.8497374e-08,5.8496397e-08,5.000007e-08,0.0,0.0,0.0,0.0,0.0,0.0,0.0,0.0,663,0.3560391,0.24023192,0.0052941674,0.066382654,0.05195175,0.0016156884,0.0,0.0,0.0,0.007849,0,0,0,831,0,0,0,0
4389430225,0.9988227,-0.026364714,0.018509196,-0.036273107,0.1403456,-0.16185103,-0.98794174,23.883707,-80.82633,-3.8373878,1.16437795e-05,-1.6516573e-05,-1.9193301e-05,0.00036848895,-0.00047513557,-0.0003588109,0.18932068,0.05072833,0.35865054,0.0,0.0,0.0,0.0,0.0,0.0,5.9828875e-07,0.0016111928,0.018413574,5.3233686e-07,5.8133683e-06,5.8516957e-06,3.682751e-05,0.013536598,0.013529498,0.010152478,0.063471004,0.06347289,0.05787492,1.0489488e-11,1.049188e-11,1.8271546e-11,5.8496934e-08,5.8496e-08,5.000007e-08,0.0,0.0,0.0,0.0,0.0,0.0,0.0,0.0,663,0.35629186,0.24057207,0.0033017744,0.14672479,0.06292361,0.02727488,0.0,0.0,0.0,0.008075,0,0,0,831,0,0,0,0
4389634918,0.99881554,-0.01915202,0.020344649,-0.039836444,0.08341743,-0.23889636,-0.9610535,23.873272,-80.86671,-4.0858526,1.1656683e-05,-1.6611697e-05,-1.9288775e-05,0.0003682242,-0.00047524137,-0.00033910119,0.18932068,0.05072833,0.35865054,0.0,0.0,0.0,0.0,0.0,0.0,6.0825613e-07,0.001543569,0.018477198,5.3885793e-07,5.821916e-06,5.8407218e-06,3.684453e-05,0.013506092,0.013490328,0.010164181,0.06355853,0.06355952,0.058024134,1.0492428e-11,1.04947e-11,1.8276849e-11,5.8496624e-08,5.849572e-08,5.000007e-08,0.0,0.0,0.0,0.0,0.0,0.0,0.0,0.0,663,0.35653618,0.240882,0.083320424,0.045340512,0.06315878,0.057445575,0.0,0.0,0.0,0.007969,0,0,0,831,0,0,0,0
4389835778,0.9989704,-0.007025378,0.017123742,-0.041422218,0.036531575,-0.25117534,-0.9131789,23.857483,-80.905685,-4.306941,1.1618169e-05,-1.6681734e-05,-1.9318519e-05,0.00036789797,-0.00047538563,-0.00032773483,0.18932068,0.05072833,0.35865054,0.0,0.0,0.0,0.0,0.0,0.0,5.777738e-07,0.0014445118,0.01811324,5.3697323e-07,5.8251912e-06,5.830656e-06,3.687179e-05,0.013447442,0.013430826,0.01008957,0.06356526,0.06356496,0.057319675,1.0492953e-11,1.04950935e-11,1.828019e-11,5.849636e-08,5.8495644e-08,5e-08,0.0,0.0,0.0,0.0,0.0,0.0,0.0,0.0,663,0.35655326,0.23941527,0.011831624,0.02525968,0.06241087,0.07589341,0.0,0.0,0.0,0.008028,0,0,0,831,0,0,0,0
4390040570,0.9991718,-0.004696119,0.007906174,-0.039638445,0.0077876914,-0.24038191,-0.8893043,23.830643,-80.96035,-4.543502,1.16470055e-05,-1.6770133e-05,-1.9404297e-05,0.00036761325,-0.00047553083,-0.00030802574,0.18932068,0.05072833,0.35865054,0.0,0.0,0.0,0.0,0.0,0.0,5.029664e-07,0.001380276,0.0173894,5.302342e-07,5.8307455e-06,5.8418564e-06,3.6863854e-05,0.013487111,0.013473853,0.010138271,0.06401284,0.06401118,0.0577702,1.0501648e-11,1.0503671e-11,1.8277236e-11,5.84963e-08,5.8495775e-08,5.0000036e-08,0.0,0.0,0.0,0.0,0.0,0.0,0.0,0.0,663,0.35780442,0.24035433,0.051540643,0.0688191,0.06349142,0.052699152,0.0,0.0,0.0,0.008021,0,0,0,831,0,0,0,0
4390241341,0.99919367,-0.010407826,0.0042564753,-0.03854528,0.005616011,-0.24752812,-0.9048168,23.800356,-81.00691,-4.7880197,1.1638184e-05,-1.6861022e-05,-1.9468653e-05,0.00036722783,-0.00047568505,-0.00028473075,0.18932068,0.05072833,0.35865054,0.0,0.0,0.0,0.0,0.0,0.0,4.4464178e-07,0.0013724681,0.01729633,5.30118e-07,5.832345e-06,5.8497358e-06,3.688536e-05,0.013494375,0.0134828435,0.010152936,0.064092904,0.06409011,0.057928953,1.0506223e-11,1.05081525e-11,1.8282603e-11,5.849625e-08,5.8495967e-08,5.000007e-08,0.0,0.0,0.0,0.0,0.0,0.0,0.0,0.0,663,0.35802653,0.24068435,0.0771492,0.039647035,0.062858246,0.00499615,0.0,0.0,0.0,0.007955,0,0,0,831,0,0,0,0
4390441415,0.9992709,-0.0032809186,0.003198637,-0.03790247,0.007330958,-0.24070998,-0.91657794,23.78024,-81.0541,-4.9988613,1.16298115e-05,-1.6898217e-05,-1.9537014e-05,0.00036693367,-0.0004757635,-0.0002728369,0.18932068,0.05072833,0.35865054,0.0,0.0,0.0,0.0,0.0,0.0,4.4014817e-07,0.0014016175,0.017332021,5.251811e-07,5.8411356e-06,5.8527125e-06,3.6848844e-05,0.013505309,0.013496573,0.010084286,0.06416025,0.0641567,0.05727158,1.0510549e-11,1.0512409e-11,1.82757e-11,5.849625e-08,5.8496276e-08,5e-08,0.0,0.0,0.0,0.0,0.0,0.0,0.0,0.0,663,0.35821357,0.23931481,0.029175479,0.045186915,0.0610773,0.048432995,0.0,0.0,0.0,0.008054,0,0,0,831,0,0,0,0
4390646020,0.9992465,-0.00300661,0.009508862,-0.03751138,0.018032273,-0.22104111,-0.89215106,23.77291,-81.10657,-5.177375,1.1653975e-05,-1.6879274e-05,-1.9588535e-05,0.00036682995,-0.0004757527,-0.00027303566,0.18932068,0.05072833,0.35865054,0.0,0.0,0.0,0.0,0.0,0.0,4.896077e-07,0.0014760954,0.018038027,5.24071e-07,5.8489636e-06,5.857837e-06,3.6866135e-05,0.013494093,0.013488904,0.010101773,0.064196765,0.06419279,0.057427675,1.0512725e-11,1.0514537e-11,1.8279192e-11,5.849628e-08,5.849664e-08,5.0000036e-08,0.0,0.0,0.0,0.0,0.0,0.0,0.0,0.0,663,0.35831487,0.23964071,0.011580222,0.04905,0.053258736,0.006886928,0.0,0.0,0.0,0.007871,0,0,0,831,0,0,0,0
4390846975,0.99916774,0.006243794,0.013011255,-0.038152814,0.005618315,-0.18067077,-0.8541634,23.749317,-81.150635,-5.3582673,1.1657529e-05,-1.6958778e-05,-1.9598076e-05,0.00036683382,-0.00047590776,-0.00027131455,0.18932068,0.05072833,0.35865054,0.0,0.0,0.0,0.0,0.0,0.0,4.976266e-07,0.0014207407,0.01760473,5.224662e-07,5.867843e-06,5.872879e-06,3.6839716e-05,0.013542147,0.013540275,0.010151824,0.06462661,0.06462266,0.057888832,1.0520865e-11,1.05226505e-11,1.8276547e-11,5.8496354e-08,5.8497093e-08,5.000007e-08,0.0,0.0,0.0,0.0,0.0,0.0,0.0,0.0,663,0.35951254,0.24060097,0.062465962,0.03715985,0.048379928,0.016069796,0.0,0.0,0.0,0.008026,0,0,0,831,0,0,0,0
4391047602,0.9991056,0.013709754,0.009101054,-0.038954552,-0.013631566,-0.094607145,-0.8358533,23.747059,-81.17311,-5.5100594,1.1620341e-05,-1.6913296e-05,-1.9600238e-05,0.0003667407,-0.00047601212,-0.00027601005,0.18932068,0.05072833,0.35865054,0.0,0.0,0.0,0.0,0.0,0.0,4.8561424e-07,0.001478007,0.018471723,5.2257013e-07,5.871068e-06,5.882513e-06,3.6852267e-05,0.0135191595,0.013520013,0.010164384,0.06453142,0.06452827,0.05793689,1.051951e-11,1.0521297e-11,1.8276762e-11,5.8496273e-08,5.8497434e-08,5.0000107e-08,0.0,0.0,0.0,0.0,0.0,0.0,0.0,0.0,663,0.35924882,0.24070083,0.008446153,0.06287324,0.039227173,0.051747564,0.0,0.0,0.0,0.007853,0,0,0,831,0,0,0,0
4391247761,0.999191,0.011995358,0.0032040672,-0.038253184,-0.007758228,-0.0038394714,-0.8456392,23.742672,-81.18094,-5.681353,1.1599719e-05,-1.6879554e-05,-1.9658662e-05,0.0003666828,-0.00047606727,-0.0002780755,0.18932068,0.05072833,0.35865054,0.0,0.0,0.0,0.0,0.0,0.0,4.874699e-07,0.001496672,0.018120792,5.213148e-07,5.874331e-06,5.8867067e-06,3.681916e-05,0.01354189,0.0135427555,0.010094149,0.06458331,0.06458139,0.057282332,1.0522885e-11,1.0524725e-11,1.8270127e-11,5.849616e-08,5.8497825e-08,5e-08,0.0,0.0,0.0,0.0,0.0,0.0,0.0,0.0,663,0.3593949,0.23933728,0.025578715,0.060017116,0.03303547,0.038774595,0.0,0.0,0.0,0.007988,0,0,0,831,0,0,0,0
4391448841,0.999295,0.0072323806,-0.0018164886,-0.036797438,0.023031237,0.060491923,-0.9092458,23.752007,-81.18427,-5.8850985,1.1641521e-05,-1.679173e-05,-1.9641591e-05,0.00036637354,-0.00047597248,-0.00027159989,0.18932068,0.05072833,0.35865054,0.0,0.0,0.0,0.0,0.0,0.0,4.494807e-07,0.0015230725,0.018223371,5.187146e-07,5.879715e-06,5.8899127e-06,3.684967e-05,0.01360948,0.01360857,0.010107996,0.064705454,0.064705044,0.057441715,1.052681e-11,1.0528738e-11,1.8275756e-11,5.849611e-08,5.849829e-08,5e-08,0.0,0.0,0.0,0.0,0.0,0.0,0.0,0.0,663,0.3597367,0.23967001,0.014054242,0.08113571,0.023844127,0.11938984,0.0,0.0,0.0,0.008292,0,0,0,831,0,0,0,0
4391649228,0.9993377,0.0007187705,-0.0018327382,-0.0363391,0.053539626,0.112191886,-0.9479262,23.783821,-81.17506,-6.0639453,1.16682995e-05,-1.6634305e-05,-1.9629202e-05,0.0003661602,-0.00047594318,-0.00027519977,0.18932068,0.05072833,0.35865054,0.0,0.0,0.0,0.0,0.0,0.0,4.1017395e-07,0.0015135547,0.018145612,5.1950224e-07,5.882768e-06,5.8927003e-06,3.68144e-05,0.013657193,0.013653898,0.010122126,0.064782135,0.064783044,0.057582647,1.0528202e-11,1.0530244e-11,1.8267129e-11,5.84961e-08,5.8498827e-08,5.0000036e-08,0.0,0.0,0.0,0.0,0.0,0.0,0.0,0.0,663,0.35995165,0.23996384,0.00028904603,0.12651943,0.012661638,0.015767591,0.0,0.0,0.0,0.007871,0,0,0,831,0,0,0,0
4391854028,0.99936044,0.0022991668,0.00088805123,-0.03567387,0.08618043,0.15637289,-0.96636117,23.81527,-81.154205,-6.2864275,1.1681019e-05,-1.6533764e-05,-1.9610052e-05,0.00036592933,-0.00047593084,-0.00027029295,0.18932068,0.05072833,0.35865054,0.0,0.0,0.0,0.0,0.0,0.0,3.8600754e-07,0.0015598792,0.018678179,5.166425e-07,5.8925407e-06,5.902452e-06,3.6854577e-05,0.0137194935,0.013713845,0.01016597,0.065086074,0.06508802,0.05790264,1.05297125e-11,1.0531887e-11,1.8271273e-11,5.849614e-08,5.8499435e-08,5.000004e-08,0.0,0.0,0.0,0.0,0.0,0.0,0.0,0.0,663,0.36079648,0.24062967,0.009748777,0.08439353,0.0120311715,0.15587485,0.0,0.0,0.0,0.007855,0,0,0,831,0,0,0,0
4392054163,0.99947095,0.002407019,-6.0126207e-05,-0.03243495,0.09498739,0.22098534,-1.009375,23.80563,-81.113655,-6.4912376,1.1659485e-05,-1.667008e-05,-1.9602807e-05,0.00036615916,-0.00047593808,-0.00026868776,0.18932068,0.05072833,0.35865054,0.0,0.0,0.0,0.0,0.0,0.0,4.4795686e-07,0.0016171003,0.019174252,5.0787827e-07,5.8966116e-06,5.906908e-06,3.6824305e-05,0.0137690725,0.0137597,0.0101739075,0.06520686,0.06520937,0.058029383,1.0531626e-11,1.0533941e-11,1.8264262e-11,5.8496173e-08,5.8500046e-08,5.0000036e-08,0.0,0.0,0.0,0.0,0.0,0.0,0.0,0.0,663,0.36113188,0.24089289,0.02583704,0.09340177,0.011963818,0.008584148,0.0,0.0,0.0,0.008014,0,0,0,831,0,0,0,0
4392254950,0.99957657,-0.0014518055,-0.0052205324,-0.028591419,0.14403237,0.2842366,-1.0491719,23.84283,-81.05581,-6.6909366,1.1601384e-05,-1.6580127e-05,-1.9555848e-05,0.00036621944,-0.00047606416,-0.00027502756,0.18932068,0.05072833,0.35865054,0.0,0.0,0.0,0.0,0.0,0.0,5.850886e-07,0.0015841346,0.019558346,5.004702e-07,5.8984983e-06,5.909437e-06,3.6855097e-05,0.013816663,0.01380408,0.010182708,0.0653182,0.06532092,0.05815942,1.0533097e-11,1.053558e-11,1.8269618e-11,5.849627e-08,5.850071e-08,5.0000036e-08,0.0,0.0,0.0,0.0,0.0,0.0,0.0,0.0,663,0.36144033,0.24116264,0.063836016,0.07523532,0.0073447684,0.005271134,0.0,0.0,0.0,0.007994,0,0,0,831,0,0,0,0
4392455735,0.99951184,-0.013362288,0.0061146026,-0.027572937,0.1702176,0.3333116,-1.0630547,23.879515,-81.01329,-6.8826227,1.1691849e-05,-1.6534013e-05,-1.9516665e-05,0.00036629656,-0.00047599632,-0.0002830482,0.18932068,0.05072833,0.35865054,0.0,0.0,0.0,0.0,0.0,0.0,8.1001826e-07,0.0017486645,0.020864466,5.027416e-07,5.896249e-06,5.917329e-06,3.687102e-05,0.013841222,0.013824678,0.010188173,0.065415286,0.065417804,0.058247086,1.0532323e-11,1.0534999e-11,1.827291e-11,5.8496394e-08,5.8501424e-08,5.000007e-08,0.0,0.0,0.0,0.0,0.0,0.0,0.0,0.0,663,0.36170858,0.24134433,0.03589254,0.062204722,0.011220604,0.021688757,0.0,0.0,0.0,0.007986,0,0,0,831,0,0,0,0
4392656592,0.99908787,-0.027300496,0.013172098,-0.030076608,0.15448152,0.3585809,-1.0262282,23.898159,-80.93258,-7.080533,1.1625019e-05,-1.659606e-05,-1.9580844e-05,0.0003665397,-0.00047602836,-0.000287787,0.18932068,0.05072833,0.35865054,0.0,0.0,0.0,0.0,0.0,0.0,6.9973595e-07,0.0015688062,0.019487377,5.1748657e-07,5.89549e-06,5.9373406e-06,3.680149e-05,0.013832122,0.013815061,0.010111651,0.06554896,0.06555072,0.057542704,1.0533435e-11,1.0536324e-11,1.826563e-11,5.8496493e-08,5.850213e-08,5e-08,0.0,0.0,0.0,0.0,0.0,0.0,0.0,0.0,663,0.36207688,0.2398806,0.004715513,0.05827854,0.015299041,0.0261723,0.0,0.0,0.0,0.008043,0,0,0,831,0,0,0,0
4392857436,0.9985091,-0.036560986,0.02208751,-0.033985097,0.072051026,0.33375132,-1.006937,23.909834,-80.874825,-7.2233415,1.1681259e-05,-1.6629238e-05,-1.9603785e-05,0.00036707264,-0.00047586206,-0.00031024852,0.18932068,0.05072833,0.35865054,0.0,0.0,0.0,0.0,0.0,0.0,5.85808e-07,0.0015343376,0.018950023,5.351963e-07,5.9026843e-06,5.957817e-06,3.678097e-05,0.013841862,0.0138276005,0.010123463,0.06567944,0.06568011,0.05769424,1.0534649e-11,1.0537765e-11,1.8270632e-11,5.849662e-08,5.8502764e-08,5.0000036e-08,0.0,0.0,0.0,0.0,0.0,0.0,0.0,0.0,663,0.36243558,0.24019626,0.021022696,0.037163813,0.019209532,0.103087984,0.0,0.0,0.0,0.008087,0,0,0,831,0,0,0,0
4393062146,0.99804914,-0.043219365,0.025329405,-0.0372616,-0.010446944,0.28150833,-0.97710943,23.92604,-80.8096,-7.380313,1.1634827e-05,-1.6526332e-05,-1.9645944e-05,0.0003673861,-0.00047584824,-0.00032900527,0.18932068,0.05072833,0.35865054,0.0,0.0,0.0,0.0,0.0,0.0,5.523063e-07,0.001458861,0.01850293,5.502092e-07,5.745764e-06,5.818873e-06,3.672259e-05,0.012419943,0.0124142505,0.009982308,0.057711124,0.057711262,0.057389583,1.0431912e-11,1.0435468e-11,1.8261712e-11,5.8496344e-08,5.8502987e-08,5e-08,0.0,0.0,0.0,0.0,0.0,0.0,0.0,0.0,663,0.3397387,0.23956123,0.02087959,0.06409291,0.013773003,0.05939091,0.0,0.0,0.0,0.007997,0,0,0,831,0,0,0,0
4393262118,0.9975541,-0.04842498,0.030771859,-0.039925493,-0.118524775,0.1777051,-0.924603,23.932087,-80.76525,-7.5158677,1.1636798e-05,-1.6385762e-05,-1.970251e-05,0.0003676192,-0.00047573113,-0.0003508869,0.18932068,0.05072833,0.35865054,0.0,0.0,0.0,0.0,0.0,0.0,6.1110995e-07,0.0015119731,0.02014614,5.643412e-07,5.75505e-06,5.836253e-06,3.6710095e-05,0.012414692,0.012419875,0.009992495,0.05788139,0.05788081,0.057539564,1.0433761e-11,1.0437461e-11,1.8267377e-11,5.849645e-08,5.8503353e-08,5e-08,0.0,0.0,0.0,0.0,0.0,0.0,0.0,0.0,663,0.34023845,0.23987406,0.0005705811,0.11088357,0.0088091,0.00236735,0.0,0.0,0.0,0.007955,0,0,0,831,0,0,0,0
4393462986,0.9975677,-0.051708445,0.021675589,-0.041415356,-0.23203994,0.06801499,-0.85792255,23.896505,-80.750595,-7.6487117,1.1700235e-05,-1.6357784e-05,-1.9830975e-05,0.00036786296,-0.00047533412,-0.0003688032,0.18932068,0.05072833,0.35865054,0.0,0.0,0.0,0.0,0.0,0.0,7.8554854e-07,0.0014435041,0.019483496,5.7095883e-07,5.7392963e-06,5.8504747e-06,3.6670874e-05,0.012396692,0.012411762,0.009996613,0.05801214,0.058011264,0.057628457,1.0433837e-11,1.0437615e-11,1.8258822e-11,5.849645e-08,5.850357e-08,5e-08,0.0,0.0,0.0,0.0,0.0,0.0,0.0,0.0,663,0.3406221,0.24005927,0.0045839106,0.05047085,0.0075794645,0.018247059,0.0,0.0,0.0,0.008037,0,0,0,831,0,0,0,0
4393663632,0.99823534,-0.03997199,0.002380647,-0.043850724,-0.31670016,-0.020312678,-0.8850548,23.83461,-80.73982,-7.783602,1.1659829e-05,-1.6386306e-05,-1.9854253e-05,0.00036825193,-0.0004752091,-0.00038223751,0.18932068,0.05072833,0.35865054,0.0,0.0,0.0,0.0,0.0,0.0,7.4031544e-07,0.0014111095,0.018629001,5.679803e-07,5.7375073e-06,5.8205424e-06,3.6732916e-05,0.012439967,0.012460806,0.009923149,0.05816329,0.058162834,0.056938346,1.0435413e-11,1.0439204e-11,1.8264416e-11,5.849652e-08,5.8503872e-08,5e-08,0.0,0.0,0.0,0.0,0.0,0.0,0.0,0.0,663,0.34106615,0.23861757,0.04605505,0.032964908,0.011223507,0.07191029,0.0,0.0,0.0,0.007877,0,0,0,831,0,0,0,0
4393864593,0.9984009,-0.031535544,-0.0049748546,-0.046650834,-0.29727665,-0.06432804,-0.89202887,23.781876,-80.74016,-7.9061375,1.1603122e-05,-1.631475e-05,-1.9919353e-05,0.00036865307,-0.00047518846,-0.00040233415,0.18932068,0.05072833,0.35865054,0.0,0.0,0.0,0.0,0.0,0.0,6.647733e-07,0.0014041242,0.019112714,5.723664e-07,5.748886e-06,5.8047585e-06,3.670089e-05,0.012482798,0.012499308,0.00993631,0.058361746,0.058362264,0.057080094,1.043756e-11,1.0441314e-11,1.825778e-11,5.8496685e-08,5.850415e-08,5e-08,0.0,0.0,0.0,0.0,0.0,0.0,0.0,0.0,663,0.34164897,0.2389144,0.078618,0.061660808,0.007993227,0.0841772,0.0,0.0,0.0,0.008037,0,0,0,831,0,0,0,0
4394064563,0.99837184,-0.027146395,-0.014671981,-0.047974933,-0.2568125,-0.08802402,-0.9487416,23.74971,-80.7732,-8.051135,1.1703569e-05,-1.6148439e-05,-1.9995314e-05,0.00036854885,-0.00047520528,-0.00041852213,0.18932068,0.05072833,0.35865054,0.0,0.0,0.0,0.0,0.0,0.0,6.273517e-07,0.001344561,0.018750293,5.7641756e-07,5.7600028e-06,5.796233e-06,3.6718855e-05,0.0125393225,0.012552193,0.009947506,0.058533125,0.058534708,0.057212673,1.043832e-11,1.0442027e-11,1.8263674e-11,5.8496838e-08,5.8504245e-08,5e-08,0.0,0.0,0.0,0.0,0.0,0.0,0.0,0.0,663,0.34215176,0.23919171,0.012063328,0.11988627,0.0024616907,0.039567992,0.0,0.0,0.0,0.008014,0,0,0,831,0,0,0,0
4394265652,0.9981598,-0.023786733,-0.026629055,-0.049010918,-0.15305613,-0.07435579,-1.0174321,23.715801,-80.78537,-8.217836,1.1675237e-05,-1.6091515e-05,-2.0044705e-05,0.00036877202,-0.0004751989,-0.00042967228,0.18932068,0.05072833,0.35865054,0.0,0.0,0.0,0.0,0.0,0.0,5.8950786e-07,0.0013954283,0.018648053,5.820541e-07,5.7782486e-06,5.7877705e-06,3.6726167e-05,0.012594959,0.012601621,0.009961056,0.058699705,0.05870222,0.057362113,1.043859e-11,1.0442257e-11,1.8269665e-11,5.849695e-08,5.850417e-08,5e-08,0.0,0.0,0.0,0.0,0.0,0.0,0.0,0.0,663,0.34263965,0.23950389,0.019047674,0.04732755,0.00566832,0.030032927,0.0,0.0,0.0,0.008281,0,0,0,831,0,0,0,0
4394466141,0.9979646,-0.024909472,-0.031063266,-0.049811885,-0.042145927,-0.05461807,-1.0789503,23.697657,-80.80187,-8.408267,1.1692879e-05,-1.607035e-05,-2.0101392e-05,0.00036878217,-0.00047509818,-0.00043746215,0.18932068,0.05072833,0.35865054,0.0,0.0,0.0,0.0,0.0,0.0,7.1298115e-07,0.001491283,0.019307178,5.8779904e-07,5.784765e-06,5.7873517e-06,3.6674617e-05,0.01264229,0.012646503,0.009973787,0.058854785,0.05885784,0.05748511,1.0437471e-11,1.0441127e-11,1.8261434e-11,5.849695e-08,5.8503936e-08,5.0000036e-08,0.0,0.0,0.0,0.0,0.0,0.0,0.0,0.0,663,0.34309274,0.23976053,0.029878339,0.03168987,0.008523981,0.035069678,0.0,0.0,0.0,0.00799,0,0,0,831,0,0,0,0
4394671015,0.99823606,-0.027516836,-0.014312929,-0.050624773,0.057377275,-0.031684052,-1.0859017,23.712816,-80.80416,-8.575781,1.164621e-05,-1.5992724e-05,-2.0129832e-05,0.0003691934,-0.00047496613,-0.00045695732,0.18932068,0.05072833,0.35865054,0.0,0.0,0.0,0.0,0.0,0.0,8.499474e-07,0.0015685725,0.01977329,5.87371e-07,5.7618895e-06,5.8001187e-06,3.6671558e-05,0.0126888985,0.012693828,0.009934816,0.059194323,0.059197426,0.056972746,1.0436309e-11,1.0439962e-11,1.825383e-11,5.849688e-08,5.8503357e-08,5.0000036e-08,0.0,0.0,0.0,0.0,0.0,0.0,0.0,0.0,663,0.344081,0.23868965,0.04174674,0.064386696,0.0059562186,0.020087782,0.0,0.0,0.0,0.008066,0,0,0,831,0,0,0,0
4394874963,0.99818313,-0.031227756,0.0013453574,-0.051513553,0.093584344,-0.027519412,-1.0643765,23.733044,-80.8081,-8.756773,1.1636117e-05,-1.5959207e-05,-2.0152238e-05,0.00036939638,-0.00047492358,-0.00046746992,0.18932068,0.05072833,0.35865054,0.0,0.0,0.0,0.0,0.0,0.0,6.612435e-07,0.0015559973,0.019300774,5.912769e-07,5.753118e-06,5.8087694e-06,3.6691596e-05,0.012686568,0.012692465,0.009953474,0.05936511,0.059368085,0.05714434,1.043677e-11,1.0440419e-11,1.8259911e-11,5.8496827e-08,5.8502568e-08,5.0000036e-08,0.0,0.0,0.0,0.0,0.0,0.0,0.0,0.0,663,0.34457684,0.23904882,0.012224979,0.030049052,0.006625599,0.012675397,0.0,0.0,0.0,0.007984,0,0,0,831,0,0,0,0
4395075886,0.9981456,-0.03260541,0.0041279774,-0.051237814,0.09418475,-0.022610538,-1.0621918,23.761404,-80.81523,-8.923795,1.16529045e-05,-1.5892514e-05,-2.0204985e-05,0.0003695292,-0.00047477867,-0.00048317562,0.18932068,0.05072833,0.35865054,0.0,0.0,0.0,0.0,0.0,0.0,5.8048545e-07,0.0015713079,0.01927774,5.9138824e-07,5.752469e-06,5.8111664e-06,3.6712758e-05,0.012698171,0.012704341,0.009970447,0.05952877,0.059531678,0.057307612,1.0437323e-11,1.044098e-11,1.8265963e-11,5.8496678e-08,5.8501495e-08,5.0000054e-08,0.0,0.0,0.0,0.0,0.0,0.0,0.0,0.0,663,0.34505138,0.23939009,0.045961957,0.051067356,0.003875132,0.009126212,0.0,0.0,0.0,0.00813,0,0,0,831,0,0,0,0
4395280633,0.9981448,-0.03400761,0.00046113328,-0.050500527,0.11417728,-0.030032214,-1.0753908,23.803967,-80.82528,-9.096706,1.1675335e-05,-1.5761445e-05,-2.0240026e-05,0.00036962755,-0.00047474948,-0.00050099636,0.18932068,0.05072833,0.35865054,0.0,0.0,0.0,0.0,0.0,0.0,4.9187616e-07,0.0015478758,0.018582659,5.899568e-07,5.7571947e-06,5.8198243e-06,3.675615e-05,0.012776575,0.01278321,0.009936972,0.0599943,0.0599973,0.056910854,1.04407654e-11,1.0444418e-11,1.8274106e-11,5.849644e-08,5.8500127e-08,5e-08,0.0,0.0,0.0,0.0,0.0,0.0,0.0,0.0,663,0.34639803,0.23855996,0.030455204,0.094588175,0.0025858136,0.06915983,0.0,0.0,0.0,0.008084,0,0,0,831,0,0,0,0
4395481330,0.9981578,-0.034856576,0.0036359315,-0.049525734,0.117126726,-0.044532653,-1.1109694,23.834963,-80.83215,-9.297447,1.1666715e-05,-1.5713287e-05,-2.0326628e-05,0.0003697299,-0.0004746571,-0.00050877477,0.18932068,0.05072833,0.35865054,0.0,0.0,0.0,0.0,0.0,0.0,4.4679803e-07,0.0015408,0.018406404,5.8706513e-07,5.7555535e-06,5.820026e-06,3.6719994e-05,0.012800926,0.0128076235,0.009952986,0.060144834,0.06014795,0.057070453,1.04409745e-11,1.04446235e-11,1.8267811e-11,5.8496088e-08,5.849848e-08,5.000004e-08,0.0,0.0,0.0,0.0,0.0,0.0,0.0,0.0,663,0.3468325,0.23889422,0.03806945,0.033475418,0.0022258863,0.072264485,0.0,0.0,0.0,0.007981,0,0,0,831,0,0,0,0
4395686114,0.99820113,-0.036102224,0.0025942773,-0.047796298,0.115013756,-0.059828952,-1.1116835,23.852278,-80.83626,-9.459677,1.1630938e-05,-1.5748003e-05,-2.0370144e-05,0.00037005873,-0.0004739225,-0.0005286292,0.18932068,0.05072833,0.35865054,0.0,0.0,0.0,0.0,0.0,0.0,4.4089285e-07,0.0015020295,0.018380033,5.815796e-07,5.7525126e-06,5.820669e-06,3.6687365e-05,0.01280894,0.012815684,0.009971199,0.06028693,0.060290202,0.057242367,1.04411315e-11,1.0444771e-11,1.8261531e-11,5.8495672e-08,5.8496575e-08,5.000007e-08,0.0,0.0,0.0,0.0,0.0,0.0,0.0,0.0,663,0.34724218,0.23925377,0.038903154,0.028729552,0.003195747,0.01921865,0.0,0.0,0.0,0.007965,0,0,0,831,0,0,0,0
4395890272,0.9982248,-0.035537653,0.011165761,-0.046472903,0.10844371,-0.087855324,-1.0901107,23.88991,-80.861565,-9.626815,1.1682598e-05,-1.5666896e-05,-2.0378064e-05,0.00037004356,-0.0004735478,-0.0005501879,0.18932068,0.05072833,0.35865054,0.0,0.0,0.0,0.0,0.0,0.0,5.2151955e-07,0.0014559493,0.017801901,5.759809e-07,5.763813e-06,5.8259984e-06,3.667339e-05,0.012872697,0.012879134,0.009944158,0.060801823,0.06080535,0.056906894,1.0446658e-11,1.0450275e-11,1.8259555e-11,5.8495257e-08,5.849443e-08,5.0000036e-08,0.0,0.0,0.0,0.0,0.0,0.0,0.0,0.0,663,0.3487222,0.23855166,0.026348993,0.057223845,0.00097803,0.05833629,0.0,0.0,0.0,0.008123,0,0,0,831,0,0,0,0
4396090935,0.9982858,-0.027042564,0.022738375,-0.04666049,0.044648785,-0.08759254,-1.0943111,23.90938,-80.889145,-9.81622,1.1730021e-05,-1.5640006e-05,-2.0419302e-05,0.00036992977,-0.000473274,-0.00056039676,0.18932068,0.05072833,0.35865054,0.0,0.0,0.0,0.0,0.0,0.0,4.843629e-07,0.00146151,0.017035736,5.7189635e-07,5.7834345e-06,5.811479e-06,3.6697096e-05,0.012890507,0.01289684,0.009960702,0.060987603,0.060991332,0.057047226,1.0447164e-11,1.045077e-11,1.8263802e-11,5.8494805e-08,5.849208e-08,5.0000033e-08,0.0,0.0,0.0,0.0,0.0,0.0,0.0,0.0,663,0.34925485,0.23884562,0.017581487,0.03381856,0.0028936518,0.0052813413,0.0,0.0,0.0,0.007985,0,0,0,831,0,0,0,0
4396295815,0.99824876,-0.03041429,0.019524004,-0.046833765,-0.06592865,-0.07141407,-1.1140245,23.903448,-80.92371,-9.989789,1.1826974e-05,-1.564531e-05,-2.0508498e-05,0.00036967112,-0.00047246995,-0.00058043475,0.18932068,0.05072833,0.35865054,0.0,0.0,0.0,0.0,0.0,0.0,6.5355823e-07,0.0013512041,0.016539782,5.7499176e-07,5.782154e-06,5.8227215e-06,3.6739122e-05,0.012971931,0.012980295,0.009931969,0.061472367,0.06147637,0.056705102,1.045227e-11,1.0455904e-11,1.827392e-11,5.8494326e-08,5.8489384e-08,5e-08,0.0,0.0,0.0,0.0,0.0,0.0,0.0,0.0,663,0.35064048,0.23812833,0.0066962847,0.06486844,0.007226216,0.015664976,0.0,0.0,0.0,0.008066,0,0,0,831,0,0,0,0
4396496558,0.99820364,-0.04211349,-0.0028834946,-0.042517357,-0.057984337,-0.115464576,-1.0781704,23.910675,-80.959435,-10.179431,1.1915908e-05,-1.5512058e-05,-2.0573378e-05,0.00036936306,-0.00047262383,-0.0005899596,0.18932068,0.05072833,0.35865054,0.0,0.0,0.0,0.0,0.0,0.0,5.705125e-07,0.0012715224,0.016430935,5.687372e-07,5.758449e-06,5.8430583e-06,3.670497e-05,0.0129287485,0.01293682,0.009947066,0.061474632,0.06147888,0.056757808,1.0448574e-11,1.045223e-11,1.8262248e-11,5.8493807e-08,5.8486663e-08,5e-08,0.0,0.0,0.0,0.0,0.0,0.0,0.0,0.0,663,0.35064727,0.23823898,0.0913459,0.09289265,0.009678249,0.0075489385,0.0,0.0,0.0,0.007971,0,0,0,831,0,0,0,0
4396701332,0.9980854,-0.046679743,0.0067335027,-0.04001652,-0.04478039,-0.17027867,-0.93639493,23.915163,-80.98887,-10.356938,1.1907925e-05,-1.5423555e-05,-2.0675143e-05,0.0003693868,-0.00047262767,-0.00059846503,0.18932068,0.05072833,0.35865054,0.0,0.0,0.0,0.0,0.0,0.0,5.802486e-07,0.0012566976,0.016551021,5.644304e-07,5.7581024e-06,5.8563382e-06,3.672389e-05,0.012854877,0.012862073,0.009966993,0.06164296,0.061647475,0.05694831,1.0451023e-11,1.0454677e-11,1.8268248e-11,5.849339e-08,5.8483906e-08,5.0000036e-08,0.0,0.0,0.0,0.0,0.0,0.0,0.0,0.0,663,0.3511274,0.23863846,0.0841658,0.06283954,0.007373908,0.06013206,0.0,0.0,0.0,0.00798,0,0,0,831,0,0,0,0
4396901483,0.9978107,-0.04761132,0.019868357,-0.04137901,-0.11347338,-0.22624709,-0.86814386,23.912027,-81.01991,-10.5342865,1.1848612e-05,-1.5372507e-05,-2.0818332e-05,0.00036955872,-0.00047264667,-0.0006005694,0.18932068,0.05072833,0.35865054,0.0,0.0,0.0,0.0,0.0,0.0,5.8325475e-07,0.0013200961,0.021411074,5.714007e-07,5.7720636e-06,5.86056e-06,3.6668556e-05,0.01283039,0.01283923,0.009984992,0.06182437,0.06182914,0.057130326,1.0454183e-11,1.0457793e-11,1.8262041e-11,5.8492986e-08,5.8481017e-08,5.0000033e-08,0.0,0.0,0.0,0.0,0.0,0.0,0.0,0.0,663,0.351644,0.23901951,0.089666195,0.04434648,0.006016578,0.002209247,0.0,0.0,0.0,0.008131,0,0,0,831,0,0,0,0
4397102031,0.99749094,-0.047923926,0.029558843,-0.042911727,-0.27438962,-0.32646096,-0.8818981,23.884825,-81.08794,-10.715846,1.1893696e-05,-1.5303172e-05,-2.1006568e-05,0.00036933998,-0.00047267025,-0.0006004223,0.18932068,0.05072833,0.35865054,0.0,0.0,0.0,0.0,0.0,0.0,7.4026417e-07,0.0013442816,0.021659212,5.7999216e-07,5.795604e-06,5.8674964e-06,3.6688652e-05,0.012910394,0.012926796,0.009953049,0.062307607,0.06231276,0.056759108,1.04594215e-11,1.0462956e-11,1.8270125e-11,5.8492635e-08,5.847789e-08,5e-08,0.0,0.0,0.0,0.0,0.0,0.0,0.0,0.0,663,0.3530161,0.2382417,0.11115933,0.04417155,0.00468332,0.033703387,0.0,0.0,0.0,0.007858,0,0,0,831,0,0,0,0
4397302977,0.9986008,-0.031231308,0.009969276,-0.041494265,-0.37921622,-0.40628222,-0.85236305,23.846197,-81.162254,-10.852269,1.1891479e-05,-1.5152342e-05,-2.1146823e-05,0.0003691319,-0.00047246495,-0.0006131861,0.18932068,0.05072833,0.35865054,0.0,0.0,0.0,0.0,0.0,0.0,1.3079501e-06,0.0015018565,0.02301149,5.601366e-07,5.7857915e-06,5.837482e-06,3.670718e-05,0.012887164,0.012910125,0.009964155,0.062329493,0.062335197,0.05679323,1.0456733e-11,1.0460148e-11,1.82581e-11,5.8492176e-08,5.8474797e-08,5e-08,0.0,0.0,0.0,0.0,0.0,0.0,0.0,0.0,663,0.35307887,0.2383133,0.027040614,0.10668554,0.007130612,0.011503832,0.0,0.0,0.0,0.008021,0,0,0,831,0,0,0,0
4397503728,0.9990683,-0.0076421285,-0.02074707,-0.037063073,-0.3985317,-0.40032735,-0.9722331,23.782927,-81.24649,-11.029153,1.1896249e-05,-1.5055066e-05,-2.1228776e-05,0.0003690231,-0.0004727198,-0.00061491755,0.18932068,0.05072833,0.35865054,0.0,0.0,0.0,0.0,0.0,0.0,1.2383288e-06,0.0014231794,0.022217628,5.366848e-07,5.815469e-06,5.820609e-06,3.6685386e-05,0.012974309,0.012998611,0.0099832155,0.06252181,0.062528424,0.0569847,1.0458938e-11,1.046224e-11,1.825154e-11,5.8491885e-08,5.8472e-08,5.0000033e-08,0.0,0.0,0.0,0.0,0.0,0.0,0.0,0.0,663,0.35362443,0.23871468,0.0022413642,0.066098034,0.007523318,0.011500189,0.0,0.0,0.0,0.007979,0,0,0,831,0,0,0,0
4397703620,0.99875295,0.0065479423,-0.03602574,-0.033938766,-0.28689647,-0.34009907,-1.083692,23.700455,-81.31288,-11.235163,1.1849588e-05,-1.5130851e-05,-2.1231419e-05,0.00036916498,-0.00047244513,-0.0006156514,0.18932068,0.05072833,0.35865054,0.0,0.0,0.0,0.0,0.0,0.0,9.670715e-07,0.0014026719,0.022069097,5.277789e-07,5.850429e-06,5.8225937e-06,3.6679634e-05,0.013045797,0.013058413,0.010000068,0.062695585,0.06270308,0.057185967,1.0460103e-11,1.04633515e-11,1.8257581e-11,5.849174e-08,5.846948e-08,5.0000068e-08,0.0,0.0,0.0,0.0,0.0,0.0,0.0,0.0,663,0.35411674,0.23913588,0.010835602,0.051997546,0.0019363145,0.012873705,0.0,0.0,0.0,0.00786,0,0,0,831,0,0,0,0
4397908396,0.99856967,0.011269577,-0.039471753,-0.034258988,-0.15444033,-0.24844167,-1.1907445,23.652061,-81.37944,-11.463075,1.1896307e-05,-1.5139928e-05,-2.1296692e-05,0.00036910395,-0.0004724881,-0.00061463227,0.18932068,0.05072833,0.35865054,0.0,0.0,0.0,0.0,0.0,0.0,7.617541e-07,0.0013448141,0.020369172,5.2926237e-07,5.860404e-06,5.826567e-06,3.662753e-05,0.013122683,0.01312767,0.01001587,0.06290727,0.06291507,0.057381984,1.0461764e-11,1.0465051e-11,1.8251674e-11,5.849164e-08,5.8467176e-08,5.0000068e-08,0.0,0.0,0.0,0.0,0.0,0.0,0.0,0.0,663,0.35471445,0.23954538,0.02577608,0.03449893,0.0061726845,0.03225411,0.0,0.0,0.0,0.00784,0,0,0,831,0,0,0,0
4398109323,0.9986703,0.009240927,-0.034915578,-0.036785282,-0.0035731932,-0.13907856,-1.2503431,23.638617,-81.41355,-11.728985,1.185829e-05,-1.5121716e-05,-2.1299707e-05,0.00036927094,-0.00047271716,-0.00060975115,0.18932068,0.05072833,0.35865054,0.0,0.0,0.0,0.0,0.0,0.0,7.0653465e-07,0.0014262785,0.018968526,5.3508586e-07,5.8528726e-06,5.830966e-06,3.6676898e-05,0.013215803,0.013216065,0.009981338,0.06339975,0.063407294,0.05701639,1.0464992e-11,1.0468439e-11,1.8259953e-11,5.8491615e-08,5.8464906e-08,5.0000036e-08,0.0,0.0,0.0,0.0,0.0,0.0,0.0,0.0,663,0.35609975,0.23878105,0.0016097577,0.024464155,0.007411614,0.07139838,0.0,0.0,0.0,0.00797,0,0,0,831,0,0,0,0
4398310027,0.9989871,0.0046676607,-0.023957305,-0.03780521,0.10544559,-0.07132868,-1.3187957,23.63502,-81.43802,-11.993976,1.1883384e-05,-1.5197686e-05,-2.130259e-05,0.00036923002,-0.0004728047,-0.0006041521,0.18932068,0.05072833,0.35865054,0.0,0.0,0.0,0.0,0.0,0.0,6.266696e-07,0.0013517264,0.018250048,5.350367e-07,5.824088e-06,5.825193e-06,3.6659807e-05,0.013220533,0.013220035,0.009993942,0.06336262,0.06336924,0.05707323,1.0459618e-11,1.0463336e-11,1.8247867e-11,5.849159e-08,5.8463023e-08,5.0000033e-08,0.0,0.0,0.0,0.0,0.0,0.0,0.0,0.0,663,0.3559942,0.23890005,0.0050129695,0.0516208,0.008721748,0.08100114,0.0,0.0,0.0,0.007871,0,0,0,831,0,0,0,0
4398510948,0.9991992,0.0036860204,-0.013442984,-0.037507534,0.19533452,-0.0075380695,-1.333996,23.666533,-81.44497,-12.296106,1.1869244e-05,-1.5178138e-05,-2.1341644e-05,0.00036947028,-0.00047342127,-0.00058968266,0.18932068,0.05072833,0.35865054,0.0,0.0,0.0,0.0,0.0,0.0,5.219227e-07,0.0013912072,0.017387267,5.3149773e-07,5.809027e-06,5.826012e-06,3.6637317e-05,0.013225707,0.013225324,0.010010824,0.063513674,0.06351917,0.057252046,1.0460618e-11,1.0464674e-11,1.8240945e-11,5.8491715e-08,5.846143e-08,5.0000033e-08,0.0,0.0,0.0,0.0,0.0,0.0,0.0,0.0,663,0.35641667,0.239274,0.04001332,0.055280432,0.0077984575,0.032025445,0.0,0.0,0.0,0.007997,0,0,0,831,0,0,0,0
4398714770,0.99915856,0.0045434376,-0.013155475,-0.038580723,0.25126243,0.0590763,-1.3507149,23.723368,-81.43982,-12.574512,1.1853175e-05,-1.5094102e-05,-2.135306e-05,0.0003696793,-0.0004737416,-0.00058358384,0.18932068,0.05072833,0.35865054,0.0,0.0,0.0,0.0,0.0,0.0,4.622143e-07,0.0013581545,0.01707581,5.344938e-07,5.806276e-06,5.8239293e-06,3.66553e-05,0.013226653,0.013223295,0.010023356,0.06360795,0.06361229,0.05740579,1.0460809e-11,1.0465269e-11,1.8245898e-11,5.84919e-08,5.846012e-08,5.0000033e-08,0.0,0.0,0.0,0.0,0.0,0.0,0.0,0.0,663,0.35667947,0.23959506,0.068582304,0.067456745,0.007394204,0.021554654,0.0,0.0,0.0,0.007821,0,0,0,831,0,0,0,0
4398915814,0.9992592,0.00029077672,-0.0066953283,-0.037899088,0.2956889,0.123066254,-1.3826735,23.793879,-81.42166,-12.875942,1.1839845e-05,-1.4999339e-05,-2.1295646e-05,0.000369915,-0.00047428688,-0.000572687,0.18932068,0.05072833,0.35865054,0.0,0.0,0.0,0.0,0.0,0.0,4.6667967e-07,0.0013327302,0.01610892,5.3210954e-07,5.7996535e-06,5.821762e-06,3.6684487e-05,0.013244867,0.013237383,0.010037576,0.06374005,0.063743204,0.057562847,1.0462082e-11,1.0467007e-11,1.825046e-11,5.8492134e-08,5.845903e-08,5.0000082e-08,0.0,0.0,0.0,0.0,0.0,0.0,0.0,0.0,663,0.35704798,0.23992258,0.030061698,0.07389574,0.0037580028,0.025181582,0.0,0.0,0.0,0.008058,0,0,0,831,0,0,0,0
4399116534,0.99936366,-0.004098955,0.0010568583,-0.03541648,0.30412248,0.17590581,-1.3930402,23.856075,-81.40148,-13.14335,1.1882784e-05,-1.4980192e-05,-2.1277696e-05,0.00036986804,-0.00047423074,-0.00057402364,0.18932068,0.05072833,0.35865054,0.0,0.0,0.0,0.0,0.0,0.0,4.768787e-07,0.0014350244,0.017668113,5.2513514e-07,5.794996e-06,5.8198902e-06,3.665255e-05,0.013246419,0.013233084,0.010047907,0.06382006,0.063822016,0.05767512,1.0461375e-11,1.0466814e-11,1.8240675e-11,5.849239e-08,5.845814e-08,5.0000065e-08,0.0,0.0,0.0,0.0,0.0,0.0,0.0,0.0,663,0.3572703,0.24015644,0.020294165,0.034773633,0.010076114,0.04362983,0.0,0.0,0.0,0.007985,0,0,0,831,0,0,0,0
4399317340,0.99942267,-0.007122831,0.0051877913,-0.0328135,0.2939817,0.21191071,-1.3990785,23.923952,-81.37095,-13.457901,1.1912124e-05,-1.494218e-05,-2.1219163e-05,0.00036999836,-0.0004746091,-0.0005638921,0.18932068,0.05072833,0.35865054,0.0,0.0,0.0,0.0,0.0,0.0,4.5967923e-07,0.0015035993,0.018943721,5.1844836e-07,5.8006135e-06,5.8263067e-06,3.669807e-05,0.013299501,0.013281049,0.010012675,0.06425798,0.06425852,0.057295877,1.0466729e-11,1.04727164e-11,1.8249192e-11,5.849276e-08,5.8457417e-08,5.0000036e-08,0.0,0.0,0.0,0.0,0.0,0.0,0.0,0.0,663,0.358492,0.23936558,0.012940174,0.03641142,0.014181748,0.009227287,0.0,0.0,0.0,0.007984,0,0,0,831,0,0,0,0
4399521180,0.9994128,-0.010736597,0.008471112,-0.03141746,0.2801188,0.24132128,-1.3696917,23.978146,-81.329895,-13.727275,1.19084925e-05,-1.49425e-05,-2.123863e-05,0.00036999796,-0.00047456266,-0.0005635191,0.18932068,0.05072833,0.35865054,0.0,0.0,0.0,0.0,0.0,0.0,5.085231e-07,0.0015700533,0.01932543,5.163327e-07,5.7967795e-06,5.823794e-06,3.665504e-05,0.013237035,0.013215826,0.010020983,0.06413363,0.06413273,0.05731047,1.0462214e-11,1.0468765e-11,1.8236107e-11,5.8493146e-08,5.8456987e-08,5.0000036e-08,0.0,0.0,0.0,0.0,0.0,0.0,0.0,0.0,663,0.35814294,0.23939605,0.036638107,0.0273593,0.016179044,0.005942069,0.0,0.0,0.0,0.007831,0,0,0,831,0,0,0,0
4399722027,0.99921,-0.020054167,0.009086143,-0.033086475,0.25559354,0.24826984,-1.3757507,24.030617,-81.288216,-14.006531,1.1924922e-05,-1.49296875e-05,-2.1275322e-05,0.00037003696,-0.00047459156,-0.0005595595,0.18932068,0.05072833,0.35865054,0.0,0.0,0.0,0.0,0.0,0.0,4.4527027e-07,0.0014275766,0.018496918,5.257857e-07,5.79084e-06,5.829491e-06,3.660257e-05,0.013215202,0.01319367,0.010036253,0.064118184,0.064115666,0.057478443,1.04624885e-11,1.0469616e-11,1.8228636e-11,5.8493647e-08,5.845679e-08,5.0000082e-08,0.0,0.0,0.0,0.0,0.0,0.0,0.0,0.0,663,0.35809755,0.23974662,0.069593005,0.056609824,0.018656086,0.05023416,0.0,0.0,0.0,0.007878,0,0,0,831,0,0,0,0
4399922913,0.9989435,-0.024138585,0.014160937,-0.0364507,0.21928048,0.23392302,-1.3756753,24.078037,-81.248886,-14.283109,1.1947968e-05,-1.4917015e-05,-2.1204543e-05,0.00037006268,-0.00047462975,-0.00055571966,0.18932068,0.05072833,0.35865054,0.0,0.0,0.0,0.0,0.0,0.0,4.6853307e-07,0.0015162701,0.017590262,5.3763125e-07,5.794044e-06,5.8355663e-06,3.6603753e-05,0.013203744,0.013184291,0.009969515,0.06414247,0.06413832,0.05681314,1.0463014e-11,1.0470694e-11,1.8231886e-11,5.849416e-08,5.8456635e-08,5e-08,0.0,0.0,0.0,0.0,0.0,0.0,0.0,0.0,663,0.3581631,0.23835507,0.09020361,0.067492224,0.021081978,0.0083317645,0.0,0.0,0.0,0.007964,0,0,0,831,0,0,0,0
4400127620,0.9987436,-0.025299853,0.019976936,-0.03836759,0.17654315,0.20445918,-1.3484077,24.134798,-81.21824,-14.529081,1.1996195e-05,-1.4817034e-05,-2.1229444e-05,0.00036986268,-0.00047423737,-0.00056699215,0.18932068,0.05072833,0.35865054,0.0,0.0,0.0,0.0,0.0,0.0,4.369751e-07,0.0015437308,0.018568218,5.449313e-07,5.8093146e-06,5.8456594e-06,3.6571e-05,0.013249538,0.013233487,0.01002234,0.064547926,0.064542204,0.057286695,1.0469607e-11,1.0477798e-11,1.8229354e-11,5.8494777e-08,5.8456735e-08,5.0000036e-08,0.0,0.0,0.0,0.0,0.0,0.0,0.0,0.0,663,0.35929114,0.23934639,0.04698443,0.07211802,0.023331393,0.07444254,0.0,0.0,0.0,0.007869,0,0,0,831,0,0,0,0
4400328524,0.9986186,-0.02574787,0.023983143,-0.039023366,0.10293533,0.16571496,-1.330854,24.175112,-81.19641,-14.7797365,1.2044195e-05,-1.4742218e-05,-2.122011e-05,0.00036976635,-0.00047406484,-0.00056998566,0.18932068,0.05072833,0.35865054,0.0,0.0,0.0,0.0,0.0,0.0,4.6316282e-07,0.0016390842,0.01943902,5.4773494e-07,5.8173587e-06,5.848408e-06,3.6525373e-05,0.013238895,0.013227428,0.010038847,0.064600036,0.06459319,0.05746088,1.0472122e-11,1.0480787e-11,1.8223062e-11,5.8495385e-08,5.8456866e-08,5.0000065e-08,0.0,0.0,0.0,0.0,0.0,0.0,0.0,0.0,663,0.35943457,0.23970999,0.038293425,0.05662018,0.025012666,0.09065066,0.0,0.0,0.0,0.007975,0,0,0,831,0,0,0,0
4400529200,0.9986087,-0.026998904,0.021447554,-0.039896585,0.027196893,0.1303831,-1.3335127,24.188139,-81.17717,-15.079878,1.2067246e-05,-1.4738349e-05,-2.1301217e-05,0.0003699218,-0.00047426307,-0.00055655796,0.18932068,0.05072833,0.35865054,0.0,0.0,0.0,0.0,0.0,0.0,4.7969587e-07,0.0016455074,0.019861072,5.512139e-07,5.814651e-06,5.8536125e-06,3.648862e-05,0.013233578,0.013227501,0.009973788,0.06465818,0.06465049,0.056828685,1.0474606e-11,1.0483676e-11,1.8217108e-11,5.8496024e-08,5.845705e-08,5e-08,0.0,0.0,0.0,0.0,0.0,0.0,0.0,0.0,663,0.35959515,0.23838767,0.059340406,0.04623429,0.02466703,0.06287708,0.0,0.0,0.0,0.007842,0,0,0,831,0,0,0,0
4400733336,0.99870014,-0.027583659,0.013976429,-0.040521666,-0.009461468,0.08208759,-1.3497224,24.198488,-81.172775,-15.340562,1.2117789e-05,-1.4678748e-05,-2.1368802e-05,0.0003698444,-0.00047412972,-0.00055928214,0.18932068,0.05072833,0.35865054,0.0,0.0,0.0,0.0,0.0,0.0,4.4892613e-07,0.0016397728,0.019014515,5.529871e-07,5.8059877e-06,5.8570186e-06,3.651907e-05,0.013239009,0.013237881,0.009989969,0.064691074,0.064683154,0.057002064,1.0476311e-11,1.0485739e-11,1.8223563e-11,5.8496695e-08,5.8457434e-08,5e-08,0.0,0.0,0.0,0.0,0.0,0.0,0.0,0.0,663,0.35968632,0.23875105,0.031319942,0.040138178,0.028066196,0.034968104,0.0,0.0,0.0,0.007984,0,0,0,831,0,0,0,0
4400934025,0.9986967,-0.028364433,0.00952857,-0.04134982,-0.018594284,0.03532436,-1.367847,24.197515,-81.175125,-15.62969,1.2161274e-05,-1.4653771e-05,-2.1364667e-05,0.00036990413,-0.0004742262,-0.0005515995,0.18932068,0.05072833,0.35865054,0.0,0.0,0.0,0.0,0.0,0.0,3.9770094e-07,0.0014416099,0.017328547,5.5564703e-07,5.8032397e-06,5.860443e-06,3.6484053e-05,0.0132437,0.013245162,0.010005987,0.0647191,0.064711474,0.057149537,1.0476846e-11,1.0486543e-11,1.821606e-11,5.8497378e-08,5.8457918e-08,5.000003e-08,0.0,0.0,0.0,0.0,0.0,0.0,0.0,0.0,663,0.3597646,0.23905969,0.07480931,0.039510813,0.025395652,0.03814872,0.0,0.0,0.0,0.007873,0,0,0,831,0,0,0,0
4401134950,0.99875975,-0.027175508,0.010828575,-0.04029042,-0.00192854,-0.0068343095,-1.353601,24.191284,-81.184364,-15.896165,1.2190814e-05,-1.4656738e-05,-2.1369682e-05,0.000369848,-0.00047412745,-0.0005503489,0.18932068,0.05072833,0.35865054,0.0,0.0,0.0,0.0,0.0,0.0,3.9899584e-07,0.001430826,0.01700209,5.513946e-07,5.8056758e-06,5.8594173e-06,3.651482e-05,0.013228553,0.0132304365,0.01002493,0.06473367,0.06472684,0.057337727,1.0478215e-11,1.0488124e-11,1.8222819e-11,5.8498113e-08,5.8458497e-08,5.000007e-08,0.0,0.0,0.0,0.0,0.0,0.0,0.0,0.0,663,0.3598062,0.23945297,0.056464367,0.080225185,0.025472937,0.021040149,0.0,0.0,0.0,0.008001,0,0,0,831,0,0,0,0
4401335810,0.99882936,-0.0250643,0.014758098,-0.038651276,0.00040591523,-0.050406322,-1.3111334,24.205555,-81.21202,-16.190012,1.2261428e-05,-1.4561424e-05,-2.1360665e-05,0.00036988105,-0.00047422116,-0.0005397567,0.18932068,0.05072833,0.35865054,0.0,0.0,0.0,0.0,0.0,0.0,4.15879e-07,0.0014465705,0.017576197,5.448664e-07,5.812372e-06,5.8576848e-06,3.6487327e-05,0.013193284,0.013195783,0.010044301,0.06474219,0.06473632,0.057529755,1.0480092e-11,1.0490119e-11,1.821767e-11,5.8498866e-08,5.845908e-08,5.000006e-08,0.0,0.0,0.0,0.0,0.0,0.0,0.0,0.0,663,0.35983124,0.2398536,0.013052823,0.06912846,0.028223796,0.037661985,0.0,0.0,0.0,0.008057,0,0,0,831,0,0,0,0
4401535789,0.99890333,-0.023351274,0.019663874,-0.03550033,0.00083366176,-0.10275772,-1.3070163,24.205854,-81.238045,-16.487753,1.2278373e-05,-1.4547288e-05,-2.1406087e-05,0.00036994828,-0.00047434587,-0.0005247603,0.18932068,0.05072833,0.35865054,0.0,0.0,0.0,0.0,0.0,0.0,4.6269085e-07,0.0015272906,0.018765585,5.3517215e-07,5.8226024e-06,5.8586925e-06,3.6520243e-05,0.013194081,0.013196202,0.010059379,0.06478595,0.06478122,0.057692226,1.0483116e-11,1.0493219e-11,1.8224682e-11,5.849962e-08,5.8459673e-08,5.000007e-08,0.0,0.0,0.0,0.0,0.0,0.0,0.0,0.0,663,0.35995442,0.24019206,0.0035771125,0.060315892,0.026840748,0.037363533,0.0,0.0,0.0,0.008039,0,0,0,831,0,0,0,0
4401736544,0.9990047,-0.015335592,0.02497932,-0.033623576,-0.042048085,-0.12492645,-1.2973493,24.203926,-81.27454,-16.805939,1.2308716e-05,-1.4515154e-05,-2.14741e-05,0.0003700031,-0.0004744945,-0.00050571753,0.18932068,0.05072833,0.35865054,0.0,0.0,0.0,0.0,0.0,0.0,5.006062e-07,0.001576309,0.018760167,5.2656816e-07,5.8427627e-06,5.857127e-06,3.651117e-05,0.013223233,0.013226452,0.010019087,0.06501776,0.06501424,0.05717807,1.0485391e-11,1.0495536e-11,1.8218184e-11,5.8500333e-08,5.8460277e-08,5.0000036e-08,0.0,0.0,0.0,0.0,0.0,0.0,0.0,0.0,663,0.36059952,0.23911937,0.09006573,0.049787648,0.026244372,0.06772269,0.0,0.0,0.0,0.007988,0,0,0,831,0,0,0,0
4401937420,0.9989747,-0.014078367,0.028675282,-0.03208148,-0.116088025,-0.12932473,-1.272276,24.193289,-81.29691,-17.077515,1.2249986e-05,-1.4481298e-05,-2.149164e-05,0.00036991038,-0.0004746344,-0.0004996569,0.18932068,0.05072833,0.35865054,0.0,0.0,0.0,0.0,0.0,0.0,5.1000126e-07,0.0016100938,0.01975482,5.2268314e-07,5.851507e-06,5.85825e-06,3.653584e-05,0.013202963,0.013209282,0.010036351,0.064977214,0.06497481,0.057337113,1.0485824e-11,1.0495996e-11,1.8223225e-11,5.850099e-08,5.8460856e-08,5.0000036e-08,0.0,0.0,0.0,0.0,0.0,0.0,0.0,0.0,663,0.36048856,0.23945169,0.012737357,0.05598142,0.02335648,0.023311438,0.0,0.0,0.0,0.008068,0,0,0,831,0,0,0,0
4402138258,0.9992313,-0.0146574415,0.021715378,-0.029165104,-0.1727138,-0.16233177,-1.3014889,24.172508,-81.330635,-17.37367,1.2239085e-05,-1.4429949e-05,-2.1602173e-05,0.00036982095,-0.00047480135,-0.00048479048,0.18932068,0.05072833,0.35865054,0.0,0.0,0.0,0.0,0.0,0.0,6.864169e-07,0.0015445072,0.019388843,5.144381e-07,5.8409787e-06,5.8619166e-06,3.6516794e-05,0.0131936865,0.013202099,0.010048585,0.0648175,0.0648162,0.057377893,1.0483026e-11,1.0493182e-11,1.821249e-11,5.8501563e-08,5.8461353e-08,5.000006e-08,0.0,0.0,0.0,0.0,0.0,0.0,0.0,0.0,663,0.3600468,0.23953684,0.07740481,0.03900938,0.021948764,0.02835602,0.0,0.0,0.0,0.0081,0,0,0,831,0,0,0,0
4402338151,0.99957323,-0.0012797816,0.008367539,-0.027960775,-0.20043905,-0.16897525,-1.3513057,24.127619,-81.3719,-17.648787,1.2259106e-05,-1.446303e-05,-2.1617663e-05,0.00036985517,-0.00047483903,-0.0004814888,0.18932068,0.05072833,0.35865054,0.0,0.0,0.0,0.0,0.0,0.0,7.8587533e-07,0.0016618335,0.020775072,5.039427e-07,5.8387413e-06,5.860929e-06,3.6564208e-05,0.013234877,0.013243282,0.010067757,0.06483472,0.06483448,0.057568725,1.0485345e-11,1.04954405e-11,1.8219414e-11,5.850223e-08,5.8461936e-08,5.000006e-08,0.0,0.0,0.0,0.0,0.0,0.0,0.0,0.0,663,0.3600961,0.23993483,0.0009402287,0.021878298,0.019803436,0.04276423,0.0,0.0,0.0,0.007965,0,0,0,831,0,0,0,0
4402542822,0.9995042,0.010820272,-0.0020251204,-0.029501596,-0.15630805,-0.11527261,-1.4024913,24.094412,-81.41392,-17.971054,1.2289615e-05,-1.44276855e-05,-2.1523472e-05,0.00036983335,-0.00047479433,-0.00046841436,0.18932068,0.05072833,0.35865054,0.0,0.0,0.0,0.0,0.0,0.0,7.6119943e-07,0.0016849296,0.020474773,5.033818e-07,5.851816e-06,5.8741202e-06,3.654419e-05,0.013327591,0.013332781,0.010034324,0.06518537,0.065185964,0.057192586,1.0490165e-11,1.0500191e-11,1.8216385e-11,5.850294e-08,5.846255e-08,5.0000025e-08,0.0,0.0,0.0,0.0,0.0,0.0,0.0,0.0,663,0.3610697,0.23914972,0.050109092,0.030495053,0.021597065,0.015884262,0.0,0.0,0.0,0.007873,0,0,0,831,0,0,0,0
4402743613,0.99934655,0.017766379,-0.0073080664,-0.03061859,-0.08794858,-0.014260643,-1.4413651,24.063156,-81.4402,-18.245499,1.2330825e-05,-1.4452919e-05,-2.1414995e-05,0.00036982895,-0.0004746849,-0.00047084154,0.18932068,0.05072833,0.35865054,0.0,0.0,0.0,0.0,0.0,0.0,6.6156434e-07,0.001723631,0.020213861,5.0451223e-07,5.859146e-06,5.8823107e-06,3.6559795e-05,0.013368737,0.013369303,0.010053093,0.06522764,0.06522845,0.057386074,1.0492332e-11,1.05023846e-11,1.8223291e-11,5.8503623e-08,5.8463137e-08,5.000006e-08,0.0,0.0,0.0,0.0,0.0,0.0,0.0,0.0,663,0.36118707,0.23955391,0.06765851,0.029952446,0.022377376,0.03793651,0.0,0.0,0.0,0.0078569995,0,0,0,831,0,0,0,0
