timestamp,rollspeed,pitchspeed,yawspeed,q[0],q[1],q[2],q[3],delta_q_reset[0],delta_q_reset[1],delta_q_reset[2],delta_q_reset[3],quat_reset_counter
4384791733,0.00073510327,-0.00065880816,0.0002289787,0.99912626,-0.008456445,-0.0029562532,-0.040823217,1.0,0.0,0.0,0.0,0
4384960531,0.13331735,0.007341789,-0.026512662,0.9991386,-0.008179767,-0.0032246434,-0.040556278,1.0,0.0,0.0,0.0,0
4385004523,0.06860391,0.012964195,0.031218734,0.99913716,-0.008303215,-0.0030394208,-0.04058168,1.0,0.0,0.0,0.0,0
4385044541,0.10089079,0.06259306,-0.04744783,0.9991505,-0.0077001583,-0.002882775,-0.040382005,1.0,0.0,0.0,0.0,0
4385089390,0.045611132,0.004877973,-0.01284693,0.99916315,-0.00670551,-0.002140082,-0.040294465,1.0,0.0,0.0,0.0,0
4385129483,0.020373667,0.024786944,0.070018165,0.99916255,-0.0056525473,-0.0016997553,-0.040489763,1.0,0.0,0.0,0.0,0
4385169413,0.0033779596,-0.030702744,-0.05539139,0.9991597,-0.0051234495,-0.002169706,-0.040608436,1.0,0.0,0.0,0.0,0
4385213401,-0.06315231,-0.08150609,-0.06782452,0.999141,-0.006311264,-0.0029417465,-0.040853754,1.0,0.0,0.0,0.0,0
4385261366,-0.08040121,-0.013657378,-0.012343515,0.9991124,-0.008179413,-0.0039805053,-0.041129995,1.0,0.0,0.0,0.0,0
4385305479,-0.06935158,0.015900943,0.01619202,0.99909824,-0.009636844,-0.004372444,-0.041119505,1.0,0.0,0.0,0.0,0
4385346024,-0.011169087,0.04908808,-0.0045461985,0.99909085,-0.010154633,-0.004032465,-0.04120854,1.0,0.0,0.0,0.0,0
4385390231,0.06084869,0.04273887,-0.010514476,0.9991044,-0.009561132,-0.0034244028,-0.04107797,1.0,0.0,0.0,0.0,0
4385430030,0.07152057,0.019935258,0.017593745,0.9991217,-0.008354608,-0.0028881745,-0.040960763,1.0,0.0,0.0,0.0,0
4385474211,0.023796245,-0.00032992475,0.01130393,0.99913615,-0.007046608,-0.0027271349,-0.04086394,1.0,0.0,0.0,0.0,0
4385514150,0.03978259,-0.0041630515,-0.007555768,0.9991486,-0.0061479528,-0.0029822234,-0.040686656,1.0,0.0,0.0,0.0,0
4385557957,0.029671855,-0.005291735,-0.0016049936,0.99915415,-0.005873964,-0.0032889093,-0.04056659,1.0,0.0,0.0,0.0,0
4385598027,0.14657325,0.15879813,0.042689487,0.9991685,-0.004852753,-0.0021248043,-0.04042672,1.0,0.0,0.0,0.0,0
4385638995,0.5500147,0.27991995,0.024199242,0.99919736,0.00059621944,0.0018005938,-0.04001544,1.0,0.0,0.0,0.0,0
4385682833,0.7112857,0.5526544,0.021002643,0.99908066,0.01385417,0.010442466,-0.039203312,1.0,0.0,0.0,0.0,0
4385722963,0.965191,0.2822702,0.11754229,0.9985589,0.03183536,0.019935232,-0.03833163,1.0,0.0,0.0,0.0,0
4385762958,0.45705122,0.368774,-0.07896152,0.99766636,0.049289662,0.028652743,-0.037568074,1.0,0.0,0.0,0.0,0
4385806955,0.049696874,-0.19594517,-0.05665794,0.99700123,0.06086808,0.030745924,-0.036583334,1.0,0.0,0.0,0.0,0
4385846975,0.12207599,-0.07125865,0.077049084,0.9970225,0.06284114,0.02664343,-0.035877764,1.0,0.0,0.0,0.0,0
4385887738,0.03296243,-0.106212296,0.07114793,0.9973738,0.05944539,0.02106084,-0.035610974,1.0,0.0,0.0,0.0,0
4385931814,0.06158186,0.052029658,-0.03429625,0.99760765,0.056065004,0.020424085,-0.034906782,1.0,0.0,0.0,0.0,0
4385971773,-0.026406405,0.18137202,-0.022370616,0.9976926,0.05376239,0.024146145,-0.033707947,1.0,0.0,0.0,0.0,0
4386016041,-0.6302172,0.098607555,0.067693695,0.99795854,0.047920857,0.027335918,-0.032172743,1.0,0.0,0.0,0.0,0
4386055829,-0.74454767,0.10803005,-0.04638552,0.9983347,0.039506316,0.028038403,-0.0313212,1.0,0.0,0.0,0.0,0
4386099740,-0.23320833,0.24316552,-0.060106,0.9986875,0.030065807,0.027697254,-0.030859107,1.0,0.0,0.0,0.0,0
4386140592,0.020129213,0.05414213,0.052810527,0.9988985,0.023769371,0.026734438,-0.030366499,1.0,0.0,0.0,0.0,0
4386184541,-0.24410662,-0.32638296,0.050799903,0.99908596,0.017776066,0.02486742,-0.029882807,1.0,0.0,0.0,0.0,0
4386224545,-0.07412689,-0.19890937,-0.047286935,0.999257,0.011619018,0.02186627,-0.029535273,1.0,0.0,0.0,0.0,0
4386268431,-0.16541755,-0.43445134,0.01431032,0.99944144,0.0047991085,0.015872689,-0.029015696,1.0,0.0,0.0,0.0,0
4386308526,-0.06760735,-0.17328031,-0.02752956,0.99953336,-4.987622e-05,0.010679911,-0.028619152,1.0,0.0,0.0,0.0,0
4386348588,-0.02937552,-0.1845553,0.08036974,0.999588,-0.004048638,0.0048439633,-0.028000714,1.0,0.0,0.0,0.0,0
4386393358,-0.18934499,-0.13780515,0.0063008927,0.99958694,-0.008161175,5.5871988e-06,-0.027559808,1.0,0.0,0.0,0.0,0
4386437208,-0.13233231,-0.10760127,0.088000745,0.9995589,-0.012171563,-0.002960434,-0.026930291,1.0,0.0,0.0,0.0,0
4386477344,-0.016702043,0.021101259,0.09168844,0.99952644,-0.015135662,-0.004607479,-0.026393518,1.0,0.0,0.0,0.0,0
4386517435,-0.31649503,-0.05040437,-0.09237594,0.9994854,-0.018007817,-0.0053751776,-0.025995102,1.0,0.0,0.0,0.0,0
4386557332,-0.11348939,-0.0154676605,-0.019874573,0.99945295,-0.020600025,-0.005427287,-0.025300702,1.0,0.0,0.0,0.0,0
4386601410,-0.1827787,-0.07657255,0.0025314516,0.9994058,-0.02354121,-0.0051358175,-0.024646904,1.0,0.0,0.0,0.0,0
4386642127,-0.30772993,-0.05331761,-0.059390362,0.9993595,-0.02591965,-0.004630605,-0.024238488,1.0,0.0,0.0,0.0,0
4386682135,-0.13656892,-0.07919377,-0.013839567,0.9993171,-0.028005935,-0.004869468,-0.02360497,1.0,0.0,0.0,0.0,0
4386726040,-0.15643923,-0.05441394,-0.03947047,0.99924445,-0.03074706,-0.005897599,-0.023030547,1.0,0.0,0.0,0.0,0
4386766117,-0.17498471,-0.22411932,-0.054598656,0.99917626,-0.032907438,-0.007228305,-0.022619601,1.0,0.0,0.0,0.0,0
4386810182,-0.026961632,-0.3407038,0.0570435,0.999141,-0.033918582,-0.009162262,-0.02197798,1.0,0.0,0.0,0.0,0
4386850941,-0.11419669,-0.19879037,0.019867996,0.9991179,-0.034301545,-0.011367049,-0.021391261,1.0,0.0,0.0,0.0,0
4386894804,-0.20409204,-0.16886333,0.113560446,0.9990989,-0.03424017,-0.014362425,-0.020561596,1.0,0.0,0.0,0.0,0
4386934807,-0.09020493,-0.2051503,0.15152203,0.9990956,-0.033500962,-0.017245429,-0.01970707,1.0,0.0,0.0,0.0,0
4386978917,0.050400022,-0.08615262,-0.009439509,0.9990757,-0.032869764,-0.020189758,-0.018967861,1.0,0.0,0.0,0.0,0
4387018750,0.13764293,-0.07292638,0.08050118,0.9990523,-0.032432728,-0.022702277,-0.01809057,1.0,0.0,0.0,0.0,0
4387062955,-0.20238769,0.16794562,-0.026187595,0.9990502,-0.031881317,-0.024044437,-0.017442614,1.0,0.0,0.0,0.0,0
4387103028,0.10593816,0.06852747,0.099362135,0.99907744,-0.030559592,-0.02514923,-0.01667525,1.0,0.0,0.0,0.0,0
4387143751,0.101968415,0.005188712,0.18922177,0.99911606,-0.02973315,-0.025049122,-0.015988356,1.0,0.0,0.0,0.0,0
4387183892,0.0993527,-0.11785537,0.21582437,0.9991799,-0.028923418,-0.02376267,-0.015435546,1.0,0.0,0.0,0.0,0
4387227711,-0.3031408,-0.083018854,-0.044782046,0.9992314,-0.029124206,-0.021376317,-0.015217142,1.0,0.0,0.0,0.0,0
4387267605,-0.18675391,0.17185962,-0.09061773,0.999277,-0.029449273,-0.018862594,-0.014918451,1.0,0.0,0.0,0.0,0
4387311722,-0.109589286,0.16110456,-0.028424365,0.9992859,-0.030715697,-0.01628852,-0.014802518,1.0,0.0,0.0,0.0,0
4387351714,-0.07870431,0.03441651,0.0586078,0.9992728,-0.031891923,-0.014860286,-0.014695058,1.0,0.0,0.0,0.0,0
4387395810,-0.23582874,-0.014826936,-0.03260872,0.9992334,-0.03330431,-0.014099857,-0.014985438,1.0,0.0,0.0,0.0,0
4387436558,-0.39928836,0.008977489,-0.18693511,0.9991996,-0.034495242,-0.01305142,-0.015484862,1.0,0.0,0.0,0.0,0
4387476582,-0.08835542,0.12121388,-0.012263424,0.9992045,-0.034774918,-0.011482793,-0.015784292,1.0,0.0,0.0,0.0,0
4387520554,0.009887988,0.12341598,-0.010677728,0.99922717,-0.034444444,-0.009527519,-0.016370054,1.0,0.0,0.0,0.0,0
4387560596,0.076825276,0.23392455,0.046646114,0.9992637,-0.03359933,-0.0077578523,-0.016821379,1.0,0.0,0.0,0.0,0
4387600596,0.10800721,0.066149466,0.09375056,0.99930227,-0.03241472,-0.006698742,-0.01730649,1.0,0.0,0.0,0.0,0
4387641336,-0.09298832,-0.06437478,-0.046836194,0.99934846,-0.030676858,-0.005800727,-0.01810788,1.0,0.0,0.0,0.0,0
4387685460,0.099738516,0.12669083,-0.0059667276,0.99942863,-0.027766235,-0.0048134406,-0.018663723,1.0,0.0,0.0,0.0,0
4387725326,0.107643604,0.1662385,-0.022387408,0.9994973,-0.024978206,-0.004154091,-0.019078743,1.0,0.0,0.0,0.0,0
4387769384,0.23338212,0.1885349,-0.066179626,0.9995803,-0.02127517,-0.0031848215,-0.019400313,1.0,0.0,0.0,0.0,0
4387809378,0.260029,0.020898728,0.12759437,0.9996459,-0.018001763,-0.0028077937,-0.019396085,1.0,0.0,0.0,0.0,0
4387853406,-0.06565601,-0.122682184,-0.16326049,0.99968815,-0.015032649,-0.0028616725,-0.019738853,1.0,0.0,0.0,0.0,0
4387894119,-0.10997132,0.08398209,-0.044583425,0.99973184,-0.012210995,-0.0027391762,-0.0194861,1.0,0.0,0.0,0.0,0
4387938186,0.16862567,0.09618823,-0.06892836,0.99976647,-0.0092641385,-0.002480263,-0.01936534,1.0,0.0,0.0,0.0,0
4387978128,0.019996976,0.10825913,-0.10045084,0.9997856,-0.0073855934,-0.0023669389,-0.019203888,1.0,0.0,0.0,0.0,0
4388022253,0.2896357,0.15571181,0.16148707,0.9998122,-0.0050593717,-0.0021100524,-0.018592505,1.0,0.0,0.0,0.0,0
4388062171,0.15296975,0.2568538,0.024280202,0.99982214,-0.0037652347,-0.0016186255,-0.018407976,1.0,0.0,0.0,0.0,0
4388106176,0.07411794,-0.017537413,-0.08557656,0.99983156,-0.0023530254,-0.0011254012,-0.018173147,1.0,0.0,0.0,0.0,0
4388146138,-0.006666563,0.1644152,-0.02889151,0.99984014,-0.0009637784,-0.0005237933,-0.017845128,1.0,0.0,0.0,0.0,0
4388186981,-0.22574802,0.058055557,-0.016457217,0.99984324,-0.00024672653,-0.00048042988,-0.017697882,1.0,0.0,0.0,0.0,0
4388231042,0.21931599,0.075603455,0.013771297,0.99984765,0.00083669345,-0.00037747007,-0.01743468,1.0,0.0,0.0,0.0,0
4388270981,-0.06410148,-0.044370633,0.016420769,0.99985117,0.0006549313,-0.0007962637,-0.017224794,1.0,0.0,0.0,0.0,0
4388314813,0.019897852,-0.024057567,-0.03298779,0.9998535,0.00033832158,-0.0016930514,-0.017029364,1.0,0.0,0.0,0.0,0
4388354931,-0.09145942,0.105177,-0.0446121,0.9998519,-0.0006004217,-0.0024618371,-0.017027522,1.0,0.0,0.0,0.0,0
4388398925,-0.17071912,0.05729164,-0.05547807,0.99984914,-0.0016157822,-0.0032333608,-0.01699377,1.0,0.0,0.0,0.0,0
4388438958,0.018350745,-0.16013469,-0.065894976,0.9998431,-0.0023782803,-0.0041463566,-0.017056217,1.0,0.0,0.0,0.0,0
4388479818,0.08766001,0.0546078,0.011537609,0.99983734,-0.0034643738,-0.0045780716,-0.017101608,1.0,0.0,0.0,0.0,0
4388519709,-0.19466642,0.10702274,-0.0154891135,0.99982584,-0.0051204073,-0.0049156924,-0.017263312,1.0,0.0,0.0,0.0,0
4388563741,-0.041239034,-0.02688206,0.014143493,0.9998131,-0.0064117713,-0.0052745314,-0.017457463,1.0,0.0,0.0,0.0,0
4388603782,-0.10432873,-0.06950511,-0.009658104,0.99979615,-0.008071856,-0.004922373,-0.017843885,1.0,0.0,0.0,0.0,0
4388647749,0.09285694,0.009192915,-0.08493204,0.99977064,-0.009938554,-0.0038813977,-0.018574217,1.0,0.0,0.0,0.0,0
4388688586,-0.23365101,0.24529746,-0.1578053,0.9997372,-0.0119779315,-0.0024809032,-0.01938925,1.0,0.0,0.0,0.0,0
4388732558,-0.25031498,0.13678466,-0.091160275,0.9996903,-0.014388563,-0.00080115354,-0.020287842,1.0,0.0,0.0,0.0,0
4388772408,-0.23097365,0.13591649,-0.15109776,0.9996289,-0.016894748,0.0008621951,-0.021355668,1.0,0.0,0.0,0.0,0
4388816554,-0.02256395,0.1095539,0.0672457,0.99956346,-0.019106762,0.0031104088,-0.02232333,1.0,0.0,0.0,0.0,0
4388856416,0.15528116,0.26334387,0.029188763,0.9994901,-0.020991985,0.0053916797,-0.023451542,1.0,0.0,0.0,0.0,0
4388900619,-0.25070798,-0.07153205,-0.061615013,0.99938506,-0.02374573,0.007058037,-0.024819128,1.0,0.0,0.0,0.0,0
4388940621,-0.048494358,-0.09112679,0.00891486,0.9993048,-0.025124006,0.008950159,-0.02605078,1.0,0.0,0.0,0.0,0
4388981233,0.017543545,-0.100861736,0.062376045,0.9992222,-0.02647893,0.010384083,-0.027312456,1.0,0.0,0.0,0.0,0
4389025411,-0.1102842,0.03540872,-0.20994493,0.99912024,-0.027788319,0.011656243,-0.029170893,1.0,0.0,0.0,0.0,0
4389065328,-0.22854576,0.21522222,-0.14222234,0.99906063,-0.028130101,0.012370245,-0.030555686,1.0,0.0,0.0,0.0,0
4389105381,-0.18888533,0.10692371,-0.2115064,0.9990072,-0.028051551,0.013059897,-0.032047633,1.0,0.0,0.0,0.0,0
4389149347,-0.08167316,-0.060514778,-0.08482966,0.9989463,-0.027976872,0.014379545,-0.033419654,1.0,0.0,0.0,0.0,0
4389190216,0.2504882,-0.023329394,0.17329252,0.9989118,-0.027363408,0.015514917,-0.0344374,1.0,0.0,0.0,0.0,0
4389230001,-0.15069371,0.17248663,-0.116028614,0.99884665,-0.027148604,0.016929138,-0.035801914,1.0,0.0,0.0,0.0,0
4389274313,0.0774376,0.07548326,0.101079315,0.99881566,-0.025895752,0.01859513,-0.036754124,1.0,0.0,0.0,0.0,0
4389314024,0.12491698,-0.12870179,0.12569375,0.99879384,-0.02446366,0.019834934,-0.037669133,1.0,0.0,0.0,0.0,0
4389358027,0.032482803,-0.022165423,-0.077102646,0.9987632,-0.023050087,0.021011028,-0.038720917,1.0,0.0,0.0,0.0,0
4389398183,0.33727828,-0.09482278,0.093069956,0.9987655,-0.02143565,0.021443859,-0.039345738,1.0,0.0,0.0,0.0,0
4389438947,0.10164824,-0.082437925,-0.023342289,0.99877435,-0.020293025,0.020860897,-0.04003611,1.0,0.0,0.0,0.0,0
4389478923,-0.05429081,-0.033210956,0.07148253,0.99881303,-0.018540781,0.019782187,-0.04046553,1.0,0.0,0.0,0.0,0
4389522772,-0.08324171,-0.009944421,-0.037230738,0.9988464,-0.016253956,0.018799204,-0.04108949,1.0,0.0,0.0,0.0,0
4389562820,0.30228376,-0.013451652,-0.0014059821,0.9988959,-0.013337146,0.01779127,-0.04138641,1.0,0.0,0.0,0.0,0
4389606921,-0.057548158,0.071278065,-0.16610838,0.99892235,-0.010727196,0.017413018,-0.041665036,1.0,0.0,0.0,0.0,0
4389646829,0.056369927,0.020535778,-0.18887155,0.9989485,-0.007972276,0.017229004,-0.04173177,1.0,0.0,0.0,0.0,0
4389691041,0.1381736,-0.18095975,0.036861468,0.99899226,-0.005794275,0.016174799,-0.0414657,1.0,0.0,0.0,0.0,0
4389731714,-0.0008473715,-0.2102411,-0.13317639,0.9990213,-0.004761446,0.014697721,-0.041446388,1.0,0.0,0.0,0.0,0
4389775812,0.12436879,-0.28670025,0.17085053,0.99908507,-0.0039240997,0.01218706,-0.040806007,1.0,0.0,0.0,0.0,0
4389819775,0.21856482,-0.023093725,-0.042151287,0.9991237,-0.003452237,0.009932448,-0.040513285,1.0,0.0,0.0,0.0,0
4389863895,0.07758396,-0.17265429,0.010520099,0.9991632,-0.0039933287,0.007869142,-0.03993682,1.0,0.0,0.0,0.0,0
4389907606,0.06398682,-0.11854939,0.13274468,0.99918616,-0.0057222755,0.00643279,-0.039409976,1.0,0.0,0.0,0.0,0
4389947775,-0.083600685,0.1275844,-0.021508295,0.9991814,-0.007425197,0.005962942,-0.039318815,1.0,0.0,0.0,0.0,0
4389992408,-0.006738085,-0.116054446,0.050938815,0.9991836,-0.009154327,0.004991666,-0.039030895,1.0,0.0,0.0,0.0,0
4390032587,0.07702819,-0.0358842,-0.047899876,0.9991829,-0.010023585,0.0045066313,-0.038896967,1.0,0.0,0.0,0.0,0
4390076563,0.37139717,0.09815891,0.086146206,0.9991979,-0.009674965,0.0042799185,-0.03862435,1.0,0.0,0.0,0.0,0
4390116637,0.075237684,0.12024453,0.025267348,0.99920577,-0.009077548,0.004168866,-0.038574647,1.0,0.0,0.0,0.0,0
4390160414,0.026026487,-0.046005614,0.037200853,0.99922705,-0.0077169975,0.0036447707,-0.038373817,1.0,0.0,0.0,0.0,0
4390200681,-0.18222569,0.015333511,-0.028838377,0.9992446,-0.006007607,0.003031321,-0.038276706,1.0,0.0,0.0,0.0,0
4390241341,-0.1455568,-0.17124385,-0.12240488,0.9992574,-0.004193117,0.0025894386,-0.038217705,1.0,0.0,0.0,0.0,0
4390285388,0.16496441,0.1438709,0.12817293,0.9992765,-0.0026913413,0.0030770535,-0.037813082,1.0,0.0,0.0,0.0,0
4390325377,0.11221353,-0.085856415,0.062028617,0.99927616,-0.0024318334,0.0037287935,-0.037779983,1.0,0.0,0.0,0.0,0
4390369317,0.27752295,0.16805841,0.07460732,0.999271,-0.002375127,0.005511287,-0.037702955,1.0,0.0,0.0,0.0,0
4390409322,-0.04161073,0.08399345,-0.12731215,0.999256,-0.0028318951,0.006973176,-0.037825033,1.0,0.0,0.0,0.0,0
4390453406,-0.071130365,0.10674139,0.009782246,0.9992527,-0.0031333065,0.0084719695,-0.03758481,1.0,0.0,0.0,0.0,0
4390494213,-0.24265665,-0.16935615,-0.12372067,0.99923635,-0.0030394823,0.009579027,-0.0377616,1.0,0.0,0.0,0.0,0
4390538014,0.09087481,-0.022389047,0.12443285,0.99923056,-0.0019141947,0.011025113,-0.037591785,1.0,0.0,0.0,0.0,0
4390578027,-0.12751943,-0.024290798,-0.058304943,0.9992078,-0.0007040739,0.01196083,-0.037951052,1.0,0.0,0.0,0.0,0
4390622209,0.3389559,0.18321075,0.10908786,0.9991961,0.0020027845,0.012745075,-0.03795643,1.0,0.0,0.0,0.0,0
4390662196,0.19483012,0.01827337,-0.012370719,0.9991757,0.0048700427,0.012790918,-0.038218673,1.0,0.0,0.0,0.0,0
4390706118,0.29288766,0.05329737,0.08206055,0.9991518,0.008260126,0.0126896165,-0.038294088,1.0,0.0,0.0,0.0,0
4390746788,0.25497478,-0.14253424,0.06016108,0.9991359,0.010543221,0.011843595,-0.038419303,1.0,0.0,0.0,0.0,0
4390790959,0.17997459,-0.022474729,0.11937571,0.99911594,0.012127447,0.011423153,-0.03859758,1.0,0.0,0.0,0.0,0
4390830976,-0.049876142,-0.09362298,-0.05943638,0.99910367,0.013194686,0.010492957,-0.038830295,1.0,0.0,0.0,0.0,0
4390871323,-0.13309576,-0.040561557,-0.12513554,0.9990995,0.013725572,0.009592417,-0.03898435,1.0,0.0,0.0,0.0,0
4390914815,-0.03178564,-0.25358334,0.076145165,0.99911773,0.01406336,0.008212268,-0.038712475,1.0,0.0,0.0,0.0,0
4390958957,-0.026425308,-0.24449533,0.11270081,0.9991369,0.013831925,0.0067155575,-0.038588572,1.0,0.0,0.0,0.0,0
4391002926,-0.09287957,0.0040855044,-0.100029685,0.99914664,0.013312422,0.005619051,-0.038695946,1.0,0.0,0.0,0.0,0
4391043846,0.23461719,0.003945484,0.14073807,0.99917173,0.012896354,0.0044343057,-0.038340356,1.0,0.0,0.0,0.0,0
4391087621,-0.21607295,-0.014043817,-0.062323947,0.99919254,0.011714588,0.003086032,-0.0383101,1.0,0.0,0.0,0.0,0
4391127735,-0.14440542,0.07488971,-0.061236028,0.9992116,0.011437147,0.0018718713,-0.037972976,1.0,0.0,0.0,0.0,0
4391171796,-0.28329113,0.024504784,-0.041219845,0.99923414,0.010530384,0.000994237,-0.03767477,1.0,0.0,0.0,0.0,0
4391211657,-0.17345014,-0.21223837,-0.09303081,0.99925905,0.009433441,-0.00021868094,-0.037315745,1.0,0.0,0.0,0.0,0
4391256546,-0.01085028,-0.08744148,0.0983507,0.9992881,0.008156167,-0.001337196,-0.03681246,1.0,0.0,0.0,0.0,0
4391300634,-0.036955625,0.1589709,-0.04485679,0.999301,0.0064070662,-0.0015177963,-0.036798395,1.0,0.0,0.0,0.0,0
4391340609,0.05120496,0.06445399,0.014694006,0.99931794,0.0046495935,-0.0017420148,-0.036592934,1.0,0.0,0.0,0.0,0
4391384422,-0.28469038,0.04359475,-0.16290708,0.9993264,0.0028072598,-0.0017681159,-0.03654853,1.0,0.0,0.0,0.0,0
4391424513,-0.38641426,-0.05547076,-0.082598485,0.9993359,0.0017771004,-0.002003347,-0.036340855,1.0,0.0,0.0,0.0,0
4391468547,-0.076310426,0.22710486,0.16474813,0.99934936,0.0009848335,-0.001558313,-0.03602011,1.0,0.0,0.0,0.0,0
4391508405,0.14934504,0.102383606,0.13524848,0.99935085,0.00073286926,-0.0015926425,-0.035984226,1.0,0.0,0.0,0.0,0
4391553244,-0.06174145,0.10742915,-0.048058745,0.99934644,0.0005522779,-0.000973207,-0.036134005,1.0,0.0,0.0,0.0,0
4391593366,0.14711678,-0.027562873,0.031981803,0.9993529,0.0009782264,-0.0004013479,-0.035956156,1.0,0.0,0.0,0.0,0
4391637387,-0.01677767,0.14686035,-0.10140007,0.99935246,0.0013218808,0.0005759614,-0.03595299,1.0,0.0,0.0,0.0,0
4391677398,-0.07105495,0.047433574,-0.07361472,0.9993603,0.002118573,0.0010746978,-0.035684623,1.0,0.0,0.0,0.0,0
4391721343,0.28463495,0.007143368,0.26985258,0.99938726,0.0031096996,0.0017042118,-0.034821805,1.0,0.0,0.0,0.0,0
4391762131,0.10426996,0.034780025,0.17644484,0.99940056,0.0032099052,0.0017866543,-0.03442446,1.0,0.0,0.0,0.0,0
4391806180,-0.043796822,0.07435861,-0.008884735,0.999419,0.0029030114,0.0015391684,-0.033925097,1.0,0.0,0.0,0.0,0
4391846163,-0.018196864,0.07399763,-0.07651284,0.99944085,0.00279333,0.0008535311,-0.03330945,1.0,0.0,0.0,0.0,0
4391890032,0.028051201,-0.27205303,0.040076353,0.99947506,0.00241237,-0.00072840165,-0.032298442,1.0,0.0,0.0,0.0,0
4391933993,-0.21214885,-0.26566738,-0.009822205,0.9995012,0.0013215555,-0.0020930073,-0.03148489,1.0,0.0,0.0,0.0,0
4391974042,-0.10408384,-0.14959013,0.024594065,0.99952894,0.00089637656,-0.0031300683,-0.030519549,1.0,0.0,0.0,0.0,0
4392018039,-0.31651783,-0.2881395,-0.0852477,0.99954855,3.31853e-05,-0.0044346573,-0.029716996,1.0,0.0,0.0,0.0,0
4392058923,0.012168004,-0.10372758,0.05881458,0.9995715,-0.00064735,-0.005032402,-0.028828107,1.0,0.0,0.0,0.0,0
4392103041,-0.24630012,-0.21426663,-0.055756487,0.9995878,-0.0020624155,-0.005162343,-0.028170105,1.0,0.0,0.0,0.0,0
4392142946,0.15754242,0.078084506,0.063208394,0.99961054,-0.003169686,-0.0038915803,-0.027451795,1.0,0.0,0.0,0.0,0
4392186935,-0.04483401,0.029176058,0.060010448,0.99961543,-0.0055918405,-0.0017775813,-0.027104784,1.0,0.0,0.0,0.0,0
4392226790,-0.3290434,0.26577935,-0.09891031,0.99959236,-0.008536709,0.0012508251,-0.0272157,1.0,0.0,0.0,0.0,0
4392271004,-0.58098215,0.090976395,-0.13727409,0.99953943,-0.012207332,0.004947124,-0.027341407,1.0,0.0,0.0,0.0,0
4392310944,-0.4817926,0.045713272,-0.10543752,0.9994661,-0.015630461,0.007533354,-0.027684508,1.0,0.0,0.0,0.0,0
4392351775,-0.31988066,0.0920704,-0.23310256,0.99937147,-0.019292155,0.009503149,-0.028181084,1.0,0.0,0.0,0.0,0
4392391780,-0.079434596,0.19496006,0.012140809,0.9992899,-0.0219994,0.011086864,-0.028511388,1.0,0.0,0.0,0.0,0
4392431677,0.081293315,-0.111976534,0.1866133,0.9992093,-0.02441119,0.011733033,-0.029106595,1.0,0.0,0.0,0.0,0
4392471786,0.034333557,0.0071419906,0.030239014,0.9991164,-0.02668121,0.012765725,-0.029860271,1.0,0.0,0.0,0.0,0
4392515573,-0.08558014,-0.16841456,-0.07071872,0.99901795,-0.028601613,0.014163899,-0.03073328,1.0,0.0,0.0,0.0,0
4392556376,-0.09834323,0.22552738,-0.091098346,0.9989056,-0.030348567,0.016433205,-0.03156692,1.0,0.0,0.0,0.0,0
4392600607,-0.07119791,0.2599816,-0.08296149,0.9987752,-0.032504372,0.01834182,-0.032483473,1.0,0.0,0.0,0.0,0
4392644583,0.11132849,0.024604201,0.029226093,0.99865156,-0.034573317,0.020039406,-0.033138152,1.0,0.0,0.0,0.0,0
4392684613,-0.19917661,0.039292537,-0.049715742,0.9985124,-0.036684312,0.021665705,-0.034028422,1.0,0.0,0.0,0.0,0
4392728534,0.20248573,0.28154567,0.09698337,0.99841845,-0.037480574,0.023472425,-0.034710433,1.0,0.0,0.0,0.0,0
4392768529,-0.024277369,0.09307156,0.106663145,0.99832594,-0.038808662,0.024239203,-0.035382014,1.0,0.0,0.0,0.0,0
4392813424,0.060819536,-0.22899105,-0.010913406,0.99823534,-0.040107623,0.0246115,-0.03622235,1.0,0.0,0.0,0.0,0
4392857436,0.11270689,-0.058225613,0.12086087,0.9981504,-0.041498907,0.024998415,-0.036725428,1.0,0.0,0.0,0.0,0
4392901371,-0.23815824,0.0432863,-0.06359475,0.99802953,-0.04323537,0.025685832,-0.037523277,1.0,0.0,0.0,0.0,0
4392941339,0.19615993,0.07418232,0.07571158,0.9979489,-0.0440381,0.02685712,-0.037912972,1.0,0.0,0.0,0.0,0
4392985482,-0.12548281,-0.12908855,-0.055366255,0.9978188,-0.045389034,0.02833341,-0.038663175,1.0,0.0,0.0,0.0,0
4393025421,-0.16161709,-0.07504987,-0.07969467,0.9977067,-0.046340246,0.029929204,-0.039219346,1.0,0.0,0.0,0.0,0
4393066300,0.19571199,-0.03575646,0.1464063,0.9976201,-0.047212914,0.03096396,-0.039577518,1.0,0.0,0.0,0.0,0
4393110043,-0.10292947,-0.008630362,-0.040426478,0.9975154,-0.048910756,0.030900456,-0.040197644,1.0,0.0,0.0,0.0,0
4393150234,-0.14726682,-0.17795718,0.07351948,0.9974822,-0.0500419,0.029742194,-0.04050606,1.0,0.0,0.0,0.0,0
4393194169,-0.17212921,-0.0027713624,0.0555173,0.9974327,-0.05152591,0.02839949,-0.04082293,1.0,0.0,0.0,0.0,0
4393234139,-0.097583845,-0.19232011,-0.023407558,0.99743605,-0.052273113,0.026248073,-0.041231718,1.0,0.0,0.0,0.0,0
4393277994,0.33540592,-0.029216414,0.018103296,0.99750876,-0.051958025,0.023410602,-0.041576814,1.0,0.0,0.0,0.0,0
4393318143,0.035654493,-0.005424398,-0.11958771,0.9975744,-0.051722858,0.020167591,-0.041992653,1.0,0.0,0.0,0.0,0
4393362810,0.11302277,-0.42900935,-0.07740548,0.9977503,-0.049704615,0.015161833,-0.04235545,1.0,0.0,0.0,0.0,0
4393402936,0.20620373,-0.1290141,-0.056318715,0.9979234,-0.046942882,0.010846691,-0.04275157,1.0,0.0,0.0,0.0,0
4393446808,0.106733315,-0.21574347,-0.11218524,0.9980949,-0.04336552,0.0064292112,-0.043413226,1.0,0.0,0.0,0.0,0
4393487022,0.3827092,-0.15320906,-0.02583184,0.9982237,-0.04010653,0.0031478347,-0.043942895,1.0,0.0,0.0,0.0,0
4393530933,-0.01619342,-0.2529638,-0.13103606,0.9982838,-0.037761673,3.2097596e-05,-0.044762406,1.0,0.0,0.0,0.0,0
4393571044,0.21180622,-0.18567201,0.05299219,0.99835145,-0.035357516,-0.0016692512,-0.045182366,1.0,0.0,0.0,0.0,0
4393615804,0.082283475,-0.08087153,-0.0031858922,0.9983752,-0.033609092,-0.0028796454,-0.045925196,1.0,0.0,0.0,0.0,0
4393659612,-0.029609822,0.13942331,-0.122709334,0.99838257,-0.03249976,-0.0039488147,-0.04648003,1.0,0.0,0.0,0.0,0
4393699617,0.29587764,-0.22615413,0.058653243,0.9984115,-0.031073485,-0.005383951,-0.046692878,1.0,0.0,0.0,0.0,0
4393743765,0.18547834,-0.021648549,0.051581472,0.99841344,-0.030051237,-0.0065849195,-0.047162745,1.0,0.0,0.0,0.0,0
4393783773,0.032194108,0.038452372,-0.086809814,0.99839485,-0.02954129,-0.008155801,-0.047629364,1.0,0.0,0.0,0.0,0
4393827755,0.103484765,0.0032176687,0.049437348,0.99839437,-0.028518133,-0.010314175,-0.04784353,1.0,0.0,0.0,0.0,0
4393868554,-0.0026221562,-0.09088991,-0.03557068,0.9983774,-0.027617602,-0.012600096,-0.048178975,1.0,0.0,0.0,0.0,0
4393912533,0.050096888,0.015330952,0.05921546,0.9983478,-0.027101872,-0.015210875,-0.048329934,1.0,0.0,0.0,0.0,0
4393952459,-0.078315556,0.002117662,-0.13332966,0.9983143,-0.026167048,-0.01776931,-0.04866317,1.0,0.0,0.0,0.0,0
4393996574,-0.0138485255,-0.18777221,-0.021448499,0.99829286,-0.024991771,-0.020344283,-0.04871186,1.0,0.0,0.0,0.0,0
4394036413,-0.09230735,-0.36824536,0.027457366,0.9982489,-0.024384363,-0.02283427,-0.04881819,1.0,0.0,0.0,0.0,0
4394080632,0.0071841967,-0.17236437,0.038527396,0.99818754,-0.023975989,-0.025253896,-0.04908327,1.0,0.0,0.0,0.0,0
4394121453,-0.012133145,-0.18099214,0.067746066,0.99812263,-0.02389245,-0.02731191,-0.049340613,1.0,0.0,0.0,0.0,0
4394161403,-0.0035889947,0.19735324,-0.19128218,0.9980504,-0.023780048,-0.029102532,-0.049830943,1.0,0.0,0.0,0.0,0
4394205446,0.16531576,0.0038629794,0.037647557,0.9980014,-0.023758693,-0.031075845,-0.049629565,1.0,0.0,0.0,0.0,0
4394249064,-0.04815567,-0.0132483635,-0.021436542,0.9979532,-0.0245859,-0.03153473,-0.04990764,1.0,0.0,0.0,0.0,0
4394293314,-0.1913304,-0.0845701,-0.040377945,0.99794954,-0.02511037,-0.03086151,-0.050136644,1.0,0.0,0.0,0.0,0
4394333209,-0.1019832,-0.08081224,0.015010291,0.99797434,-0.025454694,-0.029580373,-0.050242953,1.0,0.0,0.0,0.0,0
4394374019,-0.1263857,0.20226738,-0.17644721,0.99801797,-0.02606736,-0.026974883,-0.050528463,1.0,0.0,0.0,0.0,0
4394414187,0.35578704,0.10429483,0.17654513,0.99810404,-0.026191806,-0.023991315,-0.050268088,1.0,0.0,0.0,0.0,0
4394454144,-0.004743714,0.38873482,-0.029598927,0.99815327,-0.027057374,-0.019600417,-0.050733592,1.0,0.0,0.0,0.0,0
4394498002,-0.05807085,0.3137344,-0.17211437,0.9981998,-0.02792861,-0.014592262,-0.051033545,1.0,0.0,0.0,0.0,0
4394542012,0.11814667,0.32804012,-0.17418088,0.9982426,-0.028324736,-0.009392892,-0.05119863,1.0,0.0,0.0,0.0,0
4394582186,-0.218512,0.21455945,-0.0101289,0.9982492,-0.02922013,-0.0052636503,-0.051158845,1.0,0.0,0.0,0.0,0
4394622928,-0.07272581,0.4435978,-0.081677794,0.99822825,-0.030078294,-0.0017333195,-0.051309746,1.0,0.0,0.0,0.0,0
4394662918,0.03762123,0.04181799,0.09832462,0.9982126,-0.030755678,-0.00015270784,-0.05124263,1.0,0.0,0.0,0.0,0
4394706946,0.096920766,0.13148777,0.13657428,0.99819666,-0.031084094,0.0017338141,-0.051325385,1.0,0.0,0.0,0.0,0
4394746813,-0.030434879,0.0787755,-0.0827292,0.99817306,-0.031299338,0.0030977572,-0.051587593,1.0,0.0,0.0,0.0,0
4394790954,0.04465019,-0.00661575,-0.055907417,0.9981585,-0.031730756,0.0038067338,-0.051558323,1.0,0.0,0.0,0.0,0
4394830920,-0.10664038,-0.20016402,0.089427754,0.9981557,-0.032083254,0.0042734663,-0.05135782,1.0,0.0,0.0,0.0,0
4394874963,-0.021561405,-0.15148203,0.14291626,0.9981511,-0.032328494,0.004429315,-0.051281154,1.0,0.0,0.0,0.0,0
4394915757,-0.14336939,-0.10610318,-0.063879505,0.9981307,-0.032688234,0.004166232,-0.05147236,1.0,0.0,0.0,0.0,0
4394955781,-0.02984364,-0.081250906,-0.07499505,0.9981182,-0.033088826,0.0033847687,-0.051514916,1.0,0.0,0.0,0.0,0
4394999768,0.04051941,0.06138597,-0.07962224,0.99812156,-0.0331692,0.0028579754,-0.05143031,1.0,0.0,0.0,0.0,0
4395039742,0.20773086,0.0064559723,-0.0747797,0.99812335,-0.03357029,0.0019567285,-0.051175855,1.0,0.0,0.0,0.0,0
4395083790,0.28523204,-0.22956793,0.062090445,0.9981321,-0.033876173,0.0008498786,-0.050832946,1.0,0.0,0.0,0.0,0
4395123842,-0.06711127,0.06061964,-0.09384562,0.99811,-0.034585793,0.0009542706,-0.050787244,1.0,0.0,0.0,0.0,0
4395168557,0.043758813,0.005817306,0.006035709,0.9981286,-0.034469496,0.0013005113,-0.050492696,1.0,0.0,0.0,0.0,0
4395208560,-0.1486055,0.28769204,-0.2107845,0.9981101,-0.034818467,0.002174404,-0.050588038,1.0,0.0,0.0,0.0,0
4395252562,-0.09716298,0.1740189,-0.13870496,0.998115,-0.03486802,0.0030724138,-0.050411697,1.0,0.0,0.0,0.0,0
4395292647,-0.01802227,-0.24090602,0.04677269,0.9981244,-0.035092767,0.0033525995,-0.05004953,1.0,0.0,0.0,0.0,0
4395336520,-0.04432802,0.035653114,0.06384081,0.9981263,-0.035478935,0.0037573152,-0.049710345,1.0,0.0,0.0,0.0,0
4395376597,-0.11260333,-0.07636376,-0.116969824,0.99812454,-0.035767037,0.0029721945,-0.049592406,1.0,0.0,0.0,0.0,0
4395421328,-0.002480553,0.059463397,0.015875496,0.99814665,-0.0360112,0.0026150725,-0.04898628,1.0,0.0,0.0,0.0,0
4395461359,-0.075345315,0.1998641,-0.10950739,0.9981493,-0.036298823,0.002721979,-0.04871553,1.0,0.0,0.0,0.0,0
4395505323,0.16615897,0.18600217,0.069652155,0.9981831,-0.03614416,0.0027726048,-0.04813086,1.0,0.0,0.0,0.0,0
4395545502,0.012504389,-0.025816292,0.023303702,0.9981914,-0.036293574,0.0032708622,-0.047813732,1.0,0.0,0.0,0.0,0
4395585413,0.01626627,-0.05925859,-0.06623738,0.9981943,-0.03635398,0.0047062393,-0.047587287,1.0,0.0,0.0,0.0,0
4395629410,0.09234629,0.071992464,0.05107472,0.9982127,-0.036201045,0.006435628,-0.047111712,1.0,0.0,0.0,0.0,0
4395670190,-0.12911054,0.09855243,-0.09667958,0.99820936,-0.03608357,0.0083462,-0.046974372,1.0,0.0,0.0,0.0,0
4395714047,0.19310334,0.052210934,0.044097763,0.9982376,-0.035275783,0.010685813,-0.046511117,1.0,0.0,0.0,0.0,0
4395754127,-0.045675006,0.0062114177,-0.050888408,0.99823195,-0.034848288,0.012853462,-0.046406932,1.0,0.0,0.0,0.0,0
4395798183,0.20816879,0.107010596,0.10644359,0.99825454,-0.033427272,0.015782027,-0.04605932,1.0,0.0,0.0,0.0,0
4395838154,-0.0021707967,0.29760686,-0.14743534,0.998232,-0.03204263,0.019051224,-0.046296205,1.0,0.0,0.0,0.0,0
4395882144,0.18138601,0.14777042,-0.021431932,0.99826574,-0.029317696,0.021367274,-0.04636226,1.0,0.0,0.0,0.0,0
4395922134,0.13654222,0.08890762,-0.04585113,0.99828154,-0.026952531,0.022829186,-0.046759654,1.0,0.0,0.0,0.0,0
4395962804,0.108584605,0.13439144,0.021685036,0.9982945,-0.025250943,0.023700958,-0.0469977,1.0,0.0,0.0,0.0,0
4396006775,-0.10145795,-0.21785702,-0.09962098,0.99828374,-0.025361234,0.023258382,-0.047387235,1.0,0.0,0.0,0.0,0
4396050964,-0.29016456,-0.24475718,-0.11349802,0.9982488,-0.026579082,0.022970142,-0.047595993,1.0,0.0,0.0,0.0,0
4396094949,-0.12193111,-0.27869713,0.006562171,0.9982365,-0.028432505,0.021570053,-0.04743896,1.0,0.0,0.0,0.0,0
4396138981,-0.035932425,-0.2131287,0.12883863,0.9982439,-0.030816758,0.01869879,-0.04700721,1.0,0.0,0.0,0.0,0
4396179865,-0.16097994,-0.28166747,-0.059433945,0.9982691,-0.033192568,0.013877556,-0.04652483,1.0,0.0,0.0,0.0,0
4396219789,-0.16959019,-0.2761234,-0.036908124,0.99829483,-0.035530712,0.008397124,-0.045547184,1.0,0.0,0.0,0.0,0
4396263759,-0.2003534,-0.33404,-0.04495407,0.9982986,-0.037813473,0.0024557433,-0.044318184,1.0,0.0,0.0,0.0,0
4396303773,-0.058244172,-0.4365353,0.101055406,0.99826187,-0.04005077,-0.0018743005,-0.04319378,1.0,0.0,0.0,0.0,0
4396347740,0.04741013,0.099037215,-0.03053017,0.9981787,-0.042805746,-0.003052575,-0.042399496,1.0,0.0,0.0,0.0,0
4396387799,0.15177368,-0.16368623,0.050965235,0.99816877,-0.043840654,-0.0029704887,-0.041573137,1.0,0.0,0.0,0.0,0
4396432561,-0.09063214,-0.0010857382,-0.016935294,0.9981545,-0.044768248,-0.00128877,-0.04100906,1.0,0.0,0.0,0.0,0
4396472724,-0.06962507,0.071005985,0.032038525,0.99813086,-0.04556255,0.001853568,-0.040686898,1.0,0.0,0.0,0.0,0
4396516526,-0.050279364,0.019664902,0.09259836,0.99809396,-0.046315607,0.0057710377,-0.040373895,1.0,0.0,0.0,0.0,0
4396556546,-0.23632124,0.08547623,0.01963333,0.9980358,-0.046821665,0.009915798,-0.040423095,1.0,0.0,0.0,0.0,0
4396600608,0.08509847,-0.12251752,-0.006823852,0.9979651,-0.04725598,0.013549526,-0.040607594,1.0,0.0,0.0,0.0,0
4396640528,-0.1092873,-0.0662726,-0.08391528,0.9978543,-0.048422314,0.015930096,-0.04108865,1.0,0.0,0.0,0.0,0
4396681331,-0.2665777,0.065658465,-0.06692084,0.9977898,-0.04869033,0.017902775,-0.04152514,1.0,0.0,0.0,0.0,0
4396725362,0.16066815,-0.1828609,0.027602976,0.99777496,-0.048140965,0.01957081,-0.04176849,1.0,0.0,0.0,0.0,0
4396765393,0.10208649,-0.15760739,0.015167169,0.99775124,-0.047689475,0.021348545,-0.041981492,1.0,0.0,0.0,0.0,0
4396809387,0.10871411,0.05259606,-0.041585773,0.9977006,-0.047429334,0.023363076,-0.04240415,1.0,0.0,0.0,0.0,0
4396849366,0.05539563,0.11881124,-0.055166647,0.99758756,-0.047752693,0.026371423,-0.042933144,1.0,0.0,0.0,0.0,0
4396893481,0.0020704628,0.1615196,-0.03554427,0.99748135,-0.047636565,0.029563246,-0.04344922,1.0,0.0,0.0,0.0,0
4396933363,-0.11426996,-0.08606878,0.032910455,0.9974588,-0.04775992,0.029848404,-0.04363637,1.0,0.0,0.0,0.0,0
4396978028,0.3377309,-0.1109906,-0.015899312,0.99755526,-0.046477634,0.028557433,-0.0436799,1.0,0.0,0.0,0.0,0
4397018000,0.33992183,-0.46814638,0.03723132,0.9977769,-0.043663286,0.025285315,-0.043538444,1.0,0.0,0.0,0.0,0
4397062153,0.17893426,-0.09408003,0.0003057795,0.99807805,-0.03977888,0.01994539,-0.04312765,1.0,0.0,0.0,0.0,0
4397102031,0.35013112,-0.14087413,-0.039742816,0.9983603,-0.0353824,0.014329352,-0.042657133,1.0,0.0,0.0,0.0,0
4397146165,0.40593055,-0.15214565,0.035872046,0.99864787,-0.029431298,0.008582265,-0.0419847,1.0,0.0,0.0,0.0,0
4397185982,0.37640136,-0.22205248,0.07117978,0.9988606,-0.024010846,0.0025023662,-0.041167036,1.0,0.0,0.0,0.0,0
4397231035,0.31480083,-0.10433606,0.031639073,0.99900305,-0.018986441,-0.0043514636,-0.04016804,1.0,0.0,0.0,0.0,0
4397271010,0.59348065,-0.12003257,0.07357707,0.99907583,-0.014103214,-0.010668099,-0.0391787,1.0,0.0,0.0,0.0,0
4397314952,0.3241401,-0.4562412,0.04446244,0.9990757,-0.009234267,-0.017766424,-0.03803798,1.0,0.0,0.0,0.0,0
4397354920,0.050670773,-0.32573873,-0.009922844,0.9990273,-0.0058929627,-0.02305432,-0.03712427,1.0,0.0,0.0,0.0,0
4397398960,0.0753985,-0.23272672,-0.0057734726,0.9989599,-0.0023513068,-0.027850827,-0.036027107,1.0,0.0,0.0,0.0,0
4397438946,0.16649613,0.09403409,0.023174332,0.99890655,0.0008509629,-0.030798381,-0.03516482,1.0,0.0,0.0,0.0,0
4397479785,0.31148136,0.07294046,-0.014804123,0.99883485,0.0035262245,-0.03346907,-0.034588918,1.0,0.0,0.0,0.0,0
4397523714,0.19778067,-0.14438611,0.055856522,0.99876446,0.005947471,-0.035735916,-0.03401715,1.0,0.0,0.0,0.0,0
4397563606,0.15136872,-0.06840025,0.0058254944,0.99871236,0.0075376504,-0.037028052,-0.033849802,1.0,0.0,0.0,0.0,0
4397607759,0.12269269,-0.13268156,0.03556215,0.9986392,0.009215037,-0.038669117,-0.033756282,1.0,0.0,0.0,0.0,0
4397647742,-0.033464823,-0.2287033,-0.068454266,0.998581,0.010229459,-0.03974462,-0.033937994,1.0,0.0,0.0,0.0,0
4397687736,0.089166194,-0.16317849,-0.03491625,0.9985575,0.010850447,-0.03999939,-0.03413483,1.0,0.0,0.0,0.0,0
4397728284,0.20412798,0.035806067,0.017283235,0.9985553,0.011431661,-0.03967613,-0.034385785,1.0,0.0,0.0,0.0,0
4397772532,-0.0009751785,-0.12679344,0.03378612,0.9985529,0.011762073,-0.039320227,-0.03475415,1.0,0.0,0.0,0.0,0
4397812543,0.055155285,-0.049689747,-0.049893655,0.99857694,0.011566477,-0.03827478,-0.0352899,1.0,0.0,0.0,0.0,0
4397856532,-0.055539757,0.07243391,-0.10591382,0.99861246,0.010866184,-0.036971334,-0.035894483,1.0,0.0,0.0,0.0,0
4397900657,-0.07938077,-0.09047221,-0.063976154,0.99863124,0.010181751,-0.036185615,-0.036368556,1.0,0.0,0.0,0.0,0
4397944409,-0.2063145,0.024417425,-0.05912438,0.99866754,0.009210115,-0.03493655,-0.03684747,1.0,0.0,0.0,0.0,0
4397985438,-0.05188652,0.011728503,-0.03902367,0.9987115,0.008449368,-0.033461474,-0.03720637,1.0,0.0,0.0,0.0,0
4398025405,-0.021492878,-0.09535697,0.11880485,0.99877656,0.007626146,-0.03152182,-0.037333664,1.0,0.0,0.0,0.0,0
4398069358,0.2863916,0.029619116,0.17923483,0.99885863,0.006796525,-0.028876763,-0.03743654,1.0,0.0,0.0,0.0,0
4398109323,0.00779114,0.18296927,0.011841906,0.998934,0.0053586927,-0.026054882,-0.037726924,1.0,0.0,0.0,0.0,0
4398153334,0.113671884,0.18913762,0.059582002,0.9990088,0.0047952454,-0.023183206,-0.03769733,1.0,0.0,0.0,0.0,0
4398193366,0.008623624,0.021221496,0.14836992,0.9990719,0.0042290944,-0.020502385,-0.037645187,1.0,0.0,0.0,0.0,0
4398238003,0.18010345,0.1264527,0.17339994,0.99913853,0.0038922844,-0.017360492,-0.03749288,1.0,0.0,0.0,0.0,0
4398277994,-0.10021308,0.11596889,-0.090094574,0.99916613,0.0037438928,-0.015196797,-0.037711293,1.0,0.0,0.0,0.0,0
4398322004,-0.056818552,0.1462365,-0.009974901,0.9991889,0.0037397093,-0.013814175,-0.03763912,1.0,0.0,0.0,0.0,0
4398361968,0.08578198,0.12198525,-0.12714736,0.9991875,0.0038772803,-0.0133881,-0.037816208,1.0,0.0,0.0,0.0,0
4398405984,-0.10636966,-0.17977719,-0.11087671,0.9991751,0.0039631613,-0.01377133,-0.03799861,1.0,0.0,0.0,0.0,0
4398445978,-0.012805771,-0.10179189,-0.16791041,0.9991645,0.0041558906,-0.013803891,-0.03824243,1.0,0.0,0.0,0.0,0
4398490033,0.14412576,-0.04912363,0.042293016,0.9991593,0.0045734677,-0.013672241,-0.038378064,1.0,0.0,0.0,0.0,0
4398530960,-0.0051271925,-0.09927838,-0.10740035,0.99914783,0.004401857,-0.0133294435,-0.038816206,1.0,0.0,0.0,0.0,0
4398574997,0.113878526,-0.0049866345,0.10198281,0.99915713,0.004431003,-0.0126887625,-0.0387865,1.0,0.0,0.0,0.0,0
4398618928,-0.0633914,-0.1656463,-0.009197925,0.9991657,0.0038524556,-0.011772679,-0.03891802,1.0,0.0,0.0,0.0,0
4398658942,-0.068216294,0.22423469,-0.031331494,0.99919575,0.0030357153,-0.009840454,-0.03875276,1.0,0.0,0.0,0.0,0
4398702945,-0.04030896,0.2553041,0.030113352,0.99923134,0.0018144923,-0.007974578,-0.03833877,1.0,0.0,0.0,0.0,0
4398743840,-0.13905662,0.13499887,0.15912715,0.9992643,0.00026009558,-0.006485367,-0.037798524,1.0,0.0,0.0,0.0,0
4398787750,-0.15497299,0.31098714,-0.055067323,0.9992801,-0.001562719,-0.0043814178,-0.03765375,1.0,0.0,0.0,0.0,0
4398827609,-0.20602238,0.06857184,0.020490991,0.99930584,-0.0027275984,-0.003092435,-0.037026804,1.0,0.0,0.0,0.0,0
4398871735,-0.101119384,-0.03996957,0.15628241,0.99933594,-0.0033523075,-0.0015415278,-0.036251098,1.0,0.0,0.0,0.0,0
4398911605,-0.03535177,0.022765744,0.096637584,0.99935776,-0.0035980986,-9.9183584e-05,-0.035653647,1.0,0.0,0.0,0.0,0
4398951787,-0.06967226,0.010299981,0.0036478774,0.99937487,-0.0038451354,0.001187324,-0.03512298,1.0,0.0,0.0,0.0,0
4398991758,0.10911469,0.04126893,0.048393738,0.9993949,-0.0041753044,0.0024210457,-0.034449857,1.0,0.0,0.0,0.0,0
4399036592,-0.106035054,-0.0032545119,-0.050847407,0.9994038,-0.005378822,0.0032747884,-0.03394736,1.0,0.0,0.0,0.0,0
4399076579,0.21602592,0.08979999,0.17870751,0.999422,-0.0060114595,0.004379182,-0.033173885,1.0,0.0,0.0,0.0,0
4399120618,-0.26924312,-0.14266494,-0.1910578,0.9994198,-0.0068298844,0.0049718227,-0.032993607,1.0,0.0,0.0,0.0,0
4399160645,0.12862271,0.087875254,-0.048498433,0.99943227,-0.0066988226,0.0058300574,-0.032502487,1.0,0.0,0.0,0.0,0
4399204556,-0.053057373,-0.13893366,-0.007855377,0.99944055,-0.007164986,0.0065698586,-0.032005012,1.0,0.0,0.0,0.0,0
4399244533,-0.081906624,0.061850905,-0.05230516,0.9994366,-0.0076641166,0.007837627,-0.03172482,1.0,0.0,0.0,0.0,0
4399285441,-0.05914781,0.16659652,0.17527348,0.9994301,-0.00867176,0.008518688,-0.031494454,1.0,0.0,0.0,0.0,0
4399325404,0.037702277,0.10764853,0.20224176,0.9994258,-0.009639825,0.008571311,-0.03132959,1.0,0.0,0.0,0.0,0
4399369384,0.05606714,0.0040722485,0.009712977,0.9994009,-0.011279811,0.008615539,-0.03156608,1.0,0.0,0.0,0.0,0
4399409395,0.06751019,-0.039375834,0.15607941,0.99938256,-0.012718191,0.008702222,-0.03157564,1.0,0.0,0.0,0.0,0
4399453338,-0.2098342,-0.08502646,-0.114458896,0.9993327,-0.015176729,0.00860022,-0.032093886,1.0,0.0,0.0,0.0,0
4399497406,-0.069972076,0.15120484,-0.1575421,0.9992732,-0.017626207,0.00888944,-0.03261296,1.0,0.0,0.0,0.0,0
4399537223,-0.058006484,-0.05268712,-0.03200623,0.99922085,-0.019639298,0.0088959625,-0.033057965,1.0,0.0,0.0,0.0,0
4399582157,-0.13218084,-0.13661964,0.0047690244,0.9991568,-0.021674177,0.009181734,-0.0336409,1.0,0.0,0.0,0.0,0
4399622015,-0.18790504,0.124435365,-0.12942111,0.99908334,-0.023051698,0.010560735,-0.03449224,1.0,0.0,0.0,0.0,0
4399666255,-0.12346398,0.15133305,-0.08586751,0.9990226,-0.023901306,0.012057868,-0.03517433,1.0,0.0,0.0,0.0,0
4399706024,-0.0667618,0.0931119,-0.015826492,0.99898255,-0.024102105,0.013146071,-0.03578032,1.0,0.0,0.0,0.0,0
4399749986,0.03520523,0.21812192,0.0047498057,0.9989468,-0.024104733,0.014180986,-0.036376454,1.0,0.0,0.0,0.0,0
4399790196,0.17782791,0.07012726,0.10010683,0.9989236,-0.024231233,0.014582318,-0.03676952,1.0,0.0,0.0,0.0,0
4399830930,0.30228555,0.015368526,0.10614509,0.9988881,-0.024483163,0.015475702,-0.037197877,1.0,0.0,0.0,0.0,0
4399871301,0.12201757,0.12501672,0.18031012,0.99884295,-0.024915397,0.016846025,-0.037527207,1.0,0.0,0.0,0.0,0
4399915013,-0.096052416,0.16071309,-0.09272531,0.9987811,-0.02532219,0.018449334,-0.03814163,1.0,0.0,0.0,0.0,0
4399954766,0.012734782,0.06810694,-0.051136397,0.99875724,-0.025065163,0.019532274,-0.0383975,1.0,0.0,0.0,0.0,0
4399998951,0.12754618,0.13344187,0.09254048,0.99872965,-0.024665814,0.02104256,-0.038574968,1.0,0.0,0.0,0.0,0
4400038824,0.062665716,0.14416736,0.01253196,0.99870425,-0.024353484,0.022143409,-0.03881414,1.0,0.0,0.0,0.0,0
4400079609,0.27168542,-0.12403588,0.28196374,0.9986988,-0.02449275,0.022719443,-0.038531616,1.0,0.0,0.0,0.0,0
4400119726,-0.06112805,0.15209478,-0.0062701292,0.9986359,-0.025336247,0.02374967,-0.03899354,1.0,0.0,0.0,0.0,0
4400163757,-0.0048364494,-0.015340111,-0.018402703,0.9986162,-0.025656583,0.024126643,-0.039056603,1.0,0.0,0.0,0.0,0
4400203767,-0.21535066,0.11312618,-0.09787259,0.99857616,-0.02659432,0.024474882,-0.039234784,1.0,0.0,0.0,0.0,0
4400247735,-0.14786024,-0.03042818,0.0727239,0.9985663,-0.027138857,0.02435836,-0.039187036,1.0,0.0,0.0,0.0,0
4400288571,0.1684744,-0.13492289,0.30995843,0.99859154,-0.026663601,0.023752978,-0.039241616,1.0,0.0,0.0,0.0,0
4400328524,-0.059072535,-0.13663734,0.02855976,0.99858236,-0.026799748,0.022672247,-0.040012874,1.0,0.0,0.0,0.0,0
4400372652,-0.13106595,-0.082714625,-0.09249931,0.9986138,-0.02690623,0.020703193,-0.040225975,1.0,0.0,0.0,0.0,0
4400412718,0.06765913,-0.23955871,-0.010705738,0.9986464,-0.02679157,0.018907469,-0.040376786,1.0,0.0,0.0,0.0,0
4400456544,0.41371635,0.034303878,0.08926191,0.99868083,-0.026482262,0.017359136,-0.040423606,1.0,0.0,0.0,0.0,0
4400496538,0.08133807,-0.08629119,0.1045639,0.9986822,-0.027097087,0.015867544,-0.04059407,1.0,0.0,0.0,0.0,0
4400541373,-0.41691443,-0.0720798,-0.31947276,0.9986415,-0.028347818,0.014541903,-0.041233443,1.0,0.0,0.0,0.0,0
4400581235,-0.026987312,0.002873837,-0.09745474,0.99866545,-0.027980523,0.01368432,-0.04119617,1.0,0.0,0.0,0.0,0
4400625412,0.042179916,-0.0010321236,0.05372728,0.998671,-0.02815516,0.012853482,-0.041210115,1.0,0.0,0.0,0.0,0
4400665364,-0.013902812,0.09659163,0.032208506,0.99866116,-0.028468633,0.012564657,-0.041323785,1.0,0.0,0.0,0.0,0
4400709331,0.092893295,-0.20835309,0.08819751,0.9986848,-0.028083589,0.011427654,-0.04134573,1.0,0.0,0.0,0.0,0
4400749341,-0.08803415,-0.025918229,-0.0027028967,0.9986904,-0.028269403,0.010201705,-0.041404158,1.0,0.0,0.0,0.0,0
4400793430,-0.27941266,0.038931802,-0.064364046,0.99868757,-0.028978195,0.008450078,-0.041376956,1.0,0.0,0.0,0.0,0
4400833369,0.09246506,-0.068524785,-0.0050228853,0.99871254,-0.028677044,0.007485265,-0.04116825,1.0,0.0,0.0,0.0,0
4400874159,-0.037515942,-0.053461038,0.05813854,0.9987235,-0.028647985,0.0077979052,-0.040864564,1.0,0.0,0.0,0.0,0
4400918146,0.22810133,-0.010418781,0.11132625,0.9987405,-0.028082814,0.009001422,-0.04059305,1.0,0.0,0.0,0.0,0
4400962127,0.18492724,0.020927105,0.05158416,0.9987608,-0.02709943,0.010850363,-0.040307466,1.0,0.0,0.0,0.0,0
4401005989,0.18103056,-0.055585623,0.14766988,0.9987722,-0.026713064,0.012392823,-0.03983797,1.0,0.0,0.0,0.0,0
4401046228,-0.06927706,0.06545672,0.1150112,0.9987646,-0.026907811,0.0133111365,-0.03960074,1.0,0.0,0.0,0.0,0
4401086779,-0.08094732,0.10546828,-0.020178445,0.99878323,-0.02627463,0.013975957,-0.0393244,1.0,0.0,0.0,0.0,0
4401126842,0.076251246,-0.05079916,0.03419029,0.9988167,-0.02522646,0.014462368,-0.038984485,1.0,0.0,0.0,0.0,0
4401171066,0.008035279,-0.20772101,0.05287806,0.9988488,-0.02462703,0.014540841,-0.038514834,1.0,0.0,0.0,0.0,0
4401210966,-0.06773199,0.024877058,-0.034517523,0.99886096,-0.02412967,0.015647365,-0.03807472,1.0,0.0,0.0,0.0,0
4401254800,-0.015238777,0.1019417,0.0036544814,0.9988806,-0.02346076,0.0170579,-0.037366435,1.0,0.0,0.0,0.0,0
4401294832,0.15690306,0.042834233,0.16610038,0.9988974,-0.023250088,0.018073782,-0.036564842,1.0,0.0,0.0,0.0,0
4401339721,0.22837949,0.007000104,0.23819096,0.9989082,-0.02325025,0.01904992,-0.03576283,1.0,0.0,0.0,0.0,0
4401383797,-0.23568054,0.0248833,-0.07094626,0.99889135,-0.02356347,0.020009862,-0.035503462,1.0,0.0,0.0,0.0,0
4401423730,-0.099111594,-0.038844988,-0.11640143,0.9989062,-0.022536907,0.021118008,-0.035107527,1.0,0.0,0.0,0.0,0
4401467839,0.0658515,-0.11601031,0.11060991,0.9989434,-0.020847743,0.02217365,-0.034436896,1.0,0.0,0.0,0.0,0
4401507718,0.32510448,0.033332843,0.11788444,0.9989703,-0.018766072,0.02327052,-0.034126136,1.0,0.0,0.0,0.0,0
4401552570,0.056975808,0.12863545,-0.1744201,0.9989813,-0.016383966,0.02459693,-0.03410222,1.0,0.0,0.0,0.0,0
4401592573,0.108957596,0.024777208,-0.0426905,0.9990024,-0.014433476,0.025728524,-0.033527624,1.0,0.0,0.0,0.0,0
4401636606,0.17450216,-0.00095655455,0.19717218,0.9990088,-0.013458421,0.026780933,-0.032912593,1.0,0.0,0.0,0.0,0
4401676575,0.109965995,-0.10648294,0.16503063,0.998998,-0.013115249,0.02766832,-0.032641076,1.0,0.0,0.0,0.0,0
4401720622,-0.100141644,0.027844554,-0.088150404,0.9989718,-0.013315127,0.028578656,-0.03257706,1.0,0.0,0.0,0.0,0
4401760620,-0.14895575,-0.016603682,-0.18819425,0.9989598,-0.014047332,0.028874628,-0.032378487,1.0,0.0,0.0,0.0,0
4401805448,-0.07649809,-0.15338051,0.056116633,0.9989998,-0.014572786,0.027960204,-0.031707767,1.0,0.0,0.0,0.0,0
4401845421,-0.110732846,-0.18413377,0.005434817,0.9990476,-0.014495484,0.026865536,-0.031177873,1.0,0.0,0.0,0.0,0
4401889337,0.09933056,0.2158773,0.08065914,0.99909854,-0.014519308,0.02579452,-0.030429056,1.0,0.0,0.0,0.0,0
4401929335,0.08043699,0.009933873,0.15050466,0.99916375,-0.014854429,0.023789022,-0.029753534,1.0,0.0,0.0,0.0,0
4401973411,-0.16552652,-0.1325444,0.019953819,0.9992299,-0.014715524,0.021587642,-0.029276008,1.0,0.0,0.0,0.0,0
4402013417,-0.14508784,-0.22073647,0.06825931,0.9993025,-0.013551007,0.019466644,-0.02884383,1.0,0.0,0.0,0.0,0
4402057348,0.096559405,0.09939684,-0.012396735,0.9993864,-0.010921344,0.017149411,-0.028521447,1.0,0.0,0.0,0.0,0
4402097380,-0.0073377616,-0.24450181,-0.033643782,0.9994698,-0.007823588,0.013807139,-0.028431997,1.0,0.0,0.0,0.0,0
4402138258,0.005691451,-0.15431865,-0.0753192,0.99953365,-0.0039090775,0.010684347,-0.028340258,1.0,0.0,0.0,0.0,0
4402182167,-0.07415451,0.120133154,-0.010542862,0.9995733,-0.0002971145,0.0073763137,-0.028263291,1.0,0.0,0.0,0.0,0
4402222191,0.0008370598,-0.13363369,-0.080528095,0.99958676,0.0028385855,0.003872489,-0.028341508,1.0,0.0,0.0,0.0,0
4402265973,0.17024915,-0.17912267,0.03422154,0.99958277,0.0056537436,0.0013206116,-0.028294787,1.0,0.0,0.0,0.0,0
4402306003,-0.21057342,-0.37482876,-0.10134691,0.99956113,0.007494838,-5.0801254e-06,-0.028663438,1.0,0.0,0.0,0.0,0
4402349992,0.026494298,-0.26407436,0.028924698,0.9995325,0.009960323,-0.0012125378,-0.028879179,1.0,0.0,0.0,0.0,0
4402390855,-0.11149219,-0.13021503,-0.19466694,0.99949193,0.011793597,-0.002727536,-0.029486218,1.0,0.0,0.0,0.0,0
4402434817,0.05305412,0.2179944,-0.11958196,0.9994514,0.013853054,-0.004050971,-0.02980967,1.0,0.0,0.0,0.0,0
4402474777,-0.05973886,-0.13949257,-0.17760502,0.9994141,0.015136325,-0.0058741267,-0.030132862,1.0,0.0,0.0,0.0,0
4402518817,0.1592147,-0.05171434,-0.20150378,0.99937433,0.016605854,-0.0070470013,-0.030425584,1.0,0.0,0.0,0.0,0
4402562937,-0.1122866,-0.018339636,-0.22872807,0.99935263,0.01741649,-0.00743602,-0.030588754,1.0,0.0,0.0,0.0,0
4402602938,0.3425108,0.2323762,0.10332723,0.99934506,0.018501641,-0.0066876137,-0.030371554,1.0,0.0,0.0,0.0,0
4402643745,-0.20177275,0.12595704,-0.006175593,0.999344,0.018219974,-0.0064185048,-0.03063433,1.0,0.0,0.0,0.0,0
4402687780,-0.1812901,0.006694264,-0.05810055,0.99934953,0.017583871,-0.005683804,-0.030968765,1.0,0.0,0.0,0.0,0
4402731732,0.10968305,0.21995021,-0.104220994,0.9993469,0.017297134,-0.0038773087,-0.031488135,1.0,0.0,0.0,0.0,0
4402771780,-0.006843527,-0.061541002,-0.044880852,0.99934953,0.016634319,-0.0023233462,-0.03191242,1.0,0.0,0.0,0.0,0
4402815878,0.04248616,0.107591316,-0.20847721,0.9993384,0.015821638,9.49485e-05,-0.03275039,1.0,0.0,0.0,0.0,0
4402855848,0.013902709,0.30291036,0.16977873,0.9993391,0.014809829,0.0025254725,-0.0331037,1.0,0.0,0.0,0.0,0
4402900581,-0.016659942,0.40052482,-0.040183365,0.99931276,0.013326264,0.0058838557,-0.034084998,1.0,0.0,0.0,0.0,0
4402940552,0.21536525,0.38690445,0.07443502,0.99927723,0.013025273,0.008590887,-0.034664612,1.0,0.0,0.0,0.0,0
4402984533,0.3577528,0.3391241,0.19564804,0.9992193,0.0134367645,0.01147075,-0.035337675,1.0,0.0,0.0,0.0,0
4403024584,0.40167174,0.21922827,0.016932257,0.9991369,0.014184624,0.014240304,-0.036353577,1.0,0.0,0.0,0.0,0
4403068511,0.020547213,0.16845578,-0.07587107,0.9990469,0.01467251,0.017248124,-0.03731634,1.0,0.0,0.0,0.0,0
4403108422,-0.35697466,0.102065735,-0.41574228,0.99897134,0.014471396,0.019365292,-0.038364287,1.0,0.0,0.0,0.0,0
4403149341,-0.13215168,0.19025789,-0.13143677,0.998915,0.014457214,0.021754824,-0.038554754,1.0,0.0,0.0,0.0,0
4403189401,0.51189345,0.23637657,0.22218323,0.9988578,0.01368511,0.024243537,-0.03883435,1.0,0.0,0.0,0.0,0
4403233377,0.016131679,0.041009445,-0.10494752,0.998808,0.010348095,0.02616137,-0.039887745,1.0,0.0,0.0,0.0,0
4403277355,-0.22870094,-0.20898467,-0.08237419,0.99880934,0.0061367764,0.026731884,-0.040344544,1.0,0.0,0.0,0.0,0
4403317333,-0.4347529,0.0589874,-0.12063736,0.99880636,0.0014348149,0.026966833,-0.040702377,1.0,0.0,0.0,0.0,0
4403361330,-0.41821897,0.07173564,-0.23759532,0.998798,-0.0031541453,0.026117114,-0.0413603,1.0,0.0,0.0,0.0,0
4403401380,-0.33738115,-0.08298442,-0.12292216,0.99880457,-0.0067593483,0.024746837,-0.041609887,1.0,0.0,0.0,0.0,0
4403446027,0.10240906,-0.12801386,0.15887627,0.9988205,-0.009454139,0.0228356,-0.041795608,1.0,0.0,0.0,0.0,0
4403485992,0.040818673,0.024777537,0.06403263,0.99883413,-0.010698391,0.020618556,-0.042319056,1.0,0.0,0.0,0.0,0
4403529960,-0.060809515,-0.23052761,0.036728684,0.99886036,-0.012064604,0.017201087,-0.042854514,1.0,0.0,0.0,0.0,0
4403569944,0.39972547,-0.23201393,0.15072533,0.998888,-0.012527838,0.014095085,-0.04320986,1.0,0.0,0.0,0.0,0
4403614026,0.121200204,-0.2720814,-0.06154927,0.998888,-0.013813985,0.01033878,-0.04387497,1.0,0.0,0.0,0.0,0
4403653992,-0.02331842,-0.22498196,0.11277417,0.99889064,-0.015454646,0.00703953,-0.043921556,1.0,0.0,0.0,0.0,0
4403695399,-0.12549414,0.029783266,-0.067220956,0.998852,-0.017231056,0.0039287983,-0.044523947,1.0,0.0,0.0,0.0,0
4403738915,-0.36186072,-0.246117,-0.056014683,0.9987989,-0.019906921,0.0005590401,-0.044769883,1.0,0.0,0.0,0.0,0
4403782998,-0.2738485,-0.31645837,-0.003326479,0.9987393,-0.022407832,-0.0018685637,-0.044879474,1.0,0.0,0.0,0.0,0
4403826821,-0.16611852,-0.16591263,-0.014259806,0.9986601,-0.025135372,-0.0037875834,-0.045077104,1.0,0.0,0.0,0.0,0
4403866808,-0.4783301,-0.008024701,-0.13299812,0.9985539,-0.028148742,-0.005673783,-0.04545103,1.0,0.0,0.0,0.0,0
4403911819,-0.07225128,0.1441393,0.07134906,0.9984441,-0.031045832,-0.007863927,-0.045647252,1.0,0.0,0.0,0.0,0
4403951778,-0.043602362,-0.24490027,0.113364205,0.998309,-0.033994358,-0.010629798,-0.045939803,1.0,0.0,0.0,0.0,0
4403995859,0.1903945,-0.05296037,0.14662933,0.9981584,-0.03697516,-0.0130296,-0.046292353,1.0,0.0,0.0,0.0,0
4404035789,0.012352859,-0.07111976,0.023172216,0.99799556,-0.039911613,-0.014930855,-0.04678737,1.0,0.0,0.0,0.0,0
4404079788,0.096117355,-0.20786627,-0.0028758938,0.9978849,-0.041661996,-0.016406441,-0.047126602,1.0,0.0,0.0,0.0,0
4404119795,-0.16247587,-0.040615946,-0.20772901,0.9977659,-0.04363049,-0.017071106,-0.047625054,1.0,0.0,0.0,0.0,0
4404160653,-0.22414005,-0.22219267,0.01268818,0.9976873,-0.044899605,-0.017956743,-0.047766604,1.0,0.0,0.0,0.0,0
4404200642,-0.35090283,-0.12092326,-0.2503434,0.99760646,-0.045643542,-0.018410822,-0.04857045,1.0,0.0,0.0,0.0,0
4404244547,-0.06189677,0.018364444,-0.005846778,0.9975662,-0.04601073,-0.018956924,-0.048839983,1.0,0.0,0.0,0.0,0
4404284516,0.1528076,-0.040203013,-0.009844689,0.9975083,-0.04656271,-0.019632475,-0.04923193,1.0,0.0,0.0,0.0,0
4404328566,0.1093377,-0.0058704033,-0.0057872683,0.99745405,-0.047074318,-0.02025917,-0.049589112,1.0,0.0,0.0,0.0,0
4404368392,-0.005468772,0.08991669,-0.09706825,0.99742323,-0.04707106,-0.020965794,-0.049917143,1.0,0.0,0.0,0.0,0
4404409398,0.30024272,0.056019377,0.08423928,0.9974285,-0.04657171,-0.021706473,-0.04996311,1.0,0.0,0.0,0.0,0
4404449408,0.0878537,0.052795134,0.117543146,0.9974343,-0.046376243,-0.021864567,-0.04996103,1.0,0.0,0.0,0.0,0
4404493369,0.03660716,0.04834736,-0.16844091,0.99748385,-0.045211535,-0.021197325,-0.050326414,1.0,0.0,0.0,0.0,0
4404533221,0.15445906,0.06322075,0.071050495,0.9975708,-0.04414564,-0.019580618,-0.050203633,1.0,0.0,0.0,0.0,0
4404577402,0.22257872,0.27883983,-0.0147396885,0.9976406,-0.04319412,-0.017355077,-0.0504626,1.0,0.0,0.0,0.0,0
4404617414,0.06227352,0.3869517,0.050027702,0.9976998,-0.0425124,-0.015609261,-0.050440602,1.0,0.0,0.0,0.0,0
4404657453,0.002173643,0.036364976,0.1136812,0.99776006,-0.04174812,-0.014242624,-0.050290387,1.0,0.0,0.0,0.0,0
4404702314,0.027041677,0.1507852,0.05774683,0.9978059,-0.04148275,-0.012166509,-0.05014651,1.0,0.0,0.0,0.0,0
4404742164,0.100247175,-0.041555773,0.1768329,0.99784696,-0.041334674,-0.011212857,-0.049670614,1.0,0.0,0.0,0.0,0
4404785946,-0.111343704,-0.17368394,0.00685714,0.9978725,-0.04139336,-0.010820912,-0.049195077,1.0,0.0,0.0,0.0,0
4404825887,-0.14186473,-0.050954018,-0.22107035,0.9979237,-0.040913634,-0.010763126,-0.04856672,1.0,0.0,0.0,0.0,0
4404866161,-0.07379917,-0.16545536,-0.10184799,0.9979773,-0.04038197,-0.012132632,-0.047573943,1.0,0.0,0.0,0.0,0
4404910179,-0.16641268,-0.268089,0.1417574,0.9980295,-0.039841168,-0.014586763,-0.046229925,1.0,0.0,0.0,0.0,0
4404951036,0.02721535,-0.0008890622,-0.055306282,0.9980937,-0.03845981,-0.016650507,-0.045304764,1.0,0.0,0.0,0.0,0
4404991003,0.16665453,-0.09964881,-0.18288186,0.99810475,-0.038102694,-0.018902468,-0.044471845,1.0,0.0,0.0,0.0,0
4405034987,0.08076363,-0.14576869,0.05095187,0.9981068,-0.03780096,-0.021805555,-0.043343253,1.0,0.0,0.0,0.0,0
4405075007,-0.39860275,-0.12112394,-0.14806686,0.99805015,-0.038020946,-0.024620097,-0.04294473,1.0,0.0,0.0,0.0,0
4405118800,-0.018366305,-0.071378484,-0.10392974,0.99803567,-0.03736862,-0.027128562,-0.04233812,1.0,0.0,0.0,0.0,0
4405158830,0.06995379,-0.2639209,0.19916093,0.9980029,-0.03714518,-0.029473541,-0.041735824,1.0,0.0,0.0,0.0,0
4405203794,-0.077168845,-0.030516095,-0.08578188,0.99795926,-0.03692985,-0.030928437,-0.041915808,1.0,0.0,0.0,0.0,0
4405247779,0.17837076,0.14421779,0.070528075,0.9979758,-0.03634552,-0.031037606,-0.04195316,1.0,0.0,0.0,0.0,0
4405291773,0.04027974,0.049375426,0.07955954,0.99796474,-0.036249444,-0.030969415,-0.042346448,1.0,0.0,0.0,0.0,0
4405331795,-0.25097132,0.09834749,-0.06734202,0.99795616,-0.036508244,-0.029992752,-0.043026086,1.0,0.0,0.0,0.0,0
4405375741,-0.15252362,0.010587901,0.024657758,0.99797803,-0.036520895,-0.027995044,-0.04384579,1.0,0.0,0.0,0.0,0
4405415780,-0.024988791,0.20878248,-0.089104235,0.99799436,-0.036496133,-0.02560663,-0.044940807,1.0,0.0,0.0,0.0,0
4405456577,0.24330257,0.26277262,0.1596764,0.99799174,-0.037029278,-0.023642542,-0.04563333,1.0,0.0,0.0,0.0,0
4405500583,0.06781708,0.15370056,-0.29363173,0.99797624,-0.037113465,-0.021161119,-0.04709941,1.0,0.0,0.0,0.0,0
4405540587,-0.04977816,0.06543166,-0.11448516,0.9979885,-0.036947604,-0.01884165,-0.04794531,1.0,0.0,0.0,0.0,0
4405584535,0.1678154,0.14436978,-0.03102785,0.99798536,-0.036484543,-0.017253162,-0.048954755,1.0,0.0,0.0,0.0,0
4405624529,0.2468213,0.10378203,0.13717586,0.99796647,-0.03651839,-0.016129406,-0.049691398,1.0,0.0,0.0,0.0,0
4405668636,0.011051949,0.09620748,-0.23897898,0.9979087,-0.036886845,-0.014973953,-0.050924465,1.0,0.0,0.0,0.0,0
4405708573,-0.10516639,-0.028738046,-0.007235029,0.9978631,-0.037579868,-0.014832821,-0.05135171,1.0,0.0,0.0,0.0,0
4405753371,0.2290219,0.013286673,0.11883652,0.9978066,-0.038475238,-0.014598821,-0.051850513,1.0,0.0,0.0,0.0,0
4405797340,0.17114447,0.07381706,0.07126402,0.9977445,-0.039461143,-0.014330478,-0.052378166,1.0,0.0,0.0,0.0,0
4405841190,0.019918667,-0.050426908,-0.07242098,0.9976786,-0.040302414,-0.014897794,-0.05283255,1.0,0.0,0.0,0.0,0
4405881380,-0.027996177,-0.10416891,-0.037262246,0.99763936,-0.040883258,-0.01543857,-0.052972864,1.0,0.0,0.0,0.0,0
4405921322,-0.12377117,0.132193,-0.1572475,0.9976177,-0.040976815,-0.01563234,-0.053248696,1.0,0.0,0.0,0.0,0
4405965457,-0.07084302,0.17541274,-0.1680184,0.99764365,-0.040265437,-0.015967337,-0.053207412,1.0,0.0,0.0,0.0,0
4406006010,0.11496985,0.008336809,0.016562598,0.9976727,-0.039845414,-0.016280588,-0.052883293,1.0,0.0,0.0,0.0,0
4406050005,0.246508,-0.12986624,0.19258177,0.99769604,-0.03969124,-0.01607748,-0.052620016,1.0,0.0,0.0,0.0,0
4406090030,0.08310158,0.05081554,0.1055436,0.9977081,-0.03980964,-0.0147922095,-0.052678633,1.0,0.0,0.0,0.0,0
4406134193,0.03188893,0.15116732,0.11338546,0.9977353,-0.039825883,-0.0131379375,-0.05258813,1.0,0.0,0.0,0.0,0
4406174225,0.23145665,0.21851878,0.15894353,0.9977798,-0.039425753,-0.011684084,-0.052390613,1.0,0.0,0.0,0.0,0
4406218026,0.08526892,0.10097589,0.06834688,0.997831,-0.038627345,-0.010175893,-0.052323207,1.0,0.0,0.0,0.0,0
4406259257,-0.1851125,0.16228525,-0.06139127,0.9978772,-0.03777814,-0.009041657,-0.052269768,1.0,0.0,0.0,0.0,0
4406302831,-0.46165112,0.0032835035,-0.2039439,0.9979025,-0.037267532,-0.008340555,-0.052271217,1.0,0.0,0.0,0.0,0
4406346973,-0.21848601,0.100355804,-0.040776365,0.99797297,-0.03617242,-0.0076028504,-0.05180518,1.0,0.0,0.0,0.0,0
4406386993,-0.092535146,0.0763986,-0.05067938,0.998033,-0.035039883,-0.0070726275,-0.051501174,1.0,0.0,0.0,0.0,0
4406431118,0.03590306,0.05227617,0.13177456,0.9980956,-0.03408233,-0.0065246313,-0.051000506,1.0,0.0,0.0,0.0,0
4406472047,-0.08131232,-0.009049913,-0.03945216,0.9981608,-0.03256328,-0.0059157237,-0.050791185,1.0,0.0,0.0,0.0,0
4406515631,0.24992906,0.13091029,0.117421776,0.998275,-0.030015688,-0.0047189635,-0.0502398,1.0,0.0,0.0,0.0,0
4406555768,0.08777594,-0.01036691,0.069011874,0.99836415,-0.027701577,-0.0034181296,-0.049899295,1.0,0.0,0.0,0.0,0
4406599747,0.14628294,0.23134285,0.11865481,0.998482,-0.024565583,-0.0010835978,-0.04928456,1.0,0.0,0.0,0.0,0
4406639755,0.43657598,0.087917686,0.18247892,0.99858105,-0.021503398,0.00067141827,-0.048714325,1.0,0.0,0.0,0.0,0
4406683792,-0.035931967,0.026140803,-0.027248124,0.99865127,-0.018730747,0.002684659,-0.048348118,1.0,0.0,0.0,0.0,0
4406723788,0.24404363,0.13992046,-0.06724063,0.9987259,-0.015470504,0.004881095,-0.047787495,1.0,0.0,0.0,0.0,0
4406768443,0.005487287,-0.0032151416,-0.07461365,0.9987912,-0.012382167,0.006844194,-0.04707519,1.0,0.0,0.0,0.0,0
4406808568,0.08941248,-0.21614493,-0.0889769,0.99884003,-0.009914663,0.008115787,-0.046415135,1.0,0.0,0.0,0.0,0
4406848605,0.19256556,-0.06762019,-0.08801913,0.9988793,-0.0082653295,0.009148481,-0.04569706,1.0,0.0,0.0,0.0,0
4406888416,-0.052464936,-0.010636734,-0.034779225,0.9989146,-0.008242065,0.00902481,-0.044947572,1.0,0.0,0.0,0.0,0
4406932616,-0.17785162,0.11106185,-0.08375032,0.9989561,-0.0080926055,0.008326688,-0.044181414,1.0,0.0,0.0,0.0,0
4406973220,-0.03258763,0.17482366,0.11466484,0.9990032,-0.007921908,0.007662922,-0.04325835,1.0,0.0,0.0,0.0,0
4407013478,0.037229963,0.14141405,0.11594498,0.99904644,-0.007816178,0.006913385,-0.042395394,1.0,0.0,0.0,0.0,0
4407053410,-0.21730405,-0.16981533,-0.013425386,0.9990797,-0.0077822525,0.006248246,-0.041717283,1.0,0.0,0.0,0.0,0
4407097340,0.13895693,0.10385531,0.1769384,0.99913746,-0.00673656,0.0060698036,-0.040526085,1.0,0.0,0.0,0.0,0
4407141449,0.14124967,-0.117361516,0.097580075,0.9991787,-0.0066361125,0.0056323293,-0.039577104,1.0,0.0,0.0,0.0,0
