timestamp,roll_body,pitch_body,yaw_body,yaw_sp_move_rate,q_d[0],q_d[1],q_d[2],q_d[3],thrust,landing_gear,q_d_valid,roll_reset_integral,pitch_reset_integral,yaw_reset_integral,fw_control_yaw,disable_mc_yaw_control,apply_flaps
4384792787,0.057776477,0.062359855,-0.0810546,0.0,0.99824005,0.030109037,0.029966572,-0.041379344,0.51854664,-1.0,1,0,0,0,0,0,0
4385001853,0.054922104,0.067992754,-0.0810546,0.0,0.99818724,0.028795822,0.03283728,-0.041410044,0.56100285,-1.0,1,0,0,0,0,0,0
4385102201,0.061774068,0.066872835,-0.0810546,0.0,0.99810225,0.032193337,0.03213628,-0.04150579,0.58205557,-1.0,1,0,0,0,0,0,0
4385202761,0.058345657,0.06581458,-0.0810546,0.0,0.99817413,0.030461432,0.03167918,-0.04143595,0.6046244,-1.0,1,0,0,0,0,0,0
4385306823,0.06960407,0.06428721,-0.0810546,0.0,0.9980127,0.036049806,0.030683206,-0.041588083,0.6257175,-1.0,1,0,0,0,0,0,0
4385406826,0.06472131,0.059957847,-0.0810546,0.0,0.9981677,0.03352773,0.028623827,-0.04144583,0.6474572,-1.0,1,0,0,0,0,0,0
4385507252,0.06272453,0.061301,-0.0810546,0.0,0.99817955,0.032557692,0.029335603,-0.04143744,0.6701506,-1.0,1,0,0,0,0,0,0
4385607752,0.06324896,0.061171792,-0.0810546,0.0,0.998173,0.03281688,0.029260248,-0.041443165,0.6907731,-1.0,1,0,0,0,0,0,0
4385708381,0.07580838,0.058487084,-0.0810546,0.0,0.9979894,0.03903163,0.027659671,-0.041576914,0.71585524,-1.0,1,0,0,0,0,0,0
4385807777,-0.014525687,0.032224063,-0.0810546,0.0,0.9990276,-0.0066031213,0.016391901,-0.040392965,0.6567446,-1.0,1,0,0,0,0,0,0
4385913397,-0.011566991,0.028394401,-0.0810546,0.0,0.9990648,-0.005202944,0.014419128,-0.04042941,0.60427785,-1.0,1,0,0,0,0,0,0
4386017429,-0.012444821,0.029576898,-0.0810546,0.0,0.99905396,-0.005617443,0.01502756,-0.040419057,0.5412337,-1.0,1,0,0,0,0,0,0
4386117220,-0.03483707,0.029214822,-0.0810546,0.0,0.99893105,-0.01680977,0.015298307,-0.04025153,0.51800346,-1.0,1,0,0,0,0,0,0
4386217672,-0.052053466,-8.440596e-05,-0.0810546,0.0,0.99884045,-0.026004132,0.0010122313,-0.04050358,0.5147448,-1.0,1,0,0,0,0,0,0
4386322006,-0.051195104,0.0018706229,-0.0810546,0.0,0.998852,-0.025535848,0.0019712392,-0.040478997,0.51968795,-1.0,1,0,0,0,0,0,0
4386422170,-0.051565103,-0.003338904,-0.0810546,0.0,0.99884367,-0.025826106,-0.000623032,-0.040545683,0.5210121,-1.0,1,0,0,0,0,0,0
4386522544,-0.056239773,-0.004395745,-0.0810546,0.0,0.99877894,-0.028182045,-0.0010560397,-0.04056184,0.5240201,-1.0,1,0,0,0,0,0,0
4386623752,-0.06143887,-0.004468053,-0.0810546,0.0,0.99870217,-0.030779775,-0.000986701,-0.040565547,0.530529,-1.0,1,0,0,0,0,0,0
4386727136,-0.06025829,-0.007903277,-0.0810546,0.0,0.9987128,-0.03025965,-0.0027260669,-0.040616445,0.5369301,-1.0,1,0,0,0,0,0,0
4386827026,-0.06314777,-0.0068452214,-0.0810546,0.0,0.99867064,-0.03168113,-0.0021390552,-0.04060373,0.54092515,-1.0,1,0,0,0,0,0,0
4386928061,-0.05449479,-0.0010698236,-0.0810546,0.0,0.99880725,-0.027243314,0.0005695502,-0.040515725,0.5402223,-1.0,1,0,0,0,0,0,0
4387032385,-0.05337917,0.007106684,-0.0810546,0.0,0.9988206,-0.02652042,0.004630378,-0.04040678,0.5336967,-1.0,1,0,0,0,0,0,0
4387132567,-0.059889838,0.011286099,-0.0810546,0.0,0.99872184,-0.029686853,0.006848913,-0.040328585,0.5333354,-1.0,1,0,0,0,0,0,0
4387233113,-0.05370787,0.009040539,-0.0810546,0.0,0.99881333,-0.026645312,0.0056027924,-0.040379908,0.53220725,-1.0,1,0,0,0,0,0,0
4387337000,-0.050733313,0.019730214,-0.0810546,0.0,0.99881893,-0.024942314,0.010881276,-0.040251188,0.5359236,-1.0,1,0,0,0,0,0,0
4387437414,-0.055990357,0.02015991,-0.0810546,0.0,0.99874806,-0.027558882,0.0112016145,-0.040216357,0.53752553,-1.0,1,0,0,0,0,0,0
4387537631,-0.0406768,0.031749588,-0.0810546,0.0,0.99885947,-0.01967471,0.016681684,-0.040180158,0.5405262,-1.0,1,0,0,0,0,0,0
4387637216,-0.027510518,0.031638723,-0.0810546,0.0,0.9989682,-0.013100959,0.01636144,-0.0402899,0.5446169,-1.0,1,0,0,0,0,0,0
4387742138,-0.03231681,0.025485905,-0.0810546,0.0,0.9989757,-0.015626907,0.013385078,-0.040301904,0.5448247,-1.0,1,0,0,0,0,0,0
4387843317,-0.029546613,0.033295542,-0.0810546,0.0,0.9989414,-0.014084194,0.017229972,-0.040260445,0.5372009,-1.0,1,0,0,0,0,0,0
4387943388,-0.02977833,0.038726255,-0.0810546,0.0,0.99889255,-0.014089215,0.01994699,-0.040216085,0.53451204,-1.0,1,0,0,0,0,0,0
4388047558,-0.037049532,0.04022165,-0.0810546,0.0,0.99882054,-0.017690133,0.020839868,-0.040128876,0.52914995,-1.0,1,0,0,0,0,0,0
4388147019,-0.047341023,0.045792215,-0.0810546,0.0,0.99865913,-0.022715345,0.023827597,-0.039952826,0.52835274,-1.0,1,0,0,0,0,0,0
4388247627,-0.0469861,0.049000252,-0.0810546,0.0,0.9986267,-0.022472277,0.025422283,-0.039917875,0.5221608,-1.0,1,0,0,0,0,0,0
4388351591,-0.052609906,0.056470487,-0.0810546,0.0,0.9984652,-0.025126409,0.029263783,-0.039744113,0.5180201,-1.0,1,0,0,0,0,0,0
4388452956,-0.05510934,0.06004855,-0.0810546,0.0,0.9983829,-0.026300328,0.031099493,-0.039656173,0.5144156,-1.0,1,0,0,0,0,0,0
4388552599,-0.06132786,0.06766212,-0.0810546,0.0,0.9981797,-0.02924662,0.03502243,-0.039437808,0.5153923,-1.0,1,0,0,0,0,0,0
4388656641,-0.070190966,0.067778885,-0.0810546,0.0,0.9980384,-0.033667374,0.03525511,-0.039280087,0.515533,-1.0,1,0,0,0,0,0,0
4388757968,-0.06865914,0.06838916,-0.0810546,0.0,0.99805397,-0.032890245,0.03552953,-0.0392962,0.51617897,-1.0,1,0,0,0,0,0,0
4388857217,-0.059160206,0.076087296,-0.0810546,0.0,0.9980647,-0.027989784,0.03918404,-0.039345205,0.5186345,-1.0,1,0,0,0,0,0,0
4388957640,-0.05333718,0.07459888,-0.0810546,0.0,0.9981691,-0.025114657,0.038326558,-0.039480075,0.515186,-1.0,1,0,0,0,0,0,0
4389062439,-0.045914546,0.07096008,-0.0810546,0.0,0.9983199,-0.021485133,0.0363636,-0.039666425,0.5146321,-1.0,1,0,0,0,0,0,0
4389161994,-0.046206802,0.06792042,-0.0810546,0.0,0.9983681,-0.02169376,0.03485219,-0.03969831,0.52050704,-1.0,1,0,0,0,0,0,0
4389264375,-0.04714388,0.064142264,-0.0810546,0.0,0.9984183,-0.022239476,0.032984875,-0.039728966,0.521229,-1.0,1,0,0,0,0,0,0
4389367583,-0.028993534,0.057748284,-0.0810546,0.0,0.9986744,-0.013308734,0.029430483,-0.0400769,0.5236071,-1.0,1,0,0,0,0,0,0
4389473051,-0.01881319,0.049943022,-0.0810546,0.0,0.9988327,-0.0083842,0.0253283,-0.040267106,0.5222139,-1.0,1,0,0,0,0,0,0
4389576156,-0.019790906,0.044252038,-0.0810546,0.0,0.9988943,-0.008988401,0.022505786,-0.04028556,0.5273279,-1.0,1,0,0,0,0,0,0
4389675911,-0.0112491725,0.037075073,-0.0810546,0.0,0.99899566,-0.0048679565,0.018748805,-0.040404428,0.5322164,-1.0,1,0,0,0,0,0,0
4389777173,-0.005196556,0.037688836,-0.0810546,0.0,0.9990001,-0.001832224,0.018933019,-0.040459957,0.5323014,-1.0,1,0,0,0,0,0,0
4389881015,-0.0046314364,0.028216418,-0.0810546,0.0,0.9990781,-0.0017419939,0.014189933,-0.040479433,0.5335256,-1.0,1,0,0,0,0,0,0
4389980526,-0.0052956627,0.02865004,-0.0810546,0.0,0.9990744,-0.002065009,0.014419988,-0.04047402,0.535549,-1.0,1,0,0,0,0,0,0
4390082470,0.002480471,0.02748913,-0.0810546,0.0,0.99908304,0.0017959594,0.01368259,-0.040529385,0.5352878,-1.0,1,0,0,0,0,0,0
4390185901,0.01096167,0.019856071,-0.0810546,0.0,0.9991124,0.0058782706,0.009697521,-0.040567975,0.53594226,-1.0,1,0,0,0,0,0,0
4390286139,0.018071566,0.014621608,-0.0810546,0.0,0.9991087,0.009324191,0.0069383574,-0.040579475,0.53309083,-1.0,1,0,0,0,0,0,0
4390386792,0.016717369,0.018607488,-0.0810546,0.0,0.9990976,0.008728296,0.008957001,-0.040590744,0.5346951,-1.0,1,0,0,0,0,0,0
4390492155,0.020833904,0.01866072,-0.0810546,0.0,0.99907726,0.010785763,0.008900029,-0.040609356,0.53702354,-1.0,1,0,0,0,0,0,0
4390595326,0.008309355,0.008945054,-0.0810546,0.0,0.9991595,0.00433242,0.0043004714,-0.040534023,0.5412973,-1.0,1,0,0,0,0,0,0
4390694949,0.009618899,0.0074847485,-0.0810546,0.0,0.99915963,0.0049570724,0.0035443902,-0.040533442,0.54296994,-1.0,1,0,0,0,0,0,0
4390795613,0.0013319526,0.004726541,-0.0810546,0.0,0.99917585,0.00076117826,0.0023343447,-0.040517658,0.54706985,-1.0,1,0,0,0,0,0,0
4390899842,0.009872665,0.003257231,-0.0810546,0.0,0.99916506,0.004998237,0.0014272573,-0.040523697,0.5432099,-1.0,1,0,0,0,0,0,0
4391000332,0.0023228428,-0.0043219286,-0.0810546,0.0,0.99917597,0.0010729106,-0.0022062426,-0.04051358,0.54123,-1.0,1,0,0,0,0,0,0
4391100612,-0.0010617964,-0.007990553,-0.0810546,0.0,0.99917066,-0.00069233094,-0.003970475,-0.040518004,0.5419042,-1.0,1,0,0,0,0,0,0
4391204525,-0.025108995,-0.0034263814,-0.0810546,0.0,0.99909776,-0.012613247,-0.0012030016,-0.04053444,0.5382419,-1.0,1,0,0,0,0,0,0
4391305904,-0.020930706,0.0026918803,-0.0810546,0.0,0.9991238,-0.010402029,0.0017687691,-0.040499877,0.53770995,-1.0,1,0,0,0,0,0,0
4391405672,-0.018576493,0.0038934501,-0.0810546,0.0,0.99913466,-0.0092015965,0.0023213597,-0.040496312,0.53393525,-1.0,1,0,0,0,0,0,0
4391509166,-0.022349544,0.0018706386,-0.0810546,0.0,0.9991165,-0.0111274645,0.0013872425,-0.04050322,0.53153944,-1.0,1,0,0,0,0,0,0
4391610221,-0.03745568,0.0031566392,-0.0810546,0.0,0.9990036,-0.01864741,0.0023354823,-0.040479522,0.5294239,-1.0,1,0,0,0,0,0,0
4391710774,-0.05205731,0.014886206,-0.0810546,0.0,0.99882054,-0.025702167,0.008488839,-0.04030781,0.52806437,-1.0,1,0,0,0,0,0,0
4391810795,-0.052600503,0.020868704,-0.0810546,0.0,0.9987901,-0.025851592,0.011487396,-0.04022583,0.5270941,-1.0,1,0,0,0,0,0,0
4391914822,-0.057137024,0.02298635,-0.0810546,0.0,0.9987185,-0.028073825,0.012636054,-0.04016898,0.5230931,-1.0,1,0,0,0,0,0,0
4392015584,-0.06697806,0.02959651,-0.0810546,0.0,0.9985294,-0.0328524,0.01613372,-0.03999399,0.52101964,-1.0,1,0,0,0,0,0,0
4392115847,-0.08598973,0.036924377,-0.0810546,0.0,0.9981175,-0.04219172,0.02017009,-0.03967903,0.51593333,-1.0,1,0,0,0,0,0,0
4392217125,-0.096364476,0.039993394,-0.0810546,0.0,0.9978588,-0.04730523,0.021906776,-0.03949884,0.5217363,-1.0,1,0,0,0,0,0,0
4392321369,-0.11706462,0.041262813,-0.0810546,0.0,0.9973044,-0.057604,0.022947352,-0.039232377,0.51803184,-1.0,1,0,0,0,0,0,0
4392424902,-0.10242603,0.03682571,-0.0810546,0.0,0.9977379,-0.050394926,0.020446276,-0.03951449,0.52358603,-1.0,1,0,0,0,0,0,0
4392524421,-0.124335006,0.03328898,-0.0810546,0.0,0.99715245,-0.061394818,0.019114751,-0.039399154,0.53415686,-1.0,1,0,0,0,0,0,0
4392626325,-0.1264259,0.030261306,-0.0810546,0.0,0.9971078,-0.062499974,0.017646609,-0.039475664,0.53579575,-1.0,1,0,0,0,0,0,0
4392730505,-0.12044364,0.020147393,-0.0810546,0.0,0.9973415,-0.059725553,0.012485369,-0.039834924,0.5370589,-1.0,1,0,0,0,0,0,0
4392830456,-0.121222705,0.016462762,-0.0810546,0.0,0.9973305,-0.060189575,0.010663582,-0.039942242,0.5358869,-1.0,1,0,0,0,0,0,0
4392930238,-0.12152775,0.0053998004,-0.0810546,0.0,0.9973379,-0.060567215,0.005153099,-0.040277462,0.54285985,-1.0,1,0,0,0,0,0,0
4393033979,-0.12421275,-0.0145733375,-0.0810546,0.0,0.9972077,-0.0623085,-0.0047519538,-0.040888898,0.55093193,-1.0,1,0,0,0,0,0,0
4393135333,-0.09818898,-0.02112919,-0.0810546,0.0,0.9978983,-0.049459253,-0.008554793,-0.040983155,0.550651,-1.0,1,0,0,0,0,0,0
4393235055,-0.1016991,-0.040990677,-0.0810546,0.0,0.9976356,-0.051604494,-0.018391699,-0.04149614,0.5563856,-1.0,1,0,0,0,0,0,0
4393335582,-0.099668235,-0.036241274,-0.0810546,0.0,0.99773806,-0.050497644,-0.01606437,-0.041361127,0.56336075,-1.0,1,0,0,0,0,0,0
4393435835,-0.08386309,-0.040810008,-0.0810546,0.0,0.99805814,-0.042702068,-0.018670859,-0.04132677,0.5611183,-1.0,1,0,0,0,0,0,0
4393536080,-0.07533773,-0.056057,-0.0810546,0.0,0.99803513,-0.03874891,-0.026456714,-0.04152611,0.56398547,-1.0,1,0,0,0,0,0,0
4393641221,-0.08719261,-0.054085307,-0.0810546,0.0,0.9978168,-0.044625275,-0.025226332,-0.041640382,0.5622477,-1.0,1,0,0,0,0,0,0
4393745201,-0.081335105,-0.062897585,-0.0810546,0.0,0.99780726,-0.0418758,-0.029745389,-0.041740015,0.5593048,-1.0,1,0,0,0,0,0,0
4393845420,-0.07986456,-0.061948672,-0.0810546,0.0,0.9978534,-0.041123517,-0.029302586,-0.041699823,0.55783516,-1.0,1,0,0,0,0,0,0
4393945705,-0.09117935,-0.05280119,-0.0810546,0.0,0.99774414,-0.04658901,-0.024502609,-0.041662052,0.5514621,-1.0,1,0,0,0,0,0,0
4394049962,-0.08288363,-0.04959889,-0.0810546,0.0,0.9979724,-0.042387024,-0.023077201,-0.04149546,0.54871464,-1.0,1,0,0,0,0,0,0
4394150170,-0.08327974,-0.043115184,-0.0810546,0.0,0.9980445,-0.042456597,-0.019833343,-0.041368272,0.5439942,-1.0,1,0,0,0,0,0,0
4394251345,-0.090022355,-0.03145679,-0.0810546,0.0,0.99801475,-0.045590058,-0.013876075,-0.04117727,0.53958935,-1.0,1,0,0,0,0,0,0
4394354690,-0.09200094,-0.025561593,-0.0810546,0.0,0.99801666,-0.046460003,-0.010893491,-0.041057263,0.53834546,-1.0,1,0,0,0,0,0,0
4394456828,-0.104551435,-0.021153457,-0.0810546,0.0,0.99773574,-0.05263402,-0.00843648,-0.041010786,0.54197806,-1.0,1,0,0,0,0,0,0
4394559482,-0.09992786,-0.010817268,-0.0810546,0.0,0.99790645,-0.050120264,-0.0033739451,-0.040734954,0.5434882,-1.0,1,0,0,0,0,0,0
4394659750,-0.09881526,-0.012996609,-0.0810546,0.0,0.9979255,-0.049608897,-0.0044840463,-0.04078658,0.54692525,-1.0,1,0,0,0,0,0,0
4394763629,-0.10305668,-0.0171941,-0.0810546,0.0,0.99779785,-0.051809195,-0.0064917514,-0.040903367,0.5452767,-1.0,1,0,0,0,0,0,0
4394867543,-0.09555379,-0.013696824,-0.0810546,0.0,0.99800205,-0.04799554,-0.0048999703,-0.040795825,0.5519435,-1.0,1,0,0,0,0,0,0
4394969672,-0.09529288,-0.008730107,-0.0810546,0.0,0.99802697,-0.047765512,-0.0024268015,-0.04067757,0.5488792,-1.0,1,0,0,0,0,0,0
4395068553,-0.10610711,-0.006298328,-0.0810546,0.0,0.9977613,-0.05311228,-0.0009936357,-0.040625863,0.5483786,-1.0,1,0,0,0,0,0,0
4395173410,-0.096784964,-0.00073769747,-0.0810546,0.0,0.9980084,-0.048348796,0.0015918,-0.0404866,0.5479256,-1.0,1,0,0,0,0,0,0
4395273951,-0.09923938,0.0010669015,-0.0810546,0.0,0.99795,-0.04953701,0.002541933,-0.040439896,0.5458056,-1.0,1,0,0,0,0,0,0
4395373325,-0.08591692,0.010566177,-0.0810546,0.0,0.99825233,-0.04269553,0.0070138094,-0.04025157,0.5435161,-1.0,1,0,0,0,0,0,0
4395478323,-0.09631729,0.010281739,-0.0810546,0.0,0.9980173,-0.047891814,0.007081095,-0.040221427,0.54650366,-1.0,1,0,0,0,0,0,0
4395578518,-0.09761262,0.010614098,-0.0810546,0.0,0.9979855,-0.04853142,0.0072729858,-0.04020869,0.54944474,-1.0,1,0,0,0,0,0,0
4395678819,-0.09738831,0.015782347,-0.0810546,0.0,0.99797904,-0.04831409,0.009847326,-0.040083144,0.5532007,-1.0,1,0,0,0,0,0,0
4395783108,-0.08503004,0.011359303,-0.0810546,0.0,0.9982697,-0.042236723,0.0073918304,-0.040237743,0.55662864,-1.0,1,0,0,0,0,0,0
4395883785,-0.09101853,0.0015829355,-0.0810546,0.0,0.9981455,-0.045424156,0.002633225,-0.040438265,0.55715275,-1.0,1,0,0,0,0,0,0
4395983927,-0.088915445,-0.0060235383,-0.0810546,0.0,0.99818164,-0.044528287,-0.0012056615,-0.040609732,0.5494294,-1.0,1,0,0,0,0,0,0
4396084221,-0.09603494,-0.020593308,-0.0810546,0.0,0.99795425,-0.048373755,-0.008331525,-0.040961176,0.5493341,-1.0,1,0,0,0,0,0,0
4396185428,-0.08475232,-0.009471031,-0.0810546,0.0,0.9982626,-0.042519905,-0.0030109736,-0.04067983,0.553089,-1.0,1,0,0,0,0,0,0
4396288931,-0.08217955,-0.0051567033,-0.0810546,0.0,0.9983279,-0.041148722,-0.00090972957,-0.0405877,0.5575623,-1.0,1,0,0,0,0,0,0
4396388552,-0.0695904,-0.00700791,-0.0810546,0.0,0.998563,-0.03490128,-0.0020894753,-0.04061323,0.57146144,-1.0,1,0,0,0,0,0,0
4396493203,-0.056657203,-0.007486296,-0.0810546,0.0,0.9987667,-0.028452953,-0.002590959,-0.040605605,0.5913305,-1.0,1,0,0,0,0,0,0
4396594220,-0.04928224,-0.011943173,-0.0810546,0.0,0.9988518,-0.024859829,-0.00496659,-0.040650193,0.60510415,-1.0,1,0,0,0,0,0,0
4396693979,-0.03327164,-0.013917807,-0.0810546,0.0,0.99901175,-0.016902898,-0.006278198,-0.040625285,0.61023384,-1.0,1,0,0,0,0,0,0
4396794731,-0.023345666,-0.028697258,-0.0810546,0.0,0.9990012,-0.012243075,-0.013862499,-0.040676616,0.6099295,-1.0,1,0,0,0,0,0,0
4396898754,-0.004831683,-0.052470356,-0.0810546,0.0,0.9988296,-0.0034758495,-0.026112704,-0.040565472,0.60582083,-1.0,1,0,0,0,0,0,0
4396999406,0.007153906,-0.05816869,-0.0810546,0.0,0.99875414,0.002394283,-0.029201044,-0.040394876,0.608872,-1.0,1,0,0,0,0,0,0
4397098828,0.015031552,-0.06885953,-0.0810546,0.0,0.998569,0.006110435,-0.034698054,-0.040232554,0.6062921,-1.0,1,0,0,0,0,0,0
4397202840,0.023694184,-0.08330897,-0.0810546,0.0,0.9982621,0.010139743,-0.0420849,-0.039985307,0.6075209,-1.0,1,0,0,0,0,0,0
4397304257,0.034852576,-0.078858994,-0.0810546,0.0,0.9982785,0.015800687,-0.040086396,-0.039792236,0.59590584,-1.0,1,0,0,0,0,0,0
4397403760,0.030029966,-0.07435075,-0.0810546,0.0,0.99839854,0.013486038,-0.03774002,-0.039926074,0.59105456,-1.0,1,0,0,0,0,0,0
4397505674,0.026176848,-0.06824509,-0.0810546,0.0,0.9985298,0.011687562,-0.03461496,-0.040043004,0.57807344,-1.0,1,0,0,0,0,0,0
4397608829,0.034458887,-0.05946243,-0.0810546,0.0,0.9986098,0.016002597,-0.030395746,-0.039980557,0.56768423,-1.0,1,0,0,0,0,0,0
4397708554,0.027521588,-0.054562565,-0.0810546,0.0,0.9987277,0.012638853,-0.027810233,-0.040122252,0.5639131,-1.0,1,0,0,0,0,0,0
4397810428,0.016336547,-0.04116707,-0.0810546,0.0,0.9989407,0.0073258663,-0.020895367,-0.040338293,0.55425376,-1.0,1,0,0,0,0,0,0
4397913849,0.019506201,-0.031327017,-0.0810546,0.0,0.999015,0.009109173,-0.016044369,-0.040356677,0.5449466,-1.0,1,0,0,0,0,0,0
4398014540,0.01155553,-0.03220551,-0.0810546,0.0,0.99903643,0.005119857,-0.016322631,-0.04041732,0.54126006,-1.0,1,0,0,0,0,0,0
4398114001,0.013129991,-0.01748015,-0.0810546,0.0,0.99912155,0.0062052035,-0.008998574,-0.040456455,0.5329432,-1.0,1,0,0,0,0,0,0
4398218843,0.0062366086,-0.007866699,-0.0810546,0.0,0.9991668,0.0029563513,-0.0040564314,-0.040503442,0.5319151,-1.0,1,0,0,0,0,0,0
4398319028,0.0061270953,-0.0071342094,-0.0810546,0.0,0.99916834,0.0029164832,-0.0036882735,-0.040504843,0.529817,-1.0,1,0,0,0,0,0,0
4398418929,0.0077582956,0.0021350724,-0.0810546,0.0,0.99917066,0.003919203,0.00090948347,-0.040520016,0.5301541,-1.0,1,0,0,0,0,0,0
4398520027,-0.0032604819,0.0062700897,-0.0810546,0.0,0.99917287,-0.0015018736,0.0031985117,-0.04051085,0.5291641,-1.0,1,0,0,0,0,0,0
4398624282,-0.0064952327,0.011964899,-0.0810546,0.0,0.99915653,-0.003002502,0.006109047,-0.040495858,0.52520186,-1.0,1,0,0,0,0,0,0
4398723743,-0.026473701,0.024622919,-0.0810546,0.0,0.99902225,-0.012725834,0.012836212,-0.040346764,0.5231336,-1.0,1,0,0,0,0,0,0
4398825019,-0.025569063,0.022073794,-0.0810546,0.0,0.9990421,-0.01232578,0.011544645,-0.040369444,0.5210768,-1.0,1,0,0,0,0,0,0
4398929097,-0.033983123,0.029552115,-0.0810546,0.0,0.9989357,-0.01637638,0.0154495835,-0.040255096,0.5186251,-1.0,1,0,0,0,0,0,0
4399033899,-0.03776362,0.041649662,-0.0810546,0.0,0.9988001,-0.018017564,0.021567326,-0.040107366,0.5172851,-1.0,1,0,0,0,0,0,0
4399133442,-0.035300236,0.044379808,-0.0810546,0.0,0.9987932,-0.016731532,0.022881314,-0.040108643,0.5178878,-1.0,1,0,0,0,0,0,0
4399234034,-0.045818493,0.046346363,-0.0810546,0.0,0.99867004,-0.021943728,0.02407387,-0.03996435,0.51900107,-1.0,1,0,0,0,0,0,0
4399334591,-0.044618607,0.0582463,-0.0810546,0.0,0.99853295,-0.021100186,0.029991316,-0.039839916,0.51606077,-1.0,1,0,0,0,0,0,0
4399433971,-0.053510197,0.05591803,-0.0810546,0.0,0.9984612,-0.02558725,0.029005881,-0.03973863,0.51863635,-1.0,1,0,0,0,0,0,0
4399538019,-0.061390366,0.063625395,-0.0810546,0.0,0.99824244,-0.029361542,0.033009067,-0.039501257,0.5194813,-1.0,1,0,0,0,0,0,0
4399639221,-0.06630972,0.059850037,-0.0810546,0.0,0.9982229,-0.031895135,0.031222012,-0.0394848,0.5189699,-1.0,1,0,0,0,0,0,0
4399738818,-0.072340466,0.06787801,-0.0810546,0.0,0.998,-0.03473793,0.035346773,-0.03924032,0.5196316,-1.0,1,0,0,0,0,0,0
4399839970,-0.060670007,0.05710031,-0.0810546,0.0,0.9983473,-0.029137043,0.029738085,-0.03961596,0.5207674,-1.0,1,0,0,0,0,0,0
4399944207,-0.069413066,0.059859313,-0.0810546,0.0,0.998172,-0.03344382,0.03128788,-0.03943614,0.5268598,-1.0,1,0,0,0,0,0,0
4400049038,-0.0690323,0.061365172,-0.0810546,0.0,0.9981566,-0.033222526,0.032031856,-0.039415218,0.52379245,-1.0,1,0,0,0,0,0,0
4400153118,-0.06702143,0.05892847,-0.0810546,0.0,0.99822444,-0.032269463,0.030776137,-0.03948966,0.52495444,-1.0,1,0,0,0,0,0,0
4400252565,-0.07577285,0.05182797,-0.0810546,0.0,0.9981664,-0.036784496,0.027405364,-0.0394929,0.5267915,-1.0,1,0,0,0,0,0,0
4400357123,-0.060888253,0.052007537,-0.0810546,0.0,0.9984103,-0.029351184,0.027200324,-0.039692942,0.5232507,-1.0,1,0,0,0,0,0,0
4400458747,-0.056356266,0.052254923,-0.0810546,0.0,0.99847114,-0.027083619,0.027233807,-0.039750867,0.5256536,-1.0,1,0,0,0,0,0,0
4400562448,-0.04277697,0.05090242,-0.0810546,0.0,0.99864894,-0.020331532,0.02628798,-0.03995001,0.5213005,-1.0,1,0,0,0,0,0,0
4400662137,-0.058149233,0.050543282,-0.0810546,0.0,0.99846745,-0.028014006,0.026414983,-0.039752178,0.5198985,-1.0,1,0,0,0,0,0,0
4400766178,-0.04914761,0.05994283,-0.0810546,0.0,0.99845845,-0.02332635,0.03092837,-0.039750062,0.5164702,-1.0,1,0,0,0,0,0,0
4400867349,-0.045334745,0.054999273,-0.0810546,0.0,0.9985698,-0.021524506,0.028384507,-0.03986778,0.5176627,-1.0,1,0,0,0,0,0,0
4400966947,-0.03956612,0.061713807,-0.0810546,0.0,0.99853253,-0.018506356,0.03162174,-0.03987919,0.51969737,-1.0,1,0,0,0,0,0,0
4401068456,-0.032726545,0.07211939,-0.0810546,0.0,0.9984196,-0.014877987,0.036679972,-0.039895028,0.52683127,-1.0,1,0,0,0,0,0,0
4401172162,-0.024137015,0.068503425,-0.0810546,0.0,0.9985369,-0.010663854,0.034703072,-0.04007656,0.5295953,-1.0,1,0,0,0,0,0,0
4401272059,-0.024148012,0.06585424,-0.0810546,0.0,0.9985806,-0.010723516,0.033380654,-0.04009414,0.5347183,-1.0,1,0,0,0,0,0,0
4401373193,-0.0052477177,0.06587901,-0.0810546,0.0,0.99863696,-0.001285941,0.033012643,-0.04040775,0.5340888,-1.0,1,0,0,0,0,0,0
4401477118,-0.013373914,0.061409254,-0.0810546,0.0,0.99869394,-0.0054344554,0.030944707,-0.040291086,0.53818107,-1.0,1,0,0,0,0,0,0
4401577985,-0.014774136,0.056405824,-0.0810546,0.0,0.9987627,-0.006235508,0.028474424,-0.04029086,0.53598857,-1.0,1,0,0,0,0,0,0
4401677226,0.020918198,0.056108244,-0.0810546,0.0,0.99871916,0.011582644,0.027602289,-0.040791184,0.536927,-1.0,1,0,0,0,0,0,0
4401778598,0.00010795333,0.04883462,-0.0810546,0.0,0.998881,0.0010431147,0.02439265,-0.04050545,0.5391296,-1.0,1,0,0,0,0,0,0
4401878751,0.009602185,0.038810477,-0.0810546,0.0,0.9989755,0.005582397,0.01919338,-0.0406012,0.5392244,-1.0,1,0,0,0,0,0,0
4401978022,0.026101552,0.036729082,-0.0810546,0.0,0.9989156,0.013781447,0.017818203,-0.040745378,0.5296189,-1.0,1,0,0,0,0,0,0
4402082242,0.026684275,0.03292884,-0.0810546,0.0,0.99894565,0.013995966,0.01590821,-0.04072659,0.5233432,-1.0,1,0,0,0,0,0,0
4402183883,0.027484778,0.030044014,-0.0810546,0.0,0.9989634,0.014337678,0.014450983,-0.04071407,0.5231042,-1.0,1,0,0,0,0,0,0
4402287228,0.023980947,0.032575656,-0.0810546,0.0,0.99896663,0.012638596,0.015786832,-0.040703043,0.5176249,-1.0,1,0,0,0,0,0,0
4402387596,0.033218287,0.041371334,-0.0810546,0.0,0.9988134,0.01742912,0.019991592,-0.040845204,0.5104314,-1.0,1,0,0,0,0,0,0
4402491773,0.011855737,0.040623225,-0.0810546,0.0,0.99895036,0.0067446227,0.020053057,-0.04062744,0.5041877,-1.0,1,0,0,0,0,0,0
4402592353,0.0054221097,0.05581163,-0.0810546,0.0,0.9987831,0.0038382574,0.027769377,-0.040575862,0.50016725,-1.0,1,0,0,0,0,0,0
4402692736,0.0002526878,0.05395821,-0.0810546,0.0,0.9988151,0.0012191526,0.026948564,-0.04050487,0.5024039,-1.0,1,0,0,0,0,0,0
4402796661,-0.003657418,0.046108704,-0.0810546,0.0,0.9989134,-0.00089273026,0.023107413,-0.040463254,0.5025848,-1.0,1,0,0,0,0,0,0
4402897769,-0.018262913,0.048218787,-0.0810546,0.0,0.99885577,-0.008144494,0.024456115,-0.040282793,0.497524,-1.0,1,0,0,0,0,0,0
4402997202,-0.05199373,0.044938505,-0.0810546,0.0,0.99861276,-0.025056055,0.02349424,-0.03990875,0.49996498,-1.0,1,0,0,0,0,0,0
4403101390,-0.06621704,0.030161954,-0.0810546,0.0,0.998538,-0.03246086,0.0164008,-0.039990604,0.50214875,-1.0,1,0,0,0,0,0,0
4403202737,-0.07597228,0.012787691,-0.0810546,0.0,0.99844754,-0.03768618,0.007922595,-0.040243536,0.50124043,-1.0,1,0,0,0,0,0,0
4403306474,-0.066683985,0.008542567,-0.0810546,0.0,0.9986202,-0.033135176,0.0056160185,-0.04035105,0.5022192,-1.0,1,0,0,0,0,0,0
4403406193,-0.07622899,-0.017467929,-0.0810546,0.0,0.99840164,-0.038426124,-0.0071765212,-0.04081777,0.5064697,-1.0,1,0,0,0,0,0,0
4403507469,-0.09272656,-0.026182795,-0.0810546,0.0,0.9979951,-0.046834484,-0.011188589,-0.041075427,0.50647926,-1.0,1,0,0,0,0,0,0
4403611806,-0.09519914,-0.03768839,-0.0810546,0.0,0.9978336,-0.048296668,-0.016878797,-0.041358974,0.50558454,-1.0,1,0,0,0,0,0,0
4403712122,-0.10130964,-0.046536293,-0.0810546,0.0,0.9975794,-0.051519334,-0.021166218,-0.041630354,0.5071845,-1.0,1,0,0,0,0,0,0
4403811858,-0.10232241,-0.04893934,-0.0810546,0.0,0.99752206,-0.05207162,-0.022343818,-0.04170128,0.5087192,-1.0,1,0,0,0,0,0,0
4403916405,-0.11669433,-0.052889436,-0.0810546,0.0,0.99706733,-0.059315294,-0.024013124,-0.041973773,0.51356274,-1.0,1,0,0,0,0,0,0
4404017342,-0.11840057,-0.06032863,-0.0810546,0.0,0.99690247,-0.06031005,-0.027686104,-0.042209793,0.5188829,-1.0,1,0,0,0,0,0,0
4404116707,-0.10053701,-0.06954503,-0.0810546,0.0,0.9972427,-0.051582515,-0.032658484,-0.042186,0.51943207,-1.0,1,0,0,0,0,0,0
4404221526,-0.106130056,-0.07189234,-0.0810546,0.0,0.99705064,-0.054416373,-0.033710774,-0.042337656,0.5191228,-1.0,1,0,0,0,0,0,0
4404321876,-0.10801821,-0.07035057,-0.0810546,0.0,0.9970279,-0.055327956,-0.03290209,-0.042329017,0.5211492,-1.0,1,0,0,0,0,0,0
4404422145,-0.118530855,-0.074458875,-0.0810546,0.0,0.9966442,-0.060646493,-0.034726836,-0.042619854,0.5191044,-1.0,1,0,0,0,0,0,0
4404523318,-0.11595088,-0.07066119,-0.0810546,0.0,0.99679476,-0.05928802,-0.03288878,-0.042467948,0.5214985,-1.0,1,0,0,0,0,0,0
4404626966,-0.10100633,-0.076230176,-0.0810546,0.0,0.99710226,-0.051945552,-0.035982188,-0.04235723,0.51761925,-1.0,1,0,0,0,0,0,0
4404727002,-0.09809097,-0.08406555,-0.0810546,0.0,0.9970125,-0.050642762,-0.03995082,-0.04249014,0.5184978,-1.0,1,0,0,0,0,0,0
4404826702,-0.12168999,-0.07912247,-0.0810546,0.0,0.9964521,-0.06230948,-0.036983553,-0.042812612,0.5183962,-1.0,1,0,0,0,0,0,0
4404931789,-0.10365882,-0.08377918,-0.0810546,0.0,0.9968739,-0.0534127,-0.039689615,-0.042594027,0.51726663,-1.0,1,0,0,0,0,0,0
4405035776,-0.096644126,-0.077470995,-0.0810546,0.0,0.99718815,-0.049794585,-0.036693245,-0.042307604,0.51703244,-1.0,1,0,0,0,0,0,0
4405136273,-0.11003579,-0.07801976,-0.0810546,0.0,0.9968211,-0.056480937,-0.036682706,-0.042566974,0.5137046,-1.0,1,0,0,0,0,0,0
4405236644,-0.11171296,-0.062084287,-0.0810546,0.0,0.9970697,-0.057010274,-0.028702483,-0.042164832,0.51005626,-1.0,1,0,0,0,0,0,0
4405340582,-0.09921716,-0.06087063,-0.0810546,0.0,0.9974263,-0.050755993,-0.028360026,-0.041955385,0.51117766,-1.0,1,0,0,0,0,0,0
4405441057,-0.09242062,-0.058901682,-0.0810546,0.0,0.99762434,-0.047327712,-0.027520206,-0.041814543,0.506929,-1.0,1,0,0,0,0,0,0
4405541470,-0.09658924,-0.05669323,-0.0810546,0.0,0.9975575,-0.049363833,-0.026331358,-0.04181986,0.5077069,-1.0,1,0,0,0,0,0,0
4405645353,-0.094337344,-0.049718063,-0.0810546,0.0,0.9977117,-0.04810388,-0.022898642,-0.041629694,0.51326954,-1.0,1,0,0,0,0,0,0
4405746372,-0.07250417,-0.043724902,-0.0810546,0.0,0.9982517,-0.037090868,-0.020360284,-0.041271582,0.5158303,-1.0,1,0,0,0,0,0,0
4405846123,-0.07387775,-0.04265983,-0.0810546,0.0,0.9982382,-0.037755314,-0.019800305,-0.041266374,0.52087605,-1.0,1,0,0,0,0,0,0
4405949918,-0.07966445,-0.03730694,-0.0810546,0.0,0.99818254,-0.040537193,-0.017009147,-0.04121919,0.5248756,-1.0,1,0,0,0,0,0,0
4406050813,-0.048478127,-0.0269765,-0.0810546,0.0,0.99878126,-0.0247609,-0.012490917,-0.040827256,0.52033126,-1.0,1,0,0,0,0,0,0
4406151598,-0.055282228,-0.026195917,-0.0810546,0.0,0.99869686,-0.02814299,-0.011962156,-0.040858943,0.5291295,-1.0,1,0,0,0,0,0,0
4406251606,-0.058486845,-0.022165436,-0.0810546,0.0,0.9986772,-0.02966228,-0.009884066,-0.040820174,0.534364,-1.0,1,0,0,0,0,0,0
4406355607,-0.044434723,-0.020883022,-0.0810546,0.0,0.99886847,-0.022619022,-0.009530132,-0.040735774,0.5369885,-1.0,1,0,0,0,0,0,0
4406457908,-0.03066039,-0.01645528,-0.0810546,0.0,0.9990225,-0.015649801,-0.0075987494,-0.040636096,0.5358866,-1.0,1,0,0,0,0,0,0
4406561257,-0.03483666,-0.016561318,-0.0810546,0.0,0.9989872,-0.017737998,-0.0075668455,-0.04065279,0.54020584,-1.0,1,0,0,0,0,0,0
4406660939,-0.03185056,-0.012142425,-0.0810546,0.0,0.9990298,-0.016157188,-0.005420228,-0.040606927,0.53540933,-1.0,1,0,0,0,0,0,0
4406765455,-0.029528603,-0.015672375,-0.0810546,0.0,0.99903464,-0.015068645,-0.0072306665,-0.040626146,0.53376335,-1.0,1,0,0,0,0,0,0
4406865917,-0.030006878,-0.017599193,-0.0810546,0.0,0.99902236,-0.015346458,-0.008183431,-0.040641993,0.5251993,-1.0,1,0,0,0,0,0,0
4406965213,-0.042525437,-0.022071954,-0.0810546,0.0,0.9988827,-0.021689389,-0.01016283,-0.040739022,0.5215177,-1.0,1,0,0,0,0,0,0
4407070017,-0.042311255,-0.030715378,-0.0810546,0.0,0.9988243,-0.021756258,-0.014484061,-0.040826965,0.517234,-1.0,1,0,0,0,0,0,0
4407170913,-0.048402715,-0.032651782,-0.0810546,0.0,0.99873716,-0.024837142,-0.015326666,-0.04089367,0.5163868,-1.0,1,0,0,0,0,0,0
4407271419,-0.054895688,-0.037633818,-0.0810546,0.0,0.9986048,-0.028179063,-0.01768152,-0.041009743,0.5188252,-1.0,1,0,0,0,0,0,0
4407376021,-0.054088823,-0.0423199,-0.0810546,0.0,0.9985667,-0.027869806,-0.02003791,-0.041063998,0.5208549,-1.0,1,0,0,0,0,0,0
4407479416,-0.04584426,-0.052105606,-0.0810546,0.0,0.9985532,-0.0239487,-0.025093308,-0.04108839,0.5271415,-1.0,1,0,0,0,0,0,0
4407579637,-0.047965426,-0.054671172,-0.0810546,0.0,0.9984918,-0.025058849,-0.026330654,-0.041144326,0.52434295,-1.0,1,0,0,0,0,0,0
4407680048,-0.02757145,-0.065376654,-0.0810546,0.0,0.99853194,-0.015090657,-0.03209434,-0.040940885,0.52653974,-1.0,1,0,0,0,0,0,0
4407784896,-0.03470354,-0.076967955,-0.0810546,0.0,0.99826175,-0.018882424,-0.037734624,-0.041147135,0.52768004,-1.0,1,0,0,0,0,0,0
4407888899,-0.023868585,-0.07331541,-0.0810546,0.0,0.9984188,-0.013400991,-0.0361336,-0.04092312,0.52541655,-1.0,1,0,0,0,0,0,0
4407988881,-0.03802227,-0.07745521,-0.0810546,0.0,0.99821943,-0.020548556,-0.0379095,-0.041213937,0.5240795,-1.0,1,0,0,0,0,0,0
4408089817,-0.03929266,-0.08407202,-0.0810546,0.0,0.9980701,-0.021313904,-0.04118578,-0.04129748,0.5263006,-1.0,1,0,0,0,0,0,0
4408193927,-0.032292478,-0.07739811,-0.0810546,0.0,0.99827534,-0.017687544,-0.03799892,-0.041104738,0.5256102,-1.0,1,0,0,0,0,0,0
4408297664,-0.031593855,-0.08104732,-0.0810546,0.0,0.9982081,-0.017411552,-0.039834768,-0.041117314,0.52715266,-1.0,1,0,0,0,0,0,0
4408398718,-0.035991967,-0.08176589,-0.0810546,0.0,0.9981525,-0.019620905,-0.04010291,-0.04121068,0.52718085,-1.0,1,0,0,0,0,0,0
4408498130,-0.027364412,-0.080811225,-0.0810546,0.0,0.99824756,-0.01529587,-0.039803788,-0.04103157,0.52675146,-1.0,1,0,0,0,0,0,0
4408603224,-0.03681538,-0.06974073,-0.0810546,0.0,0.99837625,-0.019792646,-0.034083456,-0.041125905,0.52747995,-1.0,1,0,0,0,0,0,0
4408703854,-0.030690435,-0.062790744,-0.0810546,0.0,0.9985494,-0.016596122,-0.030739347,-0.040972743,0.5270715,-1.0,1,0,0,0,0,0,0
4408802949,-0.018334737,-0.06081053,-0.0810546,0.0,0.9986638,-0.010387143,-0.03000309,-0.040774237,0.5288971,-1.0,1,0,0,0,0,0,0
4408907733,-0.025643334,-0.054785408,-0.0810546,0.0,0.9987077,-0.0139156,-0.026845263,-0.04084856,0.525624,-1.0,1,0,0,0,0,0,0
4409007949,-0.02536641,-0.05043603,-0.0810546,0.0,0.99876785,-0.01368997,-0.024678916,-0.040819604,0.5274172,-1.0,1,0,0,0,0,0,0
4409108616,-0.017102802,-0.04344176,-0.0810546,0.0,0.9988991,-0.009422207,-0.021354163,-0.040690746,0.5274253,-1.0,1,0,0,0,0,0,0
4409209328,-0.024565078,-0.036653094,-0.0810546,0.0,0.99892664,-0.013012511,-0.017811548,-0.040731244,0.5258009,-1.0,1,0,0,0,0,0,0
4409314144,-0.032711603,-0.025265865,-0.0810546,0.0,0.9989571,-0.016852096,-0.011957944,-0.04071399,0.5268345,-1.0,1,0,0,0,0,0,0
4409417734,-0.036024835,-0.013236958,-0.0810546,0.0,0.99899006,-0.018264372,-0.005882184,-0.04062786,0.52732074,-1.0,1,0,0,0,0,0,0
4409517168,-0.044236664,-0.007439445,-0.0810546,0.0,0.99892426,-0.022248887,-0.0028196787,-0.04058822,0.52885795,-1.0,1,0,0,0,0,0,0
4409618005,-0.03874177,-0.001445201,-0.0810546,0.0,0.9989906,-0.019383036,6.291387e-05,-0.040522583,0.52713656,-1.0,1,0,0,0,0,0,0
4409722013,-0.04405262,0.009762041,-0.0810546,0.0,0.99892896,-0.021808468,0.0057681496,-0.040398482,0.5281789,-1.0,1,0,0,0,0,0,0
4409822681,-0.0442598,0.013002038,-0.0810546,0.0,0.99891895,-0.021846129,0.007390572,-0.040361695,0.53099626,-1.0,1,0,0,0,0,0,0
4409922762,-0.03881359,0.012645996,-0.0810546,0.0,0.99897575,-0.019133119,0.007102798,-0.040385168,0.5277933,-1.0,1,0,0,0,0,0,0
4410026802,-0.047210068,0.010800904,-0.0810546,0.0,0.9988911,-0.02336437,0.006350772,-0.04037696,0.5268283,-1.0,1,0,0,0,0,0,0
4410128197,-0.050075676,0.0046110344,-0.0810546,0.0,0.9988654,-0.024921216,0.0033172292,-0.04044573,0.5287858,-1.0,1,0,0,0,0,0,0
4410227793,-0.046092365,-0.0063172583,-0.0810546,0.0,0.9989056,-0.023153048,-0.002221536,-0.040577974,0.527405,-1.0,1,0,0,0,0,0,0
4410331859,-0.058771234,-0.0097794365,-0.0810546,0.0,0.9987297,-0.029554943,-0.003693167,-0.04064178,0.52414364,-1.0,1,0,0,0,0,0,0
4410433032,-0.063773654,-0.01825594,-0.0810546,0.0,0.99861753,-0.032223552,-0.007824051,-0.04078469,0.5246311,-1.0,1,0,0,0,0,0,0
4410532374,-0.06095591,-0.021470284,-0.0810546,0.0,0.99864405,-0.030881198,-0.009486551,-0.040821917,0.52551234,-1.0,1,0,0,0,0,0,0
4410633926,-0.06818555,-0.026031181,-0.0810546,0.0,0.9984957,-0.034582317,-0.011616055,-0.040932503,0.5235195,-1.0,1,0,0,0,0,0,0
4410737628,-0.057774458,-0.027414057,-0.0810546,0.0,0.9986521,-0.029411891,-0.012519503,-0.040891062,0.52406096,-1.0,1,0,0,0,0,0,0
4410837340,-0.06887687,-0.02413819,-0.0810546,0.0,0.99849683,-0.03488954,-0.010656805,-0.04090444,0.52461237,-1.0,1,0,0,0,0,0,0
4410938443,-0.06656608,-0.02836318,-0.0810546,0.0,0.99850595,-0.033820476,-0.012813505,-0.040961213,0.53242487,-1.0,1,0,0,0,0,0,0
4411042667,-0.073691666,-0.02604456,-0.0810546,0.0,0.9983966,-0.037331372,-0.01151,-0.040964577,0.534143,-1.0,1,0,0,0,0,0,0
4411143504,-0.06605456,-0.019338384,-0.0810546,0.0,0.9985744,-0.03338416,-0.008317999,-0.04081124,0.53756464,-1.0,1,0,0,0,0,0,0
4411243052,-0.06612885,-0.014190851,-0.0810546,0.0,0.99859816,-0.033317745,-0.005746297,-0.040727414,0.5370784,-1.0,1,0,0,0,0,0,0
4411347007,-0.0681171,-0.0068848166,-0.0810546,0.0,0.99858874,-0.034163192,-0.0020579319,-0.0406096,0.53529835,-1.0,1,0,0,0,0,0,0
4411448568,-0.073619135,-0.011313781,-0.0810546,0.0,0.99847764,-0.036999486,-0.004157363,-0.040696125,0.53457254,-1.0,1,0,0,0,0,0,0
4411547603,-0.07128637,-0.00065987674,-0.0810546,0.0,0.99854374,-0.03561973,0.0011143626,-0.040502217,0.5289837,-1.0,1,0,0,0,0,0,0
4411649021,-0.074629664,0.0021269515,-0.0810546,0.0,0.9984844,-0.037232462,0.0025733663,-0.040448345,0.52251345,-1.0,1,0,0,0,0,0,0
4411752857,-0.07809001,0.0031792345,-0.0810546,0.0,0.9984186,-0.038938634,0.0031686525,-0.04042328,0.5050788,-1.0,1,0,0,0,0,0,0
4411852694,-0.06299462,0.012637102,-0.0810546,0.0,0.9986714,-0.03120974,0.0075861043,-0.040296484,0.49562937,-1.0,1,0,0,0,0,0,0
4411953693,-0.07337909,0.020444892,-0.0810546,0.0,0.9984694,-0.036235392,0.011693111,-0.040112164,0.4906806,-1.0,1,0,0,0,0,0,0
4412058591,-0.08138292,0.03494117,-0.0810546,0.0,0.99822825,-0.039933402,0.019088859,-0.0397664,0.48658422,-1.0,1,0,0,0,0,0,0
4412163354,0.23706095,-0.26716623,-0.0810546,0.0,0.98396707,0.11174502,-0.13689154,-0.024136752,0.43309426,1.0,1,0,0,0,0,0,0
4412266930,-0.08504891,-0.28207576,0.95284617,0.0,0.8817625,0.027005496,-0.14410642,0.44832897,0.45763806,1.0,1,0,0,0,0,0,0
4412366228,-0.069215536,-0.26828182,0.95303893,0.0,0.8822094,0.03083789,-0.13449734,0.45018446,0.47847235,1.0,1,0,0,0,0,0,0
4412467607,-0.044530544,-0.2460552,0.9532734,0.0,0.882862,0.036655515,-0.119149856,0.45278522,0.48224074,1.0,1,0,0,0,0,0,0
4412571493,-0.015809258,-0.17418605,0.95359313,0.0,0.88539004,0.03292198,-0.08089324,0.45657077,0.4732015,1.0,1,0,0,0,0,0,0
4412671352,-0.0063634883,-0.13689429,0.95359313,0.0,0.8864846,0.028567871,-0.062222216,0.45766512,0.4837128,1.0,1,0,0,0,0,0,0
4412772277,0.013012222,-0.11364194,0.95463645,0.0,0.8866081,0.031858448,-0.04745782,0.4589759,0.49468774,1.0,1,0,0,0,0,0,0
4412871922,0.0150554245,-0.06811021,0.9552579,0.0,0.8874294,0.02233213,-0.026778946,0.45962286,0.50343305,1.0,1,0,0,0,0,0,0
4412976747,0.044443935,-0.052687384,0.9560941,0.0,0.8870986,0.031837218,-0.013163215,0.4602925,0.5110396,1.0,1,0,0,0,0,0,0
4413077096,0.053135082,-0.034377284,0.95678943,0.0,0.8870805,0.031488374,-0.0030255758,0.46052963,0.51517767,1.0,1,0,0,0,0,0,0
4413184846,0.06507468,-0.03065642,0.9571634,0.0,0.8868453,0.035928197,0.0013813787,0.4606655,0.51814127,1.0,1,0,0,0,0,0,0
4413285510,0.07934148,-0.020704513,0.95829284,0.0,0.8864538,0.039961025,0.009104218,0.46099883,0.52223325,1.0,1,0,0,0,0,0,0
4413386024,0.07783469,-0.021810325,0.9589116,0.0,0.8863259,0.0395451,0.00827879,0.46129617,0.52135557,1.0,1,0,0,0,0,0,0
4413490646,0.098146915,-0.015009434,0.95922655,0.0,0.88591063,0.046976715,0.015984632,0.46119422,0.5196687,1.0,1,0,0,0,0,0,0
4413590919,0.106303684,-0.0039377976,0.9598804,0.0,0.88571984,0.0480324,0.022786003,0.461166,0.5140471,1.0,1,0,0,0,0,0,0
4413698196,0.11427434,0.0026100792,0.9607566,0.0,0.8854067,0.050040692,0.027544988,0.46129408,0.51597404,1.0,1,0,0,0,0,0,0
4413803594,0.121207684,0.0055686366,0.9612968,0.0,0.8851421,0.052419074,0.030467492,0.46135408,0.5207101,1.0,1,0,0,0,0,0,0
4413903379,0.12271838,0.012115849,0.9618114,0.0,0.88506347,0.051567476,0.033726025,0.46137396,0.5160673,1.0,1,0,0,0,0,0,0
4414004061,0.12998983,0.013519609,0.96204865,0.0,0.8848325,0.05445647,0.0360305,0.4613108,0.51199424,1.0,1,0,0,0,0,0,0
4414107822,0.12503672,0.023142993,0.96204865,0.0,0.8850648,0.050040647,0.039143797,0.46111175,0.5088032,1.0,1,0,0,0,0,0,0
4414208261,0.11853837,0.02260791,0.96319985,0.0,0.8849524,0.047266845,0.037435908,0.46176147,0.5117402,1.0,1,0,0,0,0,0,0
4414308681,0.11827019,0.013551244,0.9635277,0.0,0.88479525,0.04923862,0.03337711,0.46216762,0.5152326,1.0,1,0,0,0,0,0,0
4414412816,0.11291506,0.018058207,0.9635277,0.0,0.8849671,0.04582602,0.03413279,0.46213442,0.5169333,1.0,1,0,0,0,0,0,0
4414513868,0.113265336,0.020670263,0.96395963,0.0,0.8848823,0.04536859,0.035378654,0.46224818,0.51289636,1.0,1,0,0,0,0,0,0
4414614231,0.10379349,0.017763179,0.9641082,0.0,0.88503027,0.04184846,0.031906378,0.46254957,0.5188588,1.0,1,0,0,0,0,0,0
4414717448,0.09306154,0.028193403,0.96415395,0.0,0.8852909,0.03468064,0.03403891,0.4624917,0.5212543,1.0,1,0,0,0,0,0,0
4414818596,0.090349436,0.025066849,0.9642211,0.0,0.8853073,0.034203824,0.032029722,0.46263927,0.5254765,1.0,1,0,0,0,0,0,0
4414918151,0.070907176,0.01743559,0.96419597,0.0,0.885577,0.027365642,0.024152827,0.46305627,0.52809906,1.0,1,0,0,0,0,0,0
4415020330,0.06693314,0.021279803,0.9641123,0.0,0.8856623,0.024715802,0.024933355,0.46300068,0.5328549,1.0,1,0,0,0,0,0,0
4415127080,0.05255666,0.021279281,0.96399266,0.0,0.8858448,0.018350277,0.021603247,0.463115,0.5307337,1.0,1,0,0,0,0,0,0
4415227423,0.052971162,0.022357594,0.96392286,0.0,0.8858586,0.01828468,0.022176053,0.46306428,0.53624475,1.0,1,0,0,0,0,0,0
4415331831,0.051351573,0.02676119,0.96392286,0.0,0.88587534,0.01654654,0.023750931,0.46301946,0.5281408,1.0,1,0,0,0,0,0,0
4415432370,0.044579055,0.019989932,0.9634396,0.0,0.88603824,0.015120864,0.019180639,0.46296835,0.52821386,1.0,1,0,0,0,0,0,0
4415532627,0.045053672,0.013901826,0.96321505,0.0,0.8860777,0.016743422,0.016592043,0.46293706,0.5302874,1.0,1,0,0,0,0,0,0
4415633184,0.0381293,0.018176617,0.962949,0.0,0.8861956,0.012687676,0.016881194,0.46282974,0.53140736,1.0,1,0,0,0,0,0,0
4415732610,0.040191192,0.009679491,0.96267515,0.0,0.88623214,0.015570683,0.01359178,0.46278003,0.52795523,1.0,1,0,0,0,0,0,0
4415837814,0.018839676,0.00015847296,0.9625267,0.0,0.88637185,0.008313046,0.004430606,0.4628782,0.53145164,1.0,1,0,0,0,0,0,0
4415938500,0.028302833,0.0007823766,0.9620742,0.0,0.88642925,0.012364048,0.0068943854,0.4626475,0.5322509,1.0,1,0,0,0,0,0,0
4416037411,0.033988964,-0.0072265477,0.9617703,0.0,0.8864236,0.01673737,0.0046576005,0.4625487,0.52797246,1.0,1,0,0,0,0,0,0
4416142239,0.012174469,-0.008145578,0.9616082,0.0,0.88658804,0.0072805993,-0.0007956951,0.46250185,0.5368801,1.0,1,0,0,0,0,0,0
4416243510,0.01498175,-0.010434463,0.9616082,0.0,0.8865683,0.009054283,-0.0011611765,0.46250764,0.5356409,1.0,1,0,0,0,0,0,0
4416343727,0.009581104,-0.01611758,0.96069735,0.0,0.88677704,0.00797206,-0.0049330704,0.46210244,0.5334732,1.0,1,0,0,0,0,0,0
4416447371,-0.0012246403,-0.0082152095,0.9603682,0.0,0.8869034,0.0013544034,-0.003925919,0.46193627,0.53253573,1.0,1,0,0,0,0,0,0
4416553002,-0.0034381836,-0.009831347,0.96003723,0.0,0.88697815,0.0007452327,-0.005153971,0.461782,0.5282892,1.0,1,0,0,0,0,0,0
4416659865,-0.0036558663,-0.010714472,0.9597256,0.0,0.8870486,0.0008517331,-0.005596016,0.46164143,0.5267383,1.0,1,0,0,0,0,0,0
4416760070,-0.0037303525,-0.0056014373,0.9595685,0.0,0.88709193,-0.00036180654,-0.0033454334,0.4615806,0.5225708,1.0,1,0,0,0,0,0,0
4416860671,0.005924224,-0.008586923,0.9595685,0.0,0.8870766,0.0046094395,-0.0024414174,0.4615928,0.5188414,1.0,1,0,0,0,0,0,0
4416964566,-0.0029319855,0.0007515378,0.958921,0.0,0.8872426,-0.0014740347,-0.00034286466,0.4613006,0.5153775,1.0,1,0,0,0,0,0,0
4417065999,-0.0076120426,-0.012935394,0.95872885,0.0,0.8872746,-0.00039400032,-0.007493985,0.46118057,0.51829803,1.0,1,0,0,0,0,0,0
4417173845,-0.0043331054,-0.006017658,0.95872885,0.0,0.8872852,-0.00053463364,-0.0036689301,0.4612064,0.5078847,1.0,1,0,0,0,0,0,0
4417273825,-0.0029922985,0.002139929,0.9584215,0.0,0.8873568,-0.0018209579,0.00025959918,0.4610797,0.502326,1.0,1,0,0,0,0,0,0
4417374784,0.0090837525,-0.0015223005,0.9583114,0.0,0.88737357,0.0043812846,0.0014185078,0.46102828,0.49919942,1.0,1,0,0,0,0,0,0
4417479109,-0.0072848913,-0.002330628,0.9583114,0.0,0.88737994,-0.0026949993,-0.0027133469,0.461023,0.5001497,1.0,1,0,0,0,0,0,0
4417582982,0.005945533,0.0052064676,0.95809174,0.0,0.88743174,0.0014382157,0.0036804266,0.4609222,0.49309978,1.0,1,0,0,0,0,0,0
4417683024,-0.03573809,0.0121342465,0.9579684,0.0,0.88725555,-0.01865273,-0.0028514012,0.46089208,0.4930366,1.0,1,0,0,0,0,0,0
4417786994,-0.0018899023,0.009943013,0.9578166,0.0,0.88748497,-0.0031295447,0.0039767465,0.46080887,0.49035406,1.0,1,0,0,0,0,0,0
4417888588,-0.0065670335,0.011145116,0.95767117,0.0,0.88750505,-0.0054816823,0.00343293,0.46075264,0.4872567,1.0,1,0,0,0,0,0,0
4417987930,0.0019094807,0.024559796,0.95752335,0.0,0.88750416,-0.004809632,0.011338738,0.4606351,0.49257767,1.0,1,0,0,0,0,0,0
4418089079,-0.022856163,0.028556867,0.9573851,0.0,0.88737434,-0.016718553,0.007408908,0.4606869,0.5005146,1.0,1,0,0,0,0,0,0
4418193088,-0.014803895,0.0310375,0.9572256,0.0,0.8874505,-0.013716024,0.010365537,0.4605822,0.5056104,1.0,1,0,0,0,0,0,0
4418292721,-0.02386281,0.036039636,0.9570476,0.0,0.88736933,-0.018885778,0.010500726,0.46055257,0.51472914,1.0,1,0,0,0,0,0,0
4418393810,-0.026538959,0.034351762,0.95692176,0.0,0.8873906,-0.019684218,0.009136652,0.4605073,0.51197684,1.0,1,0,0,0,0,0,0
4418498177,-0.029755067,0.025085844,0.9568097,0.0,0.88747644,-0.018979227,0.0042849234,0.4604422,0.51820505,1.0,1,0,0,0,0,0,0
4418602601,-0.019350203,0.030808292,0.9567134,0.0,0.8875371,-0.01567818,0.009220836,0.46037707,0.5130318,1.0,1,0,0,0,0,0,0
4418707123,-0.012740141,0.03148946,0.95661706,0.0,0.8876005,-0.012900958,0.011045292,0.46030086,0.5093614,1.0,1,0,0,0,0,0,0
4418806315,-0.03979213,0.031508997,0.95652753,0.0,0.8873652,-0.024909366,0.004828231,0.46036854,0.5116285,1.0,1,0,0,0,0,0,0
4418911048,-0.040166106,0.028502738,0.9564409,0.0,0.8874144,-0.024383966,0.0034089414,0.4603145,0.5106347,1.0,1,0,0,0,0,0,0
4419012004,-0.025711441,0.03173371,0.95640016,0.0,0.8875457,-0.018712603,0.008170166,0.460267,0.50930715,1.0,1,0,0,0,0,0,0
4419111050,-0.029411094,0.023551695,0.95628524,0.0,0.88761383,-0.018472683,0.0036880637,0.46020302,0.5146682,1.0,1,0,0,0,0,0,0
4419212410,-0.051753707,0.022796676,0.95622146,0.0,0.8873752,-0.028213654,-0.0017873193,0.46018052,0.5185227,1.0,1,0,0,0,0,0,0
4419316532,-0.054532148,0.023116091,0.95614207,0.0,0.8873497,-0.02951988,-0.0022836763,0.46014544,0.51661956,1.0,1,0,0,0,0,0,0
4419416934,-0.038059153,0.02870576,0.956029,0.0,0.8875322,-0.023494942,0.0039888206,0.46012896,0.5141886,1.0,1,0,0,0,0,0,0
4419517342,-0.05141643,0.023190571,0.955899,0.0,0.88744974,-0.028154783,-0.001530354,0.4600412,0.5208575,1.0,1,0,0,0,0,0,0
4419621395,-0.044568166,0.027106002,0.95567507,0.0,0.8875506,-0.026015365,0.0017858234,0.45997173,0.5196556,1.0,1,0,0,0,0,0,0
4419721868,-0.07133813,0.03176135,0.9555207,0.0,0.8870898,-0.038961228,-0.002301885,0.4599439,0.5252218,1.0,1,0,0,0,0,0,0
4419821628,-0.07693475,0.025900694,0.9555207,0.0,0.8870666,-0.040098667,-0.0061896998,0.4598551,0.524514,1.0,1,0,0,0,0,0,0
4419923102,-0.07132629,0.030430328,0.9552444,0.0,0.88717365,-0.038650945,-0.0028845367,0.45980513,0.52025527,1.0,1,0,0,0,0,0,0
4420027275,-0.07235202,0.034574933,0.9550667,0.0,0.88713026,-0.04005679,-0.0012772888,0.4597758,0.52328753,1.0,1,0,0,0,0,0,0
4420130651,-0.08684595,0.032453965,0.95497066,0.0,0.8868756,-0.04599877,-0.0055481764,0.45967913,0.52280205,1.0,1,0,0,0,0,0,0
4420231879,-0.0840108,0.03330595,0.95468336,0.0,0.88699156,-0.04493747,-0.0045119924,0.45957187,0.5215958,1.0,1,0,0,0,0,0,0
4420335511,-0.07501911,0.03233705,0.95452714,0.0,0.8872359,-0.040727355,-0.002872681,0.4595057,0.5192842,1.0,1,0,0,0,0,0,0
4420436128,-0.095886774,0.026269015,0.95452714,0.0,0.88686895,-0.048592214,-0.010359417,0.45934194,0.5217378,1.0,1,0,0,0,0,0,0
4420536643,-0.09368012,0.029294359,0.9542431,0.0,0.88693607,-0.04830803,-0.00850326,0.45928043,0.5191013,1.0,1,0,0,0,0,0,0
4420640371,-0.08333964,0.026312523,0.954093,0.0,0.8872553,-0.04303905,-0.007448868,0.45920599,0.5188679,1.0,1,0,0,0,0,0,0
4420740552,-0.09845977,0.023067039,0.95397633,0.0,0.88698584,-0.04900293,-0.012357559,0.4590231,0.5194244,1.0,1,0,0,0,0,0,0
4420841151,-0.08033059,0.02467296,0.95389163,0.0,0.88738966,-0.041329157,-0.007481616,0.4591029,0.5133714,1.0,1,0,0,0,0,0,0
4420941398,-0.09250323,0.023232505,0.9538462,0.0,0.88715506,-0.046399638,-0.010913954,0.45900315,0.5208515,1.0,1,0,0,0,0,0,0
4421045519,-0.0829972,0.017132826,0.9538273,0.0,0.88745534,-0.040784966,-0.011439434,0.45894307,0.52049357,1.0,1,0,0,0,0,0,0
4421145876,-0.08009864,0.009852499,0.95385605,0.0,0.8875956,-0.03782983,-0.014006591,0.4588538,0.5166462,1.0,1,0,0,0,0,0,0
4421246296,-0.07062398,0.00801346,0.95385605,0.0,0.8877834,-0.03320288,-0.01264916,0.458888,0.51890993,1.0,1,0,0,0,0,0,0
4421350531,-0.0707547,0.0027005593,0.95401204,0.0,0.8877949,-0.03204127,-0.015040295,0.45887622,0.51954746,1.0,1,0,0,0,0,0,0
4421450511,-0.08893781,0.0017363556,0.9540946,0.0,0.88745826,-0.039889354,-0.019641034,0.4587384,0.51888084,1.0,1,0,0,0,0,0,0
4421551110,-0.06349364,-0.001144854,0.95422345,0.0,0.8878856,-0.027934013,-0.015084419,0.45896778,0.51363325,1.0,1,0,0,0,0,0,0
4421655238,-0.07793183,0.008252775,0.95433545,0.0,0.88754356,-0.036498003,-0.014228331,0.45905545,0.5164625,1.0,1,0,0,0,0,0,0
4421757127,-0.068811245,0.0038406975,0.9544749,0.0,0.88770956,-0.031436846,-0.014095513,0.45911303,0.5167594,1.0,1,0,0,0,0,0,0
4421860963,-0.06893479,0.0016097166,0.9546104,0.0,0.8876955,-0.030978639,-0.015116261,0.45913884,0.5176277,1.0,1,0,0,0,0,0,0
4421961163,-0.07803291,0.013497749,0.9547654,0.0,0.8873834,-0.03774329,-0.011931646,0.4593298,0.5150013,1.0,1,0,0,0,0,0,0
4422060676,-0.07908059,0.020936871,0.9547654,0.0,0.8872675,-0.039914567,-0.008870663,0.45943937,0.5234692,1.0,1,0,0,0,0,0,0
4422164909,-0.06032488,0.018498482,0.9550631,0.0,0.887562,-0.031031877,-0.0056489157,0.45960736,0.5194404,1.0,1,0,0,0,0,0,0
4422266247,-0.075245544,0.021584647,0.9551988,0.0,0.8872342,-0.038360063,-0.007710463,0.459657,0.5204174,1.0,1,0,0,0,0,0,0
4422365449,-0.08305822,0.034221504,0.9553805,0.0,0.886837,-0.044723455,-0.0039023466,0.4598964,0.52358687,1.0,1,0,0,0,0,0,0
4422469723,-0.07462717,0.03313921,0.9554731,0.0,0.8870137,-0.040736202,-0.0024458233,0.45993614,0.5316282,1.0,1,0,0,0,0,0,0
4422570712,-0.07060786,0.03947815,0.955597,0.0,0.88696283,-0.04040789,0.0012893163,0.46006796,0.5377091,1.0,1,0,0,0,0,0,0
4422670265,-0.05863438,0.032518055,0.95567167,0.0,0.88727415,-0.03349958,0.00095300446,0.46002334,0.53988683,1.0,1,0,0,0,0,0,0
4422775065,-0.065584205,0.040448703,0.95578945,0.0,0.88700134,-0.038402837,0.002871984,0.4601583,0.5365656,1.0,1,0,0,0,0,0,0
4422875820,-0.07393416,0.037200127,0.95588577,0.0,0.8868667,-0.04136033,-0.0004927668,0.46017012,0.53790355,1.0,1,0,0,0,0,0,0
4422975393,-0.062326677,0.034134783,0.9559428,0.0,0.88712484,-0.035508797,0.0008164844,0.4601608,0.5344465,1.0,1,0,0,0,0,0,0
4423076413,-0.07388766,0.03947859,0.9560147,0.0,0.8867992,-0.041862573,0.00052630063,0.4602547,0.528955,1.0,1,0,0,0,0,0,0
4423176251,-0.06825718,0.041592624,0.95611143,0.0,0.8868557,-0.039851196,0.0027582354,0.46031642,0.52487236,1.0,1,0,0,0,0,0,0
4423276724,-0.06388917,0.03739974,0.95618266,0.0,0.8869918,-0.03695165,0.0019015383,0.4603005,0.52882534,1.0,1,0,0,0,0,0,0
4423377990,-0.07456595,0.03656434,0.9562332,0.0,0.88678426,-0.041494433,-0.0009274701,0.46031624,0.5289363,1.0,1,0,0,0,0,0,0
4423481464,-0.06610402,0.034456946,0.95635164,0.0,0.8869573,-0.0372582,8.2746796e-05,0.46034628,0.528627,1.0,1,0,0,0,0,0,0
4423581499,-0.07083458,0.034511626,0.956416,0.0,0.88685095,-0.039368518,-0.0009831053,0.4603743,0.52855915,1.0,1,0,0,0,0,0,0
4423682658,-0.068656206,0.030301504,0.956429,0.0,0.88695383,-0.037435547,-0.002350024,0.46033248,0.5279499,1.0,1,0,0,0,0,0,0
4423786766,-0.08389251,0.023948383,0.9564563,0.0,0.88673615,-0.042732418,-0.008675688,0.46021488,0.53742874,1.0,1,0,0,0,0,0,0
4423890833,-0.08075367,0.022326997,0.95644695,0.0,0.88682765,-0.04096832,-0.008672498,0.460199,0.5434606,1.0,1,0,0,0,0,0,0
4423990170,-0.061396565,0.024374884,0.95649064,0.0,0.8871475,-0.032853898,-0.003310068,0.4603032,0.5457616,1.0,1,0,0,0,0,0,0
4424091564,-0.07817735,0.017775293,0.9565153,0.0,0.8869251,-0.03877986,-0.010100303,0.46017164,0.54276675,1.0,1,0,0,0,0,0,0
4424196196,-0.0748801,0.015218835,0.95657146,0.0,0.8870063,-0.0367298,-0.010476827,0.46017495,0.5332876,1.0,1,0,0,0,0,0,0
4424300923,-0.07756141,0.018897226,0.95659775,0.0,0.8869035,-0.038764108,-0.009462457,0.4602282,0.5274291,1.0,1,0,0,0,0,0,0
4424404560,-0.08332308,0.027267141,0.95663035,0.0,0.88665754,-0.04324148,-0.007076194,0.46034604,0.5264583,1.0,1,0,0,0,0,0,0
4424503760,-0.07331741,0.025526566,0.9566497,0.0,0.8868832,-0.038405187,-0.005545673,0.46036127,0.52146757,1.0,1,0,0,0,0,0,0
4424609354,-0.09215971,0.03493875,0.95667595,0.0,0.88631314,-0.04891948,-0.005708634,0.4604599,0.51968354,1.0,1,0,0,0,0,0,0
4424713181,-0.08163176,0.038137462,0.95666873,0.0,0.88650405,-0.044987697,-0.0018655772,0.46052486,0.51722807,1.0,1,0,0,0,0,0,0
4424813636,-0.07819789,0.03935504,0.9566256,0.0,0.88656855,-0.043745115,-0.00053378043,0.46052393,0.51977634,1.0,1,0,0,0,0,0,0
4424913963,-0.08205766,0.045266602,0.9565853,0.0,0.8863805,-0.046812758,0.0012008484,0.46058306,0.5122324,1.0,1,0,0,0,0,0,0
4425018565,-0.08688237,0.05325566,0.95660084,0.0,0.88609433,-0.05078336,0.0036331767,0.46070024,0.5165863,1.0,1,0,0,0,0,0,0
4425122782,-0.071900845,0.054297116,0.9566123,0.0,0.8864262,-0.044383503,0.007545842,0.46067533,0.51223063,1.0,1,0,0,0,0,0,0
4425222300,-0.07194639,0.062601574,0.95667547,0.0,0.8862343,-0.046309292,0.011218188,0.46078023,0.51220506,1.0,1,0,0,0,0,0,0
4425326534,-0.074442625,0.07408265,0.95679176,0.0,0.8858767,-0.050048828,0.015733233,0.46094462,0.5129916,1.0,1,0,0,0,0,0,0
4425427120,-0.05758237,0.069416754,0.9568576,0.0,0.8863571,-0.041508954,0.01754713,0.4608038,0.5162219,1.0,1,0,0,0,0,0,0
4425527442,-0.059937764,0.066693865,0.9569636,0.0,0.88634306,-0.04192871,0.015794232,0.46085623,0.52053803,1.0,1,0,0,0,0,0,0
4425627808,-0.0567564,0.07158279,0.9570801,0.0,0.88627493,-0.041642115,0.018693732,0.46090484,0.5187528,1.0,1,0,0,0,0,0,0
4425731857,-0.056562275,0.068611644,0.95712966,0.0,0.88633305,-0.040874433,0.017419416,0.46091166,0.5190848,1.0,1,0,0,0,0,0,0
4425833805,-0.052434828,0.07201405,0.95742804,0.0,0.8862732,-0.03982944,0.019873986,0.46101898,0.5230049,1.0,1,0,0,0,0,0,0
4425932696,-0.051416866,0.061257225,0.9576035,0.0,0.8864755,-0.036908466,0.015333692,0.46104646,0.52523285,1.0,1,0,0,0,0,0,0
4426036823,-0.057543352,0.060856447,0.9576035,0.0,0.88636637,-0.039531697,0.013743545,0.46108893,0.5301463,1.0,1,0,0,0,0,0,0
4426137986,-0.047188256,0.05060515,0.9579575,0.0,0.88666,-0.03258713,0.011577121,0.461127,0.5282721,1.0,1,0,0,0,0,0,0
4426237336,-0.038850386,0.044903427,0.95812964,0.0,0.8868343,-0.027579281,0.010967598,0.46113336,0.52809584,1.0,1,0,0,0,0,0,0
4426341681,-0.049798887,0.045066938,0.958328,0.0,0.8866218,-0.032472067,0.008512398,0.46127534,0.52716696,1.0,1,0,0,0,0,0,0
4426442953,-0.040111862,0.038805578,0.9585287,0.0,0.88680947,-0.02673656,0.007966259,0.4612923,0.5298393,1.0,1,0,0,0,0,0,0
4426546730,-0.03346608,0.03618745,0.9587209,0.0,0.886881,-0.023187354,0.008335408,0.46134037,0.524169,1.0,1,0,0,0,0,0,0
4426647396,-0.0390202,0.032796893,0.958887,0.0,0.8868161,-0.02486953,0.005548186,0.4614195,0.52472836,1.0,1,0,0,0,0,0,0
4426750994,-0.041745733,0.03144469,0.9590666,0.0,0.88675606,-0.02576685,0.004317289,0.4614988,0.52630204,1.0,1,0,0,0,0,0,0
4426852072,-0.03601054,0.029882945,0.9590666,0.0,0.88684344,-0.022863915,0.004947958,0.46147758,0.5303367,1.0,1,0,0,0,0,0,0
4426952731,-0.043342225,0.022220396,0.9595062,0.0,0.8867347,-0.024348663,-0.00014768452,0.46163687,0.531069,1.0,1,0,0,0,0,0,0
4427052062,-0.046783358,0.024066951,0.95964104,0.0,0.886641,-0.026300086,-0.00012484829,0.46170995,0.53259397,1.0,1,0,0,0,0,0,0
4427153639,-0.043008856,0.017863097,0.959745,0.0,0.88672465,-0.023195738,-0.0020058777,0.4617113,0.5409599,1.0,1,0,0,0,0,0,0
4427257678,-0.0378133,0.014284209,0.9597988,0.0,0.8867979,-0.020066375,-0.002394112,0.4617154,0.5397514,1.0,1,0,0,0,0,0,0
4427356631,-0.04500939,0.009455299,0.95983785,0.0,0.88674873,-0.022142714,-0.0061970856,0.46167955,0.5434091,1.0,1,0,0,0,0,0,0
4427461681,-0.053710677,0.0006469332,0.95984125,0.0,0.88670766,-0.02396796,-0.012111033,0.46154994,0.5405541,1.0,1,0,0,0,0,0,0
4427561765,-0.065761514,-0.004412135,0.959812,0.0,0.8865902,-0.028143182,-0.01713394,0.46138078,0.5336226,1.0,1,0,0,0,0,0,0
4427662478,-0.06941895,-0.0007814514,0.9596944,0.0,0.8865374,-0.030603124,-0.01636658,0.4613535,0.5288328,1.0,1,0,0,0,0,0,0
4427762960,-0.09305637,-0.0023620108,0.95955205,0.0,0.886163,-0.040715616,-0.022515273,0.4610319,0.5299425,1.0,1,0,0,0,0,0,0
4427867591,-0.07414516,-0.0071203155,0.9594439,0.0,0.886569,-0.031238213,-0.020262295,0.46109542,0.5266547,1.0,1,0,0,0,0,0,0
4427967563,-0.08615006,-0.0108177,0.95916617,0.0,0.88645893,-0.035709873,-0.02466297,0.46076792,0.52504987,1.0,1,0,0,0,0,0,0
4428067275,-0.108635366,-0.00674124,0.95887494,0.0,0.88602537,-0.046617143,-0.02802939,0.46043485,0.52213824,1.0,1,0,0,0,0,0,0
4428172073,-0.09691862,-0.0031347668,0.9585549,0.0,0.88632065,-0.042260505,-0.023726815,0.46052885,0.51556194,1.0,1,0,0,0,0,0,0
4428272593,-0.10615331,0.0021911194,0.95803845,0.0,0.8861703,-0.047584843,-0.023481129,0.46031123,0.50959706,1.0,1,0,0,0,0,0,0
4428371927,-0.1043598,0.012051126,0.9578532,0.0,0.8861213,-0.04906023,-0.018694228,0.46047017,0.5076008,1.0,1,0,0,0,0,0,0
4428473354,-0.11511732,0.01674651,0.9572928,0.0,0.8858963,-0.054910284,-0.019074827,0.46022674,0.51009876,1.0,1,0,0,0,0,0,0
4428578154,-0.10905674,0.017877381,0.9568874,0.0,0.88613343,-0.052488785,-0.017168233,0.460128,0.51151717,1.0,1,0,0,0,0,0,0
4428682196,-0.100263566,0.017786495,0.9566838,0.0,0.88640386,-0.04857299,-0.015180433,0.46010694,0.5070714,1.0,1,0,0,0,0,0,0
4428781502,-0.11927139,0.020567182,0.9561432,0.0,0.88597655,-0.05763804,-0.018304512,0.45976982,0.5144787,1.0,1,0,0,0,0,0,0
4428885506,-0.09243128,0.01846735,0.9558878,0.0,0.8867604,-0.045262944,-0.013058513,0.4598225,0.5109364,1.0,1,0,0,0,0,0,0
4428986315,-0.094402805,0.016082738,0.95569694,0.0,0.8867942,-0.04559111,-0.014565136,0.45967954,0.5111088,1.0,1,0,0,0,0,0,0
4429087004,-0.100990675,0.013740002,0.9555778,0.0,0.8867015,-0.047975335,-0.01711536,0.45952776,0.5144512,1.0,1,0,0,0,0,0,0
4429187318,-0.08240168,0.011538019,0.9555564,0.0,0.88714105,-0.039226525,-0.01382016,0.4596205,0.51097345,1.0,1,0,0,0,0,0,0
4429291099,-0.09795704,0.005029555,0.9555418,0.0,0.88689774,-0.044631388,-0.020280791,0.4593573,0.5130756,1.0,1,0,0,0,0,0,0
4429392215,-0.0694306,0.009615967,0.9556111,0.0,0.8873841,-0.033030372,-0.011692869,0.4596974,0.5087679,1.0,1,0,0,0,0,0,0
4429491833,-0.060035385,0.003363521,0.9556618,0.0,0.88756996,-0.027424524,-0.012308947,0.45969114,0.5077481,1.0,1,0,0,0,0,0,0
4429595906,-0.078182206,0.006243079,0.9558149,0.0,0.88722044,-0.036136866,-0.015204517,0.45967686,0.50946087,1.0,1,0,0,0,0,0,0
4429696999,-0.06844903,0.008243125,0.9559468,0.0,0.8873366,-0.032277465,-0.012081903,0.45983258,0.508703,1.0,1,0,0,0,0,0,0
4429796885,-0.05961622,0.009761257,0.956115,0.0,0.8874184,-0.028706448,-0.009379665,0.45997465,0.50237006,1.0,1,0,0,0,0,0,0
4429900626,-0.054244913,0.009900738,0.95627445,0.0,0.8874544,-0.026354467,-0.008084498,0.4600704,0.50278866,1.0,1,0,0,0,0,0,0
4430002648,-0.07660627,0.01866178,0.9563574,0.0,0.88698024,-0.038287565,-0.009342518,0.46012262,0.50390226,1.0,1,0,0,0,0,0,0
4430105795,-0.064234726,0.016565505,0.95660424,0.0,0.887167,-0.03231751,-0.007430324,0.4602555,0.49932328,1.0,1,0,0,0,0,0,0
4430206580,-0.099887006,0.004354498,0.9567054,0.0,0.8865953,-0.045320008,-0.021049803,0.4598388,0.49936104,1.0,1,0,0,0,0,0,0
4430310996,-0.0811049,0.0064757406,0.9567335,0.0,0.886953,-0.03747956,-0.015790248,0.46006554,0.50363815,1.0,1,0,0,0,0,0,0
4430414772,-0.08623213,-0.012574625,0.95677066,0.0,0.8870216,-0.03537158,-0.025418052,0.45966884,0.5056077,1.0,1,0,0,0,0,0,0
4430514936,-0.11124234,-0.01240151,0.9567124,0.0,0.8865215,-0.046501536,-0.031086063,0.4592938,0.5070152,1.0,1,0,0,0,0,0,0
4430615845,-0.09812241,-0.008310797,0.9567124,0.0,0.8867707,-0.04162587,-0.026259141,0.45958182,0.5063999,1.0,1,0,0,0,0,0,0
4430719307,-0.11218081,-0.011677059,0.95646954,0.0,0.886548,-0.047087863,-0.03097486,0.45919055,0.50982314,1.0,1,0,0,0,0,0,0
4430819822,-0.10230491,-0.026086135,0.9563384,0.0,0.886909,-0.039397668,-0.03509043,0.45892146,0.5044907,1.0,1,0,0,0,0,0,0
4430920329,-0.097109616,-0.00909756,0.9561321,0.0,0.8869323,-0.041003507,-0.02636328,0.4593199,0.50386465,1.0,1,0,0,0,0,0,0
4431020979,-0.114348136,-0.031265,0.95594716,0.0,0.8867805,-0.04355405,-0.040138744,0.45838004,0.49977612,1.0,1,0,0,0,0,0,0
4431124721,-0.11708132,-0.026067764,0.9558463,0.0,0.8867064,-0.045962885,-0.03846061,0.45843202,0.49369586,1.0,1,0,0,0,0,0,0
4431225675,-0.12205757,-0.027347201,0.95556694,0.0,0.8866637,-0.04788047,-0.04016113,0.45817253,0.4973732,1.0,1,0,0,0,0,0,0
4431325593,-0.10403226,-0.027623001,0.95539635,0.0,0.8870999,-0.039827116,-0.036149036,0.4584329,0.49249345,1.0,1,0,0,0,0,0,0
4431429663,-0.0913789,-0.032478712,0.95539635,0.0,0.88735276,-0.0330976,-0.035400786,0.45853728,0.49305764,1.0,1,0,0,0,0,0,0
4431530484,-0.106001854,-0.039890107,0.95510924,0.0,0.8871836,-0.037886426,-0.042031024,0.4579337,0.494883,1.0,1,0,0,0,0,0,0
4431630951,-0.116469376,-0.04807341,0.95500344,0.0,0.887027,-0.040650174,-0.04804945,0.45740783,0.49748746,1.0,1,0,0,0,0,0,0
4431734562,-0.086874604,-0.043177415,0.95495975,0.0,0.88754207,-0.028647183,-0.039104924,0.45816937,0.5037683,1.0,1,0,0,0,0,0,0
4431835027,-0.08105185,-0.037864823,0.9549744,0.0,0.8876167,-0.027284196,-0.03541527,0.45840803,0.50110745,1.0,1,0,0,0,0,0,0
4431935734,-0.076937385,-0.03409533,0.95500773,0.0,0.8876601,-0.026324071,-0.032800745,0.4585747,0.5031719,1.0,1,0,0,0,0,0,0
4432036217,-0.09067672,-0.019697007,0.95517033,0.0,0.887357,-0.03572759,-0.029568387,0.4587449,0.50642186,1.0,1,0,0,0,0,0,0
4432136619,-0.06608619,-0.013661514,0.95536315,0.0,0.8876614,-0.026199821,-0.021250287,0.45925942,0.49815568,1.0,1,0,0,0,0,0,0
4432235880,-0.08728705,-0.012137013,0.95536315,0.0,0.8873229,-0.035958044,-0.02544118,0.45904016,0.49599648,1.0,1,0,0,0,0,0,0
4432337179,-0.07610318,-0.0034492547,0.95579255,0.0,0.8873505,-0.03298765,-0.019026438,0.45952025,0.49547,1.0,1,0,0,0,0,0,0
4432441170,-0.067619264,-0.01493857,0.95605975,0.0,0.88748693,-0.026579013,-0.022178225,0.45953086,0.4967316,1.0,1,0,0,0,0,0,0
4432541470,-0.07380707,-0.020953784,0.9563176,0.0,0.8873683,-0.02793781,-0.026271539,0.4594635,0.49176094,1.0,1,0,0,0,0,0,0
4432642171,-0.05846594,-0.019481657,0.9565193,0.0,0.8875069,-0.021466939,-0.022095522,0.45976362,0.4950951,1.0,1,0,0,0,0,0,0
4432745975,-0.063933365,-0.02947263,0.9566799,0.0,0.88742715,-0.021591332,-0.027785514,0.4596029,0.4947228,1.0,1,0,0,0,0,0,0
4432846468,-0.07862143,-0.02866664,0.9568155,0.0,0.88721144,-0.028291442,-0.030804647,0.45946333,0.49655384,1.0,1,0,0,0,0,0,0
