timestamp,noutputs,output[0],output[1],output[2],output[3],output[4],output[5],output[6],output[7],output[8],output[9],output[10],output[11],output[12],output[13],output[14],output[15]
4384791257,8,1471.0,1447.0,1433.0,1432.0,1450.0,1472.0,1489.0,1487.0,0.0,0.0,0.0,0.0,0.0,0.0,0.0,0.0
4384963898,8,1496.0,1468.0,1454.0,1450.0,1470.0,1491.0,1512.0,1510.0,0.0,0.0,0.0,0.0,0.0,0.0,0.0,0.0
4385008006,8,1505.0,1471.0,1463.0,1453.0,1478.0,1492.0,1519.0,1511.0,0.0,0.0,0.0,0.0,0.0,0.0,0.0,0.0
4385048039,8,1492.0,1481.0,1463.0,1475.0,1485.0,1511.0,1514.0,1516.0,0.0,0.0,0.0,0.0,0.0,0.0,0.0,0.0
4385088757,8,1526.0,1483.0,1475.0,1453.0,1483.0,1495.0,1534.0,1525.0,0.0,0.0,0.0,0.0,0.0,0.0,0.0,0.0
4385128847,8,1512.0,1484.0,1477.0,1475.0,1499.0,1515.0,1534.0,1525.0,0.0,0.0,0.0,0.0,0.0,0.0,0.0,0.0
4385168839,8,1516.0,1509.0,1464.0,1480.0,1476.0,1526.0,1528.0,1555.0,0.0,0.0,0.0,0.0,0.0,0.0,0.0,0.0
4385212706,8,1529.0,1503.0,1468.0,1475.0,1488.0,1532.0,1549.0,1561.0,0.0,0.0,0.0,0.0,0.0,0.0,0.0,0.0
4385256761,8,1532.0,1491.0,1480.0,1478.0,1512.0,1537.0,1564.0,1550.0,0.0,0.0,0.0,0.0,0.0,0.0,0.0,0.0
4385300862,8,1538.0,1500.0,1487.0,1485.0,1517.0,1542.0,1567.0,1557.0,0.0,0.0,0.0,0.0,0.0,0.0,0.0,0.0
4385341499,8,1538.0,1519.0,1496.0,1502.0,1514.0,1544.0,1557.0,1561.0,0.0,0.0,0.0,0.0,0.0,0.0,0.0,0.0
4385385699,8,1548.0,1519.0,1507.0,1504.0,1526.0,1546.0,1567.0,1562.0,0.0,0.0,0.0,0.0,0.0,0.0,0.0,0.0
4385425619,8,1554.0,1527.0,1513.0,1509.0,1529.0,1549.0,1570.0,1567.0,0.0,0.0,0.0,0.0,0.0,0.0,0.0,0.0
4385469531,8,1560.0,1533.0,1516.0,1514.0,1534.0,1558.0,1578.0,1577.0,0.0,0.0,0.0,0.0,0.0,0.0,0.0,0.0
4385509508,8,1570.0,1536.0,1521.0,1514.0,1539.0,1562.0,1588.0,1583.0,0.0,0.0,0.0,0.0,0.0,0.0,0.0,0.0
4385553592,8,1572.0,1538.0,1525.0,1521.0,1548.0,1570.0,1595.0,1587.0,0.0,0.0,0.0,0.0,0.0,0.0,0.0,0.0
4385593602,8,1571.0,1546.0,1538.0,1536.0,1557.0,1573.0,1590.0,1583.0,0.0,0.0,0.0,0.0,0.0,0.0,0.0,0.0
4385634651,8,1575.0,1562.0,1577.0,1560.0,1572.0,1556.0,1570.0,1558.0,0.0,0.0,0.0,0.0,0.0,0.0,0.0,0.0
4385678326,8,1580.0,1593.0,1636.0,1599.0,1589.0,1526.0,1532.0,1519.0,0.0,0.0,0.0,0.0,0.0,0.0,0.0,0.0
4385722438,8,1586.0,1625.0,1676.0,1630.0,1593.0,1508.0,1503.0,1503.0,0.0,0.0,0.0,0.0,0.0,0.0,0.0,0.0
4385762461,8,1590.0,1601.0,1658.0,1592.0,1577.0,1487.0,1509.0,1496.0,0.0,0.0,0.0,0.0,0.0,0.0,0.0,0.0
4385802408,8,1591.0,1579.0,1605.0,1542.0,1538.0,1484.0,1524.0,1521.0,0.0,0.0,0.0,0.0,0.0,0.0,0.0,0.0
4385846522,8,1573.0,1545.0,1553.0,1499.0,1507.0,1481.0,1527.0,1528.0,0.0,0.0,0.0,0.0,0.0,0.0,0.0,0.0
4385887147,8,1546.0,1529.0,1544.0,1508.0,1517.0,1490.0,1518.0,1510.0,0.0,0.0,0.0,0.0,0.0,0.0,0.0,0.0
4385931273,8,1510.0,1498.0,1542.0,1508.0,1525.0,1474.0,1494.0,1464.0,0.0,0.0,0.0,0.0,0.0,0.0,0.0,0.0
4385971254,8,1506.0,1473.0,1520.0,1478.0,1512.0,1463.0,1499.0,1459.0,0.0,0.0,0.0,0.0,0.0,0.0,0.0,0.0
4386015317,8,1482.0,1447.0,1494.0,1463.0,1506.0,1463.0,1494.0,1446.0,0.0,0.0,0.0,0.0,0.0,0.0,0.0,0.0
4386055333,8,1473.0,1441.0,1476.0,1450.0,1486.0,1456.0,1484.0,1447.0,0.0,0.0,0.0,0.0,0.0,0.0,0.0,0.0
4386099132,8,1473.0,1444.0,1469.0,1445.0,1474.0,1451.0,1477.0,1450.0,0.0,0.0,0.0,0.0,0.0,0.0,0.0,0.0
4386139910,8,1476.0,1448.0,1478.0,1445.0,1473.0,1440.0,1471.0,1442.0,0.0,0.0,0.0,0.0,0.0,0.0,0.0,0.0
4386183933,8,1479.0,1442.0,1477.0,1439.0,1474.0,1439.0,1476.0,1442.0,0.0,0.0,0.0,0.0,0.0,0.0,0.0,0.0
4386223912,8,1481.0,1435.0,1459.0,1425.0,1466.0,1446.0,1489.0,1456.0,0.0,0.0,0.0,0.0,0.0,0.0,0.0,0.0
4386267904,8,1499.0,1445.0,1467.0,1417.0,1459.0,1434.0,1491.0,1462.0,0.0,0.0,0.0,0.0,0.0,0.0,0.0,0.0
4386307927,8,1497.0,1447.0,1464.0,1419.0,1458.0,1438.0,1490.0,1465.0,0.0,0.0,0.0,0.0,0.0,0.0,0.0,0.0
4386348066,8,1504.0,1446.0,1468.0,1412.0,1455.0,1429.0,1492.0,1464.0,0.0,0.0,0.0,0.0,0.0,0.0,0.0,0.0
4386392736,8,1498.0,1443.0,1473.0,1421.0,1468.0,1436.0,1494.0,1458.0,0.0,0.0,0.0,0.0,0.0,0.0,0.0,0.0
4386432705,8,1494.0,1439.0,1472.0,1424.0,1473.0,1441.0,1496.0,1456.0,0.0,0.0,0.0,0.0,0.0,0.0,0.0,0.0
4386476814,8,1497.0,1440.0,1477.0,1424.0,1474.0,1436.0,1495.0,1452.0,0.0,0.0,0.0,0.0,0.0,0.0,0.0,0.0
4386516809,8,1498.0,1437.0,1479.0,1424.0,1480.0,1438.0,1499.0,1451.0,0.0,0.0,0.0,0.0,0.0,0.0,0.0,0.0
4386556725,8,1496.0,1436.0,1481.0,1428.0,1486.0,1442.0,1501.0,1450.0,0.0,0.0,0.0,0.0,0.0,0.0,0.0,0.0
4386600708,8,1497.0,1436.0,1486.0,1433.0,1492.0,1444.0,1503.0,1448.0,0.0,0.0,0.0,0.0,0.0,0.0,0.0,0.0
4386641616,8,1502.0,1436.0,1486.0,1430.0,1494.0,1447.0,1510.0,1452.0,0.0,0.0,0.0,0.0,0.0,0.0,0.0,0.0
4386681528,8,1506.0,1438.0,1485.0,1428.0,1491.0,1447.0,1513.0,1458.0,0.0,0.0,0.0,0.0,0.0,0.0,0.0,0.0
4386725596,8,1510.0,1437.0,1482.0,1422.0,1489.0,1447.0,1517.0,1462.0,0.0,0.0,0.0,0.0,0.0,0.0,0.0,0.0
4386765520,8,1511.0,1439.0,1483.0,1425.0,1491.0,1450.0,1519.0,1465.0,0.0,0.0,0.0,0.0,0.0,0.0,0.0,0.0
4386809511,8,1521.0,1447.0,1493.0,1425.0,1490.0,1443.0,1518.0,1464.0,0.0,0.0,0.0,0.0,0.0,0.0,0.0,0.0
4386850486,8,1526.0,1448.0,1492.0,1418.0,1484.0,1436.0,1518.0,1466.0,0.0,0.0,0.0,0.0,0.0,0.0,0.0,0.0
4386894301,8,1533.0,1450.0,1495.0,1413.0,1480.0,1429.0,1518.0,1466.0,0.0,0.0,0.0,0.0,0.0,0.0,0.0,0.0
4386934295,8,1536.0,1448.0,1497.0,1410.0,1482.0,1427.0,1521.0,1465.0,0.0,0.0,0.0,0.0,0.0,0.0,0.0,0.0
4386978458,8,1536.0,1443.0,1491.0,1405.0,1481.0,1429.0,1525.0,1468.0,0.0,0.0,0.0,0.0,0.0,0.0,0.0,0.0
4387018445,8,1536.0,1444.0,1492.0,1405.0,1480.0,1427.0,1524.0,1466.0,0.0,0.0,0.0,0.0,0.0,0.0,0.0,0.0
4387062321,8,1534.0,1442.0,1497.0,1405.0,1482.0,1421.0,1520.0,1458.0,0.0,0.0,0.0,0.0,0.0,0.0,0.0,0.0
4387102472,8,1534.0,1445.0,1497.0,1406.0,1478.0,1418.0,1515.0,1458.0,0.0,0.0,0.0,0.0,0.0,0.0,0.0,0.0
4387143226,8,1528.0,1441.0,1498.0,1410.0,1484.0,1421.0,1513.0,1452.0,0.0,0.0,0.0,0.0,0.0,0.0,0.0,0.0
4387183264,8,1526.0,1439.0,1505.0,1416.0,1493.0,1423.0,1515.0,1446.0,0.0,0.0,0.0,0.0,0.0,0.0,0.0,0.0
4387227228,8,1522.0,1428.0,1494.0,1408.0,1494.0,1427.0,1521.0,1447.0,0.0,0.0,0.0,0.0,0.0,0.0,0.0,0.0
4387267111,8,1521.0,1424.0,1490.0,1404.0,1493.0,1428.0,1524.0,1448.0,0.0,0.0,0.0,0.0,0.0,0.0,0.0,0.0
4387311134,8,1517.0,1427.0,1488.0,1410.0,1493.0,1434.0,1522.0,1451.0,0.0,0.0,0.0,0.0,0.0,0.0,0.0,0.0
4387351131,8,1522.0,1433.0,1488.0,1410.0,1490.0,1436.0,1524.0,1459.0,0.0,0.0,0.0,0.0,0.0,0.0,0.0,0.0
4387395333,8,1523.0,1431.0,1484.0,1407.0,1488.0,1437.0,1527.0,1462.0,0.0,0.0,0.0,0.0,0.0,0.0,0.0,0.0
4387436067,8,1519.0,1429.0,1480.0,1409.0,1490.0,1444.0,1529.0,1464.0,0.0,0.0,0.0,0.0,0.0,0.0,0.0,0.0
4387476068,8,1518.0,1436.0,1484.0,1417.0,1491.0,1445.0,1524.0,1464.0,0.0,0.0,0.0,0.0,0.0,0.0,0.0,0.0
4387520021,8,1516.0,1442.0,1492.0,1428.0,1496.0,1447.0,1519.0,1461.0,0.0,0.0,0.0,0.0,0.0,0.0,0.0,0.0
4387560028,8,1517.0,1447.0,1493.0,1430.0,1492.0,1445.0,1515.0,1463.0,0.0,0.0,0.0,0.0,0.0,0.0,0.0,0.0
4387600020,8,1523.0,1451.0,1497.0,1427.0,1490.0,1441.0,1516.0,1464.0,0.0,0.0,0.0,0.0,0.0,0.0,0.0,0.0
4387640849,8,1520.0,1454.0,1492.0,1429.0,1486.0,1445.0,1514.0,1469.0,0.0,0.0,0.0,0.0,0.0,0.0,0.0,0.0
4387684858,8,1521.0,1453.0,1493.0,1425.0,1482.0,1437.0,1510.0,1465.0,0.0,0.0,0.0,0.0,0.0,0.0,0.0,0.0
4387724833,8,1524.0,1451.0,1496.0,1420.0,1480.0,1429.0,1508.0,1459.0,0.0,0.0,0.0,0.0,0.0,0.0,0.0,0.0
4387768823,8,1523.0,1453.0,1503.0,1426.0,1485.0,1427.0,1505.0,1455.0,0.0,0.0,0.0,0.0,0.0,0.0,0.0,0.0
4387808846,8,1530.0,1459.0,1510.0,1427.0,1485.0,1424.0,1505.0,1455.0,0.0,0.0,0.0,0.0,0.0,0.0,0.0,0.0
4387852872,8,1532.0,1452.0,1506.0,1419.0,1485.0,1423.0,1512.0,1456.0,0.0,0.0,0.0,0.0,0.0,0.0,0.0,0.0
4387893535,8,1533.0,1452.0,1506.0,1417.0,1483.0,1419.0,1510.0,1454.0,0.0,0.0,0.0,0.0,0.0,0.0,0.0,0.0
4387937506,8,1534.0,1448.0,1510.0,1416.0,1489.0,1417.0,1512.0,1449.0,0.0,0.0,0.0,0.0,0.0,0.0,0.0,0.0
4387977515,8,1536.0,1444.0,1510.0,1410.0,1487.0,1412.0,1514.0,1447.0,0.0,0.0,0.0,0.0,0.0,0.0,0.0,0.0
4388021645,8,1538.0,1450.0,1513.0,1410.0,1481.0,1405.0,1506.0,1445.0,0.0,0.0,0.0,0.0,0.0,0.0,0.0,0.0
4388061561,8,1535.0,1443.0,1510.0,1406.0,1482.0,1404.0,1507.0,1441.0,0.0,0.0,0.0,0.0,0.0,0.0,0.0,0.0
4388105505,8,1537.0,1441.0,1517.0,1407.0,1489.0,1402.0,1510.0,1436.0,0.0,0.0,0.0,0.0,0.0,0.0,0.0,0.0
4388145659,8,1537.0,1444.0,1515.0,1406.0,1483.0,1399.0,1505.0,1437.0,0.0,0.0,0.0,0.0,0.0,0.0,0.0,0.0
4388186439,8,1540.0,1442.0,1512.0,1398.0,1478.0,1394.0,1506.0,1438.0,0.0,0.0,0.0,0.0,0.0,0.0,0.0,0.0
4388230483,8,1537.0,1444.0,1506.0,1399.0,1474.0,1398.0,1505.0,1442.0,0.0,0.0,0.0,0.0,0.0,0.0,0.0,0.0
4388270465,8,1542.0,1440.0,1507.0,1394.0,1477.0,1397.0,1511.0,1443.0,0.0,0.0,0.0,0.0,0.0,0.0,0.0,0.0
4388314298,8,1544.0,1439.0,1504.0,1388.0,1472.0,1393.0,1511.0,1444.0,0.0,0.0,0.0,0.0,0.0,0.0,0.0,0.0
4388354310,8,1542.0,1437.0,1500.0,1386.0,1469.0,1393.0,1511.0,1445.0,0.0,0.0,0.0,0.0,0.0,0.0,0.0,0.0
4388398435,8,1542.0,1441.0,1502.0,1389.0,1468.0,1392.0,1508.0,1444.0,0.0,0.0,0.0,0.0,0.0,0.0,0.0,0.0
4388438345,8,1544.0,1442.0,1502.0,1387.0,1466.0,1392.0,1508.0,1447.0,0.0,0.0,0.0,0.0,0.0,0.0,0.0,0.0
4388479234,8,1543.0,1442.0,1496.0,1386.0,1462.0,1395.0,1509.0,1451.0,0.0,0.0,0.0,0.0,0.0,0.0,0.0,0.0
4388519110,8,1542.0,1442.0,1498.0,1385.0,1462.0,1391.0,1506.0,1448.0,0.0,0.0,0.0,0.0,0.0,0.0,0.0,0.0
4388563103,8,1541.0,1444.0,1497.0,1387.0,1461.0,1394.0,1506.0,1450.0,0.0,0.0,0.0,0.0,0.0,0.0,0.0,0.0
4388603244,8,1534.0,1441.0,1492.0,1391.0,1463.0,1401.0,1505.0,1451.0,0.0,0.0,0.0,0.0,0.0,0.0,0.0,0.0
4388647140,8,1530.0,1439.0,1487.0,1392.0,1463.0,1405.0,1505.0,1452.0,0.0,0.0,0.0,0.0,0.0,0.0,0.0,0.0
4388688041,8,1524.0,1438.0,1482.0,1394.0,1462.0,1410.0,1504.0,1454.0,0.0,0.0,0.0,0.0,0.0,0.0,0.0,0.0
4388731901,8,1519.0,1441.0,1478.0,1400.0,1461.0,1417.0,1502.0,1458.0,0.0,0.0,0.0,0.0,0.0,0.0,0.0,0.0
4388771910,8,1518.0,1441.0,1475.0,1398.0,1458.0,1416.0,1501.0,1459.0,0.0,0.0,0.0,0.0,0.0,0.0,0.0,0.0
4388816018,8,1516.0,1445.0,1481.0,1405.0,1461.0,1417.0,1497.0,1456.0,0.0,0.0,0.0,0.0,0.0,0.0,0.0,0.0
4388856028,8,1509.0,1444.0,1472.0,1408.0,1458.0,1425.0,1496.0,1461.0,0.0,0.0,0.0,0.0,0.0,0.0,0.0,0.0
4388899895,8,1509.0,1444.0,1468.0,1407.0,1457.0,1428.0,1498.0,1465.0,0.0,0.0,0.0,0.0,0.0,0.0,0.0,0.0
4388939913,8,1509.0,1451.0,1473.0,1414.0,1457.0,1427.0,1492.0,1464.0,0.0,0.0,0.0,0.0,0.0,0.0,0.0,0.0
4388980717,8,1508.0,1451.0,1471.0,1414.0,1455.0,1429.0,1493.0,1466.0,0.0,0.0,0.0,0.0,0.0,0.0,0.0,0.0
4389020721,8,1507.0,1454.0,1467.0,1412.0,1448.0,1428.0,1489.0,1470.0,0.0,0.0,0.0,0.0,0.0,0.0,0.0,0.0
4389064789,8,1503.0,1453.0,1461.0,1413.0,1446.0,1432.0,1488.0,1472.0,0.0,0.0,0.0,0.0,0.0,0.0,0.0,0.0
4389104726,8,1500.0,1452.0,1461.0,1417.0,1449.0,1436.0,1489.0,1472.0,0.0,0.0,0.0,0.0,0.0,0.0,0.0,0.0
4389148735,8,1500.0,1455.0,1466.0,1423.0,1455.0,1439.0,1489.0,1470.0,0.0,0.0,0.0,0.0,0.0,0.0,0.0,0.0
4389189630,8,1501.0,1458.0,1470.0,1425.0,1454.0,1435.0,1484.0,1468.0,0.0,0.0,0.0,0.0,0.0,0.0,0.0,0.0
4389229613,8,1498.0,1452.0,1469.0,1423.0,1458.0,1436.0,1487.0,1465.0,0.0,0.0,0.0,0.0,0.0,0.0,0.0,0.0
4389273665,8,1496.0,1459.0,1470.0,1431.0,1456.0,1439.0,1482.0,1468.0,0.0,0.0,0.0,0.0,0.0,0.0,0.0,0.0
4389313625,8,1499.0,1459.0,1477.0,1431.0,1460.0,1435.0,1482.0,1462.0,0.0,0.0,0.0,0.0,0.0,0.0,0.0,0.0
4389357606,8,1496.0,1454.0,1466.0,1425.0,1456.0,1440.0,1486.0,1468.0,0.0,0.0,0.0,0.0,0.0,0.0,0.0,0.0
4389397643,8,1503.0,1461.0,1474.0,1429.0,1457.0,1437.0,1486.0,1469.0,0.0,0.0,0.0,0.0,0.0,0.0,0.0,0.0
4389438446,8,1508.0,1460.0,1475.0,1425.0,1458.0,1436.0,1491.0,1471.0,0.0,0.0,0.0,0.0,0.0,0.0,0.0,0.0
4389478414,8,1510.0,1464.0,1479.0,1426.0,1456.0,1431.0,1486.0,1469.0,0.0,0.0,0.0,0.0,0.0,0.0,0.0,0.0
4389522403,8,1508.0,1461.0,1480.0,1426.0,1459.0,1430.0,1487.0,1466.0,0.0,0.0,0.0,0.0,0.0,0.0,0.0,0.0
4389562438,8,1509.0,1465.0,1481.0,1428.0,1456.0,1430.0,1484.0,1468.0,0.0,0.0,0.0,0.0,0.0,0.0,0.0,0.0
4389606417,8,1511.0,1458.0,1485.0,1424.0,1463.0,1427.0,1489.0,1461.0,0.0,0.0,0.0,0.0,0.0,0.0,0.0,0.0
4389646417,8,1512.0,1459.0,1488.0,1427.0,1467.0,1429.0,1491.0,1461.0,0.0,0.0,0.0,0.0,0.0,0.0,0.0,0.0
4389690499,8,1520.0,1461.0,1492.0,1424.0,1467.0,1426.0,1496.0,1464.0,0.0,0.0,0.0,0.0,0.0,0.0,0.0,0.0
4389731157,8,1523.0,1458.0,1489.0,1420.0,1470.0,1431.0,1505.0,1469.0,0.0,0.0,0.0,0.0,0.0,0.0,0.0,0.0
4389775308,8,1531.0,1460.0,1491.0,1414.0,1467.0,1425.0,1506.0,1470.0,0.0,0.0,0.0,0.0,0.0,0.0,0.0,0.0
4389819245,8,1528.0,1453.0,1487.0,1412.0,1469.0,1429.0,1510.0,1470.0,0.0,0.0,0.0,0.0,0.0,0.0,0.0,0.0
4389859279,8,1523.0,1447.0,1483.0,1413.0,1475.0,1436.0,1515.0,1470.0,0.0,0.0,0.0,0.0,0.0,0.0,0.0,0.0
4389903215,8,1525.0,1444.0,1483.0,1413.0,1482.0,1442.0,1524.0,1473.0,0.0,0.0,0.0,0.0,0.0,0.0,0.0,0.0
4389943099,8,1523.0,1447.0,1483.0,1413.0,1476.0,1437.0,1517.0,1471.0,0.0,0.0,0.0,0.0,0.0,0.0,0.0,0.0
4389988028,8,1520.0,1444.0,1480.0,1414.0,1478.0,1441.0,1518.0,1471.0,0.0,0.0,0.0,0.0,0.0,0.0,0.0,0.0
4390028021,8,1520.0,1447.0,1482.0,1418.0,1477.0,1441.0,1515.0,1471.0,0.0,0.0,0.0,0.0,0.0,0.0,0.0,0.0
4390071907,8,1523.0,1447.0,1486.0,1415.0,1478.0,1436.0,1515.0,1468.0,0.0,0.0,0.0,0.0,0.0,0.0,0.0,0.0
4390111921,8,1523.0,1450.0,1486.0,1415.0,1473.0,1431.0,1509.0,1467.0,0.0,0.0,0.0,0.0,0.0,0.0,0.0,0.0
4390155998,8,1524.0,1452.0,1489.0,1415.0,1472.0,1428.0,1507.0,1465.0,0.0,0.0,0.0,0.0,0.0,0.0,0.0,0.0
4390196004,8,1524.0,1457.0,1488.0,1417.0,1467.0,1428.0,1503.0,1468.0,0.0,0.0,0.0,0.0,0.0,0.0,0.0,0.0
4390240826,8,1524.0,1450.0,1489.0,1417.0,1477.0,1433.0,1512.0,1467.0,0.0,0.0,0.0,0.0,0.0,0.0,0.0,0.0
4390280695,8,1517.0,1446.0,1485.0,1418.0,1478.0,1435.0,1509.0,1463.0,0.0,0.0,0.0,0.0,0.0,0.0,0.0,0.0
4390320698,8,1512.0,1440.0,1483.0,1421.0,1485.0,1442.0,1513.0,1461.0,0.0,0.0,0.0,0.0,0.0,0.0,0.0,0.0
4390360698,8,1511.0,1443.0,1485.0,1424.0,1484.0,1442.0,1510.0,1461.0,0.0,0.0,0.0,0.0,0.0,0.0,0.0,0.0
4390404817,8,1513.0,1442.0,1487.0,1422.0,1485.0,1439.0,1511.0,1459.0,0.0,0.0,0.0,0.0,0.0,0.0,0.0,0.0
4390444731,8,1511.0,1440.0,1487.0,1424.0,1488.0,1442.0,1513.0,1458.0,0.0,0.0,0.0,0.0,0.0,0.0,0.0,0.0
4390489523,8,1509.0,1451.0,1492.0,1436.0,1487.0,1444.0,1504.0,1460.0,0.0,0.0,0.0,0.0,0.0,0.0,0.0,0.0
4390533671,8,1510.0,1449.0,1491.0,1433.0,1488.0,1444.0,1507.0,1460.0,0.0,0.0,0.0,0.0,0.0,0.0,0.0,0.0
4390573658,8,1513.0,1457.0,1496.0,1436.0,1483.0,1439.0,1500.0,1460.0,0.0,0.0,0.0,0.0,0.0,0.0,0.0,0.0
4390617626,8,1518.0,1459.0,1499.0,1434.0,1482.0,1435.0,1501.0,1461.0,0.0,0.0,0.0,0.0,0.0,0.0,0.0,0.0
4390657529,8,1517.0,1464.0,1503.0,1438.0,1480.0,1432.0,1495.0,1459.0,0.0,0.0,0.0,0.0,0.0,0.0,0.0,0.0
4390701652,8,1520.0,1465.0,1504.0,1438.0,1482.0,1433.0,1497.0,1460.0,0.0,0.0,0.0,0.0,0.0,0.0,0.0,0.0
4390742422,8,1522.0,1465.0,1504.0,1437.0,1483.0,1435.0,1501.0,1463.0,0.0,0.0,0.0,0.0,0.0,0.0,0.0,0.0
4390786324,8,1521.0,1461.0,1501.0,1433.0,1482.0,1434.0,1502.0,1461.0,0.0,0.0,0.0,0.0,0.0,0.0,0.0,0.0
4390826471,8,1523.0,1465.0,1503.0,1436.0,1482.0,1435.0,1501.0,1464.0,0.0,0.0,0.0,0.0,0.0,0.0,0.0,0.0
4390870647,8,1523.0,1463.0,1504.0,1436.0,1484.0,1435.0,1503.0,1463.0,0.0,0.0,0.0,0.0,0.0,0.0,0.0,0.0
4390914295,8,1527.0,1465.0,1509.0,1436.0,1487.0,1433.0,1505.0,1461.0,0.0,0.0,0.0,0.0,0.0,0.0,0.0,0.0
4390958323,8,1526.0,1463.0,1502.0,1431.0,1480.0,1432.0,1504.0,1465.0,0.0,0.0,0.0,0.0,0.0,0.0,0.0,0.0
4391002350,8,1526.0,1457.0,1501.0,1427.0,1483.0,1431.0,1507.0,1462.0,0.0,0.0,0.0,0.0,0.0,0.0,0.0,0.0
4391043143,8,1527.0,1464.0,1505.0,1432.0,1483.0,1433.0,1506.0,1464.0,0.0,0.0,0.0,0.0,0.0,0.0,0.0,0.0
4391087111,8,1529.0,1458.0,1503.0,1425.0,1482.0,1428.0,1508.0,1461.0,0.0,0.0,0.0,0.0,0.0,0.0,0.0,0.0
4391127099,8,1530.0,1457.0,1504.0,1421.0,1479.0,1422.0,1505.0,1458.0,0.0,0.0,0.0,0.0,0.0,0.0,0.0,0.0
4391171236,8,1529.0,1456.0,1505.0,1423.0,1482.0,1424.0,1506.0,1457.0,0.0,0.0,0.0,0.0,0.0,0.0,0.0,0.0
4391211159,8,1531.0,1453.0,1503.0,1419.0,1483.0,1425.0,1511.0,1459.0,0.0,0.0,0.0,0.0,0.0,0.0,0.0,0.0
4391256000,8,1532.0,1458.0,1503.0,1417.0,1476.0,1418.0,1505.0,1458.0,0.0,0.0,0.0,0.0,0.0,0.0,0.0,0.0
4391300092,8,1524.0,1447.0,1496.0,1417.0,1481.0,1426.0,1509.0,1456.0,0.0,0.0,0.0,0.0,0.0,0.0,0.0,0.0
4391340034,8,1522.0,1450.0,1496.0,1421.0,1480.0,1427.0,1505.0,1457.0,0.0,0.0,0.0,0.0,0.0,0.0,0.0,0.0
4391383999,8,1525.0,1447.0,1499.0,1416.0,1481.0,1423.0,1508.0,1454.0,0.0,0.0,0.0,0.0,0.0,0.0,0.0,0.0
4391423995,8,1527.0,1452.0,1500.0,1417.0,1478.0,1421.0,1505.0,1456.0,0.0,0.0,0.0,0.0,0.0,0.0,0.0,0.0
4391468068,8,1522.0,1454.0,1500.0,1421.0,1476.0,1419.0,1498.0,1452.0,0.0,0.0,0.0,0.0,0.0,0.0,0.0,0.0
4391508050,8,1524.0,1456.0,1502.0,1420.0,1473.0,1415.0,1496.0,1451.0,0.0,0.0,0.0,0.0,0.0,0.0,0.0,0.0
4391552695,8,1522.0,1454.0,1500.0,1419.0,1472.0,1416.0,1495.0,1451.0,0.0,0.0,0.0,0.0,0.0,0.0,0.0,0.0
4391592706,8,1524.0,1456.0,1503.0,1420.0,1473.0,1414.0,1494.0,1450.0,0.0,0.0,0.0,0.0,0.0,0.0,0.0,0.0
4391636839,8,1527.0,1454.0,1507.0,1416.0,1474.0,1407.0,1494.0,1445.0,0.0,0.0,0.0,0.0,0.0,0.0,0.0,0.0
4391676876,8,1530.0,1454.0,1512.0,1418.0,1479.0,1407.0,1497.0,1443.0,0.0,0.0,0.0,0.0,0.0,0.0,0.0,0.0
4391720712,8,1532.0,1461.0,1517.0,1423.0,1478.0,1406.0,1493.0,1444.0,0.0,0.0,0.0,0.0,0.0,0.0,0.0,0.0
4391761504,8,1537.0,1457.0,1514.0,1411.0,1472.0,1397.0,1495.0,1443.0,0.0,0.0,0.0,0.0,0.0,0.0,0.0,0.0
4391805635,8,1541.0,1451.0,1512.0,1402.0,1472.0,1394.0,1501.0,1443.0,0.0,0.0,0.0,0.0,0.0,0.0,0.0,0.0
4391845615,8,1543.0,1449.0,1512.0,1398.0,1470.0,1390.0,1501.0,1441.0,0.0,0.0,0.0,0.0,0.0,0.0,0.0,0.0
4391889586,8,1548.0,1448.0,1517.0,1395.0,1472.0,1385.0,1504.0,1439.0,0.0,0.0,0.0,0.0,0.0,0.0,0.0,0.0
4391933519,8,1548.0,1448.0,1515.0,1392.0,1469.0,1384.0,1503.0,1440.0,0.0,0.0,0.0,0.0,0.0,0.0,0.0,0.0
4391973600,8,1553.0,1446.0,1520.0,1389.0,1472.0,1378.0,1505.0,1436.0,0.0,0.0,0.0,0.0,0.0,0.0,0.0,0.0
4392017520,8,1555.0,1445.0,1520.0,1386.0,1472.0,1376.0,1507.0,1436.0,0.0,0.0,0.0,0.0,0.0,0.0,0.0,0.0
4392058450,8,1556.0,1447.0,1522.0,1384.0,1468.0,1370.0,1502.0,1433.0,0.0,0.0,0.0,0.0,0.0,0.0,0.0,0.0
4392102464,8,1548.0,1442.0,1519.0,1388.0,1472.0,1376.0,1501.0,1430.0,0.0,0.0,0.0,0.0,0.0,0.0,0.0,0.0
4392142436,8,1541.0,1442.0,1518.0,1394.0,1473.0,1379.0,1497.0,1427.0,0.0,0.0,0.0,0.0,0.0,0.0,0.0,0.0
4392186319,8,1535.0,1446.0,1517.0,1404.0,1476.0,1388.0,1494.0,1430.0,0.0,0.0,0.0,0.0,0.0,0.0,0.0,0.0
4392226306,8,1526.0,1438.0,1512.0,1407.0,1482.0,1396.0,1496.0,1427.0,0.0,0.0,0.0,0.0,0.0,0.0,0.0,0.0
4392270436,8,1522.0,1440.0,1508.0,1410.0,1481.0,1402.0,1495.0,1431.0,0.0,0.0,0.0,0.0,0.0,0.0,0.0,0.0
4392310441,8,1528.0,1442.0,1503.0,1404.0,1474.0,1401.0,1499.0,1439.0,0.0,0.0,0.0,0.0,0.0,0.0,0.0,0.0
4392351239,8,1526.0,1441.0,1498.0,1404.0,1474.0,1406.0,1501.0,1443.0,0.0,0.0,0.0,0.0,0.0,0.0,0.0,0.0
4392391150,8,1526.0,1453.0,1503.0,1413.0,1469.0,1405.0,1492.0,1445.0,0.0,0.0,0.0,0.0,0.0,0.0,0.0,0.0
4392431230,8,1530.0,1467.0,1511.0,1422.0,1467.0,1405.0,1486.0,1449.0,0.0,0.0,0.0,0.0,0.0,0.0,0.0,0.0
4392471234,8,1529.0,1461.0,1512.0,1423.0,1475.0,1408.0,1491.0,1446.0,0.0,0.0,0.0,0.0,0.0,0.0,0.0,0.0
4392515154,8,1526.0,1463.0,1514.0,1430.0,1479.0,1413.0,1491.0,1446.0,0.0,0.0,0.0,0.0,0.0,0.0,0.0,0.0
4392555900,8,1519.0,1460.0,1507.0,1431.0,1479.0,1421.0,1492.0,1449.0,0.0,0.0,0.0,0.0,0.0,0.0,0.0,0.0
4392600066,8,1513.0,1460.0,1502.0,1434.0,1476.0,1423.0,1487.0,1449.0,0.0,0.0,0.0,0.0,0.0,0.0,0.0,0.0
4392644065,8,1520.0,1458.0,1510.0,1432.0,1484.0,1421.0,1493.0,1446.0,0.0,0.0,0.0,0.0,0.0,0.0,0.0,0.0
4392684098,8,1516.0,1461.0,1508.0,1435.0,1480.0,1421.0,1487.0,1446.0,0.0,0.0,0.0,0.0,0.0,0.0,0.0,0.0
4392728050,8,1513.0,1465.0,1508.0,1440.0,1477.0,1421.0,1482.0,1446.0,0.0,0.0,0.0,0.0,0.0,0.0,0.0,0.0
4392768034,8,1517.0,1463.0,1511.0,1437.0,1480.0,1420.0,1486.0,1446.0,0.0,0.0,0.0,0.0,0.0,0.0,0.0,0.0
4392812840,8,1517.0,1463.0,1511.0,1441.0,1486.0,1428.0,1492.0,1450.0,0.0,0.0,0.0,0.0,0.0,0.0,0.0,0.0
4392856696,8,1517.0,1465.0,1512.0,1441.0,1484.0,1425.0,1489.0,1448.0,0.0,0.0,0.0,0.0,0.0,0.0,0.0,0.0
4392900849,8,1512.0,1461.0,1512.0,1446.0,1491.0,1431.0,1491.0,1446.0,0.0,0.0,0.0,0.0,0.0,0.0,0.0,0.0
4392940737,8,1510.0,1463.0,1519.0,1455.0,1499.0,1434.0,1490.0,1442.0,0.0,0.0,0.0,0.0,0.0,0.0,0.0,0.0
4392984712,8,1506.0,1461.0,1519.0,1459.0,1503.0,1440.0,1491.0,1441.0,0.0,0.0,0.0,0.0,0.0,0.0,0.0,0.0
4393024712,8,1507.0,1457.0,1519.0,1458.0,1508.0,1441.0,1496.0,1440.0,0.0,0.0,0.0,0.0,0.0,0.0,0.0,0.0
4393065754,8,1507.0,1463.0,1517.0,1462.0,1506.0,1446.0,1495.0,1447.0,0.0,0.0,0.0,0.0,0.0,0.0,0.0,0.0
4393109600,8,1509.0,1460.0,1511.0,1455.0,1502.0,1448.0,1501.0,1453.0,0.0,0.0,0.0,0.0,0.0,0.0,0.0,0.0
4393149643,8,1517.0,1463.0,1516.0,1453.0,1503.0,1444.0,1503.0,1454.0,0.0,0.0,0.0,0.0,0.0,0.0,0.0,0.0
4393193508,8,1512.0,1458.0,1512.0,1453.0,1505.0,1448.0,1505.0,1453.0,0.0,0.0,0.0,0.0,0.0,0.0,0.0,0.0
4393233512,8,1520.0,1462.0,1513.0,1450.0,1502.0,1447.0,1509.0,1459.0,0.0,0.0,0.0,0.0,0.0,0.0,0.0,0.0
4393277626,8,1525.0,1469.0,1518.0,1453.0,1502.0,1447.0,1509.0,1463.0,0.0,0.0,0.0,0.0,0.0,0.0,0.0,0.0
4393317613,8,1527.0,1472.0,1517.0,1453.0,1501.0,1449.0,1510.0,1467.0,0.0,0.0,0.0,0.0,0.0,0.0,0.0,0.0
4393362302,8,1536.0,1487.0,1523.0,1457.0,1493.0,1444.0,1506.0,1475.0,0.0,0.0,0.0,0.0,0.0,0.0,0.0,0.0
4393402316,8,1537.0,1493.0,1526.0,1458.0,1488.0,1439.0,1499.0,1474.0,0.0,0.0,0.0,0.0,0.0,0.0,0.0,0.0
4393446425,8,1532.0,1496.0,1529.0,1466.0,1489.0,1440.0,1492.0,1470.0,0.0,0.0,0.0,0.0,0.0,0.0,0.0,0.0
4393486419,8,1529.0,1496.0,1525.0,1468.0,1490.0,1446.0,1494.0,1473.0,0.0,0.0,0.0,0.0,0.0,0.0,0.0,0.0
4393530453,8,1524.0,1490.0,1520.0,1466.0,1489.0,1447.0,1493.0,1471.0,0.0,0.0,0.0,0.0,0.0,0.0,0.0,0.0
4393570436,8,1522.0,1492.0,1522.0,1468.0,1489.0,1445.0,1489.0,1469.0,0.0,0.0,0.0,0.0,0.0,0.0,0.0,0.0
4393611212,8,1520.0,1486.0,1519.0,1467.0,1493.0,1449.0,1494.0,1468.0,0.0,0.0,0.0,0.0,0.0,0.0,0.0,0.0
4393655324,8,1522.0,1489.0,1523.0,1468.0,1493.0,1447.0,1492.0,1468.0,0.0,0.0,0.0,0.0,0.0,0.0,0.0,0.0
4393695288,8,1521.0,1490.0,1523.0,1470.0,1493.0,1447.0,1490.0,1467.0,0.0,0.0,0.0,0.0,0.0,0.0,0.0,0.0
4393739192,8,1525.0,1488.0,1522.0,1463.0,1490.0,1443.0,1493.0,1468.0,0.0,0.0,0.0,0.0,0.0,0.0,0.0,0.0
4393779238,8,1527.0,1491.0,1522.0,1464.0,1489.0,1444.0,1494.0,1471.0,0.0,0.0,0.0,0.0,0.0,0.0,0.0,0.0
4393819120,8,1523.0,1490.0,1516.0,1462.0,1483.0,1443.0,1490.0,1472.0,0.0,0.0,0.0,0.0,0.0,0.0,0.0,0.0
4393860016,8,1525.0,1489.0,1516.0,1459.0,1482.0,1441.0,1491.0,1471.0,0.0,0.0,0.0,0.0,0.0,0.0,0.0,0.0
4393899911,8,1528.0,1488.0,1512.0,1451.0,1477.0,1437.0,1493.0,1474.0,0.0,0.0,0.0,0.0,0.0,0.0,0.0,0.0
4393944052,8,1532.0,1495.0,1520.0,1455.0,1476.0,1433.0,1489.0,1473.0,0.0,0.0,0.0,0.0,0.0,0.0,0.0,0.0
4393984015,8,1527.0,1493.0,1513.0,1454.0,1472.0,1434.0,1485.0,1473.0,0.0,0.0,0.0,0.0,0.0,0.0,0.0,0.0
4394028045,8,1526.0,1490.0,1507.0,1446.0,1464.0,1429.0,1483.0,1473.0,0.0,0.0,0.0,0.0,0.0,0.0,0.0,0.0
4394067920,8,1528.0,1490.0,1504.0,1440.0,1458.0,1425.0,1482.0,1474.0,0.0,0.0,0.0,0.0,0.0,0.0,0.0,0.0
4394108838,8,1525.0,1492.0,1501.0,1445.0,1459.0,1433.0,1483.0,1479.0,0.0,0.0,0.0,0.0,0.0,0.0,0.0,0.0
4394152871,8,1526.0,1496.0,1501.0,1444.0,1454.0,1428.0,1478.0,1480.0,0.0,0.0,0.0,0.0,0.0,0.0,0.0,0.0
4394192848,8,1531.0,1492.0,1508.0,1442.0,1460.0,1424.0,1483.0,1475.0,0.0,0.0,0.0,0.0,0.0,0.0,0.0,0.0
4394236802,8,1522.0,1488.0,1501.0,1442.0,1457.0,1425.0,1477.0,1471.0,0.0,0.0,0.0,0.0,0.0,0.0,0.0,0.0
4394276806,8,1518.0,1488.0,1505.0,1447.0,1461.0,1425.0,1474.0,1466.0,0.0,0.0,0.0,0.0,0.0,0.0,0.0,0.0
4394320829,8,1516.0,1488.0,1502.0,1448.0,1459.0,1428.0,1474.0,1468.0,0.0,0.0,0.0,0.0,0.0,0.0,0.0,0.0
4394361521,8,1515.0,1489.0,1507.0,1452.0,1463.0,1426.0,1471.0,1463.0,0.0,0.0,0.0,0.0,0.0,0.0,0.0,0.0
4394405499,8,1509.0,1486.0,1506.0,1457.0,1468.0,1432.0,1471.0,1461.0,0.0,0.0,0.0,0.0,0.0,0.0,0.0,0.0
4394445496,8,1504.0,1483.0,1508.0,1459.0,1471.0,1430.0,1467.0,1454.0,0.0,0.0,0.0,0.0,0.0,0.0,0.0,0.0
4394489621,8,1497.0,1475.0,1506.0,1462.0,1480.0,1437.0,1471.0,1450.0,0.0,0.0,0.0,0.0,0.0,0.0,0.0,0.0
4394529657,8,1501.0,1485.0,1512.0,1469.0,1479.0,1438.0,1468.0,1454.0,0.0,0.0,0.0,0.0,0.0,0.0,0.0,0.0
4394573519,8,1502.0,1483.0,1512.0,1470.0,1483.0,1442.0,1473.0,1456.0,0.0,0.0,0.0,0.0,0.0,0.0,0.0,0.0
4394614318,8,1505.0,1481.0,1510.0,1465.0,1481.0,1441.0,1476.0,1457.0,0.0,0.0,0.0,0.0,0.0,0.0,0.0,0.0
4394654322,8,1511.0,1489.0,1515.0,1467.0,1479.0,1438.0,1475.0,1461.0,0.0,0.0,0.0,0.0,0.0,0.0,0.0,0.0
4394698440,8,1507.0,1492.0,1512.0,1470.0,1475.0,1440.0,1470.0,1462.0,0.0,0.0,0.0,0.0,0.0,0.0,0.0,0.0
4394738425,8,1509.0,1485.0,1511.0,1462.0,1477.0,1436.0,1475.0,1459.0,0.0,0.0,0.0,0.0,0.0,0.0,0.0,0.0
4394782316,8,1509.0,1486.0,1508.0,1462.0,1476.0,1440.0,1477.0,1464.0,0.0,0.0,0.0,0.0,0.0,0.0,0.0,0.0
4394822318,8,1516.0,1488.0,1515.0,1461.0,1477.0,1434.0,1478.0,1462.0,0.0,0.0,0.0,0.0,0.0,0.0,0.0,0.0
4394866395,8,1512.0,1491.0,1509.0,1462.0,1472.0,1438.0,1475.0,1467.0,0.0,0.0,0.0,0.0,0.0,0.0,0.0,0.0
4394903117,8,1515.0,1492.0,1512.0,1463.0,1474.0,1438.0,1477.0,1467.0,0.0,0.0,0.0,0.0,0.0,0.0,0.0,0.0
4394947238,8,1518.0,1493.0,1511.0,1459.0,1470.0,1435.0,1477.0,1469.0,0.0,0.0,0.0,0.0,0.0,0.0,0.0,0.0
4394987233,8,1514.0,1492.0,1509.0,1462.0,1471.0,1439.0,1477.0,1470.0,0.0,0.0,0.0,0.0,0.0,0.0,0.0,0.0
4395031134,8,1518.0,1489.0,1507.0,1456.0,1470.0,1438.0,1481.0,1471.0,0.0,0.0,0.0,0.0,0.0,0.0,0.0,0.0
4395071125,8,1521.0,1492.0,1511.0,1455.0,1469.0,1432.0,1479.0,1469.0,0.0,0.0,0.0,0.0,0.0,0.0,0.0,0.0
4395115265,8,1518.0,1488.0,1511.0,1455.0,1471.0,1432.0,1478.0,1465.0,0.0,0.0,0.0,0.0,0.0,0.0,0.0,0.0
4395156021,8,1515.0,1491.0,1511.0,1461.0,1472.0,1436.0,1476.0,1467.0,0.0,0.0,0.0,0.0,0.0,0.0,0.0,0.0
4395199901,8,1513.0,1487.0,1510.0,1462.0,1478.0,1440.0,1480.0,1465.0,0.0,0.0,0.0,0.0,0.0,0.0,0.0,0.0
4395239906,8,1512.0,1492.0,1513.0,1467.0,1476.0,1440.0,1475.0,1465.0,0.0,0.0,0.0,0.0,0.0,0.0,0.0,0.0
4395283930,8,1516.0,1489.0,1514.0,1460.0,1475.0,1434.0,1477.0,1463.0,0.0,0.0,0.0,0.0,0.0,0.0,0.0,0.0
4395324020,8,1512.0,1480.0,1501.0,1450.0,1469.0,1435.0,1480.0,1466.0,0.0,0.0,0.0,0.0,0.0,0.0,0.0,0.0
4395367894,8,1518.0,1483.0,1502.0,1448.0,1469.0,1435.0,1484.0,1470.0,0.0,0.0,0.0,0.0,0.0,0.0,0.0,0.0
4395408796,8,1522.0,1483.0,1509.0,1448.0,1471.0,1430.0,1484.0,1465.0,0.0,0.0,0.0,0.0,0.0,0.0,0.0,0.0
4395448705,8,1520.0,1487.0,1511.0,1453.0,1472.0,1432.0,1481.0,1465.0,0.0,0.0,0.0,0.0,0.0,0.0,0.0,0.0
4395492833,8,1524.0,1489.0,1513.0,1454.0,1474.0,1434.0,1484.0,1469.0,0.0,0.0,0.0,0.0,0.0,0.0,0.0,0.0
4395532814,8,1517.0,1482.0,1509.0,1452.0,1474.0,1434.0,1482.0,1464.0,0.0,0.0,0.0,0.0,0.0,0.0,0.0,0.0
4395576835,8,1516.0,1481.0,1512.0,1455.0,1480.0,1436.0,1485.0,1462.0,0.0,0.0,0.0,0.0,0.0,0.0,0.0,0.0
4395616713,8,1519.0,1484.0,1515.0,1457.0,1481.0,1435.0,1485.0,1463.0,0.0,0.0,0.0,0.0,0.0,0.0,0.0,0.0
4395660880,8,1520.0,1486.0,1522.0,1463.0,1487.0,1436.0,1484.0,1460.0,0.0,0.0,0.0,0.0,0.0,0.0,0.0,0.0
4395701640,8,1516.0,1486.0,1521.0,1466.0,1488.0,1439.0,1483.0,1459.0,0.0,0.0,0.0,0.0,0.0,0.0,0.0,0.0
4395745663,8,1517.0,1486.0,1523.0,1466.0,1488.0,1437.0,1482.0,1458.0,0.0,0.0,0.0,0.0,0.0,0.0,0.0,0.0
4395785621,8,1511.0,1486.0,1528.0,1475.0,1496.0,1441.0,1480.0,1452.0,0.0,0.0,0.0,0.0,0.0,0.0,0.0,0.0
4395829666,8,1508.0,1488.0,1533.0,1481.0,1499.0,1440.0,1475.0,1447.0,0.0,0.0,0.0,0.0,0.0,0.0,0.0,0.0
4395869692,8,1510.0,1498.0,1532.0,1482.0,1489.0,1437.0,1467.0,1452.0,0.0,0.0,0.0,0.0,0.0,0.0,0.0,0.0
4395913617,8,1507.0,1503.0,1531.0,1488.0,1485.0,1438.0,1461.0,1453.0,0.0,0.0,0.0,0.0,0.0,0.0,0.0,0.0
4395954296,8,1508.0,1499.0,1524.0,1481.0,1483.0,1441.0,1467.0,1459.0,0.0,0.0,0.0,0.0,0.0,0.0,0.0,0.0
4395994321,8,1504.0,1491.0,1516.0,1476.0,1482.0,1444.0,1471.0,1459.0,0.0,0.0,0.0,0.0,0.0,0.0,0.0,0.0
4396034401,8,1504.0,1489.0,1521.0,1480.0,1491.0,1446.0,1473.0,1455.0,0.0,0.0,0.0,0.0,0.0,0.0,0.0,0.0
4396078448,8,1509.0,1487.0,1518.0,1470.0,1485.0,1441.0,1476.0,1458.0,0.0,0.0,0.0,0.0,0.0,0.0,0.0,0.0
4396118458,8,1517.0,1483.0,1513.0,1459.0,1483.0,1441.0,1486.0,1465.0,0.0,0.0,0.0,0.0,0.0,0.0,0.0,0.0
4396162309,8,1531.0,1482.0,1507.0,1439.0,1470.0,1430.0,1494.0,1473.0,0.0,0.0,0.0,0.0,0.0,0.0,0.0,0.0
4396207229,8,1538.0,1479.0,1506.0,1432.0,1472.0,1431.0,1504.0,1477.0,0.0,0.0,0.0,0.0,0.0,0.0,0.0,0.0
4396247140,8,1545.0,1480.0,1515.0,1433.0,1479.0,1429.0,1509.0,1476.0,0.0,0.0,0.0,0.0,0.0,0.0,0.0,0.0
4396291107,8,1544.0,1477.0,1511.0,1432.0,1481.0,1434.0,1514.0,1479.0,0.0,0.0,0.0,0.0,0.0,0.0,0.0,0.0
4396331122,8,1532.0,1467.0,1513.0,1445.0,1500.0,1449.0,1519.0,1471.0,0.0,0.0,0.0,0.0,0.0,0.0,0.0,0.0
4396375265,8,1536.0,1479.0,1529.0,1459.0,1507.0,1447.0,1514.0,1468.0,0.0,0.0,0.0,0.0,0.0,0.0,0.0,0.0
4396415296,8,1537.0,1482.0,1533.0,1468.0,1517.0,1459.0,1520.0,1472.0,0.0,0.0,0.0,0.0,0.0,0.0,0.0,0.0
4396456032,8,1529.0,1483.0,1536.0,1480.0,1525.0,1468.0,1519.0,1471.0,0.0,0.0,0.0,0.0,0.0,0.0,0.0,0.0
4396499912,8,1527.0,1481.0,1534.0,1484.0,1532.0,1477.0,1524.0,1474.0,0.0,0.0,0.0,0.0,0.0,0.0,0.0,0.0
4396543911,8,1525.0,1485.0,1539.0,1496.0,1541.0,1488.0,1527.0,1476.0,0.0,0.0,0.0,0.0,0.0,0.0,0.0,0.0
4396587925,8,1527.0,1487.0,1537.0,1497.0,1540.0,1493.0,1531.0,1483.0,0.0,0.0,0.0,0.0,0.0,0.0,0.0,0.0
4396632013,8,1524.0,1490.0,1528.0,1496.0,1532.0,1497.0,1529.0,1491.0,0.0,0.0,0.0,0.0,0.0,0.0,0.0,0.0
4396672828,8,1527.0,1496.0,1534.0,1503.0,1536.0,1499.0,1529.0,1493.0,0.0,0.0,0.0,0.0,0.0,0.0,0.0,0.0
4396712823,8,1526.0,1495.0,1538.0,1508.0,1544.0,1503.0,1532.0,1491.0,0.0,0.0,0.0,0.0,0.0,0.0,0.0,0.0
4396756851,8,1525.0,1492.0,1541.0,1506.0,1546.0,1498.0,1530.0,1484.0,0.0,0.0,0.0,0.0,0.0,0.0,0.0,0.0
4396796844,8,1518.0,1486.0,1532.0,1508.0,1549.0,1509.0,1535.0,1487.0,0.0,0.0,0.0,0.0,0.0,0.0,0.0,0.0
4396840826,8,1500.0,1482.0,1534.0,1527.0,1564.0,1524.0,1530.0,1480.0,0.0,0.0,0.0,0.0,0.0,0.0,0.0,0.0
4396880813,8,1502.0,1482.0,1535.0,1525.0,1562.0,1520.0,1528.0,1477.0,0.0,0.0,0.0,0.0,0.0,0.0,0.0,0.0
4396924856,8,1511.0,1481.0,1526.0,1510.0,1552.0,1517.0,1537.0,1488.0,0.0,0.0,0.0,0.0,0.0,0.0,0.0,0.0
4396965530,8,1517.0,1482.0,1530.0,1504.0,1548.0,1508.0,1534.0,1486.0,0.0,0.0,0.0,0.0,0.0,0.0,0.0,0.0
4397009504,8,1529.0,1495.0,1539.0,1502.0,1539.0,1495.0,1530.0,1489.0,0.0,0.0,0.0,0.0,0.0,0.0,0.0,0.0
4397049498,8,1540.0,1495.0,1538.0,1490.0,1531.0,1486.0,1533.0,1492.0,0.0,0.0,0.0,0.0,0.0,0.0,0.0,0.0
4397093634,8,1547.0,1505.0,1553.0,1499.0,1538.0,1484.0,1532.0,1490.0,0.0,0.0,0.0,0.0,0.0,0.0,0.0,0.0
4397133661,8,1550.0,1509.0,1558.0,1500.0,1537.0,1480.0,1530.0,1489.0,0.0,0.0,0.0,0.0,0.0,0.0,0.0,0.0
4397173680,8,1558.0,1509.0,1557.0,1489.0,1529.0,1470.0,1530.0,1490.0,0.0,0.0,0.0,0.0,0.0,0.0,0.0,0.0
4397218329,8,1559.0,1499.0,1551.0,1478.0,1530.0,1468.0,1538.0,1489.0,0.0,0.0,0.0,0.0,0.0,0.0,0.0,0.0
4397258330,8,1564.0,1503.0,1556.0,1477.0,1526.0,1462.0,1535.0,1489.0,0.0,0.0,0.0,0.0,0.0,0.0,0.0,0.0
4397302446,8,1568.0,1500.0,1555.0,1465.0,1519.0,1450.0,1533.0,1485.0,0.0,0.0,0.0,0.0,0.0,0.0,0.0,0.0
4397342440,8,1563.0,1498.0,1550.0,1465.0,1517.0,1452.0,1530.0,1484.0,0.0,0.0,0.0,0.0,0.0,0.0,0.0,0.0
4397386313,8,1559.0,1488.0,1545.0,1456.0,1514.0,1444.0,1528.0,1476.0,0.0,0.0,0.0,0.0,0.0,0.0,0.0,0.0
4397426324,8,1554.0,1486.0,1543.0,1456.0,1512.0,1441.0,1523.0,1471.0,0.0,0.0,0.0,0.0,0.0,0.0,0.0,0.0
4397471133,8,1554.0,1488.0,1543.0,1457.0,1510.0,1443.0,1522.0,1474.0,0.0,0.0,0.0,0.0,0.0,0.0,0.0,0.0
4397511227,8,1551.0,1489.0,1542.0,1458.0,1508.0,1441.0,1517.0,1471.0,0.0,0.0,0.0,0.0,0.0,0.0,0.0,0.0
4397555244,8,1548.0,1485.0,1533.0,1452.0,1502.0,1440.0,1517.0,1473.0,0.0,0.0,0.0,0.0,0.0,0.0,0.0,0.0
4397595263,8,1544.0,1486.0,1527.0,1453.0,1496.0,1442.0,1512.0,1476.0,0.0,0.0,0.0,0.0,0.0,0.0,0.0,0.0
4397639233,8,1540.0,1485.0,1526.0,1453.0,1495.0,1440.0,1508.0,1472.0,0.0,0.0,0.0,0.0,0.0,0.0,0.0,0.0
4397679249,8,1531.0,1483.0,1517.0,1454.0,1489.0,1444.0,1503.0,1473.0,0.0,0.0,0.0,0.0,0.0,0.0,0.0,0.0
4397719991,8,1532.0,1485.0,1519.0,1452.0,1486.0,1439.0,1500.0,1472.0,0.0,0.0,0.0,0.0,0.0,0.0,0.0,0.0
4397759993,8,1528.0,1481.0,1515.0,1451.0,1485.0,1439.0,1498.0,1469.0,0.0,0.0,0.0,0.0,0.0,0.0,0.0,0.0
4397803917,8,1522.0,1476.0,1507.0,1448.0,1482.0,1441.0,1497.0,1469.0,0.0,0.0,0.0,0.0,0.0,0.0,0.0,0.0
4397843911,8,1520.0,1477.0,1507.0,1450.0,1482.0,1442.0,1495.0,1468.0,0.0,0.0,0.0,0.0,0.0,0.0,0.0,0.0
4397888019,8,1521.0,1479.0,1505.0,1447.0,1477.0,1438.0,1493.0,1470.0,0.0,0.0,0.0,0.0,0.0,0.0,0.0,0.0
4397927918,8,1520.0,1473.0,1503.0,1443.0,1476.0,1436.0,1493.0,1466.0,0.0,0.0,0.0,0.0,0.0,0.0,0.0,0.0
4397971902,8,1516.0,1469.0,1499.0,1441.0,1476.0,1436.0,1493.0,1465.0,0.0,0.0,0.0,0.0,0.0,0.0,0.0,0.0
4398012819,8,1512.0,1462.0,1498.0,1440.0,1481.0,1438.0,1495.0,1460.0,0.0,0.0,0.0,0.0,0.0,0.0,0.0,0.0
4398052823,8,1508.0,1463.0,1499.0,1446.0,1483.0,1441.0,1492.0,1459.0,0.0,0.0,0.0,0.0,0.0,0.0,0.0,0.0
4398096866,8,1506.0,1458.0,1498.0,1443.0,1485.0,1439.0,1493.0,1454.0,0.0,0.0,0.0,0.0,0.0,0.0,0.0,0.0
4398136820,8,1507.0,1460.0,1503.0,1443.0,1483.0,1432.0,1487.0,1449.0,0.0,0.0,0.0,0.0,0.0,0.0,0.0,0.0
4398180829,8,1506.0,1454.0,1500.0,1438.0,1484.0,1431.0,1490.0,1447.0,0.0,0.0,0.0,0.0,0.0,0.0,0.0,0.0
4398221635,8,1506.0,1456.0,1502.0,1440.0,1483.0,1429.0,1487.0,1446.0,0.0,0.0,0.0,0.0,0.0,0.0,0.0,0.0
4398261596,8,1512.0,1461.0,1508.0,1438.0,1480.0,1421.0,1484.0,1444.0,0.0,0.0,0.0,0.0,0.0,0.0,0.0,0.0
4398301587,8,1513.0,1461.0,1501.0,1435.0,1476.0,1426.0,1488.0,1451.0,0.0,0.0,0.0,0.0,0.0,0.0,0.0,0.0
4398345611,8,1516.0,1462.0,1500.0,1431.0,1473.0,1423.0,1489.0,1454.0,0.0,0.0,0.0,0.0,0.0,0.0,0.0,0.0
4398385608,8,1512.0,1465.0,1496.0,1433.0,1467.0,1424.0,1484.0,1456.0,0.0,0.0,0.0,0.0,0.0,0.0,0.0,0.0
4398429613,8,1513.0,1463.0,1496.0,1432.0,1469.0,1424.0,1486.0,1455.0,0.0,0.0,0.0,0.0,0.0,0.0,0.0,0.0
4398469529,8,1510.0,1467.0,1495.0,1437.0,1468.0,1429.0,1483.0,1458.0,0.0,0.0,0.0,0.0,0.0,0.0,0.0,0.0
4398514325,8,1513.0,1467.0,1498.0,1434.0,1466.0,1421.0,1481.0,1455.0,0.0,0.0,0.0,0.0,0.0,0.0,0.0,0.0
4398554431,8,1513.0,1463.0,1494.0,1426.0,1462.0,1418.0,1482.0,1454.0,0.0,0.0,0.0,0.0,0.0,0.0,0.0,0.0
4398598314,8,1512.0,1463.0,1496.0,1429.0,1464.0,1417.0,1480.0,1451.0,0.0,0.0,0.0,0.0,0.0,0.0,0.0,0.0
4398638433,8,1511.0,1460.0,1500.0,1430.0,1470.0,1417.0,1481.0,1446.0,0.0,0.0,0.0,0.0,0.0,0.0,0.0,0.0
4398678677,8,1512.0,1454.0,1500.0,1427.0,1474.0,1417.0,1485.0,1444.0,0.0,0.0,0.0,0.0,0.0,0.0,0.0,0.0
4398718412,8,1512.0,1452.0,1500.0,1426.0,1475.0,1417.0,1488.0,1444.0,0.0,0.0,0.0,0.0,0.0,0.0,0.0,0.0
4398759248,8,1516.0,1450.0,1505.0,1424.0,1478.0,1412.0,1489.0,1438.0,0.0,0.0,0.0,0.0,0.0,0.0,0.0,0.0
4398799244,8,1515.0,1447.0,1503.0,1419.0,1476.0,1408.0,1488.0,1436.0,0.0,0.0,0.0,0.0,0.0,0.0,0.0,0.0
4398843292,8,1514.0,1447.0,1504.0,1420.0,1476.0,1407.0,1485.0,1434.0,0.0,0.0,0.0,0.0,0.0,0.0,0.0,0.0
4398883286,8,1515.0,1451.0,1506.0,1423.0,1475.0,1408.0,1484.0,1435.0,0.0,0.0,0.0,0.0,0.0,0.0,0.0,0.0
4398927144,8,1520.0,1445.0,1509.0,1412.0,1474.0,1396.0,1486.0,1429.0,0.0,0.0,0.0,0.0,0.0,0.0,0.0,0.0
4398967134,8,1519.0,1447.0,1507.0,1414.0,1473.0,1399.0,1485.0,1431.0,0.0,0.0,0.0,0.0,0.0,0.0,0.0,0.0
4399012026,8,1523.0,1441.0,1507.0,1409.0,1476.0,1398.0,1492.0,1431.0,0.0,0.0,0.0,0.0,0.0,0.0,0.0,0.0
4399055907,8,1520.0,1447.0,1506.0,1414.0,1472.0,1400.0,1486.0,1434.0,0.0,0.0,0.0,0.0,0.0,0.0,0.0,0.0
4399095924,8,1523.0,1447.0,1508.0,1412.0,1474.0,1398.0,1489.0,1433.0,0.0,0.0,0.0,0.0,0.0,0.0,0.0,0.0
4399140029,8,1522.0,1457.0,1508.0,1416.0,1465.0,1396.0,1479.0,1436.0,0.0,0.0,0.0,0.0,0.0,0.0,0.0,0.0
4399180048,8,1524.0,1449.0,1513.0,1414.0,1475.0,1395.0,1487.0,1430.0,0.0,0.0,0.0,0.0,0.0,0.0,0.0,0.0
4399223901,8,1520.0,1452.0,1510.0,1417.0,1471.0,1396.0,1481.0,1431.0,0.0,0.0,0.0,0.0,0.0,0.0,0.0,0.0
4399264710,8,1523.0,1455.0,1507.0,1416.0,1468.0,1400.0,1484.0,1439.0,0.0,0.0,0.0,0.0,0.0,0.0,0.0,0.0
4399308832,8,1525.0,1452.0,1505.0,1409.0,1464.0,1395.0,1484.0,1437.0,0.0,0.0,0.0,0.0,0.0,0.0,0.0,0.0
4399348825,8,1525.0,1457.0,1505.0,1414.0,1465.0,1400.0,1484.0,1442.0,0.0,0.0,0.0,0.0,0.0,0.0,0.0,0.0
4399392703,8,1521.0,1457.0,1502.0,1417.0,1464.0,1402.0,1482.0,1443.0,0.0,0.0,0.0,0.0,0.0,0.0,0.0,0.0
4399432720,8,1520.0,1458.0,1500.0,1419.0,1465.0,1407.0,1484.0,1446.0,0.0,0.0,0.0,0.0,0.0,0.0,0.0,0.0
4399476833,8,1522.0,1455.0,1496.0,1414.0,1464.0,1409.0,1490.0,1451.0,0.0,0.0,0.0,0.0,0.0,0.0,0.0,0.0
4399516715,8,1520.0,1454.0,1493.0,1411.0,1460.0,1407.0,1487.0,1450.0,0.0,0.0,0.0,0.0,0.0,0.0,0.0,0.0
4399557623,8,1517.0,1457.0,1492.0,1415.0,1458.0,1409.0,1484.0,1451.0,0.0,0.0,0.0,0.0,0.0,0.0,0.0,0.0
4399601513,8,1507.0,1462.0,1490.0,1426.0,1456.0,1415.0,1473.0,1451.0,0.0,0.0,0.0,0.0,0.0,0.0,0.0,0.0
4399645651,8,1510.0,1465.0,1497.0,1429.0,1460.0,1412.0,1473.0,1448.0,0.0,0.0,0.0,0.0,0.0,0.0,0.0,0.0
4399689656,8,1510.0,1468.0,1494.0,1429.0,1455.0,1412.0,1471.0,1451.0,0.0,0.0,0.0,0.0,0.0,0.0,0.0,0.0
4399729654,8,1513.0,1466.0,1495.0,1425.0,1454.0,1409.0,1472.0,1450.0,0.0,0.0,0.0,0.0,0.0,0.0,0.0,0.0
4399773709,8,1514.0,1468.0,1494.0,1426.0,1455.0,1412.0,1475.0,1454.0,0.0,0.0,0.0,0.0,0.0,0.0,0.0,0.0
4399814448,8,1512.0,1466.0,1498.0,1429.0,1459.0,1412.0,1474.0,1449.0,0.0,0.0,0.0,0.0,0.0,0.0,0.0,0.0
4399854480,8,1510.0,1466.0,1499.0,1431.0,1461.0,1412.0,1472.0,1447.0,0.0,0.0,0.0,0.0,0.0,0.0,0.0,0.0
4399898631,8,1507.0,1463.0,1497.0,1434.0,1465.0,1419.0,1476.0,1448.0,0.0,0.0,0.0,0.0,0.0,0.0,0.0,0.0
4399942316,8,1511.0,1463.0,1501.0,1430.0,1463.0,1410.0,1473.0,1444.0,0.0,0.0,0.0,0.0,0.0,0.0,0.0,0.0
4399982471,8,1512.0,1467.0,1501.0,1432.0,1462.0,1412.0,1473.0,1448.0,0.0,0.0,0.0,0.0,0.0,0.0,0.0,0.0
4400026463,8,1514.0,1464.0,1504.0,1430.0,1466.0,1411.0,1476.0,1445.0,0.0,0.0,0.0,0.0,0.0,0.0,0.0,0.0
4400067197,8,1515.0,1455.0,1500.0,1423.0,1469.0,1412.0,1484.0,1444.0,0.0,0.0,0.0,0.0,0.0,0.0,0.0,0.0
4400107114,8,1509.0,1462.0,1498.0,1433.0,1469.0,1420.0,1480.0,1449.0,0.0,0.0,0.0,0.0,0.0,0.0,0.0,0.0
4400151117,8,1514.0,1463.0,1505.0,1433.0,1471.0,1416.0,1480.0,1446.0,0.0,0.0,0.0,0.0,0.0,0.0,0.0,0.0
4400191125,8,1511.0,1462.0,1500.0,1433.0,1471.0,1419.0,1481.0,1448.0,0.0,0.0,0.0,0.0,0.0,0.0,0.0,0.0
4400235291,8,1509.0,1458.0,1495.0,1428.0,1468.0,1419.0,1482.0,1449.0,0.0,0.0,0.0,0.0,0.0,0.0,0.0,0.0
4400275315,8,1516.0,1464.0,1499.0,1428.0,1465.0,1415.0,1481.0,1451.0,0.0,0.0,0.0,0.0,0.0,0.0,0.0,0.0
4400319903,8,1519.0,1471.0,1499.0,1428.0,1459.0,1413.0,1478.0,1456.0,0.0,0.0,0.0,0.0,0.0,0.0,0.0,0.0
4400359895,8,1521.0,1467.0,1495.0,1420.0,1455.0,1411.0,1481.0,1457.0,0.0,0.0,0.0,0.0,0.0,0.0,0.0,0.0
4400404030,8,1519.0,1471.0,1494.0,1426.0,1456.0,1416.0,1481.0,1461.0,0.0,0.0,0.0,0.0,0.0,0.0,0.0,0.0
4400444033,8,1517.0,1469.0,1494.0,1426.0,1457.0,1417.0,1480.0,1460.0,0.0,0.0,0.0,0.0,0.0,0.0,0.0,0.0
4400487896,8,1519.0,1470.0,1493.0,1423.0,1452.0,1412.0,1477.0,1459.0,0.0,0.0,0.0,0.0,0.0,0.0,0.0,0.0
4400528699,8,1516.0,1464.0,1490.0,1419.0,1453.0,1411.0,1479.0,1456.0,0.0,0.0,0.0,0.0,0.0,0.0,0.0,0.0
4400572820,8,1509.0,1460.0,1479.0,1419.0,1450.0,1420.0,1480.0,1461.0,0.0,0.0,0.0,0.0,0.0,0.0,0.0,0.0
4400612808,8,1512.0,1465.0,1486.0,1422.0,1452.0,1416.0,1478.0,1459.0,0.0,0.0,0.0,0.0,0.0,0.0,0.0,0.0
4400656706,8,1518.0,1463.0,1493.0,1419.0,1456.0,1411.0,1481.0,1455.0,0.0,0.0,0.0,0.0,0.0,0.0,0.0,0.0
4400696709,8,1518.0,1463.0,1489.0,1417.0,1453.0,1412.0,1482.0,1458.0,0.0,0.0,0.0,0.0,0.0,0.0,0.0,0.0
4400740821,8,1520.0,1462.0,1482.0,1410.0,1446.0,1411.0,1483.0,1463.0,0.0,0.0,0.0,0.0,0.0,0.0,0.0,0.0
4400780839,8,1521.0,1463.0,1481.0,1410.0,1447.0,1414.0,1487.0,1466.0,0.0,0.0,0.0,0.0,0.0,0.0,0.0,0.0
4400824705,8,1516.0,1457.0,1480.0,1409.0,1448.0,1412.0,1484.0,1460.0,0.0,0.0,0.0,0.0,0.0,0.0,0.0,0.0
4400865636,8,1516.0,1459.0,1488.0,1414.0,1454.0,1411.0,1483.0,1455.0,0.0,0.0,0.0,0.0,0.0,0.0,0.0,0.0
4400905652,8,1515.0,1458.0,1492.0,1418.0,1460.0,1412.0,1483.0,1452.0,0.0,0.0,0.0,0.0,0.0,0.0,0.0,0.0
4400945530,8,1514.0,1457.0,1494.0,1421.0,1462.0,1412.0,1482.0,1449.0,0.0,0.0,0.0,0.0,0.0,0.0,0.0,0.0
4400989659,8,1517.0,1453.0,1494.0,1417.0,1467.0,1415.0,1490.0,1451.0,0.0,0.0,0.0,0.0,0.0,0.0,0.0,0.0
4401029530,8,1525.0,1458.0,1494.0,1414.0,1462.0,1412.0,1492.0,1457.0,0.0,0.0,0.0,0.0,0.0,0.0,0.0,0.0
4401070483,8,1531.0,1457.0,1499.0,1411.0,1465.0,1409.0,1497.0,1456.0,0.0,0.0,0.0,0.0,0.0,0.0,0.0,0.0
4401114446,8,1524.0,1461.0,1496.0,1419.0,1465.0,1417.0,1493.0,1458.0,0.0,0.0,0.0,0.0,0.0,0.0,0.0,0.0
4401154447,8,1528.0,1463.0,1499.0,1420.0,1467.0,1417.0,1496.0,1461.0,0.0,0.0,0.0,0.0,0.0,0.0,0.0,0.0
4401198476,8,1532.0,1457.0,1507.0,1418.0,1477.0,1416.0,1503.0,1455.0,0.0,0.0,0.0,0.0,0.0,0.0,0.0,0.0
4401238416,8,1534.0,1454.0,1512.0,1418.0,1484.0,1415.0,1507.0,1450.0,0.0,0.0,0.0,0.0,0.0,0.0,0.0,0.0
4401282407,8,1529.0,1450.0,1502.0,1416.0,1480.0,1419.0,1507.0,1453.0,0.0,0.0,0.0,0.0,0.0,0.0,0.0,0.0
4401323107,8,1527.0,1450.0,1499.0,1416.0,1480.0,1422.0,1508.0,1456.0,0.0,0.0,0.0,0.0,0.0,0.0,0.0,0.0
4401363228,8,1529.0,1450.0,1501.0,1416.0,1481.0,1421.0,1509.0,1455.0,0.0,0.0,0.0,0.0,0.0,0.0,0.0,0.0
4401407164,8,1534.0,1449.0,1512.0,1415.0,1485.0,1412.0,1507.0,1446.0,0.0,0.0,0.0,0.0,0.0,0.0,0.0,0.0
4401451119,8,1529.0,1459.0,1514.0,1426.0,1483.0,1415.0,1498.0,1448.0,0.0,0.0,0.0,0.0,0.0,0.0,0.0,0.0
4401491120,8,1527.0,1460.0,1509.0,1427.0,1479.0,1418.0,1497.0,1452.0,0.0,0.0,0.0,0.0,0.0,0.0,0.0,0.0
4401535321,8,1535.0,1451.0,1519.0,1418.0,1489.0,1409.0,1506.0,1442.0,0.0,0.0,0.0,0.0,0.0,0.0,0.0,0.0
4401575930,8,1528.0,1449.0,1513.0,1422.0,1490.0,1416.0,1505.0,1443.0,0.0,0.0,0.0,0.0,0.0,0.0,0.0,0.0
4401616046,8,1526.0,1442.0,1509.0,1419.0,1494.0,1421.0,1512.0,1444.0,0.0,0.0,0.0,0.0,0.0,0.0,0.0,0.0
4401659897,8,1528.0,1451.0,1516.0,1429.0,1496.0,1424.0,1508.0,1446.0,0.0,0.0,0.0,0.0,0.0,0.0,0.0,0.0
4401699918,8,1528.0,1447.0,1511.0,1425.0,1496.0,1427.0,1513.0,1449.0,0.0,0.0,0.0,0.0,0.0,0.0,0.0,0.0
4401743919,8,1529.0,1442.0,1509.0,1421.0,1499.0,1427.0,1519.0,1448.0,0.0,0.0,0.0,0.0,0.0,0.0,0.0,0.0
4401784030,8,1529.0,1439.0,1504.0,1415.0,1495.0,1426.0,1519.0,1449.0,0.0,0.0,0.0,0.0,0.0,0.0,0.0,0.0
4401824795,8,1533.0,1444.0,1513.0,1419.0,1497.0,1421.0,1517.0,1446.0,0.0,0.0,0.0,0.0,0.0,0.0,0.0,0.0
4401864731,8,1533.0,1435.0,1506.0,1408.0,1495.0,1419.0,1521.0,1446.0,0.0,0.0,0.0,0.0,0.0,0.0,0.0,0.0
4401908714,8,1538.0,1430.0,1507.0,1403.0,1500.0,1421.0,1531.0,1448.0,0.0,0.0,0.0,0.0,0.0,0.0,0.0,0.0
4401948692,8,1538.0,1431.0,1503.0,1398.0,1493.0,1416.0,1528.0,1448.0,0.0,0.0,0.0,0.0,0.0,0.0,0.0,0.0
4401992832,8,1531.0,1434.0,1502.0,1401.0,1485.0,1410.0,1514.0,1443.0,0.0,0.0,0.0,0.0,0.0,0.0,0.0,0.0
4402032837,8,1537.0,1442.0,1506.0,1402.0,1480.0,1405.0,1511.0,1446.0,0.0,0.0,0.0,0.0,0.0,0.0,0.0,0.0
4402076717,8,1544.0,1450.0,1510.0,1400.0,1472.0,1397.0,1506.0,1448.0,0.0,0.0,0.0,0.0,0.0,0.0,0.0,0.0
4402116700,8,1546.0,1452.0,1510.0,1395.0,1466.0,1390.0,1502.0,1447.0,0.0,0.0,0.0,0.0,0.0,0.0,0.0,0.0
4402161611,8,1546.0,1451.0,1505.0,1392.0,1463.0,1391.0,1504.0,1449.0,0.0,0.0,0.0,0.0,0.0,0.0,0.0,0.0
4402201626,8,1547.0,1450.0,1506.0,1391.0,1463.0,1389.0,1504.0,1448.0,0.0,0.0,0.0,0.0,0.0,0.0,0.0,0.0
4402245502,8,1541.0,1447.0,1504.0,1392.0,1463.0,1390.0,1501.0,1445.0,0.0,0.0,0.0,0.0,0.0,0.0,0.0,0.0
4402285505,8,1532.0,1444.0,1497.0,1391.0,1458.0,1389.0,1493.0,1442.0,0.0,0.0,0.0,0.0,0.0,0.0,0.0,0.0
4402329621,8,1539.0,1446.0,1502.0,1390.0,1459.0,1386.0,1496.0,1442.0,0.0,0.0,0.0,0.0,0.0,0.0,0.0,0.0
4402369620,8,1541.0,1456.0,1499.0,1388.0,1446.0,1381.0,1488.0,1448.0,0.0,0.0,0.0,0.0,0.0,0.0,0.0,0.0
4402410463,8,1539.0,1455.0,1498.0,1388.0,1444.0,1379.0,1484.0,1446.0,0.0,0.0,0.0,0.0,0.0,0.0,0.0,0.0
4402454388,8,1539.0,1457.0,1500.0,1390.0,1445.0,1378.0,1484.0,1445.0,0.0,0.0,0.0,0.0,0.0,0.0,0.0,0.0
4402494324,8,1536.0,1452.0,1493.0,1386.0,1441.0,1379.0,1484.0,1446.0,0.0,0.0,0.0,0.0,0.0,0.0,0.0,0.0
4402538420,8,1533.0,1448.0,1493.0,1382.0,1440.0,1373.0,1480.0,1439.0,0.0,0.0,0.0,0.0,0.0,0.0,0.0,0.0
4402578455,8,1534.0,1443.0,1496.0,1381.0,1446.0,1373.0,1484.0,1435.0,0.0,0.0,0.0,0.0,0.0,0.0,0.0,0.0
4402619232,8,1534.0,1449.0,1502.0,1388.0,1448.0,1372.0,1480.0,1434.0,0.0,0.0,0.0,0.0,0.0,0.0,0.0,0.0
4402659363,8,1529.0,1441.0,1492.0,1383.0,1448.0,1378.0,1485.0,1436.0,0.0,0.0,0.0,0.0,0.0,0.0,0.0,0.0
4402703229,8,1528.0,1442.0,1491.0,1382.0,1443.0,1375.0,1481.0,1435.0,0.0,0.0,0.0,0.0,0.0,0.0,0.0,0.0
4402743109,8,1526.0,1451.0,1499.0,1394.0,1445.0,1375.0,1472.0,1432.0,0.0,0.0,0.0,0.0,0.0,0.0,0.0,0.0
4402787228,8,1524.0,1453.0,1501.0,1400.0,1449.0,1380.0,1473.0,1434.0,0.0,0.0,0.0,0.0,0.0,0.0,0.0,0.0
4402827218,8,1514.0,1453.0,1492.0,1406.0,1446.0,1388.0,1468.0,1436.0,0.0,0.0,0.0,0.0,0.0,0.0,0.0,0.0
4402872063,8,1511.0,1449.0,1496.0,1408.0,1452.0,1387.0,1467.0,1429.0,0.0,0.0,0.0,0.0,0.0,0.0,0.0,0.0
4402911929,8,1509.0,1450.0,1494.0,1409.0,1450.0,1389.0,1466.0,1430.0,0.0,0.0,0.0,0.0,0.0,0.0,0.0,0.0
4402956010,8,1508.0,1463.0,1502.0,1419.0,1446.0,1384.0,1452.0,1428.0,0.0,0.0,0.0,0.0,0.0,0.0,0.0,0.0
4402996002,8,1509.0,1460.0,1509.0,1421.0,1454.0,1383.0,1455.0,1422.0,0.0,0.0,0.0,0.0,0.0,0.0,0.0,0.0
4403039985,8,1504.0,1466.0,1511.0,1430.0,1453.0,1383.0,1445.0,1419.0,0.0,0.0,0.0,0.0,0.0,0.0,0.0,0.0
4403079994,8,1505.0,1465.0,1510.0,1426.0,1451.0,1381.0,1446.0,1419.0,0.0,0.0,0.0,0.0,0.0,0.0,0.0,0.0
4403120000,8,1503.0,1469.0,1513.0,1432.0,1451.0,1381.0,1441.0,1418.0,0.0,0.0,0.0,0.0,0.0,0.0,0.0,0.0
4403164725,8,1494.0,1461.0,1505.0,1433.0,1455.0,1390.0,1444.0,1418.0,0.0,0.0,0.0,0.0,0.0,0.0,0.0,0.0
4403204859,8,1488.0,1462.0,1502.0,1438.0,1455.0,1396.0,1442.0,1419.0,0.0,0.0,0.0,0.0,0.0,0.0,0.0,0.0
4403248706,8,1497.0,1449.0,1500.0,1426.0,1463.0,1397.0,1460.0,1421.0,0.0,0.0,0.0,0.0,0.0,0.0,0.0,0.0
4403288836,8,1492.0,1445.0,1489.0,1421.0,1458.0,1401.0,1461.0,1426.0,0.0,0.0,0.0,0.0,0.0,0.0,0.0,0.0
4403332839,8,1495.0,1445.0,1493.0,1423.0,1463.0,1402.0,1465.0,1425.0,0.0,0.0,0.0,0.0,0.0,0.0,0.0,0.0
4403372864,8,1497.0,1452.0,1498.0,1427.0,1462.0,1401.0,1461.0,1426.0,0.0,0.0,0.0,0.0,0.0,0.0,0.0,0.0
4403417515,8,1497.0,1449.0,1496.0,1425.0,1464.0,1403.0,1465.0,1427.0,0.0,0.0,0.0,0.0,0.0,0.0,0.0,0.0
4403457516,8,1504.0,1462.0,1505.0,1429.0,1458.0,1395.0,1457.0,1428.0,0.0,0.0,0.0,0.0,0.0,0.0,0.0,0.0
4403501646,8,1502.0,1469.0,1501.0,1431.0,1448.0,1395.0,1449.0,1433.0,0.0,0.0,0.0,0.0,0.0,0.0,0.0,0.0
4403541599,8,1505.0,1467.0,1501.0,1427.0,1448.0,1393.0,1452.0,1433.0,0.0,0.0,0.0,0.0,0.0,0.0,0.0,0.0
4403585507,8,1503.0,1470.0,1501.0,1429.0,1445.0,1391.0,1447.0,1432.0,0.0,0.0,0.0,0.0,0.0,0.0,0.0,0.0
4403625531,8,1502.0,1462.0,1495.0,1422.0,1446.0,1392.0,1453.0,1432.0,0.0,0.0,0.0,0.0,0.0,0.0,0.0,0.0
4403670431,8,1509.0,1461.0,1497.0,1417.0,1446.0,1390.0,1459.0,1434.0,0.0,0.0,0.0,0.0,0.0,0.0,0.0,0.0
4403714354,8,1511.0,1460.0,1504.0,1420.0,1454.0,1390.0,1462.0,1430.0,0.0,0.0,0.0,0.0,0.0,0.0,0.0,0.0
4403754425,8,1504.0,1455.0,1498.0,1422.0,1456.0,1396.0,1462.0,1429.0,0.0,0.0,0.0,0.0,0.0,0.0,0.0,0.0
4403798331,8,1507.0,1457.0,1503.0,1424.0,1461.0,1398.0,1465.0,1430.0,0.0,0.0,0.0,0.0,0.0,0.0,0.0,0.0
4403838407,8,1508.0,1459.0,1504.0,1426.0,1462.0,1400.0,1466.0,1433.0,0.0,0.0,0.0,0.0,0.0,0.0,0.0,0.0
4403882344,8,1503.0,1459.0,1492.0,1425.0,1454.0,1407.0,1466.0,1441.0,0.0,0.0,0.0,0.0,0.0,0.0,0.0,0.0
4403923257,8,1508.0,1457.0,1490.0,1419.0,1454.0,1406.0,1472.0,1444.0,0.0,0.0,0.0,0.0,0.0,0.0,0.0,0.0
4403967226,8,1509.0,1465.0,1492.0,1424.0,1452.0,1408.0,1469.0,1448.0,0.0,0.0,0.0,0.0,0.0,0.0,0.0,0.0
4404007234,8,1505.0,1461.0,1485.0,1425.0,1453.0,1416.0,1473.0,1453.0,0.0,0.0,0.0,0.0,0.0,0.0,0.0,0.0
4404051288,8,1509.0,1463.0,1499.0,1429.0,1460.0,1408.0,1470.0,1442.0,0.0,0.0,0.0,0.0,0.0,0.0,0.0,0.0
4404091276,8,1506.0,1466.0,1499.0,1434.0,1461.0,1412.0,1468.0,1444.0,0.0,0.0,0.0,0.0,0.0,0.0,0.0,0.0
4404135319,8,1502.0,1463.0,1494.0,1435.0,1462.0,1418.0,1470.0,1446.0,0.0,0.0,0.0,0.0,0.0,0.0,0.0,0.0
4404175909,8,1504.0,1468.0,1496.0,1435.0,1458.0,1414.0,1466.0,1447.0,0.0,0.0,0.0,0.0,0.0,0.0,0.0,0.0
4404220041,8,1506.0,1471.0,1501.0,1438.0,1459.0,1412.0,1464.0,1445.0,0.0,0.0,0.0,0.0,0.0,0.0,0.0,0.0
4404260056,8,1505.0,1469.0,1496.0,1436.0,1459.0,1416.0,1467.0,1448.0,0.0,0.0,0.0,0.0,0.0,0.0,0.0,0.0
4404303902,8,1503.0,1471.0,1496.0,1441.0,1460.0,1420.0,1466.0,1450.0,0.0,0.0,0.0,0.0,0.0,0.0,0.0,0.0
4404343913,8,1504.0,1474.0,1497.0,1439.0,1455.0,1414.0,1462.0,1449.0,0.0,0.0,0.0,0.0,0.0,0.0,0.0,0.0
4404384030,8,1504.0,1475.0,1499.0,1441.0,1455.0,1413.0,1460.0,1448.0,0.0,0.0,0.0,0.0,0.0,0.0,0.0,0.0
4404424723,8,1502.0,1474.0,1501.0,1442.0,1457.0,1411.0,1458.0,1443.0,0.0,0.0,0.0,0.0,0.0,0.0,0.0,0.0
4404464839,8,1502.0,1474.0,1506.0,1443.0,1459.0,1407.0,1455.0,1438.0,0.0,0.0,0.0,0.0,0.0,0.0,0.0,0.0
4404508862,8,1498.0,1469.0,1508.0,1447.0,1466.0,1410.0,1456.0,1433.0,0.0,0.0,0.0,0.0,0.0,0.0,0.0,0.0
4404548865,8,1495.0,1469.0,1513.0,1454.0,1474.0,1413.0,1455.0,1428.0,0.0,0.0,0.0,0.0,0.0,0.0,0.0,0.0
4404592727,8,1493.0,1472.0,1511.0,1458.0,1472.0,1417.0,1454.0,1432.0,0.0,0.0,0.0,0.0,0.0,0.0,0.0,0.0
4404632850,8,1493.0,1470.0,1514.0,1457.0,1474.0,1413.0,1453.0,1427.0,0.0,0.0,0.0,0.0,0.0,0.0,0.0,0.0
4404676920,8,1494.0,1462.0,1513.0,1452.0,1480.0,1414.0,1460.0,1424.0,0.0,0.0,0.0,0.0,0.0,0.0,0.0,0.0
4404717585,8,1498.0,1459.0,1516.0,1447.0,1481.0,1409.0,1462.0,1421.0,0.0,0.0,0.0,0.0,0.0,0.0,0.0,0.0
4404761506,8,1497.0,1456.0,1507.0,1442.0,1476.0,1412.0,1466.0,1426.0,0.0,0.0,0.0,0.0,0.0,0.0,0.0,0.0
4404801506,8,1503.0,1456.0,1513.0,1436.0,1474.0,1402.0,1464.0,1422.0,0.0,0.0,0.0,0.0,0.0,0.0,0.0,0.0
4404845606,8,1516.0,1461.0,1526.0,1432.0,1475.0,1389.0,1465.0,1417.0,0.0,0.0,0.0,0.0,0.0,0.0,0.0,0.0
4404889493,8,1516.0,1454.0,1516.0,1424.0,1474.0,1394.0,1473.0,1423.0,0.0,0.0,0.0,0.0,0.0,0.0,0.0,0.0
4404930448,8,1522.0,1459.0,1524.0,1423.0,1470.0,1383.0,1468.0,1419.0,0.0,0.0,0.0,0.0,0.0,0.0,0.0,0.0
4404970440,8,1526.0,1457.0,1531.0,1423.0,1477.0,1381.0,1472.0,1416.0,0.0,0.0,0.0,0.0,0.0,0.0,0.0,0.0
4405014445,8,1524.0,1455.0,1516.0,1417.0,1469.0,1390.0,1478.0,1429.0,0.0,0.0,0.0,0.0,0.0,0.0,0.0,0.0
4405054447,8,1526.0,1464.0,1514.0,1416.0,1457.0,1385.0,1470.0,1433.0,0.0,0.0,0.0,0.0,0.0,0.0,0.0,0.0
4405094459,8,1521.0,1469.0,1515.0,1424.0,1458.0,1389.0,1464.0,1433.0,0.0,0.0,0.0,0.0,0.0,0.0,0.0,0.0
4405138301,8,1522.0,1465.0,1513.0,1419.0,1457.0,1386.0,1467.0,1433.0,0.0,0.0,0.0,0.0,0.0,0.0,0.0,0.0
4405182460,8,1522.0,1469.0,1517.0,1423.0,1457.0,1385.0,1463.0,1431.0,0.0,0.0,0.0,0.0,0.0,0.0,0.0,0.0
4405223241,8,1511.0,1470.0,1508.0,1430.0,1454.0,1393.0,1457.0,1433.0,0.0,0.0,0.0,0.0,0.0,0.0,0.0,0.0
4405263208,8,1505.0,1466.0,1502.0,1429.0,1453.0,1396.0,1456.0,1433.0,0.0,0.0,0.0,0.0,0.0,0.0,0.0,0.0
4405307118,8,1499.0,1465.0,1496.0,1430.0,1450.0,1400.0,1454.0,1435.0,0.0,0.0,0.0,0.0,0.0,0.0,0.0,0.0
4405347111,8,1489.0,1465.0,1492.0,1439.0,1452.0,1409.0,1449.0,1435.0,0.0,0.0,0.0,0.0,0.0,0.0,0.0,0.0
4405391244,8,1490.0,1465.0,1497.0,1439.0,1454.0,1404.0,1448.0,1430.0,0.0,0.0,0.0,0.0,0.0,0.0,0.0,0.0
4405431230,8,1482.0,1469.0,1485.0,1445.0,1449.0,1418.0,1446.0,1441.0,0.0,0.0,0.0,0.0,0.0,0.0,0.0,0.0
4405476037,8,1483.0,1465.0,1490.0,1446.0,1456.0,1416.0,1448.0,1435.0,0.0,0.0,0.0,0.0,0.0,0.0,0.0,0.0
4405516028,8,1477.0,1469.0,1490.0,1450.0,1451.0,1414.0,1438.0,1433.0,0.0,0.0,0.0,0.0,0.0,0.0,0.0,0.0
4405560071,8,1483.0,1474.0,1489.0,1448.0,1446.0,1413.0,1439.0,1439.0,0.0,0.0,0.0,0.0,0.0,0.0,0.0,0.0
4405604093,8,1486.0,1473.0,1489.0,1448.0,1450.0,1417.0,1447.0,1442.0,0.0,0.0,0.0,0.0,0.0,0.0,0.0,0.0
4405648030,8,1484.0,1478.0,1492.0,1454.0,1449.0,1418.0,1441.0,1442.0,0.0,0.0,0.0,0.0,0.0,0.0,0.0,0.0
4405688084,8,1490.0,1476.0,1489.0,1447.0,1449.0,1419.0,1450.0,1448.0,0.0,0.0,0.0,0.0,0.0,0.0,0.0,0.0
4405728729,8,1484.0,1471.0,1482.0,1447.0,1450.0,1425.0,1451.0,1449.0,0.0,0.0,0.0,0.0,0.0,0.0,0.0,0.0
4405772725,8,1486.0,1471.0,1481.0,1447.0,1451.0,1429.0,1456.0,1454.0,0.0,0.0,0.0,0.0,0.0,0.0,0.0,0.0
4405812718,8,1495.0,1479.0,1490.0,1448.0,1451.0,1423.0,1456.0,1454.0,0.0,0.0,0.0,0.0,0.0,0.0,0.0,0.0
4405856729,8,1498.0,1476.0,1488.0,1443.0,1452.0,1425.0,1462.0,1458.0,0.0,0.0,0.0,0.0,0.0,0.0,0.0,0.0
4405900709,8,1499.0,1478.0,1490.0,1443.0,1449.0,1420.0,1459.0,1456.0,0.0,0.0,0.0,0.0,0.0,0.0,0.0,0.0
4405944727,8,1500.0,1477.0,1489.0,1441.0,1449.0,1419.0,1459.0,1455.0,0.0,0.0,0.0,0.0,0.0,0.0,0.0,0.0
4405985611,8,1501.0,1474.0,1489.0,1440.0,1452.0,1422.0,1463.0,1456.0,0.0,0.0,0.0,0.0,0.0,0.0,0.0,0.0
4406029638,8,1500.0,1472.0,1490.0,1443.0,1459.0,1428.0,1469.0,1457.0,0.0,0.0,0.0,0.0,0.0,0.0,0.0,0.0
4406073634,8,1499.0,1474.0,1496.0,1449.0,1463.0,1428.0,1466.0,1453.0,0.0,0.0,0.0,0.0,0.0,0.0,0.0,0.0
4406113635,8,1494.0,1466.0,1490.0,1445.0,1464.0,1429.0,1468.0,1450.0,0.0,0.0,0.0,0.0,0.0,0.0,0.0,0.0
4406157662,8,1495.0,1471.0,1491.0,1448.0,1462.0,1430.0,1466.0,1453.0,0.0,0.0,0.0,0.0,0.0,0.0,0.0,0.0
4406197559,8,1502.0,1477.0,1503.0,1452.0,1466.0,1426.0,1466.0,1451.0,0.0,0.0,0.0,0.0,0.0,0.0,0.0,0.0
4406238455,8,1500.0,1475.0,1499.0,1451.0,1466.0,1429.0,1468.0,1453.0,0.0,0.0,0.0,0.0,0.0,0.0,0.0,0.0
4406278459,8,1502.0,1472.0,1497.0,1447.0,1468.0,1431.0,1473.0,1456.0,0.0,0.0,0.0,0.0,0.0,0.0,0.0,0.0
4406322420,8,1508.0,1476.0,1502.0,1447.0,1468.0,1428.0,1474.0,1456.0,0.0,0.0,0.0,0.0,0.0,0.0,0.0,0.0
4406362321,8,1505.0,1469.0,1497.0,1445.0,1470.0,1432.0,1478.0,1457.0,0.0,0.0,0.0,0.0,0.0,0.0,0.0,0.0
4406406487,8,1504.0,1472.0,1495.0,1447.0,1468.0,1434.0,1477.0,1459.0,0.0,0.0,0.0,0.0,0.0,0.0,0.0,0.0
4406446482,8,1509.0,1478.0,1506.0,1452.0,1471.0,1429.0,1474.0,1456.0,0.0,0.0,0.0,0.0,0.0,0.0,0.0,0.0
4406491119,8,1507.0,1478.0,1509.0,1454.0,1473.0,1428.0,1472.0,1452.0,0.0,0.0,0.0,0.0,0.0,0.0,0.0,0.0
4406531102,8,1510.0,1481.0,1513.0,1455.0,1473.0,1424.0,1470.0,1450.0,0.0,0.0,0.0,0.0,0.0,0.0,0.0,0.0
4406575351,8,1506.0,1479.0,1516.0,1460.0,1479.0,1427.0,1470.0,1447.0,0.0,0.0,0.0,0.0,0.0,0.0,0.0,0.0
4406615348,8,1508.0,1483.0,1521.0,1463.0,1479.0,1424.0,1466.0,1444.0,0.0,0.0,0.0,0.0,0.0,0.0,0.0,0.0
4406655326,8,1512.0,1484.0,1526.0,1463.0,1481.0,1420.0,1466.0,1442.0,0.0,0.0,0.0,0.0,0.0,0.0,0.0,0.0
4406699109,8,1508.0,1481.0,1530.0,1466.0,1486.0,1420.0,1465.0,1436.0,0.0,0.0,0.0,0.0,0.0,0.0,0.0,0.0
4406739900,8,1505.0,1478.0,1528.0,1463.0,1484.0,1416.0,1461.0,1431.0,0.0,0.0,0.0,0.0,0.0,0.0,0.0,0.0
4406779913,8,1507.0,1480.0,1528.0,1460.0,1479.0,1411.0,1458.0,1430.0,0.0,0.0,0.0,0.0,0.0,0.0,0.0,0.0
4406824034,8,1507.0,1465.0,1519.0,1445.0,1479.0,1408.0,1466.0,1428.0,0.0,0.0,0.0,0.0,0.0,0.0,0.0,0.0
4406867918,8,1508.0,1466.0,1514.0,1442.0,1475.0,1410.0,1469.0,1434.0,0.0,0.0,0.0,0.0,0.0,0.0,0.0,0.0
4406907901,8,1507.0,1466.0,1514.0,1443.0,1475.0,1410.0,1468.0,1433.0,0.0,0.0,0.0,0.0,0.0,0.0,0.0,0.0
4406952043,8,1511.0,1464.0,1522.0,1439.0,1476.0,1399.0,1465.0,1424.0,0.0,0.0,0.0,0.0,0.0,0.0,0.0,0.0
4406992826,8,1508.0,1457.0,1520.0,1438.0,1481.0,1402.0,1469.0,1420.0,0.0,0.0,0.0,0.0,0.0,0.0,0.0,0.0
4407036698,8,1508.0,1462.0,1522.0,1440.0,1477.0,1398.0,1462.0,1419.0,0.0,0.0,0.0,0.0,0.0,0.0,0.0,0.0
4407076692,8,1510.0,1459.0,1527.0,1439.0,1482.0,1395.0,1465.0,1415.0,0.0,0.0,0.0,0.0,0.0,0.0,0.0,0.0
4407120800,8,1507.0,1457.0,1524.0,1438.0,1480.0,1395.0,1463.0,1415.0,0.0,0.0,0.0,0.0,0.0,0.0,0.0,0.0
4407160825,8,1504.0,1456.0,1518.0,1437.0,1476.0,1398.0,1463.0,1418.0,0.0,0.0,0.0,0.0,0.0,0.0,0.0,0.0
4407204709,8,1511.0,1454.0,1526.0,1435.0,1485.0,1396.0,1470.0,1415.0,0.0,0.0,0.0,0.0,0.0,0.0,0.0,0.0
4407244709,8,1503.0,1444.0,1511.0,1432.0,1485.0,1408.0,1477.0,1420.0,0.0,0.0,0.0,0.0,0.0,0.0,0.0,0.0
4407285522,8,1499.0,1435.0,1501.0,1428.0,1488.0,1417.0,1486.0,1424.0,0.0,0.0,0.0,0.0,0.0,0.0,0.0,0.0
4407325502,8,1495.0,1434.0,1502.0,1432.0,1493.0,1421.0,1485.0,1422.0,0.0,0.0,0.0,0.0,0.0,0.0,0.0,0.0
4407369643,8,1493.0,1442.0,1512.0,1444.0,1496.0,1419.0,1477.0,1417.0,0.0,0.0,0.0,0.0,0.0,0.0,0.0,0.0
4407409611,8,1492.0,1444.0,1515.0,1446.0,1495.0,1416.0,1472.0,1414.0,0.0,0.0,0.0,0.0,0.0,0.0,0.0,0.0
4407453529,8,1489.0,1445.0,1513.0,1450.0,1497.0,1423.0,1474.0,1418.0,0.0,0.0,0.0,0.0,0.0,0.0,0.0,0.0
4407493507,8,1493.0,1451.0,1515.0,1452.0,1494.0,1421.0,1472.0,1420.0,0.0,0.0,0.0,0.0,0.0,0.0,0.0,0.0
4407534317,8,1496.0,1453.0,1515.0,1449.0,1489.0,1417.0,1470.0,1422.0,0.0,0.0,0.0,0.0,0.0,0.0,0.0,0.0
4407574317,8,1502.0,1458.0,1518.0,1449.0,1488.0,1415.0,1471.0,1425.0,0.0,0.0,0.0,0.0,0.0,0.0,0.0,0.0
4407618419,8,1502.0,1448.0,1514.0,1441.0,1493.0,1419.0,1482.0,1425.0,0.0,0.0,0.0,0.0,0.0,0.0,0.0,0.0
4407658395,8,1504.0,1450.0,1512.0,1440.0,1490.0,1418.0,1481.0,1428.0,0.0,0.0,0.0,0.0,0.0,0.0,0.0,0.0
4407702318,8,1506.0,1458.0,1518.0,1446.0,1489.0,1417.0,1477.0,1429.0,0.0,0.0,0.0,0.0,0.0,0.0,0.0,0.0
4407746330,8,1506.0,1457.0,1520.0,1446.0,1490.0,1415.0,1476.0,1426.0,0.0,0.0,0.0,0.0,0.0,0.0,0.0,0.0
4407787260,8,1504.0,1459.0,1522.0,1449.0,1489.0,1412.0,1471.0,1423.0,0.0,0.0,0.0,0.0,0.0,0.0,0.0,0.0
4407831228,8,1501.0,1464.0,1522.0,1454.0,1487.0,1414.0,1466.0,1424.0,0.0,0.0,0.0,0.0,0.0,0.0,0.0,0.0
4407871229,8,1498.0,1461.0,1522.0,1454.0,1488.0,1414.0,1464.0,1421.0,0.0,0.0,0.0,0.0,0.0,0.0,0.0,0.0
4407915296,8,1497.0,1454.0,1519.0,1451.0,1493.0,1419.0,1472.0,1421.0,0.0,0.0,0.0,0.0,0.0,0.0,0.0,0.0
4407955319,8,1492.0,1451.0,1513.0,1452.0,1494.0,1424.0,1473.0,1423.0,0.0,0.0,0.0,0.0,0.0,0.0,0.0,0.0
4407999252,8,1495.0,1462.0,1518.0,1458.0,1490.0,1422.0,1467.0,1426.0,0.0,0.0,0.0,0.0,0.0,0.0,0.0,0.0
4408039900,8,1497.0,1458.0,1516.0,1454.0,1492.0,1423.0,1472.0,1427.0,0.0,0.0,0.0,0.0,0.0,0.0,0.0,0.0
4408080020,8,1495.0,1458.0,1512.0,1452.0,1487.0,1423.0,1470.0,1429.0,0.0,0.0,0.0,0.0,0.0,0.0,0.0,0.0
4408123928,8,1500.0,1464.0,1512.0,1450.0,1481.0,1419.0,1468.0,1432.0,0.0,0.0,0.0,0.0,0.0,0.0,0.0,0.0
4408167916,8,1498.0,1458.0,1503.0,1444.0,1478.0,1423.0,1473.0,1437.0,0.0,0.0,0.0,0.0,0.0,0.0,0.0,0.0
4408212011,8,1498.0,1460.0,1504.0,1447.0,1478.0,1424.0,1472.0,1437.0,0.0,0.0,0.0,0.0,0.0,0.0,0.0,0.0
4408252009,8,1498.0,1462.0,1507.0,1448.0,1478.0,1421.0,1468.0,1435.0,0.0,0.0,0.0,0.0,0.0,0.0,0.0,0.0
4408295917,8,1497.0,1462.0,1505.0,1449.0,1478.0,1425.0,1471.0,1438.0,0.0,0.0,0.0,0.0,0.0,0.0,0.0,0.0
4408336700,8,1498.0,1467.0,1507.0,1452.0,1477.0,1425.0,1468.0,1439.0,0.0,0.0,0.0,0.0,0.0,0.0,0.0,0.0
4408380714,8,1496.0,1461.0,1501.0,1448.0,1477.0,1427.0,1472.0,1440.0,0.0,0.0,0.0,0.0,0.0,0.0,0.0,0.0
4408420705,8,1498.0,1467.0,1505.0,1451.0,1474.0,1424.0,1467.0,1441.0,0.0,0.0,0.0,0.0,0.0,0.0,0.0,0.0
4408464719,8,1499.0,1463.0,1506.0,1449.0,1479.0,1424.0,1471.0,1439.0,0.0,0.0,0.0,0.0,0.0,0.0,0.0,0.0
4408504703,8,1500.0,1467.0,1513.0,1454.0,1482.0,1423.0,1469.0,1436.0,0.0,0.0,0.0,0.0,0.0,0.0,0.0,0.0
4408549624,8,1499.0,1468.0,1510.0,1452.0,1476.0,1420.0,1465.0,1437.0,0.0,0.0,0.0,0.0,0.0,0.0,0.0,0.0
4408593662,8,1495.0,1463.0,1505.0,1452.0,1479.0,1426.0,1469.0,1438.0,0.0,0.0,0.0,0.0,0.0,0.0,0.0,0.0
4408633674,8,1495.0,1465.0,1506.0,1452.0,1477.0,1423.0,1465.0,1436.0,0.0,0.0,0.0,0.0,0.0,0.0,0.0,0.0
4408677617,8,1497.0,1464.0,1503.0,1448.0,1475.0,1424.0,1469.0,1440.0,0.0,0.0,0.0,0.0,0.0,0.0,0.0,0.0
4408717638,8,1498.0,1468.0,1507.0,1453.0,1477.0,1425.0,1467.0,1440.0,0.0,0.0,0.0,0.0,0.0,0.0,0.0,0.0
4408761639,8,1497.0,1468.0,1505.0,1452.0,1474.0,1425.0,1466.0,1441.0,0.0,0.0,0.0,0.0,0.0,0.0,0.0,0.0
4408801689,8,1494.0,1465.0,1505.0,1452.0,1476.0,1425.0,1466.0,1438.0,0.0,0.0,0.0,0.0,0.0,0.0,0.0,0.0
4408842448,8,1495.0,1460.0,1505.0,1449.0,1479.0,1423.0,1469.0,1434.0,0.0,0.0,0.0,0.0,0.0,0.0,0.0,0.0
4408882452,8,1491.0,1462.0,1502.0,1452.0,1477.0,1428.0,1467.0,1438.0,0.0,0.0,0.0,0.0,0.0,0.0,0.0,0.0
4408926407,8,1494.0,1465.0,1508.0,1454.0,1478.0,1422.0,1464.0,1434.0,0.0,0.0,0.0,0.0,0.0,0.0,0.0,0.0
4408966410,8,1495.0,1468.0,1508.0,1455.0,1476.0,1423.0,1462.0,1436.0,0.0,0.0,0.0,0.0,0.0,0.0,0.0,0.0
4409010496,8,1489.0,1468.0,1507.0,1460.0,1478.0,1428.0,1461.0,1436.0,0.0,0.0,0.0,0.0,0.0,0.0,0.0,0.0
4409050488,8,1492.0,1466.0,1502.0,1453.0,1474.0,1427.0,1464.0,1440.0,0.0,0.0,0.0,0.0,0.0,0.0,0.0,0.0
4409095329,8,1496.0,1468.0,1502.0,1452.0,1473.0,1428.0,1468.0,1444.0,0.0,0.0,0.0,0.0,0.0,0.0,0.0,0.0
4409135287,8,1496.0,1468.0,1496.0,1448.0,1468.0,1429.0,1468.0,1449.0,0.0,0.0,0.0,0.0,0.0,0.0,0.0,0.0
4409179165,8,1504.0,1469.0,1498.0,1443.0,1468.0,1426.0,1474.0,1452.0,0.0,0.0,0.0,0.0,0.0,0.0,0.0,0.0
4409219268,8,1507.0,1473.0,1503.0,1445.0,1468.0,1423.0,1472.0,1451.0,0.0,0.0,0.0,0.0,0.0,0.0,0.0,0.0
4409263108,8,1507.0,1470.0,1501.0,1440.0,1465.0,1419.0,1472.0,1449.0,0.0,0.0,0.0,0.0,0.0,0.0,0.0,0.0
4409303923,8,1510.0,1471.0,1506.0,1441.0,1469.0,1419.0,1473.0,1448.0,0.0,0.0,0.0,0.0,0.0,0.0,0.0,0.0
4409343905,8,1501.0,1465.0,1495.0,1442.0,1467.0,1427.0,1473.0,1450.0,0.0,0.0,0.0,0.0,0.0,0.0,0.0,0.0
4409387996,8,1503.0,1461.0,1498.0,1439.0,1472.0,1424.0,1477.0,1446.0,0.0,0.0,0.0,0.0,0.0,0.0,0.0,0.0
4409428029,8,1503.0,1462.0,1500.0,1441.0,1473.0,1424.0,1475.0,1445.0,0.0,0.0,0.0,0.0,0.0,0.0,0.0,0.0
4409471901,8,1499.0,1463.0,1495.0,1442.0,1469.0,1427.0,1473.0,1448.0,0.0,0.0,0.0,0.0,0.0,0.0,0.0,0.0
4409511907,8,1503.0,1469.0,1498.0,1444.0,1467.0,1425.0,1472.0,1450.0,0.0,0.0,0.0,0.0,0.0,0.0,0.0,0.0
4409555988,8,1502.0,1468.0,1495.0,1443.0,1467.0,1429.0,1474.0,1453.0,0.0,0.0,0.0,0.0,0.0,0.0,0.0,0.0
4409596825,8,1501.0,1473.0,1496.0,1446.0,1463.0,1426.0,1467.0,1453.0,0.0,0.0,0.0,0.0,0.0,0.0,0.0,0.0
4409640704,8,1501.0,1473.0,1495.0,1445.0,1461.0,1424.0,1466.0,1453.0,0.0,0.0,0.0,0.0,0.0,0.0,0.0,0.0
4409680708,8,1499.0,1480.0,1499.0,1454.0,1462.0,1428.0,1462.0,1454.0,0.0,0.0,0.0,0.0,0.0,0.0,0.0,0.0
4409724829,8,1496.0,1480.0,1503.0,1457.0,1464.0,1425.0,1457.0,1448.0,0.0,0.0,0.0,0.0,0.0,0.0,0.0,0.0
