timestamp,rollspeed,pitchspeed,yawspeed,rollspeed_integ,pitchspeed_integ,yawspeed_integ,additional_integ1
4384791068,0.001329979,0.0012231955,0.00054392533,0.0013940992,0.0013273668,-4.311196e-05,0.0
4384951837,0.005148231,0.0055879215,0.0026686057,0.0034962946,0.0033112648,-0.00020632532,0.0
4384983853,-0.0059413374,0.015693633,-0.017650109,0.0039404645,0.0036952798,-0.00020188699,0.0
4385015887,0.009056571,0.0157955,0.034545783,0.0043545216,0.004104197,-0.00024721347,0.0
4385047921,0.032365546,0.019855144,-0.018439699,0.0047298954,0.00447331,-0.00038269625,0.0
4385079843,0.046974506,0.03255671,0.01798368,0.005069706,0.004717345,-0.0003117633,0.0
4385112648,0.06849501,0.028318858,-0.041891325,0.005392487,0.005153962,-0.0003052496,0.0
4385144663,0.03446623,0.0154004535,0.060949262,0.005747559,0.005469974,-0.0004263642,0.0
4385176679,-0.00068348553,-0.03879149,-0.055352874,0.0060884105,0.005905849,-0.0003719292,0.0
4385208689,-0.06697025,-0.04827726,-0.0038866743,0.00658238,0.006298995,-0.00036640145,0.0
4385240665,-0.079687655,-0.05361851,-0.020983364,0.0070549063,0.0068183937,-0.00010198934,0.0
4385272641,-0.08107516,-0.031372316,-0.012321544,0.0076239677,0.0072669582,-0.000130345,0.0
4385304692,-0.053043876,-0.0030502593,0.016733149,0.008209878,0.007723928,-0.00010935849,0.0
4385337488,-0.019582273,0.016207727,-0.009907753,0.00875313,0.00813896,-0.00015578528,0.0
4385369488,0.014573127,0.019343741,0.009371851,0.009178598,0.008501362,-0.00014711414,0.0
4385401434,0.034550965,0.026112435,-0.0007866679,0.009587614,0.008839346,-0.00018978067,0.0
4385433502,0.06737712,0.02933601,0.011568265,0.009952389,0.0091790045,-0.00022051643,0.0
4385465484,0.06360107,0.016801652,0.0010655404,0.010299988,0.009552363,-0.00028168684,0.0
4385497438,0.05410366,-0.009936975,0.016251337,0.010615128,0.009940905,-0.00034322814,0.0
4385529435,0.015399104,-0.022462862,0.0013697995,0.010984429,0.0103443125,-0.00039385838,0.0
4385561468,0.009704107,-0.00017221156,0.0045432886,0.011383166,0.010748235,-0.0004553933,0.0
4385593490,0.054983925,0.06669885,0.0045893164,0.011772724,0.011099308,-0.0004891985,0.0
4385626288,0.23022461,0.20817816,0.024421362,0.0119409105,0.011252457,-0.00062685786,0.0
4385658279,0.48225734,0.35110548,0.040256966,0.011735471,0.011149841,-0.0008588154,0.0
4385690277,0.7469556,0.48827296,0.047958896,0.010997317,0.010721983,-0.0011657542,0.0
4385722291,0.93018425,0.5486144,0.033883322,0.009723329,0.010034223,-0.0014977059,0.0
4385754272,0.88728,0.4707932,0.06825361,0.008128601,0.009268362,-0.0018607695,0.0
4385786280,0.63832074,0.2235698,0.05024652,0.006521025,0.008705115,-0.0023134016,0.0
4385818255,0.26234084,-0.07634043,0.050470576,0.0051655765,0.008456783,-0.0027491986,0.0
4385850455,-0.021373315,-0.28750142,0.039049063,0.004157153,0.008550342,-0.0031201758,0.0
4385883218,-0.18276675,-0.27530366,0.0249691,0.0034445196,0.008824839,-0.003408628,0.0
4385915258,-0.18421225,-0.077978596,0.029361127,0.0029889313,0.008971905,-0.003679136,0.0
4385947072,-0.096347146,0.17182428,0.030525124,0.0026495461,0.008860492,-0.0040378654,0.0
4385979224,-0.16005997,0.16225064,0.051512398,0.0024535072,0.00862595,-0.004489663,0.0
4386011117,-0.25691503,0.13224013,0.044494305,0.0023145103,0.008330777,-0.0049916497,0.0
4386043036,-0.4302683,0.021941362,0.027723491,0.0022271092,0.008028629,-0.005450794,0.0
4386075272,-0.4673087,-0.009120939,0.013271639,0.002214484,0.0077744583,-0.0057798014,0.0
4386103047,-0.4094974,-0.045873497,0.0036100827,0.0022720487,0.0076567475,-0.0060064527,0.0
4386135848,-0.31361204,-0.059093546,0.0110016875,0.002338869,0.0075555397,-0.0062737977,0.0
4386167848,-0.26140532,-0.05792137,0.013388015,0.002369341,0.0074662333,-0.0065984037,0.0
4386199856,-0.27033848,-0.14306541,0.017338937,0.0023856168,0.0073986435,-0.0069317576,0.0
4386231876,-0.31286827,-0.22673196,0.0081087705,0.002450889,0.007444746,-0.007263993,0.0
4386263833,-0.30553177,-0.29020226,0.016840331,0.0025585,0.007680434,-0.0076176184,0.0
4386295836,-0.23568116,-0.2615011,0.0184506,0.002655269,0.00802235,-0.008004983,0.0
4386327854,-0.19406757,-0.27498788,0.021208137,0.0027396204,0.008413141,-0.0083804345,0.0
4386360708,-0.18435743,-0.28011793,0.022253685,0.0027917214,0.008833412,-0.00881075,0.0
4386392644,-0.17909087,-0.21363088,0.023073342,0.0028208029,0.009176615,-0.009227342,0.0
4386424719,-0.17491786,-0.13741422,0.022296168,0.0028890264,0.009444496,-0.009658538,0.0
4386456639,-0.15420285,-0.091265894,0.021874791,0.002983767,0.009655877,-0.010103826,0.0
4386488687,-0.14229982,-0.06811721,0.023444375,0.0030725216,0.009841779,-0.010566207,0.0
4386520653,-0.13948125,-0.036693465,0.024235634,0.0031491704,0.009976747,-0.011059159,0.0
4386552639,-0.1511062,-0.0019715028,0.030261971,0.003230606,0.010060806,-0.011568974,0.0
4386584646,-0.13000362,0.015848428,0.02999153,0.0033362745,0.010110949,-0.012088525,0.0
4386617497,-0.11344434,0.019593017,0.029998494,0.003458445,0.010130532,-0.012632226,0.0
4386649599,-0.116164826,-0.00023298187,0.03030619,0.003590639,0.010152837,-0.0131648285,0.0
4386681463,-0.10650655,-0.01806177,0.024509335,0.0037331707,0.010210471,-0.013699178,0.0
4386713460,-0.11770543,-0.05673996,0.02106341,0.0039099213,0.010325723,-0.014237712,0.0
4386745469,-0.106706634,-0.06003347,0.01713871,0.004103838,0.010479294,-0.014763515,0.0
4386777533,-0.07431229,-0.05730633,0.01652254,0.0042890813,0.010655172,-0.015273776,0.0
4386809449,-0.040273163,-0.09342667,0.023608925,0.004427641,0.010864112,-0.01579963,0.0
4386842267,-0.027659122,-0.115459785,0.021714205,0.004518457,0.011135909,-0.016360635,0.0
4386874286,0.008843768,-0.13525465,0.030459147,0.004565773,0.011473577,-0.016947867,0.0
4386906286,0.044345427,-0.1508935,0.03227435,0.0045837737,0.011872921,-0.017561052,0.0
4386938320,0.019033724,-0.14518903,0.03090898,0.0046001095,0.012297432,-0.018208714,0.0
4386970282,0.030311385,-0.14588314,0.029140761,0.0045987684,0.012744466,-0.018872075,0.0
4387002286,0.0066924645,-0.13296014,0.02676288,0.0046103112,0.013226506,-0.019562002,0.0
4387034283,0.023461686,-0.09940281,0.028943159,0.004621634,0.013709633,-0.020239962,0.0
4387066321,0.03201816,-0.04205404,0.02515566,0.0046109557,0.014146852,-0.020919124,0.0
4387098252,0.04983273,-0.041610494,0.029693307,0.0045659244,0.014565801,-0.021598822,0.0
4387131043,0.03799144,-0.0022533247,0.025040686,0.004506767,0.014958986,-0.022288784,0.0
4387163071,0.033173732,0.038211837,0.025324566,0.004460107,0.01529268,-0.022973217,0.0
4387195218,0.03183723,0.123577915,0.02058474,0.004416045,0.015528375,-0.023660962,0.0
4387227079,0.002854099,0.10695292,0.022300089,0.004409438,0.015698014,-0.02434498,0.0
4387259043,-0.04960873,0.110287115,0.012137376,0.0044637225,0.015852595,-0.025009057,0.0
4387291074,-0.06751082,0.11904287,0.009503139,0.0045736367,0.01601029,-0.025664473,0.0
4387323057,-0.06030938,0.09711564,0.002176065,0.0047281054,0.016170215,-0.02623435,0.0
4387355236,-0.06373571,0.057397783,0.0069978214,0.004906024,0.016360708,-0.026806768,0.0
4387387038,-0.04258252,0.052538376,-0.003972169,0.0050733374,0.016594054,-0.027312797,0.0
4387415841,-0.045326926,0.06947802,-0.02078543,0.0052299714,0.016804958,-0.027727228,0.0
4387447854,-0.04048388,0.061553404,-0.014541555,0.0054321387,0.017021451,-0.028152129,0.0
4387479841,-0.019393964,0.08063539,-0.023683725,0.0056349,0.017191786,-0.0285321,0.0
4387511866,0.01589437,0.087334394,-0.022367643,0.0057973857,0.01734096,-0.028904956,0.0
4387543864,0.030783456,0.07428344,-0.025275981,0.005919272,0.01747729,-0.029269367,0.0
4387575840,0.04753186,0.08876847,-0.031538166,0.0060056774,0.017605383,-0.029601634,0.0
4387607842,0.08043748,0.057484917,-0.025569279,0.0060711387,0.01776153,-0.029918961,0.0
4387635847,0.10465181,0.061805893,-0.037035055,0.0060931714,0.017904032,-0.030154256,0.0
4387668651,0.11797897,0.03803213,-0.03395161,0.006073506,0.01807477,-0.030422792,0.0
4387700660,0.118336454,0.032335013,-0.028916208,0.0059963325,0.018242778,-0.030697951,0.0
4387732674,0.15034533,0.05819125,-0.021831091,0.005869026,0.018405704,-0.031017,0.0
4387764674,0.1611178,0.025093775,-0.00515362,0.0057052444,0.018574711,-0.031385332,0.0
4387796638,0.16474047,0.031593878,-0.008650651,0.005503426,0.018734902,-0.031754155,0.0
4387828723,0.15402927,0.0030816067,-0.0057514505,0.005270831,0.01892795,-0.032149043,0.0
4387860687,0.14933087,-0.0026434567,-0.0072557395,0.0050209137,0.019138576,-0.0325623,0.0
4387893438,0.12608652,-0.0021318006,-0.002490173,0.004750142,0.01937407,-0.033015255,0.0
4387925440,0.112181745,0.02399016,0.0016244631,0.004473045,0.019592697,-0.033486936,0.0
4387957446,0.113106266,0.008049277,0.005345754,0.0041946806,0.019816794,-0.033984747,0.0
4387989486,0.083968006,0.0055550393,0.0061598234,0.00392736,0.020040393,-0.034513306,0.0
4388021500,0.082186446,-0.00053437764,0.012141554,0.0036474748,0.02027707,-0.035060596,0.0
4388053470,0.08156931,0.030643696,0.010379611,0.0033589045,0.020513678,-0.035624444,0.0
4388085457,0.06381101,0.016116478,0.0075452384,0.003074594,0.02074215,-0.036193475,0.0
4388117521,0.06608198,0.036176257,0.011246499,0.0027739462,0.020947924,-0.036780834,0.0
4388149487,0.0624055,0.026086563,0.010058197,0.0024398398,0.021162136,-0.037348367,0.0
4388182265,0.050611906,0.011492535,0.0055074347,0.002088177,0.021404639,-0.037933193,0.0
4388214280,0.029975465,-0.0072430572,0.00621622,0.001765853,0.021674836,-0.038497664,0.0
4388246244,0.015311304,-0.010163332,0.00856371,0.001454653,0.0219695,-0.03905403,0.0
4388278284,-0.004562147,-0.03517734,0.010848356,0.0011703537,0.022304334,-0.03962232,0.0
4388310261,-0.029741628,-0.04751642,0.007897875,0.000906707,0.022668973,-0.040180083,0.0
4388342239,-0.06009527,-0.054517884,-0.0065667657,0.00065414415,0.023073347,-0.040717237,0.0
4388374268,-0.03973286,-0.018934455,-0.00082900026,0.0004118768,0.02347921,-0.041228283,0.0
4388406285,-0.056776855,-0.02686242,0.00074168365,0.00019570407,0.023903122,-0.041750144,0.0
4388438251,-0.03522248,-0.03906192,-0.00025146594,-3.588637e-05,0.024335219,-0.04222845,0.0
4388471040,-0.08021706,-0.031568516,-0.010474211,-0.00026222656,0.024800178,-0.04269802,0.0
4388503035,-0.06224423,-0.02947693,0.0018742662,-0.00046603355,0.025270132,-0.04316399,0.0
4388535056,-0.061883874,-0.015013634,-0.010663738,-0.00065142807,0.02573135,-0.04359745,0.0
4388567075,-0.061361324,-0.019389123,-0.015421976,-0.00083046145,0.026190363,-0.044011474,0.0
4388599097,-0.07428955,0.023412941,-0.02082428,-0.0010004642,0.026620276,-0.044370905,0.0
4388631047,-0.10095772,0.042814896,-0.027702138,-0.0011388155,0.02701907,-0.044674918,0.0
4388659842,-0.1047294,0.062383194,-0.03273146,-0.0012465884,0.027360119,-0.044908978,0.0
4388691854,-0.09075206,0.07274529,-0.038846415,-0.0013495473,0.027723497,-0.045110323,0.0
4388723869,-0.12702337,0.09201993,-0.051601566,-0.001409687,0.02804268,-0.04526894,0.0
4388755916,-0.13354346,0.074388064,-0.05172102,-0.0014201737,0.028338129,-0.04538273,0.0
4388787834,-0.12011947,0.072161056,-0.0534529,-0.0014036008,0.028613469,-0.045445487,0.0
4388819900,-0.1147568,0.11113672,-0.052496385,-0.0013808603,0.02886563,-0.04548554,0.0
4388851874,-0.111227445,0.09929505,-0.045746952,-0.0013476672,0.029096832,-0.04550365,0.0
4388883914,-0.10003684,0.10167058,-0.05756367,-0.0012832773,0.029308807,-0.045465976,0.0
4388915834,-0.09565606,0.07199296,-0.061653785,-0.0011993225,0.029522803,-0.04538352,0.0
4388947884,-0.08192231,0.070677355,-0.06537942,-0.0011180968,0.029728733,-0.045256376,0.0
4388980650,-0.05751728,0.078081265,-0.06438815,-0.0010486966,0.02993585,-0.04508983,0.0
4389012676,-0.051055554,0.048048135,-0.06719706,-0.0009831791,0.030154888,-0.044882983,0.0
4389044673,-0.012130283,0.02797996,-0.070410386,-0.0009303329,0.030392218,-0.04461586,0.0
4389076641,0.0090079615,0.017072203,-0.071076125,-0.00089195714,0.030637793,-0.044330392,0.0
4389108663,0.011322165,0.055921216,-0.0685601,-0.00085803535,0.030848319,-0.044037156,0.0
4389140667,0.003761107,0.054224294,-0.061062343,-0.0008095065,0.030999547,-0.043740258,0.0
4389173510,0.011102188,0.056660708,-0.06553886,-0.00076071837,0.03113535,-0.0434364,0.0
4389205446,0.030543875,0.06242141,-0.047671925,-0.00072816917,0.03126787,-0.04315555,0.0
4389237452,0.04356886,0.075142406,-0.04580298,-0.0006977797,0.03137441,-0.042882323,0.0
4389269465,0.056816265,0.08962626,-0.04875755,-0.000680891,0.03142518,-0.042608015,0.0
4389301472,0.060049053,0.06469321,-0.04904938,-0.0006701554,0.03144197,-0.042342514,0.0
4389333442,0.050186515,0.045000307,-0.040506624,-0.0006741676,0.031444702,-0.04211698,0.0
4389365449,0.050528195,0.049060535,-0.051366232,-0.00067618466,0.03145749,-0.04187815,0.0
4389397504,0.073035546,0.024507103,-0.039646834,-0.00067144,0.031506255,-0.04163706,0.0
4389429484,0.083017126,-0.0424193,-0.0246902,-0.00066566025,0.031607594,-0.041453633,0.0
4389462283,0.10637722,-0.05661721,-0.029154593,-0.0006919582,0.031746197,-0.041256387,0.0
4389494256,0.11096629,-0.04280838,-0.026297102,-0.00075147935,0.031884473,-0.041061122,0.0
4389526231,0.10089541,-0.030482989,-0.017351903,-0.0008381402,0.03199265,-0.04088411,0.0
4389558272,0.1341888,-0.029663458,-0.010825872,-0.0009646842,0.032097053,-0.04075304,0.0
4389590326,0.14606144,-0.025500344,-0.0008357789,-0.0011197235,0.032192957,-0.04067093,0.0
4389622247,0.13552547,-0.00953996,-0.0065298127,-0.0012975411,0.03225273,-0.040611908,0.0
4389654242,0.110578135,-0.02189685,-0.0038731666,-0.0014796691,0.032297183,-0.040568776,0.0
4389686314,0.07394992,-0.038361285,-0.0030831315,-0.0016327008,0.032356273,-0.04055125,0.0
4389718295,0.06156938,-0.058649536,0.0023617959,-0.0017555661,0.032472733,-0.04056413,0.0
4389747075,0.03624723,-0.08424407,0.010870988,-0.0018350602,0.032634694,-0.04062128,0.0
4389779117,0.016834425,-0.1256703,0.012450172,-0.0019032068,0.03286696,-0.040691655,0.0
4389811106,0.023950048,-0.119798556,0.014847674,-0.0019671975,0.03311531,-0.040811565,0.0
4389843036,-0.02085227,-0.10453995,0.016651621,-0.001983905,0.033355378,-0.040953986,0.0
4389875218,-0.075871035,-0.06627167,0.013201538,-0.0019212087,0.033557784,-0.041100863,0.0
4389907071,-0.07979845,-0.05615289,0.010952616,-0.0017748337,0.033751845,-0.04122603,0.0
4389939084,-0.08452554,-0.052431192,0.009718942,-0.001580678,0.033933368,-0.041343413,0.0
4389971031,-0.05661309,-0.039166965,0.00803642,-0.0013875295,0.034096375,-0.04140736,0.0
4389999844,-0.056053698,-0.03136036,0.014868009,-0.0012089257,0.034223653,-0.041497417,0.0
4390031842,-0.044756457,-0.024522282,0.013345261,-0.0010056437,0.03436376,-0.041589227,0.0
4390063844,0.021120522,-0.017771835,0.01018246,-0.00084200094,0.034496397,-0.041664254,0.0
4390095896,0.045741264,-0.014324065,0.0062654484,-0.0007330613,0.034614764,-0.041731033,0.0
4390127889,0.07114644,-0.024526566,0.0077202823,-0.0006936652,0.034728765,-0.041805446,0.0
4390159846,0.06616417,-0.0052299444,0.008897355,-0.0006809755,0.03484118,-0.041888,0.0
4390191857,0.0922481,-0.026170198,0.011014888,-0.0006938456,0.03497847,-0.04197807,0.0
4390223875,0.09903542,-0.007127706,0.007975065,-0.0007274043,0.03511535,-0.042071763,0.0
4390256690,0.06469598,-0.013516977,0.0068643508,-0.0007377582,0.03523192,-0.0421701,0.0
4390288645,0.02863424,0.03253995,-0.004756999,-0.00072752434,0.035289768,-0.042263933,0.0
4390320632,-0.0032586502,0.06272964,0.003179079,-0.0006649305,0.035290647,-0.04232505,0.0
4390352642,-0.026987575,0.05247846,-0.0031941733,-0.0005426059,0.035252307,-0.042393465,0.0
4390384673,-0.0016532775,0.07290316,0.0064668693,-0.00041235547,0.035184428,-0.04248856,0.0
4390416650,-0.029501427,0.06873048,0.0017153092,-0.00027207992,0.03510369,-0.04257215,0.0
4390448646,-0.0035262052,0.08428085,0.0023735417,-0.00013902207,0.034999374,-0.042655036,0.0
4390481447,0.011292511,0.054895833,-0.010166511,-7.560662e-06,0.03488306,-0.042704973,0.0
4390513503,0.019910287,0.05734549,-0.0029956745,8.7697066e-05,0.034754142,-0.04273386,0.0
4390545476,0.07257822,0.06655263,-0.0075588766,0.00012769786,0.034616258,-0.042766433,0.0
4390577499,0.071997635,0.032945346,-0.0032283252,0.00012591816,0.03448711,-0.04275813,0.0
4390609447,0.09687865,0.03259413,-0.0053313607,6.675085e-05,0.034357592,-0.04276986,0.0
4390641447,0.12640132,0.026124269,-0.00911032,-5.8755628e-05,0.034239873,-0.042769164,0.0
4390673505,0.14433736,0.0051122876,-0.008201925,-0.00025766477,0.034129392,-0.042786818,0.0
4390705434,0.15780655,-0.0149173,-0.00803256,-0.00050151284,0.034023866,-0.04279719,0.0
4390738282,0.114525676,-0.010100439,-0.005949743,-0.00073390885,0.033926927,-0.0427922,0.0
4390770271,0.08983095,-0.025674937,0.0005867336,-0.0009389977,0.033860855,-0.04280122,0.0
4390802325,0.070669696,-0.051027745,-0.0039786627,-0.0011213017,0.033807434,-0.042812582,0.0
4390834249,0.050386116,-0.05531986,-0.008847068,-0.001309945,0.033761367,-0.042837527,0.0
4390866298,0.021307359,-0.065294676,-0.0057839514,-0.0014964722,0.03373216,-0.042848807,0.0
4390898256,0.02198018,-0.031130634,0.0070628403,-0.0016701899,0.033701267,-0.042888314,0.0
4390930341,0.008277695,-0.054868117,0.0083279535,-0.0018168936,0.033679616,-0.042955257,0.0
4390962293,-0.027922057,-0.075927295,0.004730005,-0.001945493,0.033675168,-0.043014392,0.0
4390994246,-0.012715364,-0.059792247,0.0045652073,-0.0020921987,0.03368608,-0.04307801,0.0
4391027029,-0.04301115,-0.06584557,0.004575127,-0.0022384417,0.03371217,-0.04318783,0.0
4391059058,-0.027031852,-0.051975112,0.00950678,-0.0023741198,0.03373398,-0.043306254,0.0
4391091099,-0.0343596,-0.053118903,0.012236992,-0.0024994018,0.033761922,-0.043426897,0.0
4391123035,-0.011234086,-0.054788254,0.02209433,-0.0026466374,0.033806227,-0.04357444,0.0
4391151095,-0.034040745,-0.0419232,0.0118147805,-0.0027872936,0.033841483,-0.04372864,0.0
4391183040,-0.046203066,-0.047009967,0.0118768,-0.0029471167,0.03387851,-0.04387984,0.0
4391215048,-0.064573005,-0.06105364,0.016237017,-0.0030640792,0.033927917,-0.044082753,0.0
4391247059,-0.056122694,-0.041894082,0.013046231,-0.0031725878,0.03399969,-0.044272307,0.0
4391279915,-0.047999226,-0.021168306,0.01373494,-0.0032889745,0.034076076,-0.04440999,0.0
4391311840,-0.08722364,-0.024354266,0.015823964,-0.003362064,0.034128085,-0.044587158,0.0
4391343841,-0.07781048,-0.00019711512,0.014254171,-0.0034150851,0.034151167,-0.044717554,0.0
4391375836,-0.06089025,-0.012595238,0.018232245,-0.0034647486,0.034177374,-0.0448764,0.0
4391407878,-0.032130055,-0.004119075,0.00707181,-0.0035434698,0.034215424,-0.045008115,0.0
4391439835,-0.043278534,-0.0039717983,0.0074994657,-0.0036455274,0.03426953,-0.04513339,0.0
4391471841,-0.054621786,0.017657343,0.007158368,-0.0037583222,0.034304824,-0.045255095,0.0
4391503839,-0.012404843,0.008271473,0.0043777074,-0.0038939242,0.034334004,-0.045374013,0.0
4391536661,-0.002043519,0.020244624,-0.0021386682,-0.0040649557,0.03435252,-0.04549275,0.0
4391568717,-0.0044680005,0.022450741,-0.0041982243,-0.0042629186,0.034357436,-0.04559771,0.0
4391600642,0.019710733,0.05379947,-0.005094029,-0.0045037377,0.034346364,-0.045712296,0.0
4391632642,0.026062038,0.034327466,0.012229295,-0.0047705867,0.034343537,-0.045858443,0.0
4391664665,0.023786034,0.022221819,0.005071746,-0.0050651906,0.034349337,-0.04601881,0.0
4391696686,0.020003518,0.035786375,0.013526935,-0.005376147,0.034350067,-0.046234403,0.0
4391724677,0.019413313,0.031646248,0.035335805,-0.005643148,0.034357212,-0.04648464,0.0
4391757482,0.0034406437,0.014935761,0.027160132,-0.0059636165,0.03438188,-0.046771467,0.0
4391789457,0.008657526,-0.026147041,0.038945507,-0.00627415,0.034460187,-0.04709055,0.0
4391821452,-2.4272013e-05,-0.037952013,0.03566097,-0.006589882,0.034585204,-0.047441304,0.0
4391853462,-0.027203135,-0.05176113,0.03763254,-0.006910868,0.03475906,-0.047819518,0.0
4391885491,-0.02948339,-0.040248204,0.03570078,-0.0072463662,0.034953263,-0.04823304,0.0
4391917462,-0.023663247,-0.05948187,0.03588483,-0.007571532,0.035178773,-0.048682727,0.0
4391949439,-0.020301323,-0.06672725,0.057752725,-0.007905654,0.035437413,-0.049154222,0.0
4391981502,-0.019809963,-0.063752756,0.051845476,-0.008259708,0.035721283,-0.04965078,0.0
4392013471,-0.038953654,-0.043139488,0.035744686,-0.008630829,0.03600156,-0.05011386,0.0
4392045510,-0.043851722,-0.052496653,0.032345872,-0.009002152,0.03629258,-0.050623693,0.0
4392078268,-0.04142201,-0.023757478,0.037326705,-0.009383264,0.036583707,-0.05113788,0.0
4392110285,-0.07427636,0.01180296,0.03535931,-0.0097335,0.036835987,-0.05158928,0.0
4392142282,-0.08904597,0.06308117,0.030422365,-0.010083162,0.03702651,-0.05203675,0.0
4392174286,-0.09516958,0.10588487,0.015111573,-0.010415794,0.037147827,-0.052471563,0.0
4392206248,-0.13030717,0.111196466,0.00590371,-0.010712483,0.037225023,-0.05281296,0.0
4392238259,-0.1476037,0.1663138,-0.008009819,-0.0109589305,0.037211057,-0.053102028,0.0
4392270284,-0.15984893,0.17689323,-0.008228846,-0.011158274,0.03711653,-0.053359486,0.0
4392302297,-0.1724249,0.13680004,-0.0089112,-0.011328635,0.03703219,-0.053555522,0.0
4392335246,-0.17390318,0.086601764,-0.004270569,-0.011464423,0.037022926,-0.05373894,0.0
4392367044,-0.179444,0.08293208,-0.022492487,-0.011573576,0.037048258,-0.05383389,0.0
4392399040,-0.15241003,0.0606689,-0.030115489,-0.011713139,0.037084803,-0.053888872,0.0
4392431077,-0.11058889,0.047782615,-0.03821612,-0.011892422,0.037124548,-0.05391402,0.0
4392463082,-0.104792364,0.030024132,-0.028785396,-0.012077187,0.037168503,-0.053901706,0.0
4392495041,-0.09333557,0.057937197,-0.038773563,-0.012281121,0.037178203,-0.053915743,0.0
4392527043,-0.079547994,0.106933706,-0.043028243,-0.012506623,0.037117653,-0.053883947,0.0
4392559880,-0.10820954,0.09506196,-0.040032655,-0.012703939,0.037015192,-0.05382137,0.0
4392591868,-0.11225754,0.07251031,-0.037253246,-0.012855287,0.036901098,-0.05376023,0.0
4392623889,-0.11087613,0.074442394,-0.043370415,-0.012992202,0.036764868,-0.053655423,0.0
4392655844,-0.11935069,0.08988389,-0.046720106,-0.013113289,0.036595378,-0.053582467,0.0
4392687851,-0.087040216,0.07189084,-0.041591004,-0.013257377,0.036405753,-0.053477198,0.0
4392719873,-0.059502732,0.07385425,-0.04885435,-0.013440891,0.036186647,-0.05336627,0.0
4392751835,-0.05241283,0.042796675,-0.03244508,-0.013633996,0.03597609,-0.053274926,0.0
4392783847,-0.070810154,0.039837833,-0.030944183,-0.01380358,0.035773713,-0.053182494,0.0
4392816644,-0.06341062,0.021389494,-0.035583805,-0.013934516,0.03557318,-0.05307228,0.0
4392844643,-0.062940486,0.0036201184,-0.028320944,-0.014016363,0.03539734,-0.052988328,0.0
4392876645,-0.07510861,0.013952525,-0.035576377,-0.0141018415,0.035177387,-0.052876376,0.0
4392908682,-0.092597716,0.029704042,-0.030154524,-0.014184491,0.03491671,-0.052793834,0.0
4392940633,-0.058992155,0.06711425,-0.030198984,-0.014270164,0.03458252,-0.052727636,0.0
4392972704,-0.036407247,0.08486201,-0.029870152,-0.014341324,0.034172285,-0.052642252,0.0
4393004658,-0.051270388,0.06501724,-0.030050233,-0.014396418,0.033717502,-0.0525375,0.0
4393036742,-0.047904354,0.08270783,-0.023473086,-0.014437383,0.033226594,-0.05245094,0.0
4393069498,-0.06283779,0.022489604,-0.025658576,-0.014425843,0.032749325,-0.052333556,0.0
4393101435,-0.08006002,-0.016470756,-0.024864411,-0.014391858,0.03231081,-0.052262727,0.0
4393133443,-0.041566506,-0.034248397,-0.030317962,-0.014358085,0.031908683,-0.05214255,0.0
4393165483,-0.04759314,-0.07654966,-0.018896416,-0.014296008,0.031554177,-0.052067228,0.0
4393197498,-0.06624804,-0.064204745,-0.02118297,-0.014210017,0.031197308,-0.051990803,0.0
4393229458,-0.025236577,-0.09606681,-0.025871161,-0.014131018,0.030866764,-0.051904175,0.0
4393261470,-0.020144144,-0.15158439,-0.025043527,-0.014060319,0.030606786,-0.051781736,0.0
4393293440,0.035677746,-0.14536385,-0.018390406,-0.014030356,0.03040429,-0.051668372,0.0
4393325511,0.076830775,-0.18660522,-0.023835553,-0.014047422,0.030252503,-0.051557444,0.0
4393358279,0.085029006,-0.21019284,-0.028722638,-0.014121123,0.03015121,-0.051400557,0.0
4393390289,0.14955099,-0.21096936,-0.029223504,-0.014267336,0.030126045,-0.051224165,0.0
4393422256,0.1725287,-0.20112786,-0.035327107,-0.014491555,0.030134367,-0.051011637,0.0
4393454285,0.16454677,-0.18996094,-0.036060303,-0.014774636,0.03011517,-0.050772417,0.0
4393486279,0.14607635,-0.13583581,-0.042745378,-0.015065485,0.030051209,-0.05051259,0.0
4393518241,0.13498071,-0.12411821,-0.040663652,-0.015323955,0.029969994,-0.05021987,0.0
4393550288,0.12953824,-0.08728271,-0.035957295,-0.015557126,0.02985375,-0.049921524,0.0
4393582302,0.10053822,-0.05446689,-0.031798385,-0.015787868,0.0297099,-0.049625807,0.0
4393615242,0.07021925,-0.066331945,-0.029361604,-0.016015116,0.029536104,-0.049342934,0.0
4393647041,0.06314955,-0.054910682,-0.027030494,-0.01620179,0.02934508,-0.049091563,0.0
4393679041,0.05776645,-0.027289309,-0.019670427,-0.016371807,0.029151022,-0.048860595,0.0
4393711037,0.058109317,-0.043985505,-0.030400865,-0.016571084,0.028982058,-0.048597865,0.0
4393743070,0.04054219,-0.07967085,-0.022459289,-0.01678485,0.028837433,-0.04833917,0.0
4393775037,0.034391668,-0.07668,-0.013987468,-0.016984245,0.028711634,-0.048106726,0.0
4393807037,0.054284163,-0.085254475,-0.020418653,-0.01717956,0.0286229,-0.047863834,0.0
4393839878,0.059321128,-0.10979366,-0.023747958,-0.017387966,0.028566081,-0.047586072,0.0
4393871860,0.03236904,-0.118082486,-0.018721353,-0.017608548,0.028535584,-0.047329273,0.0
4393903905,0.024946582,-0.11240633,-0.014044893,-0.01783359,0.028555367,-0.04708557,0.0
4393935844,0.062455673,-0.1384901,-0.006414285,-0.018074483,0.028630367,-0.046855208,0.0
4393967837,0.06589783,-0.10789824,-0.015550589,-0.01835637,0.02871028,-0.04661733,0.0
4393999855,0.028381463,-0.10502614,-0.01721485,-0.018652223,0.028793467,-0.04637596,0.0
4394031888,0.019444544,-0.10826647,-0.021492276,-0.018930562,0.028894601,-0.046120312,0.0
4394063836,0.03288856,-0.10896424,-0.016497938,-0.019207172,0.029047148,-0.045846805,0.0
4394096660,0.015937582,-0.10778057,-0.018070977,-0.019480083,0.02925387,-0.045545824,0.0
4394128683,0.010112589,-0.11920952,-0.011937053,-0.019729905,0.029473132,-0.045239337,0.0
4394160660,-0.0032010681,-0.097201265,-0.015945984,-0.019984704,0.029701525,-0.04490408,0.0
4394192787,0.0042576133,-0.06884931,-0.0017259587,-0.020251062,0.02995221,-0.044655874,0.0
4394224665,-0.023279237,-0.040564068,-0.014280265,-0.020470595,0.030203557,-0.044413585,0.0
4394256689,-0.025539631,0.00033326994,-0.009136918,-0.020673884,0.030393345,-0.04413581,0.0
4394288666,-0.011401103,0.041254725,-0.012344958,-0.020894177,0.030513203,-0.043859567,0.0
4394320718,-0.026242195,0.06701282,-0.011805737,-0.021126222,0.030600404,-0.04357995,0.0
4394352641,-0.060794555,0.09210933,-0.010006792,-0.021326663,0.03066277,-0.04330691,0.0
4394381495,-0.06935179,0.13310494,-0.009874413,-0.021484427,0.030666716,-0.043070488,0.0
4394413455,-0.035871245,0.17166115,-0.009148009,-0.021674765,0.03059712,-0.04282317,0.0
4394445435,-0.01570861,0.19198473,-0.005684723,-0.021877889,0.03043729,-0.042530514,0.0
4394477478,-0.035615582,0.24450606,-0.0034449298,-0.0220737,0.030182661,-0.042290904,0.0
4394509483,-0.0517947,0.23842932,0.0048562484,-0.022237357,0.029877111,-0.04205221,0.0
4394541459,-0.047484644,0.23062937,0.00026668422,-0.022397228,0.029552415,-0.041809402,0.0
4394573458,-0.035732787,0.21223004,-0.0059282677,-0.022565626,0.029223533,-0.041566614,0.0
4394606297,-0.058167584,0.15580761,0.0023771967,-0.02271154,0.028890582,-0.041325763,0.0
4394638289,-0.06530335,0.12890601,-0.0075108595,-0.022842465,0.028599963,-0.041093726,0.0
4394670315,-0.014506219,0.0947483,-0.0023693696,-0.02298734,0.028377332,-0.04085467,0.0
4394702241,-0.0033997193,0.07236777,0.0042080358,-0.023151094,0.028182147,-0.040585306,0.0
4394734234,-0.016819434,0.069167845,-0.0045264848,-0.023333928,0.027968535,-0.040356647,0.0
4394766301,-0.03422462,0.026424022,0.0041353754,-0.023507157,0.027772276,-0.040134627,0.0
4394798287,-0.02356558,0.032711975,-0.010811841,-0.023666043,0.027600335,-0.039890617,0.0
4394830290,0.0022402303,0.035731934,0.011729062,-0.023831885,0.027456515,-0.03969101,0.0
4394866280,-0.03952567,-0.00073460327,-0.0053516943,-0.02401688,0.027323473,-0.039443176,0.0
4394899082,0.0037456858,-0.0015131005,0.0043108403,-0.024199715,0.027208729,-0.03921526,0.0
4394931051,0.0005143301,-0.033743452,-0.0016392868,-0.024373844,0.027142216,-0.038972,0.0
4394963033,-0.0015340056,-0.049270656,0.002051365,-0.024540488,0.027124926,-0.03873278,0.0
4394995236,-0.03668289,-0.036848698,0.00088462105,-0.024710948,0.027120013,-0.038512424,0.0
4395027081,-0.015030169,-0.03126841,0.010326153,-0.0248764,0.027113117,-0.03832492,0.0
4395059058,-0.0056166984,-0.037765753,0.007968291,-0.025021305,0.027118094,-0.03814474,0.0
4395091048,-0.014854901,-0.0266697,0.013137532,-0.025160078,0.027135434,-0.0379774,0.0
4395123117,-0.026943387,0.00046988064,0.007185594,-0.025312213,0.027139734,-0.03781788,0.0
4395155874,-0.007815073,0.014744993,0.0026854293,-0.025488922,0.027113454,-0.037633304,0.0
4395187848,-0.008925184,0.038414955,0.003167473,-0.025652999,0.027050441,-0.03746041,0.0
4395219849,-0.011313356,0.02827447,0.013073346,-0.025798593,0.026964338,-0.037283853,0.0
4395251843,-0.005167185,0.044664375,0.00587373,-0.025938539,0.026858032,-0.037099235,0.0
4395283865,0.00044833042,0.042554792,0.012137434,-0.026092477,0.026766002,-0.036942143,0.0
4395315837,-0.019360432,0.02731639,0.011375936,-0.026223278,0.026702467,-0.036802232,0.0
4395343874,-0.0069910637,-0.0020548275,0.019069938,-0.026336208,0.026686348,-0.036696415,0.0
4395375836,-0.008601719,-0.044091877,0.011426827,-0.026444737,0.026734091,-0.036551807,0.0
4395408677,-0.016836062,-0.03485703,0.021851633,-0.026555354,0.02680799,-0.036471955,0.0
4395440667,-0.01993875,0.0058602076,0.016729381,-0.026662443,0.02686078,-0.03639737,0.0
4395472712,-0.014059553,-0.01567701,0.020357376,-0.02677654,0.0269002,-0.036341693,0.0
4395504627,-0.00095432583,0.010805697,0.010120271,-0.026888069,0.026935214,-0.036253113,0.0
4395536679,0.012537145,0.04289272,0.02502463,-0.026995169,0.026949411,-0.0361985,0.0
4395568658,-0.011586892,0.08489618,0.016369816,-0.02709694,0.02691031,-0.036140688,0.0
4395600707,-0.00886639,0.070736125,0.013553342,-0.027207248,0.026826825,-0.036076225,0.0
4395632702,-0.0006930411,0.07382545,0.016516484,-0.027311081,0.026717996,-0.036035527,0.0
4395665447,0.016028542,0.099485435,0.013593215,-0.027431447,0.026588371,-0.03599268,0.0
4395697474,0.010107259,0.1132667,0.021146782,-0.027556933,0.026422592,-0.03595279,0.0
4395729447,0.036435843,0.11448069,0.019470084,-0.027688311,0.026219815,-0.035930067,0.0
4395761525,0.039176963,0.09554124,0.014074192,-0.027841665,0.025987566,-0.035879057,0.0
4395793463,0.041598607,0.13759431,0.0121029485,-0.028012427,0.025691686,-0.03583492,0.0
4395825514,0.069084786,0.17244203,0.002933306,-0.02821767,0.025308086,-0.035781816,0.0
4395857459,0.11061568,0.14479786,0.005342779,-0.028482722,0.024891067,-0.035699163,0.0
4395889517,0.1255219,0.09064995,-0.0058047343,-0.028819146,0.024518523,-0.035555203,0.0
4395921457,0.111527726,0.07467126,-0.018746372,-0.029208826,0.024166739,-0.035338525,0.0
4395954235,0.062197234,0.034124814,-0.015337449,-0.029583437,0.023823157,-0.03512671,0.0
4395986259,0.015382671,-0.017033737,-0.014142467,-0.029857095,0.023527479,-0.034928616,0.0
4396018261,-0.021621805,0.009450696,-0.008747189,-0.030046854,0.023243267,-0.034729887,0.0
4396050320,-0.050602842,-0.008329064,-0.0055681914,-0.030171132,0.022948606,-0.034534145,0.0
4396082255,-0.085407495,-0.077597775,-0.0036005084,-0.03024993,0.022686142,-0.03437015,0.0
4396114298,-0.11308406,-0.112310104,0.00071731943,-0.030288782,0.022496581,-0.034264684,0.0
4396146295,-0.09834169,-0.19036971,0.019022167,-0.030291883,0.022450449,-0.034217685,0.0
4396179106,-0.09608678,-0.25832692,0.026254881,-0.030253448,0.022593562,-0.034243155,0.0
4396211117,-0.113826275,-0.295648,0.038612958,-0.030173725,0.022864752,-0.03435856,0.0
4396243042,-0.11605845,-0.26866364,0.039493714,-0.030068494,0.023192078,-0.034530465,0.0
4396275329,-0.06589195,-0.24483867,0.039769206,-0.029983656,0.023530096,-0.03473461,0.0
4396307078,-0.12836678,-0.19493616,0.038978547,-0.02983038,0.023852723,-0.03492548,0.0
4396339033,-0.117502734,-0.05952812,0.042967536,-0.029569775,0.024035055,-0.035123624,0.0
4396371041,-0.07580176,0.009291967,0.035113685,-0.029316626,0.024081606,-0.035341375,0.0
4396403039,-0.030711796,0.037811033,0.032192804,-0.029144576,0.024039615,-0.035527043,0.0
4396435872,-0.046795957,0.1035252,0.028734565,-0.028967343,0.023907663,-0.03571894,0.0
4396467880,-0.03773896,0.17145048,0.021517247,-0.028774908,0.023665767,-0.035862163,0.0
4396499844,-0.038680475,0.17455873,0.014322521,-0.02854187,0.023339527,-0.035981644,0.0
4396531836,-0.03812964,0.18280327,0.013437368,-0.028268175,0.022963867,-0.03609931,0.0
4396563842,0.002441939,0.20306423,0.0035734228,-0.028010143,0.022515122,-0.03615471,0.0
4396595894,-0.06331933,0.17416765,-0.00143861,-0.027707621,0.022035092,-0.03616088,0.0
4396627867,-0.06353392,0.10970853,-0.019463409,-0.027354777,0.021619854,-0.036097083,0.0
4396656856,-0.029071439,0.08051916,-0.023646198,-0.027018156,0.021277701,-0.035987474,0.0
4396688650,0.012662994,0.086442776,-0.016318524,-0.026671102,0.020894697,-0.035860524,0.0
4396720630,0.02573523,0.10438475,-0.012232968,-0.026348798,0.020454066,-0.03575781,0.0
4396752688,0.001597459,0.08650268,-0.0062283063,-0.02603049,0.019957952,-0.035691995,0.0
4396784656,0.023507064,0.07125152,-0.011226734,-0.025689926,0.019443989,-0.035631172,0.0
4396816712,-0.015828278,0.13458921,-0.020795394,-0.025254248,0.018873869,-0.035515055,0.0
4396848650,-0.021232385,0.14758746,-0.017462222,-0.024753153,0.018205091,-0.03535491,0.0
4396880675,0.011532363,0.1488785,-0.019207258,-0.024239182,0.017416432,-0.035199426,0.0
4396912673,-0.016803479,0.042751495,-0.01050578,-0.023720374,0.016665976,-0.035077065,0.0
4396945479,0.029933304,-0.01062343,-0.011894237,-0.023211678,0.016013691,-0.0349461,0.0
4396977441,0.058339518,-0.07877508,-0.0041571492,-0.02273342,0.015489805,-0.03487245,0.0
4397009440,0.16175352,-0.15278207,0.0012052887,-0.022361899,0.015057632,-0.03481763,0.0
4397041468,0.19648187,-0.20249036,0.0046046227,-0.022113059,0.014734776,-0.034793507,0.0
4397073492,0.20522512,-0.29820645,0.0173063,-0.021944057,0.014546834,-0.03483299,0.0
4397105474,0.2516094,-0.2540503,0.013329446,-0.02183204,0.014412024,-0.034910314,0.0
4397137444,0.2692363,-0.24639957,0.023346314,-0.02176517,0.014294482,-0.035001993,0.0
4397169469,0.27374795,-0.28863436,0.024624504,-0.021764915,0.014219438,-0.035134066,0.0
4397201493,0.28433344,-0.31007326,0.035104405,-0.021818696,0.014218032,-0.035326533,0.0
4397230410,0.22870074,-0.30304828,0.037374146,-0.021863215,0.014280744,-0.0355341,0.0
4397262279,0.2706033,-0.2975608,0.037426155,-0.021934273,0.0144125335,-0.03578687,0.0
4397294247,0.21412186,-0.31020287,0.043659866,-0.022000678,0.014594,-0.03607194,0.0
4397326234,0.21977465,-0.26874837,0.03792165,-0.022093771,0.014797323,-0.036401402,0.0
4397358231,0.18126062,-0.25771427,0.04107615,-0.022182629,0.0150204385,-0.03672408,0.0
4397390321,0.1856752,-0.1917498,0.039945055,-0.022276163,0.0152203515,-0.037077658,0.0
4397422248,0.16855146,-0.17031308,0.035027735,-0.02238031,0.015393643,-0.037409224,0.0
4397455253,0.13795333,-0.1319841,0.030472,-0.022480795,0.015559394,-0.03772751,0.0
4397487043,0.11797676,-0.116125055,0.021943074,-0.022553068,0.015737109,-0.038011447,0.0
4397519107,0.094335094,-0.08658453,0.016291557,-0.0226273,0.015901,-0.038267903,0.0
4397551093,0.09561093,-0.05061779,0.0036044575,-0.022715254,0.016049646,-0.038471527,0.0
4397583083,0.079792306,-0.0720014,-0.00096643274,-0.022794703,0.016208539,-0.03863501,0.0
4397615043,0.06301766,-0.03736599,-0.0058650663,-0.022868812,0.016373523,-0.0387551,0.0
4397647100,0.067161076,-0.054441977,0.0023046255,-0.022942483,0.01656296,-0.038859006,0.0
4397679101,0.04171483,-0.02087316,-0.021703122,-0.022995906,0.016735023,-0.038936604,0.0
4397711042,0.013092207,0.006553461,-0.01758636,-0.023030387,0.016882213,-0.038957592,0.0
4397743886,0.014953578,0.01742622,-0.021814946,-0.023061488,0.017026646,-0.038955078,0.0
4397775844,0.0029044668,0.016611133,-0.022940962,-0.02308926,0.017152261,-0.038936906,0.0
4397807926,-0.03765051,0.058860544,-0.02612599,-0.023102392,0.01725137,-0.038899917,0.0
4397839882,-0.026565654,0.055246904,-0.020368744,-0.023093285,0.01734874,-0.038865965,0.0
4397871892,-0.023719616,0.049062677,-0.029643249,-0.023068992,0.017446093,-0.03881201,0.0
4397903831,-0.03015592,0.02695893,-0.020433832,-0.023049682,0.0175629,-0.038754344,0.0
4397935918,-0.026111979,0.07566671,-0.01721186,-0.023035476,0.017673401,-0.03870545,0.0
4397967867,-0.042505104,0.072564416,-0.018139798,-0.022992117,0.017787816,-0.038661305,0.0
4397996835,-0.038035825,0.081339866,-0.010858897,-0.022934025,0.017866807,-0.03862369,0.0
4398028689,-0.052835118,0.087586924,-0.013344314,-0.022853324,0.017916987,-0.03860548,0.0
4398060643,-0.064632975,0.10939683,-0.013526931,-0.022773411,0.017936029,-0.038611963,0.0
4398092648,-0.06269615,0.12795566,-0.0018431905,-0.02268762,0.01793175,-0.038646694,0.0
4398124653,-0.042123772,0.1365758,-0.0008731843,-0.0225995,0.017909933,-0.038681034,0.0
4398156668,-0.031020766,0.13355929,0.0018794914,-0.02253477,0.017863289,-0.03872737,0.0
4398188659,-0.034706924,0.15886761,-0.0049204305,-0.02248747,0.017787764,-0.038779724,0.0
4398221486,-0.034611866,0.13406399,0.00139712,-0.022436285,0.017705219,-0.038866565,0.0
4398253456,-0.009001346,0.11479129,0.0045830496,-0.022403503,0.017625533,-0.0389465,0.0
4398285516,-0.011476706,0.097743995,0.0010822604,-0.022395715,0.017581297,-0.039017804,0.0
4398317436,-0.008386442,0.041574456,-0.00012100022,-0.022402724,0.017607633,-0.039078336,0.0
4398349449,0.015624688,0.022296164,-0.0030894873,-0.022416394,0.017684378,-0.039134312,0.0
4398381459,0.031454567,-0.009170701,-0.000976318,-0.022451984,0.017808605,-0.03916794,0.0
4398413494,-0.0007908027,-0.012161221,-0.0032096384,-0.022498151,0.01795992,-0.039169777,0.0
4398445476,0.010805144,0.0021963443,-0.011893367,-0.022559617,0.018120768,-0.03914943,0.0
4398477436,0.014927634,-0.0017425178,-0.019702993,-0.022636987,0.018285915,-0.039098896,0.0
4398510298,0.007857554,0.0078051873,-0.021540985,-0.02271851,0.018441737,-0.039026882,0.0
4398542234,-0.010547164,0.014134937,-0.01562763,-0.022805957,0.018605774,-0.038976137,0.0
4398574413,-0.01101637,0.038051233,-0.0051991604,-0.022895055,0.018771745,-0.038960066,0.0
4398606254,-0.018571127,0.056453053,-0.0008722588,-0.02297335,0.018919857,-0.03896829,0.0
4398638245,-0.037182037,0.06180025,0.0060767476,-0.023042103,0.019019987,-0.039019167,0.0
4398670270,-0.04935419,0.074071445,0.013520729,-0.023087772,0.0190769,-0.039126933,0.0
4398702283,-0.071058,0.08747772,0.016361102,-0.023109797,0.019128969,-0.039266784,0.0
4398734245,-0.080857575,0.09861929,0.020639066,-0.023108616,0.019198982,-0.039435577,0.0
4398767052,-0.074057,0.070515096,0.03412163,-0.0230942,0.019276556,-0.039648503,0.0
4398799079,-0.06421299,0.06667406,0.032065976,-0.023079168,0.019346643,-0.03986574,0.0
4398831047,-0.051770143,0.08386148,0.033551306,-0.023092108,0.019398756,-0.040100977,0.0
4398863143,-0.021572346,0.064605184,0.03857835,-0.023150733,0.01945956,-0.04038072,0.0
4398895046,-0.011113238,0.07605021,0.041553907,-0.02324501,0.019523803,-0.040663708,0.0
4398927072,-0.01497281,0.05814005,0.041434363,-0.023350885,0.019598695,-0.040975083,0.0
4398959038,-0.04578679,0.060418855,0.025463652,-0.02345339,0.019674243,-0.041274328,0.0
4398991194,-0.028495613,0.052713968,0.03021019,-0.023559649,0.019752517,-0.04160149,0.0
4399023846,-0.03779552,0.033212002,0.024093797,-0.023656668,0.019868806,-0.04196187,0.0
4399055842,-0.04644012,0.03427886,0.02327359,-0.023734719,0.019991798,-0.04228336,0.0
4399087864,-0.035412412,0.04060458,0.028957158,-0.02382051,0.020111784,-0.04261497,0.0
4399119894,-0.0015974463,0.041980118,0.032798592,-0.023946166,0.0202298,-0.042943668,0.0
4399151918,-0.016704842,0.026811825,0.023970462,-0.024092454,0.020371413,-0.043205637,0.0
4399183874,-0.025963929,0.0406025,0.02500814,-0.024248427,0.020494418,-0.043541074,0.0
4399215886,-0.028969422,0.0596046,0.011481759,-0.024411319,0.02059627,-0.043842167,0.0
4399247879,-0.028120602,0.04977011,0.0043184306,-0.02456964,0.020690426,-0.04413069,0.0
4399280689,-0.044762373,0.011949241,-0.0010188969,-0.024717204,0.020823168,-0.044380944,0.0
4399312634,-0.06210211,0.008082468,0.0025671348,-0.024829892,0.020981714,-0.0446258,0.0
4399340687,-0.064038545,-0.0029016722,-0.0018863722,-0.024921505,0.021145348,-0.04477742,0.0
4399372634,-0.08215749,-0.008967797,-0.003567651,-0.024984933,0.021350829,-0.04494759,0.0
4399404648,-0.08312426,0.002200933,-0.0038711887,-0.025040409,0.02155731,-0.04508194,0.0
4399436679,-0.07968367,0.0070351614,-0.006253291,-0.025087446,0.02176241,-0.045196295,0.0
4399468676,-0.09802715,-0.0089707235,-0.012411602,-0.02509541,0.02198542,-0.04526589,0.0
4399500676,-0.09610218,-0.009508444,-0.010572496,-0.025067555,0.02223591,-0.045291316,0.0
4399532645,-0.09956795,-0.010953962,-0.021516152,-0.02502858,0.022486221,-0.045264207,0.0
4399565474,-0.07454381,0.027459517,-0.020841898,-0.02500946,0.02271724,-0.04520798,0.0
4399597486,-0.070685275,0.02844041,-0.019686444,-0.025004402,0.022916902,-0.04513419,0.0
4399629515,-0.056627788,0.06537725,-0.03244416,-0.025021039,0.023058586,-0.045020938,0.0
4399661439,-0.015940027,0.06497136,-0.025107974,-0.02506215,0.023173664,-0.044903822,0.0
4399693445,-0.017908964,0.058476713,-0.029245539,-0.02511434,0.023287658,-0.044776876,0.0
4399725471,-0.015234773,0.05222433,-0.027072866,-0.025205463,0.023419317,-0.044662274,0.0
4399757492,-0.01604741,0.032706704,-0.027021281,-0.025309574,0.023579737,-0.044548653,0.0
4399789466,-0.020515105,0.033096172,-0.028125415,-0.02539329,0.023749989,-0.044444256,0.0
4399822250,-2.6272144e-05,0.034324005,-0.021897292,-0.025467277,0.023905916,-0.04433526,0.0
4399854325,-0.011651918,0.05857643,-0.01900359,-0.025541842,0.024000589,-0.044230565,0.0
4399886264,-0.013046809,0.08438922,-0.007710477,-0.025626885,0.02405986,-0.04416868,0.0
4399918297,-0.00047561713,0.07951961,-0.008874048,-0.02572151,0.024109717,-0.04410124,0.0
4399950276,0.0039826417,0.0800253,-0.012610715,-0.025832763,0.024149343,-0.044030864,0.0
4399982313,0.010541294,0.05544166,-0.013538457,-0.025949929,0.024177408,-0.043972865,0.0
4400014284,0.014291134,0.044127807,-0.0081634745,-0.02607909,0.024189632,-0.04391942,0.0
4400047068,-0.0031708581,0.05949108,-0.006524129,-0.026216626,0.024199273,-0.043904077,0.0
4400079066,-0.01632939,0.040349044,0.0033278752,-0.026322903,0.02422892,-0.043934457,0.0
4400111056,-0.017002894,0.026063696,0.0012543174,-0.026383054,0.024260478,-0.043911222,0.0
4400143130,-0.009769096,0.014531135,0.00023576012,-0.026433503,0.02428496,-0.043890428,0.0
4400175081,-0.032734133,0.018490141,-0.0050054104,-0.026482502,0.02429954,-0.043885276,0.0
4400207112,-0.054606996,0.014580989,-0.0074971374,-0.026520003,0.02431975,-0.043866266,0.0
4400239041,-0.027618323,0.00042201392,-0.0091096815,-0.0265427,0.024353832,-0.04383356,0.0
4400271121,0.015481278,-0.002689632,-0.019697204,-0.026590373,0.024394384,-0.04377542,0.0
4400299861,0.020303711,-0.032738682,-0.012113683,-0.026654419,0.024462644,-0.043723084,0.0
4400331876,0.00632559,-0.077169776,-0.02083997,-0.026749922,0.02459357,-0.043607004,0.0
4400363864,-0.008983268,-0.079388745,-0.012448148,-0.026815424,0.024780912,-0.043550003,0.0
4400395844,-0.00037269748,-0.07818613,-0.01791567,-0.026873577,0.025008742,-0.043457564,0.0
4400427845,0.0037222258,-0.07618951,-0.01587817,-0.02691217,0.025242161,-0.043357655,0.0
4400459894,0.00042576785,-0.08309338,-0.0031442407,-0.026943795,0.025468124,-0.043264803,0.0
4400491907,-0.014015844,-0.070426226,-0.013547112,-0.026976708,0.025691882,-0.04318322,0.0
4400523838,-0.019318422,-0.046326816,-0.0010030239,-0.026982859,0.025910933,-0.043083172,0.0
4400556685,-0.03796737,-0.054345194,-0.025447138,-0.026963385,0.026141016,-0.042972777,0.0
4400588632,-0.013789313,-0.033649135,-0.016146926,-0.02696818,0.026357068,-0.04287635,0.0
4400620728,-0.009967459,-0.040563382,-0.014365329,-0.026969347,0.026575215,-0.04278009,0.0
4400652688,-0.023710294,-0.010268054,-0.013618166,-0.026956268,0.02677896,-0.04269285,0.0
4400684637,-0.004742494,-0.02938229,-0.014247398,-0.026948916,0.026990017,-0.042617448,0.0
4400716635,0.018654326,-0.06198187,-0.00541279,-0.02695152,0.027238132,-0.04253674,0.0
4400748685,-0.0055042133,-0.07070084,-0.0068933973,-0.026944146,0.027537623,-0.042468417,0.0
4400780687,-0.03041464,-0.081821136,-0.0028890776,-0.02688941,0.027899822,-0.042415988,0.0
4400812665,-0.01898636,-0.04429683,0.0040954095,-0.026798261,0.028266096,-0.042374026,0.0
4400845494,0.014183683,-0.005601136,0.013592113,-0.026721586,0.028588435,-0.042368323,0.0
4400877470,0.008428367,0.023838036,0.012885195,-0.026673483,0.028832069,-0.042399995,0.0
4400909517,0.013576836,0.045457333,0.01147333,-0.026623808,0.029030818,-0.04243073,0.0
4400941435,0.049420595,0.07619445,0.017160289,-0.026593812,0.029169453,-0.04248404,0.0
4400973492,0.03636431,0.09949911,0.02095122,-0.026581738,0.029276293,-0.04257635,0.0
4401005440,0.0029607243,0.074612536,0.02309422,-0.026534436,0.02938856,-0.04266533,0.0
4401037485,0.011496044,0.056588814,0.027138107,-0.026431762,0.029538546,-0.042761374,0.0
4401065478,0.019689387,0.045473255,0.018722234,-0.02633792,0.029693028,-0.04286395,0.0
4401098294,0.033637512,0.022204066,0.009192798,-0.026270963,0.029891742,-0.042976573,0.0
4401130314,0.02479824,0.00785808,0.0052513694,-0.026224108,0.030065391,-0.04307689,0.0
4401162250,0.014347611,-0.0029778099,0.015749933,-0.0261737,0.030258516,-0.043205626,0.0
4401194307,0.022214288,0.041541543,0.012854814,-0.026099324,0.030428967,-0.043356985,0.0
4401226272,0.02112347,0.055441707,0.028221525,-0.02599669,0.030561527,-0.043601405,0.0
4401258280,0.024336984,0.068337426,0.026931517,-0.02589724,0.030654015,-0.04384755,0.0
4401290297,0.0056087016,0.038139973,0.030888606,-0.025782173,0.030737646,-0.044118088,0.0
4401323035,-0.0339433,0.047954153,0.018035369,-0.025614975,0.030838381,-0.044385344,0.0
4401355054,-0.008969808,0.03876912,0.0270655,-0.025405623,0.030941235,-0.04466771,0.0
4401387097,0.015066496,0.044111636,0.01804687,-0.025193734,0.031040335,-0.04492502,0.0
4401419041,0.043304782,0.06261322,0.02080351,-0.025058787,0.031110592,-0.045185,0.0
4401451046,0.06698142,0.07708705,0.013730284,-0.024994342,0.031136403,-0.045451637,0.0
4401483066,0.076541744,0.038428303,0.016617354,-0.024939053,0.031168738,-0.045702446,0.0
4401515061,0.104675844,0.042361744,0.01803292,-0.02490244,0.03120281,-0.045929138,0.0
4401547034,0.11194749,0.0711328,0.010058733,-0.024900168,0.031205846,-0.04621711,0.0
4401579854,0.08784156,0.06819867,0.019025434,-0.024914322,0.031163644,-0.046477962,0.0
4401611929,0.051403288,0.047224928,0.014122097,-0.024885103,0.031096695,-0.04674628,0.0
4401643868,0.0029348484,0.05673195,0.013444107,-0.024763111,0.03102564,-0.047018226,0.0
4401675878,0.03570628,0.054312088,0.016839541,-0.024598224,0.030949768,-0.04728008,0.0
4401707839,0.0055481982,0.027754752,0.0139285205,-0.02440655,0.030876175,-0.047528263,0.0
4401739830,-0.041590538,0.009605969,0.013778195,-0.024186874,0.030799227,-0.047790848,0.0
4401771852,-0.023049679,-0.006202311,0.019522516,-0.02393985,0.030739753,-0.04807024,0.0
4401804688,-0.0106110815,-0.04627626,0.030695703,-0.023662543,0.030728446,-0.04839085,0.0
4401836707,-0.006770036,-0.050250474,0.024815654,-0.023396898,0.030746318,-0.0487406,0.0
4401868645,-0.0019523497,-0.056419298,0.03440081,-0.02313205,0.03079326,-0.04912098,0.0
4401900688,-0.020356255,-0.10108637,0.03724114,-0.022837535,0.030865563,-0.049531523,0.0
4401932676,-0.010301003,-0.08978949,0.027390145,-0.022517446,0.03094902,-0.04992305,0.0
4401964638,0.024008593,-0.10779737,0.031386886,-0.022215337,0.0310762,-0.050320752,0.0
4401996646,0.07765289,-0.08836783,0.024301857,-0.02196861,0.031193096,-0.050701607,0.0
4402028659,0.09304608,-0.11314528,0.026082063,-0.021787234,0.031333566,-0.051080763,0.0
4402060695,0.14154862,-0.11405782,0.015690776,-0.021697963,0.031516016,-0.05144798,0.0
4402092642,0.16922747,-0.14996356,0.0050637135,-0.021683335,0.03177265,-0.05174917,0.0
4402125461,0.18218113,-0.14664026,0.009538341,-0.021733757,0.032085493,-0.05207342,0.0
4402157451,0.16486952,-0.13905525,0.0015958253,-0.021814685,0.03241702,-0.052363995,0.0
4402189513,0.1602164,-0.16446705,-0.0012534969,-0.0219075,0.032784626,-0.05264335,0.0
4402221496,0.15446319,-0.15447721,-0.004979583,-0.021998556,0.03318046,-0.052906588,0.0
4402253495,0.14840256,-0.11663805,-0.0012411827,-0.022085598,0.03356371,-0.053156275,0.0
4402285444,0.11164904,-0.074783735,-0.012911904,-0.022166755,0.03390096,-0.053370707,0.0
4402317489,0.10020561,-0.05220659,-0.018624138,-0.022277603,0.034191668,-0.05356756,0.0
4402349492,0.09372011,-0.0530692,-0.022735095,-0.022411808,0.03448722,-0.05376173,0.0
4402382305,0.093186185,-0.08068681,-0.020413002,-0.022565652,0.034863718,-0.053921815,0.0
4402414324,0.10022698,-0.06745363,-0.011520589,-0.022725252,0.03526443,-0.05407666,0.0
4402446241,0.08865812,-0.08489349,-0.0061266283,-0.02290014,0.035678968,-0.054224283,0.0
4402478325,0.05160502,-0.07016814,-0.02071348,-0.023082074,0.036080457,-0.0543625,0.0
4402510302,0.053327054,-0.05933162,-0.017514773,-0.023266437,0.036489148,-0.054539535,0.0
4402542285,0.046787944,-0.00805994,0.003529788,-0.02346791,0.036898006,-0.05472862,0.0
4402574256,0.0533033,0.01203342,-0.0029498788,-0.023689862,0.03728635,-0.05493313,0.0
4402607058,0.025441527,0.037937693,-0.0149105815,-0.023913851,0.037620813,-0.05512833,0.0
4402639107,-0.0029564835,0.013594292,-0.010083066,-0.024116287,0.03793621,-0.05530609,0.0
4402671045,-0.029030485,0.036103304,-0.016185751,-0.024287293,0.038235143,-0.055450875,0.0
4402703078,-0.029219965,0.041299798,-0.013623455,-0.024415694,0.038521025,-0.05558369,0.0
4402735040,-0.017790595,0.08150006,-0.01603923,-0.0245838,0.038772512,-0.055671867,0.0
4402767103,-0.06249254,0.07244661,-0.03973066,-0.024783736,0.038974382,-0.055697758,0.0
4402799056,-0.05993602,0.10092996,-0.03665534,-0.024976155,0.039124954,-0.05570373,0.0
4402831062,-0.025016552,0.12551144,-0.026450204,-0.025161717,0.039231837,-0.0557008,0.0
4402863844,-0.048046004,0.1462093,-0.028819187,-0.025339559,0.039294448,-0.05563586,0.0
4402895895,-0.06741251,0.12828054,-0.03283307,-0.025495207,0.039298315,-0.0555839,0.0
4402927866,-0.020315384,0.13490148,-0.026104195,-0.025686163,0.039256446,-0.055513065,0.0
4402959834,0.008415807,0.12585434,-0.02510316,-0.025959646,0.039191123,-0.055441488,0.0
4402991844,-0.00026738667,0.13721788,-0.04327348,-0.026305234,0.039095502,-0.055296574,0.0
4403023853,0.021363134,0.156049,-0.06288247,-0.02672497,0.03894085,-0.055141956,0.0
4403055872,0.042841572,0.14208698,-0.038349647,-0.027183166,0.038729414,-0.055004187,0.0
4403087837,0.029550586,0.12020089,-0.028428018,-0.02762046,0.03850289,-0.05480252,0.0
4403119875,-0.0017681214,0.1117321,-0.036396977,-0.02805251,0.038272165,-0.054648384,0.0
4403148640,-0.040272884,0.11471528,-0.04060872,-0.028387135,0.038033195,-0.054472983,0.0
4403180694,-0.07113336,0.1262902,-0.027080555,-0.028756944,0.037709087,-0.054300647,0.0
4403212637,-0.13306658,0.10789065,-0.050450087,-0.029060727,0.037327975,-0.054102294,0.0
4403244712,-0.16220918,0.06036304,-0.03519045,-0.029276593,0.036951713,-0.0539381,0.0
4403276651,-0.18379466,0.0072864685,-0.015425358,-0.02943418,0.03664441,-0.053813577,0.0
4403308638,-0.2163453,-0.010901755,-0.010492726,-0.029512959,0.036387444,-0.05369593,0.0
4403340635,-0.19739108,-0.04682699,-0.022642534,-0.029549737,0.0361447,-0.05354517,0.0
4403372681,-0.18411668,-0.06166733,-0.024001276,-0.02960372,0.03590026,-0.053372778,0.0
4403400672,-0.1734665,-0.0757045,-0.013391989,-0.029650345,0.03566814,-0.053267114,0.0
4403433483,-0.14427465,-0.092806086,-0.024498096,-0.029732484,0.035418816,-0.053138725,0.0
4403465440,-0.0703776,-0.11068654,-0.018752176,-0.029908178,0.035227913,-0.052979052,0.0
4403497450,-0.04358424,-0.122728124,-0.012110006,-0.030155012,0.035082836,-0.052818988,0.0
4403529440,-0.04074357,-0.16043355,-0.018370882,-0.03042236,0.03496078,-0.05262089,0.0
4403561472,-0.025319278,-0.17397714,-0.023178639,-0.030713925,0.034859885,-0.052446123,0.0
4403593501,-0.047807187,-0.16894592,-0.032495458,-0.031011723,0.034768987,-0.052244354,0.0
4403625470,-0.075143196,-0.17081508,-0.027228214,-0.031297114,0.034708753,-0.052061785,0.0
4403657477,-0.084198296,-0.17548162,-0.024513593,-0.03156884,0.034662772,-0.051940072,0.0
4403690270,-0.069143295,-0.16206798,-0.019117223,-0.031833347,0.03463844,-0.051760063,0.0
4403722278,-0.07992915,-0.14709023,0.0022865795,-0.032042246,0.03461423,-0.051629543,0.0
4403754247,-0.10606392,-0.115563765,-0.006031197,-0.03221199,0.03456266,-0.051472884,0.0
4403786247,-0.13010946,-0.10672949,-0.012738403,-0.032373138,0.03447316,-0.051347144,0.0
4403818304,-0.12743959,-0.12057327,-0.016097028,-0.032526854,0.034372706,-0.0512277,0.0
4403850317,-0.12546243,-0.10534459,-0.022122538,-0.03264701,0.034275614,-0.051101867,0.0
4403882252,-0.14569671,-0.11297073,-0.022039102,-0.032735296,0.034212984,-0.050938793,0.0
4403915035,-0.13260171,-0.108002335,-0.016789425,-0.032792572,0.034171533,-0.050746042,0.0
4403943127,-0.15011582,-0.11572249,-0.022371188,-0.032822408,0.03416193,-0.0505805,0.0
4403975051,-0.15474953,-0.13601536,-0.02135426,-0.032830697,0.034169648,-0.05036542,0.0
4404007073,-0.15884326,-0.13272735,-0.028301489,-0.032812715,0.034188148,-0.05015619,0.0
4404039077,-0.10633518,-0.07631725,-0.029366132,-0.032807153,0.034176994,-0.049944747,0.0
4404071122,-0.0688615,-0.059791937,-0.018763855,-0.032824423,0.034129053,-0.049753115,0.0
4404103031,-0.0960044,-0.05183283,-0.018373521,-0.03285492,0.034041673,-0.049557514,0.0
4404135086,-0.09544194,-0.03105352,-0.02084694,-0.03288829,0.033942286,-0.049365733,0.0
4404167879,-0.041553658,-0.032600086,-0.023836473,-0.032926068,0.033838492,-0.049112845,0.0
4404199891,-0.03240902,-0.0287624,-0.03165007,-0.03297128,0.033739693,-0.04882461,0.0
4404231854,-0.032602206,-0.030755801,-0.03228213,-0.033037376,0.03362777,-0.048522968,0.0
4404263839,-0.054146115,-0.036080938,-0.027074985,-0.033099797,0.033521574,-0.04824224,0.0
4404295900,-0.054003503,-0.023852892,-0.023865946,-0.03314621,0.033412404,-0.047971256,0.0
4404327866,-0.0071841236,-0.03739979,-0.022494078,-0.033202656,0.03330647,-0.047705438,0.0
4404359880,0.0073832315,-0.039816555,-0.022396786,-0.033291537,0.033213094,-0.047440294,0.0
4404391840,-0.0017076146,-0.038752735,-0.020271778,-0.033411983,0.033131186,-0.04719072,0.0
4404424662,0.015165258,-0.020089475,-0.016065266,-0.03354712,0.033028826,-0.046943914,0.0
4404456717,0.04372927,0.022593966,-0.013858437,-0.03369019,0.03287396,-0.046731215,0.0
4404488676,0.049030464,0.050192606,-0.0050714784,-0.03386464,0.03267466,-0.04654914,0.0
4404520646,0.031981133,0.0797681,-0.007041608,-0.034056287,0.03241895,-0.046362575,0.0
4404552640,0.015992763,0.09158411,-0.018385533,-0.03424495,0.03209805,-0.04617767,0.0
4404584679,0.01733153,0.07629718,-0.009855265,-0.034416765,0.031731565,-0.04599617,0.0
4404616670,0.036556944,0.08546368,-0.0033950557,-0.034596045,0.0313478,-0.045838933,0.0
4404648688,0.032896776,0.1054045,-0.0010170343,-0.03479301,0.030946337,-0.04572234,0.0
4404680650,0.0042389245,0.09297596,0.009103912,-0.03497437,0.030530995,-0.045621157,0.0
4404713493,-0.001893146,0.06266153,0.013501131,-0.035129234,0.03008749,-0.04557237,0.0
4404745472,-0.024040883,0.026990803,0.017785484,-0.03524951,0.029666726,-0.045569725,0.0
4404777443,-0.011967589,0.018584598,0.024239974,-0.03538099,0.029287051,-0.04562505,0.0
4404809451,0.016437141,0.00059220474,0.03767455,-0.035539642,0.028945185,-0.045721844,0.0
4404841447,0.022424093,-0.044638194,0.029094694,-0.035728283,0.028659312,-0.04588936,0.0
4404873527,0.01925398,-0.09418275,0.04145914,-0.035928287,0.028442537,-0.04608389,0.0
4404905430,0.035646424,-0.10166008,0.042665206,-0.036115047,0.028301267,-0.04631091,0.0
4404934307,0.055538196,-0.11642783,0.037626293,-0.036315177,0.028224833,-0.04652059,0.0
4404966268,0.064254425,-0.110654265,0.0471917,-0.036571894,0.028141038,-0.04680854,0.0
4404998292,0.022995817,-0.110445164,0.038180552,-0.03678705,0.028062552,-0.047102526,0.0
4405030282,0.016484153,-0.14594501,0.03911756,-0.036966346,0.02805404,-0.047322363,0.0
4405062324,0.00232029,-0.13784765,0.02022359,-0.037148774,0.028125565,-0.047507558,0.0
4405094299,0.028702307,-0.112092696,0.008708876,-0.037342943,0.028216599,-0.047639318,0.0
4405126282,0.02746612,-0.10582768,0.013565144,-0.037533227,0.028302334,-0.047761217,0.0
4405158252,0.019226817,-0.10178131,0.0127206985,-0.037717436,0.028384656,-0.0478423,0.0
4405190461,0.011584202,-0.07899197,0.008324393,-0.037892852,0.028470378,-0.04790097,0.0
4405223102,0.009626919,-0.021990484,-0.011812007,-0.038082022,0.028532557,-0.047882013,0.0
4405255041,0.026536472,-0.0048221974,-0.018836036,-0.038268745,0.028556332,-0.047811475,0.0
4405287096,0.017734565,0.015997706,-0.026798911,-0.038452536,0.02853938,-0.047691874,0.0
4405319044,-0.003084641,0.03344739,-0.018146586,-0.038611226,0.028495118,-0.047513727,0.0
4405351117,-0.008240559,0.08397847,-0.025148865,-0.03873973,0.028387949,-0.04730663,0.0
4405383040,0.005393143,0.10868608,-0.031961106,-0.038867064,0.028220491,-0.04700975,0.0
4405415222,-0.03758399,0.10489503,-0.04655074,-0.038981825,0.02802658,-0.046677295,0.0
4405447836,-0.03808031,0.11365935,-0.049494304,-0.039070353,0.027819963,-0.046295963,0.0
4405479850,-0.010907073,0.11876681,-0.04386185,-0.039151713,0.027614933,-0.045957,0.0
4405511875,-0.00545117,0.1252298,-0.04133313,-0.03924469,0.027374394,-0.04557323,0.0
4405543841,0.012021393,0.097355746,-0.043950986,-0.039368264,0.027100982,-0.045145936,0.0
4405575857,0.0009812014,0.062295105,-0.05109778,-0.039492432,0.026874606,-0.044700276,0.0
4405607901,-0.017941669,0.060821004,-0.04929198,-0.039590135,0.026710734,-0.04425342,0.0
4405639921,-0.02258221,0.06845467,-0.04442549,-0.039662357,0.026542941,-0.043815847,0.0
4405671857,-0.006753799,0.035317432,-0.033407416,-0.039717462,0.026366932,-0.043394957,0.0
4405703882,-0.033503972,0.0046098502,-0.030646686,-0.03973904,0.026227511,-0.042977776,0.0
4405736641,-0.06210003,0.011371244,-0.028543778,-0.039708987,0.026116535,-0.042560693,0.0
4405768706,-0.044606663,0.015842102,-0.019448746,-0.03964914,0.02602285,-0.04216113,0.0
4405800678,-0.025605727,-0.002828061,-0.011688676,-0.03957633,0.025940813,-0.04179259,0.0
4405832645,-0.036033858,-0.023390066,-0.016267566,-0.039508153,0.025895882,-0.041442752,0.0
4405864664,-0.029281916,-0.02763845,-0.008950464,-0.039442025,0.025894761,-0.041121237,0.0
4405896677,-0.0021105262,-0.01750566,-0.00757729,-0.03937544,0.02591046,-0.040810317,0.0
4405928659,0.025551,-0.034648173,-0.011637015,-0.03933276,0.025931476,-0.04049238,0.0
4405960629,0.025492407,-0.024601487,-0.0013153008,-0.039323304,0.025950497,-0.040229246,0.0
4405993475,0.008820286,0.0054805945,0.0034137685,-0.039287407,0.025967125,-0.039964005,0.0
4406025443,-0.007141864,0.007630448,-0.0013086987,-0.03921141,0.025980234,-0.039710343,0.0
4406057661,0.0019601448,0.033882216,0.0028579666,-0.039112423,0.025978424,-0.039467834,0.0
4406089444,0.0042085876,0.06410164,0.007415319,-0.039004102,0.02593523,-0.0392311,0.0
4406121434,-0.0022935376,0.08262334,0.010724195,-0.038886968,0.025845643,-0.03898857,0.0
4406153456,0.006844041,0.08125624,0.011041515,-0.038776033,0.02573514,-0.0387779,0.0
4406185484,0.023090849,0.06663406,0.006478265,-0.038668357,0.02562249,-0.038570743,0.0
4406217452,0.03589488,0.07176812,0.0013994676,-0.038599994,0.025510585,-0.03836397,0.0
4406246275,0.03936068,0.053386558,0.0070629027,-0.038550746,0.025419896,-0.0381895,0.0
4406278312,0.022955552,0.043020725,0.013464992,-0.038487926,0.025335547,-0.03799423,0.0
4406310262,0.022736816,0.023127014,0.0054198047,-0.038392555,0.02527747,-0.037784234,0.0
4406342276,0.056945354,0.031034252,0.0074545634,-0.038298856,0.025232261,-0.037625253,0.0
4406374284,0.04364123,0.037103646,0.01358274,-0.03820404,0.025181018,-0.03748829,0.0
