timestamp,time_utc_usec,lat,lon,alt,alt_ellipsoid,s_variance_m_s,c_variance_rad,eph,epv,hdop,vdop,noise_per_ms,jamming_indicator,vel_m_s,vel_n_m_s,vel_e_m_s,vel_d_m_s,cog_rad,timestamp_time_relative,fix_type,vel_ned_valid,satellites_used
4384626534,1686758044600275,371024982,-763884461,3221,-32549,0.282,0.38796923,0.731,1.0250001,0.59999996,1.05,96,21,0.044000003,-0.013,0.042000003,-0.043,0.51279116,0,4,1,19
4384995511,1686758045000275,371024983,-763884466,3195,-32575,0.21200001,0.3880034,0.731,1.0250001,0.59999996,1.05,96,19,0.019000001,0.011000001,-0.016,-0.011000001,0.51279116,0,4,1,19
4385195893,1686758045200275,371024984,-763884468,3178,-32592,0.22700001,0.38801947,0.73200005,1.0250001,0.59999996,1.05,96,19,0.018000001,0.018000001,-0.002,-0.031000001,0.51279116,0,4,1,19
4385396158,1686758045400275,371024984,-763884470,3143,-32627,0.305,0.3880411,0.73200005,1.026,0.59999996,1.05,96,19,0.034,-0.034,0.003,-0.012,0.51279116,0,4,1,19
4385595727,1686758045600275,371024985,-763884472,3121,-32649,0.22200002,0.38805684,0.73300004,1.0270001,0.59999996,1.05,96,19,0.040000003,0.039,-0.003,-0.042000003,0.51279116,0,4,1,19
4385808773,1686758045800275,371024985,-763884473,3129,-32640,0.25800002,0.388075,0.734,1.029,0.59999996,1.05,96,20,0.056,0.044000003,0.034,-0.19900002,0.51279116,0,4,1,19
4386006481,1686758046000275,371024983,-763884470,3221,-32548,0.28500003,0.46196383,0.734,1.0270001,0.59999996,1.05,96,20,0.41700003,-0.24300002,0.33900002,-0.27100003,1.2077435,0,4,1,19
4386199511,1686758046200275,371024987,-763884467,3150,-32620,0.26000002,0.41074315,0.73,1.0220001,0.59999996,1.05,96,20,0.577,-0.231,0.52900004,-0.74500006,1.6405143,0,4,1,19
4386398406,1686758046400275,371024984,-763884454,3287,-32483,0.291,0.4159048,0.731,1.026,0.59999996,1.05,96,20,0.661,-0.14600001,0.64500004,-1.0450001,1.7158164,0,4,1,19
4386598500,1686758046600275,371024978,-763884439,3477,-32293,0.289,0.2719509,0.731,1.024,0.59999996,1.05,96,20,0.846,-0.423,0.73200005,-0.84300005,1.9812819,0,4,1,19
4386796539,1686758046800275,371024971,-763884424,3619,-32151,0.32200003,0.37558645,0.73300004,1.0270001,0.59999996,1.05,96,19,0.66800004,-0.324,0.58400005,-0.9250001,2.0142515,0,4,1,19
4386996561,1686758047000275,371024966,-763884411,3742,-32028,0.30400002,0.41030803,0.734,1.028,0.59999996,1.05,96,19,0.57500005,-0.22000001,0.531,-0.735,1.9911695,0,4,1,19
4387197538,1686758047200275,371024961,-763884400,3918,-31852,0.303,0.51646787,0.735,1.028,0.59999996,1.05,96,19,0.43500003,-0.19800001,0.38700002,-0.91200006,2.0111256,0,4,1,19
4387398480,1686758047400275,371024957,-763884393,4124,-31645,0.293,0.5165106,0.73700005,1.029,0.59999996,1.05,96,19,0.215,-0.010000001,0.215,-0.77500004,2.0111256,0,4,1,19
4387603318,1686758047600274,371024955,-763884387,4309,-31461,0.305,0.51655877,0.73800004,1.031,0.59999996,1.05,96,19,0.3,-0.120000005,0.275,-0.85700005,2.0111256,0,4,1,19
4387799490,1686758047800274,371024956,-763884384,4447,-31323,0.24700001,0.54860896,0.74,1.0350001,0.59999996,1.05,96,18,0.386,0.386,0.008,-0.717,1.0753678,0,4,1,19
4388003104,1686758048000274,371024957,-763884383,4605,-31165,0.286,0.5486465,0.74,1.034,0.59999996,1.05,96,18,0.136,-0.117000006,0.069000006,-0.74100006,1.0753678,0,4,1,19
4388197485,1686758048200274,371024955,-763884382,4796,-30974,0.289,0.5486962,0.74200004,1.036,0.59999996,1.05,96,18,0.045,-0.028,0.035,-0.99500006,1.0753678,0,4,1,19
4388401480,1686758048400274,371024953,-763884381,5049,-30721,0.27600002,0.5487486,0.74300003,1.0370001,0.59999996,1.05,96,18,0.057000004,0.051000003,-0.027,-1.0450001,1.0753678,0,4,1,19
4388597805,1686758048600274,371024952,-763884381,5273,-30497,0.286,0.54880095,0.74500006,1.039,0.59999996,1.05,96,18,0.096,-0.002,0.095000006,-1.042,1.0753678,0,4,1,19
4388803482,1686758048800274,371024949,-763884381,5557,-30213,0.282,0.5488608,0.74600005,1.0400001,0.59999996,1.05,96,19,0.061000004,-0.029000001,-0.054,-1.195,1.0753678,0,4,1,19
4389007278,1686758049000274,371024948,-763884382,5833,-29937,0.26900002,0.54891825,0.74600005,1.0380001,0.59999996,1.05,96,19,0.085,0.044000003,-0.07300001,-1.149,1.0753678,0,4,1,19
4389204595,1686758049200274,371024944,-763884384,6119,-29651,0.284,0.5489807,0.74600005,1.039,0.59999996,1.05,96,19,0.25300002,-0.209,-0.143,-1.2240001,1.0753678,0,4,1,19
4389404615,1686758049400274,371024941,-763884388,6367,-29403,0.273,0.54904145,0.74700004,1.041,0.59999996,1.05,96,19,0.208,0.025,-0.20600002,-1.1980001,1.0753678,0,4,1,19
4389613628,1686758049600274,371024940,-763884392,6616,-29154,0.272,0.54909486,0.748,1.042,0.59999996,1.05,96,19,0.171,0.048,-0.164,-1.054,1.0753678,0,4,1,19
4389798564,1686758049800274,371024938,-763884398,6881,-28889,0.263,0.54915667,0.74700004,1.039,0.59999996,1.05,96,18,0.298,-0.038000003,-0.296,-1.2030001,1.0753678,0,4,1,19
4389998572,1686758050000274,371024936,-763884404,7103,-28667,0.268,0.5492078,0.74700004,1.041,0.59999996,1.05,96,18,0.24300002,-0.05,-0.238,-0.99300003,1.0753678,0,4,1,19
4390199531,1686758050200274,371024934,-763884410,7325,-28445,0.26200002,0.54926383,0.74700004,1.041,0.59999996,1.05,96,18,0.23500001,0.039,-0.23200001,-1.097,1.0753678,0,4,1,19
4390398539,1686758050400274,371024935,-763884417,7442,-28327,0.256,0.549316,0.748,1.0430001,0.59999996,1.05,96,18,0.31100002,0.128,-0.284,-0.99700004,1.0753678,0,4,1,19
4390600645,1686758050600273,371024936,-763884424,7631,-28139,0.28300002,0.5493708,0.749,1.046,0.59999996,1.05,96,18,0.21200001,-0.058000002,-0.20400001,-1.0780001,1.0753678,0,4,1,19
4390801485,1686758050800273,371024937,-763884428,7798,-27972,0.268,0.54941773,0.75000006,1.049,0.59999996,1.05,96,20,0.18400002,0.163,-0.085,-0.92200005,1.0753678,0,4,1,19
4391000870,1686758051000273,371024939,-763884431,7912,-27858,0.26900002,0.5494493,0.75000006,1.049,0.59999996,1.05,96,20,0.12100001,0.11400001,-0.041,-0.623,1.0753678,0,4,1,19
4391194497,1686758051200273,371024942,-763884433,8020,-27750,0.25500003,0.5494828,0.75200003,1.051,0.59999996,1.05,96,20,0.223,0.20500001,-0.089,-0.633,1.0753678,0,4,1,19
4391398723,1686758051400273,371024947,-763884435,8161,-27609,0.252,0.61575663,0.75200003,1.052,0.59999996,1.05,96,20,0.337,0.337,0.014,-0.79700005,0.61650836,0,4,1,19
4391599196,1686758051600273,371024953,-763884435,8220,-27550,0.25500003,0.6157874,0.753,1.054,0.59999996,1.05,96,20,0.287,0.27,0.096,-0.624,0.61650836,0,4,1,19
4391800517,1686758051800273,371024953,-763884431,8406,-27364,0.30800003,0.6158312,0.75500005,1.054,0.59999996,1.05,96,19,0.279,-0.148,0.23600002,-0.94500005,0.61650836,0,4,1,19
4392008099,1686758052000273,371024954,-763884425,8576,-27194,0.256,0.64994085,0.75500005,1.054,0.59999996,1.05,96,19,0.432,0.289,0.32200003,-0.711,0.72182906,0,4,1,19
4392201478,1686758052200273,371024957,-763884421,8784,-26986,0.27400002,0.64998376,0.757,1.056,0.59999996,1.05,96,19,0.26900002,0.24100001,0.119,-0.98100007,0.72182906,0,4,1,19
4392402532,1686758052400273,371024958,-763884415,8984,-26786,0.293,0.63143027,0.758,1.0580001,0.59999996,1.05,96,19,0.47200003,0.064,0.467,-0.97900003,1.0888788,0,4,1,19
4392602551,1686758052600273,371024958,-763884407,9197,-26573,0.29000002,0.63146985,0.75900006,1.059,0.59999996,1.05,96,19,0.28100002,0.080000006,0.27,-0.86300004,1.0888788,0,4,1,19
4392803500,1686758052800273,371024959,-763884400,9327,-26443,0.28,0.63150984,0.76100004,1.0610001,0.59999996,1.05,96,24,0.365,0.143,0.33600003,-0.845,1.0888788,0,4,1,19
4393003484,1686758053000273,371024961,-763884392,9477,-26293,0.28,0.63154894,0.763,1.064,0.59999996,1.05,96,24,0.37300003,0.13900001,0.34600002,-0.823,1.0888788,0,4,1,19
4393204843,1686758053200273,371024962,-763884385,9623,-26147,0.284,0.63158244,0.76500005,1.067,0.59999996,1.05,96,24,0.22000001,0.14600001,0.164,-0.73800004,1.0888788,0,4,1,19
4393405516,1686758053400273,371024961,-763884383,9795,-25975,0.307,0.63161474,0.76600003,1.0680001,0.59999996,1.05,96,24,0.18,-0.17600001,-0.037,-0.721,1.0888788,0,4,1,19
4393606017,1686758053600272,371024955,-763884383,9948,-25822,0.328,0.5759576,0.767,1.07,0.59999996,1.05,96,24,0.349,-0.344,0.060000002,-0.86500007,2.115266,0,4,1,19
4393798485,1686758053800272,371024950,-763884381,10111,-25659,0.316,0.5760005,0.76900005,1.074,0.59999996,1.05,96,18,0.16100001,-0.15900001,0.029000001,-0.8880001,2.115266,0,4,1,19
4394007520,1686758054000272,371024948,-763884384,10208,-25562,0.27,0.5760389,0.771,1.0760001,0.59999996,1.05,96,18,0.284,0.054,-0.27800003,-0.754,2.115266,0,4,1,19
4394203581,1686758054200272,371024945,-763884387,10415,-25355,0.29000002,0.5760825,0.772,1.075,0.59999996,1.05,96,18,0.043,-0.031000001,-0.030000001,-0.91300005,2.115266,0,4,1,19
4394400963,1686758054400272,371024943,-763884388,10629,-25141,0.28500003,0.5761297,0.772,1.0760001,0.59999996,1.05,96,18,0.095000006,-0.006,-0.095000006,-0.98700005,2.115266,0,4,1,19
4394604650,1686758054600272,371024944,-763884389,10832,-24938,0.28100002,0.5761787,0.77400005,1.08,0.61,1.06,96,18,0.19500001,0.192,0.035,-1.0120001,2.115266,0,4,1,18
4394805500,1686758054800272,371024946,-763884389,11049,-24721,0.279,0.5762314,0.77500004,1.0810001,0.59999996,1.05,96,23,0.143,0.143,-0.009000001,-1.0990001,2.115266,0,4,1,19
4395001619,1686758055000272,371024949,-763884390,11227,-24543,0.26700002,0.5762801,0.776,1.082,0.59999996,1.05,96,23,0.23,0.22500001,-0.045,-0.99600005,2.115266,0,4,1,19
4395199491,1686758055200272,371024954,-763884391,11438,-24332,0.254,0.5508592,0.776,1.082,0.59999996,1.05,96,23,0.35300002,0.342,-0.08800001,-0.97200006,0.87769043,0,4,1,19
4395403580,1686758055400272,371024958,-763884392,11637,-24133,0.268,0.5509109,0.77800006,1.0840001,0.59999996,1.05,96,23,0.20700002,0.20500001,-0.029000001,-1.018,0.87769043,0,4,1,19
4395606546,1686758055600272,371024959,-763884392,11834,-23936,0.28300002,0.55096674,0.77900004,1.085,0.59999996,1.05,96,23,0.07300001,0.072000004,0.007,-1.12,0.87769043,0,4,1,19
4395800536,1686758055800272,371024962,-763884394,12055,-23715,0.26200002,0.66183037,0.781,1.087,0.59999996,1.05,95,18,0.312,0.252,-0.18400002,-1.054,0.26025668,0,4,1,19
4395989174,1686758056000272,371024964,-763884398,12323,-23447,0.273,0.66187716,0.78200006,1.087,0.59999996,1.05,95,18,0.185,0.074,-0.16900001,-1.115,0.26025668,0,4,1,19
4396202762,1686758056200272,371024964,-763884403,12552,-23218,0.275,0.66192186,0.78200006,1.0860001,0.59999996,1.05,95,18,0.24400002,-0.064,-0.23500001,-1.051,0.26025668,0,4,1,19
4396394506,1686758056400272,371024964,-763884408,12738,-23032,0.259,0.7577706,0.78300005,1.088,0.59999996,1.05,95,18,0.319,0.18900001,-0.257,-0.966,6.0249343,0,4,1,19
4396599483,1686758056600271,371024966,-763884412,12966,-22804,0.273,0.75780535,0.785,1.0910001,0.59999996,1.05,95,18,0.165,0.094000004,-0.135,-0.94500005,6.0249343,0,4,1,19
4396803029,1686758056800271,371024967,-763884415,13140,-22630,0.28500003,0.7578364,0.78800005,1.093,0.59999996,1.05,95,21,0.105000004,-0.004,-0.105000004,-0.84800005,6.0249343,0,4,1,19
4397003138,1686758057000271,371024964,-763884420,13325,-22445,0.27600002,0.75260776,0.79,1.0960001,0.59999996,1.05,95,21,0.42900002,-0.14500001,-0.40300003,-0.86300004,5.1902914,0,4,1,19
4397203337,1686758057200271,371024961,-763884428,13500,-22270,0.27800003,0.7526411,0.79300004,1.1,0.59999996,1.05,95,21,0.38700002,-0.094000004,-0.37600002,-0.82900006,5.1902914,0,4,1,19
4397404588,1686758057400271,371024957,-763884437,13665,-22105,0.279,0.68577474,0.795,1.1010001,0.59999996,1.05,95,21,0.469,-0.21200001,-0.418,-0.88100004,4.6730185,0,4,1,19
4397604656,1686758057600271,371024949,-763884444,13856,-21913,0.289,0.56650454,0.795,1.0990001,0.59999996,1.05,95,21,0.48600003,-0.42000002,-0.24400002,-1.1420001,4.0757804,0,4,1,19
4397795488,1686758057800271,371024942,-763884450,14139,-21631,0.268,0.56656665,0.79600006,1.0990001,0.59999996,1.05,95,34,0.402,-0.194,-0.351,-1.2210001,4.0757804,0,4,1,19
4398002285,1686758058000271,371024939,-763884455,14443,-21327,0.268,0.5666288,0.79600006,1.097,0.59999996,1.05,95,34,0.119,0.0050000004,-0.119,-1.2770001,4.0757804,0,4,1,19
4398202277,1686758058200271,371024939,-763884459,14741,-21029,0.26500002,0.5666979,0.795,1.092,0.59999996,1.05,95,34,0.143,-0.067,-0.126,-1.4210001,4.0757804,0,4,1,19
4398400059,1686758058400271,371024940,-763884461,15071,-20699,0.263,0.56677383,0.795,1.0910001,0.59999996,1.05,95,34,0.216,0.216,0.002,-1.5560001,4.0757804,0,4,1,19
4398604140,1686758058600271,371024944,-763884461,15387,-20382,0.257,0.58551466,0.795,1.0910001,0.59999996,1.05,95,34,0.39600003,0.39200002,0.054,-1.5410001,5.209944,0,4,1,19
4398798517,1686758058800271,371024951,-763884460,15681,-20089,0.256,0.50744325,0.79600006,1.0910001,0.59999996,1.05,95,23,0.47400004,0.45900002,0.117000006,-1.452,5.9651957,0,4,1,19
4398998796,1686758059000271,371024957,-763884460,15988,-19782,0.264,0.6522539,0.79600006,1.092,0.59999996,1.05,95,23,0.374,0.35900003,0.10300001,-1.511,6.1908298,0,4,1,19
4399199486,1686758059200271,371024962,-763884459,16307,-19463,0.26200002,0.6150627,0.79600006,1.092,0.59999996,1.05,95,23,0.41900003,0.386,0.162,-1.5350001,0.16652744,0,4,1,19
4399402440,1686758059400271,371024968,-763884456,16590,-19180,0.26200002,0.68081766,0.795,1.09,0.59999996,1.05,95,23,0.402,0.30100003,0.266,-1.473,0.41653588,0,4,1,19
4399608866,1686758059600271,371024972,-763884452,16920,-18850,0.26000002,0.7141876,0.794,1.088,0.59999996,1.05,95,23,0.374,0.287,0.23900001,-1.539,0.54838276,0,4,1,19
4399799872,1686758059800270,371024977,-763884449,17203,-18567,0.266,0.7142519,0.794,1.088,0.59999996,1.05,95,21,0.33900002,0.24900001,0.23,-1.6340001,0.54838276,0,4,1,19
4399997488,1686758060000270,371024982,-763884446,17522,-18248,0.261,0.6536916,0.795,1.0890001,0.59999996,1.05,95,21,0.39200002,0.35900003,0.156,-1.5070001,0.47348285,0,4,1,19
4400201538,1686758060200270,371024986,-763884444,17819,-17951,0.26700002,0.6537563,0.795,1.0890001,0.59999996,1.05,95,21,0.284,0.259,0.117000006,-1.5180001,0.47348285,0,4,1,19
4400399486,1686758060400270,371024989,-763884442,18130,-17640,0.27800003,0.6538193,0.79600006,1.09,0.59999996,1.05,95,21,0.15,0.074,0.13000001,-1.4950001,0.47348285,0,4,1,19
4400603565,1686758060600270,371024990,-763884442,18390,-17380,0.275,0.65387744,0.79700005,1.0910001,0.59999996,1.05,95,21,0.104,0.094000004,0.046000004,-1.381,0.47348285,0,4,1,19
4400798419,1686758060800270,371024990,-763884441,18689,-17081,0.28100002,0.65394044,0.79700005,1.093,0.59999996,1.05,95,19,0.016,0.012,0.011000001,-1.5040001,0.47348285,0,4,1,19
4401007200,1686758061000270,371024988,-763884442,19025,-16745,0.28,0.6540106,0.79700005,1.092,0.59999996,1.05,95,19,0.018000001,-0.018000001,0.0,-1.674,0.47348285,0,4,1,19
4401205667,1686758061200270,371024989,-763884445,19294,-16476,0.264,0.65407133,0.79700005,1.0940001,0.59999996,1.05,95,19,0.23200001,0.179,-0.147,-1.4310001,0.47348285,0,4,1,19
4401397485,1686758061400270,371024989,-763884448,19624,-16145,0.27600002,0.65413433,0.79700005,1.095,0.59999996,1.05,95,19,0.087000005,0.039,-0.07700001,-1.5020001,0.47348285,0,4,1,19
4401595498,1686758061600270,371024989,-763884451,19941,-15829,0.273,0.6541982,0.79600006,1.095,0.59999996,1.05,95,19,0.142,0.05,-0.133,-1.5150001,0.47348285,0,4,1,19
4401802689,1686758061800270,371024989,-763884454,20206,-15563,0.28300002,0.6542527,0.79600006,1.0960001,0.59999996,1.05,95,18,0.008,-0.007,-0.002,-1.2980001,0.47348285,0,4,1,19
4402002715,1686758062000270,371024988,-763884456,20462,-15308,0.282,0.6543082,0.79600006,1.097,0.59999996,1.05,95,18,0.105000004,-0.039,-0.097,-1.3230001,0.47348285,0,4,1,19
4402203233,1686758062200270,371024985,-763884459,20748,-15022,0.284,0.65436685,0.79600006,1.097,0.59999996,1.05,95,18,0.275,-0.22600001,-0.157,-1.371,0.47348285,0,4,1,19
4402397514,1686758062400270,371024981,-763884464,21064,-14706,0.27600002,0.6544304,0.795,1.097,0.59999996,1.05,95,18,0.19900002,-0.11100001,-0.165,-1.5020001,0.47348285,0,4,1,19
4402597585,1686758062600270,371024978,-763884468,21371,-14399,0.28,0.6544951,0.795,1.0960001,0.59999996,1.05,95,18,0.18900001,-0.158,-0.104,-1.5350001,0.47348285,0,4,1,19
4402798559,1686758062800269,371024975,-763884469,21689,-14081,0.284,0.6545597,0.794,1.0960001,0.59999996,1.05,95,19,0.14,-0.095000006,0.10300001,-1.5350001,0.47348285,0,4,1,19
4403002528,1686758063000269,371024973,-763884468,21963,-13806,0.27800003,0.6546187,0.795,1.0960001,0.59999996,1.05,95,19,0.080000006,0.007,0.080000006,-1.406,0.47348285,0,4,1,19
4403203191,1686758063200269,371024972,-763884464,22236,-13534,0.293,0.68325293,0.795,1.0960001,0.59999996,1.05,95,19,0.33900002,-0.126,0.314,-1.4820001,1.1809933,0,4,1,19
4403402762,1686758063400269,371024970,-763884457,22495,-13275,0.294,0.5938423,0.794,1.0960001,0.59999996,1.05,95,19,0.40800002,-0.119,0.39000002,-1.33,1.5712457,0,4,1,19
4403599280,1686758063600269,371024965,-763884449,22760,-13010,0.30600002,0.42187992,0.794,1.0960001,0.59999996,1.05,95,19,0.505,-0.29900002,0.40800002,-1.286,1.9912654,0,4,1,19
4403797488,1686758063800269,371024957,-763884439,23035,-12735,0.316,0.2750047,0.794,1.0960001,0.59999996,1.05,95,19,0.74300003,-0.51900005,0.532,-1.3920001,2.2384772,0,4,1,19
4404001487,1686758064000269,371024947,-763884427,23299,-12471,0.316,0.3227852,0.794,1.097,0.59999996,1.05,95,19,0.711,-0.43300003,0.564,-1.4030001,2.232849,0,4,1,19
4404195538,1686758064200269,371024939,-763884417,23554,-12216,0.316,0.40149638,0.795,1.098,0.59999996,1.05,95,19,0.551,-0.374,0.40500003,-1.3690001,2.265487,0,4,1,19
4404399490,1686758064400269,371024934,-763884409,23783,-11987,0.30400002,0.5611462,0.79700005,1.0990001,0.59999996,1.05,95,19,0.44400004,-0.21100001,0.39100003,-1.3310001,2.198205,0,4,1,19
4404598329,1686758064600269,371024929,-763884402,24112,-11658,0.30800003,0.7752394,0.799,1.102,0.59999996,1.05,95,19,0.30100003,-0.185,0.23700002,-1.4490001,2.2097683,0,4,1,19
4404795510,1686758064800269,371024926,-763884399,24393,-11377,0.30400002,0.7752892,0.8,1.105,0.59999996,1.05,95,18,0.18900001,-0.14,0.127,-1.3970001,2.2097683,0,4,1,19
4404995918,1686758065000269,371024924,-763884398,24644,-11126,0.303,0.7753424,0.80200005,1.108,0.59999996,1.05,95,18,0.185,-0.12900001,0.133,-1.491,2.2097683,0,4,1,19
4405197495,1686758065200269,371024921,-763884397,24915,-10855,0.30200002,0.7753909,0.80200005,1.1090001,0.59999996,1.05,95,18,0.17,-0.125,0.116000004,-1.3640001,2.2097683,0,4,1,19
4405397485,1686758065400269,371024919,-763884395,25157,-10613,0.282,0.77544016,0.80300003,1.1090001,0.59999996,1.05,95,18,0.083000004,0.040000003,0.072000004,-1.3900001,2.2097683,0,4,1,19
4405595541,1686758065600269,371024920,-763884394,25425,-10345,0.275,0.77548933,0.804,1.11,0.59999996,1.05,95,18,0.14600001,0.124000005,0.078,-1.381,2.2097683,0,4,1,19
4405798173,1686758065800268,371024921,-763884393,25715,-10055,0.27600002,0.77553946,0.80500007,1.1110001,0.59999996,1.05,95,21,0.083000004,0.080000006,0.021000002,-1.416,2.2097683,0,4,1,19
4405996535,1686758066000268,371024920,-763884391,26006,-9764,0.28,0.77559024,0.80600005,1.1120001,0.59999996,1.05,95,21,0.08400001,0.074,0.039,-1.4330001,2.2097683,0,4,1,19
4406196913,1686758066200268,371024921,-763884391,26328,-9442,0.266,0.7756433,0.80700004,1.113,0.59999996,1.05,95,21,0.22800002,0.20300001,-0.104,-1.4820001,2.2097683,0,4,1,19
4406397489,1686758066400268,371024924,-763884394,26616,-9154,0.259,0.5442814,0.808,1.115,0.59999996,1.05,95,21,0.39000002,0.342,-0.18800001,-1.4480001,0.39176896,0,4,1,19
4406598513,1686758066600268,371024929,-763884398,26934,-8836,0.26000002,0.55332416,0.808,1.116,0.59999996,1.05,95,21,0.38700002,0.29200003,-0.254,-1.457,6.129968,0,4,1,19
4406799539,1686758066800268,371024931,-763884403,27247,-8523,0.263,0.55339795,0.808,1.115,0.59999996,1.05,95,18,0.25500003,0.16700001,-0.193,-1.4660001,6.129968,0,4,1,19
4406998194,1686758067000268,371024933,-763884408,27531,-8239,0.263,0.7006332,0.808,1.116,0.59999996,1.05,95,18,0.31800002,0.22100002,-0.22900002,-1.5200001,5.880138,0,4,1,19
4407199476,1686758067200268,371024934,-763884411,27795,-7975,0.275,0.70069,0.808,1.118,0.59999996,1.05,95,18,0.13000001,0.09900001,-0.085,-1.4460001,5.880138,0,4,1,19
4407403280,1686758067400268,371024935,-763884413,28106,-7664,0.27800003,0.7007451,0.808,1.118,0.59999996,1.05,95,18,0.109000005,0.062000003,-0.089,-1.404,5.880138,0,4,1,19
4407597525,1686758067600268,371024932,-763884414,28425,-7345,0.291,0.7008024,0.808,1.118,0.59999996,1.05,95,18,0.126,-0.12100001,-0.034,-1.4580001,5.880138,0,4,1,19
4407793767,1686758067800268,371024931,-763884416,28660,-7110,0.282,0.700856,0.808,1.12,0.59999996,1.05,95,20,0.064,0.016,-0.062000003,-1.365,5.880138,0,4,1,19
4407998482,1686758068000268,371024929,-763884418,28910,-6860,0.286,0.70091057,0.808,1.121,0.59999996,1.05,95,20,0.149,-0.063,-0.135,-1.3870001,5.880138,0,4,1,19
4408195488,1686758068200268,371024927,-763884420,29177,-6592,0.289,0.70096326,0.809,1.1220001,0.59999996,1.05,95,20,0.082,-0.045,-0.068,-1.3490001,5.880138,0,4,1,19
4408399259,1686758068400268,371024926,-763884424,29465,-6305,0.284,0.70101494,0.809,1.123,0.59999996,1.05,95,20,0.162,-0.026,-0.16000001,-1.307,5.880138,0,4,1,19
4408595536,1686758068600268,371024925,-763884426,29753,-6016,0.28300002,0.7010755,0.81000006,1.125,0.59999996,1.05,95,20,0.079,0.069000006,-0.038000003,-1.5450001,5.880138,0,4,1,19
4408800315,1686758068800267,371024925,-763884428,30071,-5699,0.27800003,0.7011315,0.81100005,1.125,0.59999996,1.05,95,23,0.14500001,0.027,-0.142,-1.4250001,5.880138,0,4,1,19
4408997646,1686758069000267,371024926,-763884429,30304,-5466,0.277,0.70118636,0.81100005,1.126,0.59999996,1.05,95,23,0.186,0.16000001,0.094000004,-1.391,5.880138,0,4,1,19
4409202119,1686758069200267,371024930,-763884429,30582,-5188,0.26900002,0.7012376,0.81200004,1.1270001,0.59999996,1.05,95,23,0.24400002,0.23500001,-0.066,-1.289,5.880138,0,4,1,19
4409395493,1686758069400267,371024935,-763884431,30840,-4930,0.266,0.6219993,0.81200004,1.128,0.59999996,1.05,95,23,0.349,0.349,0.002,-1.4080001,6.108428,0,4,1,19
4409599548,1686758069600267,371024942,-763884432,31126,-4644,0.25800002,0.4254692,0.81200004,1.128,0.59999996,1.05,95,23,0.48400003,0.48000002,-0.063,-1.4410001,6.138793,0,4,1,19
4409795852,1686758069800267,371024950,-763884435,31378,-4392,0.26200002,0.4992146,0.813,1.1290001,0.59999996,1.05,95,24,0.4,0.388,-0.098000005,-1.452,6.095821,0,4,1,19
4409996533,1686758070000267,371024955,-763884437,31630,-4140,0.27,0.49929225,0.813,1.13,0.59999996,1.05,95,24,0.279,0.277,0.033,-1.3870001,6.095821,0,4,1,19
4410196646,1686758070200267,371024960,-763884436,31902,-3868,0.27400002,0.49936956,0.814,1.131,0.59999996,1.05,95,24,0.24900001,0.238,0.074,-1.3870001,6.095821,0,4,1,19
4410398517,1686758070400267,371024964,-763884435,32135,-3635,0.273,0.49944654,0.814,1.131,0.59999996,1.05,95,24,0.272,0.24900001,0.11000001,-1.3740001,6.095821,0,4,1,19
4410602683,1686758070600267,371024966,-763884434,32421,-3349,0.293,0.49952453,0.814,1.131,0.59999996,1.05,95,24,0.12100001,-0.036000002,0.115,-1.416,6.095821,0,4,1,19
4410798485,1686758070800267,371024966,-763884432,32665,-3105,0.289,0.49959698,0.81500006,1.1320001,0.59999996,1.05,95,18,0.17,0.022000002,0.16900001,-1.309,6.095821,0,4,1,19
4411003288,1686758071000267,371024968,-763884429,32921,-2849,0.284,0.49966976,0.81500006,1.1320001,0.59999996,1.05,95,18,0.23900001,0.11100001,0.21100001,-1.3030001,6.095821,0,4,1,19
4411200583,1686758071200267,371024969,-763884426,33211,-2559,0.287,0.49974743,0.81600004,1.1320001,0.63,1.05,95,18,0.119,0.001,0.119,-1.4100001,6.095821,0,4,1,18
4411397491,1686758071400267,371024968,-763884424,33466,-2304,0.29000002,0.4998244,0.81600004,1.133,0.63,1.05,95,18,0.065000005,-0.026,0.059000004,-1.4020001,6.095821,0,4,1,18
4411597639,1686758071600267,371024970,-763884422,33745,-2025,0.28100002,0.49990103,0.81600004,1.133,0.59999996,1.05,95,18,0.177,0.123,0.127,-1.388,6.095821,0,4,1,19
4411794534,1686758071800266,371024973,-763884420,34038,-1732,0.279,0.49998006,0.81600004,1.133,0.59999996,1.05,95,20,0.186,0.14600001,0.115,-1.427,6.095821,0,4,1,19
4411995496,1686758072000266,371024975,-763884418,34298,-1472,0.282,0.50005126,0.81500006,1.133,0.59999996,1.05,95,20,0.10300001,0.078,0.067,-1.2950001,6.095821,0,4,1,19
4412195487,1686758072200266,371024974,-763884416,34562,-1208,0.282,0.5001215,0.814,1.1320001,0.59999996,1.05,95,20,0.07700001,-0.038000003,0.068,-1.2800001,6.095821,0,4,1,19
4412398569,1686758072400266,371024978,-763884414,34818,-951,0.26500002,0.5001841,0.813,1.1320001,0.59999996,1.05,95,20,0.29900002,0.26200002,0.14500001,-1.103,6.095821,0,4,1,19
4412596541,1686758072600266,371024995,-763884408,34981,-789,0.20300001,0.2156054,0.81200004,1.1290001,0.59999996,1.05,95,20,1.192,1.1140001,0.42400002,-0.734,0.27695337,0,4,1,19
4412796834,1686758072800266,371025023,-763884395,34933,-837,0.21100001,0.18683329,0.809,1.12,0.59999996,1.05,95,20,1.5280001,1.3230001,0.76600003,-0.43500003,0.41854703,0,4,1,19
4413001124,1686758073000266,371025055,-763884373,35064,-706,0.19000001,0.1264793,0.80700004,1.1170001,0.59999996,1.05,95,20,2.048,1.6620001,1.197,-0.47700003,0.55958027,0,4,1,19
4413194574,1686758073200266,371025087,-763884341,35149,-621,0.194,0.1288224,0.80700004,1.1170001,0.59999996,1.05,95,20,2.3230002,1.651,1.6340001,-0.19000001,0.66829336,0,4,1,19
4413399488,1686758073400266,371025120,-763884303,35212,-557,0.19600001,0.12884456,0.809,1.118,0.59999996,1.05,95,20,2.582,1.8640001,1.7860001,-0.096,0.71637994,0,4,1,19
4413602830,1686758073600266,371025154,-763884260,35260,-510,0.19000001,0.111670345,0.81000006,1.118,0.59999996,1.05,95,20,2.7040002,1.8550001,1.968,-0.083000004,0.77284294,0,4,1,19
4413804275,1686758073800266,371025188,-763884216,35282,-487,0.19000001,0.10333972,0.81000006,1.118,0.59999996,1.05,95,30,2.736,1.9050001,1.9640001,-0.049000002,0.78778714,0,4,1,19
4414001625,1686758074000266,371025226,-763884173,35373,-397,0.19700001,0.089747615,0.809,1.116,0.59999996,1.05,95,30,2.7940001,1.9290001,2.022,-0.19800001,0.79993355,0,4,1,19
4414205511,1686758074200266,371025264,-763884127,35491,-279,0.18200001,0.08916799,0.80600005,1.113,0.59999996,1.05,95,30,2.726,1.738,2.1000001,-0.069000006,0.84026724,0,4,1,19
4414398489,1686758074400266,371025296,-763884080,35581,-189,0.18300001,0.09159732,0.80300003,1.1120001,0.59999996,1.05,95,30,2.676,1.593,2.15,-0.133,0.88593954,0,4,1,19
4414582162,1686758074600266,371025326,-763884032,35658,-112,0.201,0.09395229,0.80100006,1.1110001,0.59999996,1.05,95,30,2.6460001,1.552,2.1430001,-0.075,0.9144556,0,4,1,19
4414799484,1686758074800265,371025353,-763883983,35719,-51,0.21700001,0.085947335,0.79800004,1.1140001,0.59999996,1.05,95,36,2.7120001,1.488,2.2680001,-0.060000002,0.9560002,0,4,1,19
4415006512,1686758075000265,371025381,-763883934,35705,-65,0.23,0.09110775,0.79600006,1.1170001,0.59999996,1.05,95,36,2.555,1.338,2.177,0.148,0.9862314,0,4,1,19
4415199138,1686758075200265,371025410,-763883884,35801,31,0.216,0.08727117,0.794,1.118,0.59999996,1.05,95,36,2.631,1.322,2.275,0.037,1.0168514,0,4,1,19
4415397610,1686758075400265,371025436,-763883832,35866,96,0.19600001,0.0860175,0.791,1.1170001,0.59999996,1.05,95,36,2.6850002,1.2490001,2.377,0.038000003,1.0527374,0,4,1,19
4415598521,1686758075600265,371025459,-763883780,35913,143,0.193,0.08261481,0.78800005,1.115,0.59999996,1.05,95,36,2.611,1.2030001,2.318,-0.035,1.0734462,0,4,1,19
4415781336,1686758075800265,371025482,-763883729,35974,204,0.19900002,0.09331123,0.785,1.1140001,0.59999996,1.05,95,28,2.575,1.1680001,2.295,-0.009000001,1.0851947,0,4,1,19
4415997875,1686758076000265,371025502,-763883677,36014,244,0.208,0.100883864,0.78400004,1.115,0.59999996,1.05,95,28,2.5010002,1.013,2.2870002,-0.085,1.1170803,0,4,1,19
4416183525,1686758076200265,371025520,-763883626,36082,312,0.201,0.102111004,0.78400004,1.116,0.59999996,1.05,95,28,2.4610002,1.072,2.216,-0.038000003,1.1186783,0,4,1,19
4416403876,1686758076400265,371025540,-763883575,36119,349,0.201,0.10629142,0.78400004,1.116,0.59999996,1.05,95,28,2.463,1.056,2.226,-0.060000002,1.1231457,0,4,1,19
4416601851,1686758076600265,371025561,-763883525,36176,406,0.19900002,0.107664116,0.78400004,1.115,0.59999996,1.05,95,28,2.433,1.131,2.154,-0.052,1.1053456,0,4,1,19
4416805181,1686758076800265,371025583,-763883475,36233,463,0.19900002,0.10452514,0.78300005,1.1140001,0.59999996,1.05,95,17,2.5070002,1.2210001,2.1890001,-0.059000004,1.0828488,0,4,1,19
4416998655,1686758077000265,371025605,-763883425,36278,508,0.19600001,0.10190035,0.78300005,1.1140001,0.59999996,1.05,95,17,2.5110002,1.248,2.1790001,-0.009000001,1.0663214,0,4,1,19
4417199483,1686758077200265,371025629,-763883376,36340,570,0.19900002,0.10737876,0.78400004,1.115,0.59999996,1.05,95,17,2.4910002,1.3080001,2.1190002,-0.079,1.0431064,0,4,1,19
4417399488,1686758077400265,371025654,-763883329,36419,649,0.2,0.10743583,0.78400004,1.115,0.59999996,1.05,95,17,2.4450002,1.2570001,2.098,-0.18300001,1.0369201,0,4,1,19
4417600575,1686758077600265,371025678,-763883280,36483,713,0.201,0.10377849,0.78400004,1.116,0.59999996,1.05,95,17,2.545,1.304,2.1850002,-0.074,1.0347425,0,4,1,19
4417800226,1686758077800264,371025703,-763883231,36487,717,0.20300001,0.10253268,0.785,1.118,0.59999996,1.05,95,18,2.5770001,1.3610001,2.1880002,0.082,1.0243436,0,4,1,19
4417996255,1686758078000264,371025727,-763883181,36489,719,0.187,0.100453466,0.786,1.12,0.59999996,1.05,95,18,2.6350002,1.3330001,2.273,0.052,1.0326086,0,4,1,19
4418198496,1686758078200264,371025752,-763883130,36531,761,0.185,0.095770925,0.785,1.12,0.59999996,1.05,95,18,2.6560001,1.424,2.243,0.178,1.0181063,0,4,1,19
4418395486,1686758078400264,371025779,-763883080,36504,734,0.18400002,0.09277367,0.78400004,1.1190001,0.59999996,1.05,95,18,2.709,1.4810001,2.2680001,0.202,1.0047816,0,4,1,19
4418595478,1686758078600264,371025806,-763883028,36549,779,0.18300001,0.09461551,0.78400004,1.1190001,0.59999996,1.05,95,18,2.7480001,1.473,2.3200002,0.095000006,1.005041,0,4,1,19
4418795035,1686758078800264,371025834,-763882976,36566,796,0.18200001,0.09311907,0.78300005,1.1190001,0.59999996,1.05,95,23,2.7450001,1.496,2.302,0.17400001,0.9996884,0,4,1,19
4418999283,1686758079000264,371025862,-763882925,36583,813,0.18300001,0.09215356,0.78200006,1.118,0.59999996,1.05,95,23,2.736,1.519,2.275,0.123,0.99079055,0,4,1,19
4419201525,1686758079200264,371025888,-763882873,36659,889,0.18200001,0.09676122,0.781,1.1170001,0.59999996,1.05,95,23,2.647,1.4250001,2.23,0.016,0.9961927,0,4,1,19
4419397941,1686758079400264,371025914,-763882822,36708,938,0.18200001,0.09550022,0.78000003,1.116,0.59999996,1.05,95,23,2.683,1.478,2.239,0.08800001,0.9917131,0,4,1,19
4419610521,1686758079600264,371025941,-763882773,36725,955,0.18,0.093772694,0.77800006,1.116,0.59999996,1.05,95,23,2.6810002,1.5020001,2.2210002,0.066,0.9837806,0,4,1,19
4419799482,1686758079800264,371025969,-763882723,36737,967,0.18200001,0.094291754,0.77800006,1.116,0.59999996,1.05,95,18,2.6950002,1.4690001,2.26,0.075,0.98914224,0,4,1,19
4420003559,1686758080000264,371025995,-763882673,36798,1028,0.18300001,0.095607035,0.777,1.116,0.59999996,1.05,95,18,2.6720002,1.468,2.232,-0.007,0.98916197,0,4,1,19
4420201027,1686758080200264,371026021,-763882623,36846,1076,0.18,0.092465095,0.77500004,1.1140001,0.59999996,1.05,95,18,2.6000001,1.378,2.2050002,-0.029000001,1.0013037,0,4,1,19
4420399459,1686758080400264,371026046,-763882573,36875,1105,0.18200001,0.0985446,0.77500004,1.113,0.59999996,1.05,95,18,2.6490002,1.3750001,2.2640002,-0.106000006,1.012589,0,4,1,19
4420601503,1686758080600264,371026072,-763882524,36901,1131,0.17600001,0.09643467,0.77400005,1.1120001,0.59999996,1.05,95,18,2.634,1.439,2.207,-0.08400001,1.0024194,0,4,1,19
4420801481,1686758080800263,371026098,-763882478,36885,1115,0.17500001,0.10030162,0.77300006,1.11,0.62,1.09,95,17,2.513,1.4020001,2.085,-0.094000004,0.99098897,0,4,1,18
4420999517,1686758081000263,371026124,-763882431,36924,1154,0.18300001,0.0980957,0.772,1.1120001,0.62,1.09,95,17,2.6200001,1.5170001,2.1360002,-0.15200001,0.9716333,0,4,1,18
4421207573,1686758081200263,371026151,-763882384,36947,1177,0.209,0.100884385,0.772,1.115,0.62,1.09,95,17,2.536,1.432,2.0930002,-0.053000003,0.9711917,0,4,1,18
4421395555,1686758081400263,371026177,-763882338,37008,1238,0.178,0.09981555,0.772,1.1140001,0.59999996,1.05,95,17,2.555,1.514,2.058,-0.105000004,0.95345396,0,4,1,19
4421599350,1686758081600263,371026204,-763882294,37025,1255,0.18400002,0.10932585,0.772,1.113,0.59999996,1.05,95,17,2.4490001,1.4810001,1.95,-0.047000002,0.9386003,0,4,1,19
4421781150,1686758081800263,371026231,-763882250,37073,1303,0.18200001,0.106762655,0.772,1.1120001,0.59999996,1.05,95,17,2.483,1.4950001,1.9820001,-0.115,0.9313802,0,4,1,19
4422001935,1686758082000263,371026259,-763882206,37105,1335,0.177,0.09889594,0.771,1.1120001,0.59999996,1.05,95,17,2.5500002,1.5970001,1.9890001,-0.031000001,0.91130894,0,4,1,19
4422198520,1686758082200263,371026287,-763882161,37146,1376,0.179,0.10146157,0.771,1.113,0.59999996,1.05,95,17,2.528,1.5630001,1.988,-0.066,0.9079761,0,4,1,19
4422399487,1686758082400263,371026315,-763882115,37193,1423,0.19100001,0.09673888,0.77000004,1.1140001,0.59999996,1.05,95,17,2.6520002,1.5920001,2.1220002,-0.074,0.9180782,0,4,1,19
4422598580,1686758082600263,371026343,-763882068,37250,1480,0.18400002,0.102663405,0.771,1.115,0.59999996,1.05,95,17,2.618,1.567,2.098,-0.05,0.9234699,0,4,1,19
4422796539,1686758082800263,371026372,-763882019,37272,1502,0.18400002,0.09675633,0.771,1.116,0.59999996,1.05,95,18,2.778,1.626,2.253,-0.104,0.9351966,0,4,1,19
4422997507,1686758083000263,371026400,-763881971,37312,1542,0.187,0.10344775,0.772,1.1190001,0.59999996,1.05,95,18,2.638,1.5810001,2.111,-0.021000002,0.9317951,0,4,1,19
4423201504,1686758083200263,371026429,-763881923,37369,1599,0.18400002,0.096816026,0.77300006,1.121,0.59999996,1.05,95,18,2.7080002,1.6430001,2.1520002,-0.11800001,0.9249152,0,4,1,19
4423402156,1686758083400263,371026458,-763881875,37383,1613,0.18100001,0.096583374,0.77300006,1.1220001,0.59999996,1.05,95,18,2.6790001,1.5730001,2.1690001,-0.004,0.9343194,0,4,1,19
4423598569,1686758083600263,371026486,-763881828,37382,1612,0.20500001,0.099670514,0.77400005,1.1240001,0.59999996,1.05,95,18,2.591,1.4890001,2.121,-0.10700001,0.9462719,0,4,1,19
4423798560,1686758083800262,371026514,-763881780,37429,1659,0.19900002,0.09398737,0.77400005,1.125,0.59999996,1.05,95,20,2.7140002,1.549,2.229,0.012,0.95547485,0,4,1,19
4424003307,1686758084000262,371026541,-763881731,37448,1678,0.201,0.09590427,0.77500004,1.1270001,0.59999996,1.05,95,20,2.6290002,1.5120001,2.151,0.029000001,0.95687795,0,4,1,19
4424196578,1686758084200262,371026569,-763881684,37450,1680,0.18900001,0.09960454,0.77500004,1.128,0.59999996,1.05,95,20,2.6290002,1.5330001,2.135,0.104,0.9526919,0,4,1,19
4424401485,1686758084400262,371026595,-763881638,37443,1673,0.178,0.10073289,0.77500004,1.1270001,0.59999996,1.05,95,20,2.5970001,1.5300001,2.098,0.098000005,0.946728,0,4,1,19
4424601764,1686758084600262,371026622,-763881591,37415,1645,0.17600001,0.10030511,0.77400005,1.123,0.59999996,1.05,95,20,2.605,1.4690001,2.151,0.102000006,0.959284,0,4,1,19
4424798770,1686758084800262,371026651,-763881544,37351,1581,0.177,0.09894288,0.77400005,1.1190001,0.59999996,1.05,94,18,2.709,1.562,2.213,0.108,0.9577548,0,4,1,19
4424999511,1686758085000262,371026679,-763881496,37317,1547,0.19700001,0.10048593,0.77300006,1.118,0.59999996,1.05,94,18,2.6710002,1.5550001,2.1720002,0.246,0.9535702,0,4,1,19
4425203272,1686758085200262,371026705,-763881447,37276,1506,0.20300001,0.10164361,0.77400005,1.1190001,0.59999996,1.05,94,18,2.7350001,1.447,2.321,0.16100001,0.98337483,0,4,1,19
4425399785,1686758085400262,371026732,-763881396,37275,1505,0.18800001,0.09967383,0.77500004,1.12,0.59999996,1.05,94,18,2.815,1.6370001,2.289,0.124000005,0.9662083,0,4,1,19
4425596618,1686758085600262,371026762,-763881347,37253,1483,0.18900001,0.100157455,0.77500004,1.121,0.59999996,1.05,94,18,2.7940001,1.7060001,2.213,0.246,0.9401294,0,4,1,19
4425797497,1686758085800262,371026792,-763881297,37238,1468,0.19800001,0.09594773,0.776,1.1220001,0.59999996,1.05,94,24,2.838,1.697,2.275,0.102000006,0.934803,0,4,1,19
4426001729,1686758086000262,371026822,-763881248,37188,1418,0.186,0.09614111,0.776,1.123,0.59999996,1.05,94,24,2.8330002,1.6500001,2.302,0.24800001,0.9419239,0,4,1,19
4426197903,1686758086200262,371026853,-763881198,37122,1352,0.179,0.09305711,0.776,1.12,0.59999996,1.05,94,24,2.8030002,1.7060001,2.2240002,0.28300002,0.9285998,0,4,1,19
4426398303,1686758086400262,371026882,-763881149,37122,1352,0.178,0.10005274,0.776,1.12,0.59999996,1.05,94,24,2.6430001,1.5580001,2.135,0.16800001,0.9340918,0,4,1,19
4426599350,1686758086600262,371026911,-763881103,37069,1299,0.208,0.09514016,0.776,1.121,0.59999996,1.05,94,24,2.696,1.6680001,2.117,0.187,0.91794384,0,4,1,19
4426780268,1686758086800261,371026939,-763881056,37064,1294,0.18100001,0.09921009,0.776,1.121,0.59999996,1.05,94,18,2.605,1.565,2.082,0.15,0.9220036,0,4,1,19
4426997499,1686758087000261,371026967,-763881010,37063,1293,0.18,0.09688741,0.77500004,1.121,0.59999996,1.05,94,18,2.653,1.549,2.154,0.120000005,0.93502414,0,4,1,19
4427201994,1686758087200261,371026994,-763880962,37042,1272,0.18,0.09797074,0.77500004,1.1190001,0.59999996,1.05,94,18,2.6230001,1.5350001,2.127,0.20600002,0.94030374,0,4,1,19
4427402740,1686758087400261,371027019,-763880917,37053,1283,0.18,0.104697935,0.77400005,1.118,0.59999996,1.05,94,18,2.421,1.381,1.988,0.17600001,0.95132166,0,4,1,19
4427599517,1686758087600261,371027044,-763880872,37026,1256,0.177,0.101473786,0.77300006,1.1170001,0.59999996,1.05,94,18,2.483,1.3720001,2.0700002,0.14600001,0.96908545,0,4,1,19
4427806575,1686758087800261,371027069,-763880826,36985,1215,0.178,0.10001364,0.772,1.115,0.59999996,1.05,94,19,2.522,1.325,2.1460001,0.29000002,0.99398255,0,4,1,19
4428011521,1686758088000261,371027091,-763880779,36994,1224,0.18100001,0.10794494,0.772,1.115,0.59999996,1.05,94,19,2.3960001,1.2340001,2.0540001,0.15200001,1.0105836,0,4,1,19
4428201368,1686758088200261,371027112,-763880731,36998,1228,0.18200001,0.10458728,0.771,1.1120001,0.59999996,1.05,94,19,2.4580002,1.131,2.1820002,0.079,1.0531207,0,4,1,19
4428401666,1686758088400261,371027134,-763880682,36972,1202,0.18,0.10136959,0.771,1.108,0.59999996,1.05,94,19,2.4940002,1.156,2.21,0.18900001,1.0717522,0,4,1,19
4428602491,1686758088600261,371027157,-763880633,36932,1162,0.18100001,0.10649126,0.77000004,1.105,0.59999996,1.05,94,19,2.4850001,1.246,2.15,0.023000002,1.0592183,0,4,1,19
4428798532,1686758088800261,371027180,-763880584,36949,1179,0.187,0.10535836,0.771,1.1040001,0.59999996,1.05,94,26,2.591,1.281,2.252,0.098000005,1.0563481,0,4,1,19
4429002470,1686758089000261,371027204,-763880535,36948,1178,0.187,0.116454996,0.772,1.103,0.59999996,1.05,94,26,2.581,1.394,2.1720002,0.104,1.0308418,0,4,1,19
4429200242,1686758089200261,371027229,-763880488,36955,1185,0.19000001,0.11367137,0.77300006,1.1040001,0.59999996,1.05,94,26,2.6030002,1.445,2.1650002,0.10300001,1.0058967,0,4,1,19
4429396653,1686758089400261,371027254,-763880441,36991,1221,0.18800001,0.11836386,0.77500004,1.1040001,0.59999996,1.05,94,26,2.499,1.371,2.0900002,-0.011000001,0.99826545,0,4,1,19
4429597619,1686758089600261,371027280,-763880396,37003,1233,0.18100001,0.1085422,0.77500004,1.1040001,0.59999996,1.05,94,26,2.447,1.4530001,1.9690001,-0.021000002,0.9638535,0,4,1,19
4429798519,1686758089800260,371027306,-763880351,37029,1259,0.18100001,0.10495938,0.77500004,1.1040001,0.59999996,1.05,94,19,2.5240002,1.5090001,2.0240002,0.07,0.9462899,0,4,1,19
4430003488,1686758090000260,371027332,-763880306,37057,1287,0.187,0.11083992,0.77500004,1.1040001,0.59999996,1.05,94,19,2.5670002,1.531,2.061,-0.027,0.93950564,0,4,1,19
4430199482,1686758090200260,371027360,-763880260,37088,1318,0.187,0.11248681,0.776,1.105,0.59999996,1.05,94,19,2.5270002,1.5270001,2.0140002,-0.043,0.93088335,0,4,1,19
4430399044,1686758090400260,371027387,-763880216,37117,1347,0.18200001,0.10465709,0.776,1.1060001,0.59999996,1.05,94,19,2.512,1.414,2.0760002,-0.18200001,0.95350945,0,4,1,19
4430600195,1686758090600260,371027411,-763880171,37179,1409,0.17600001,0.09785397,0.77500004,1.1060001,0.59999996,1.05,94,19,2.437,1.378,2.0110002,-0.039,0.9623996,0,4,1,19
4430801333,1686758090800260,371027435,-763880126,37208,1438,0.19800001,0.11245575,0.77500004,1.107,0.59999996,1.05,94,21,2.3960001,1.314,2.003,0.007,0.97444254,0,4,1,19
4430998506,1686758091000260,371027457,-763880082,37251,1481,0.185,0.110142134,0.776,1.11,0.59999996,1.05,94,21,2.4150002,1.3050001,2.032,-0.11100001,0.98755175,0,4,1,19
4431205427,1686758091200260,371027480,-763880037,37332,1562,0.18300001,0.11459116,0.776,1.11,0.59999996,1.05,94,21,2.423,1.2880001,2.052,-0.11100001,0.99843264,0,4,1,19
4431405989,1686758091400260,371027501,-763879992,37357,1587,0.185,0.1199172,0.776,1.1110001,0.59999996,1.05,94,21,2.3300002,1.1780001,2.01,-0.087000005,1.0186859,0,4,1,19
4431602548,1686758091600260,371027522,-763879947,37437,1667,0.186,0.12214005,0.777,1.1120001,0.62,1.09,94,21,2.352,1.312,1.9530001,-0.164,0.9993247,0,4,1,18
4431800120,1686758091800260,371027546,-763879903,37493,1723,0.19900002,0.11242381,0.77800006,1.113,0.62,1.09,94,32,2.4020002,1.3790001,1.9670001,-0.112,0.9775451,0,4,1,18
4432000564,1686758092000260,371027571,-763879861,37503,1733,0.2,0.11224247,0.77800006,1.1120001,0.62,1.09,94,32,2.403,1.47,1.9000001,0.029000001,0.94466937,0,4,1,18
4432197482,1686758092200260,371027596,-763879819,37533,1763,0.201,0.1126994,0.77800006,1.1110001,0.62,1.09,94,32,2.3920002,1.4740001,1.8840001,0.063,0.9257704,0,4,1,18
4432397480,1686758092400260,371027622,-763879776,37556,1786,0.20300001,0.113598585,0.77900004,1.1120001,0.62,1.09,94,32,2.4410002,1.442,1.9700001,-0.119,0.9322517,0,4,1,18
4432595480,1686758092600260,371027647,-763879731,37607,1836,0.2,0.10732989,0.78000003,1.1120001,0.59999996,1.05,94,32,2.5210001,1.5070001,2.02,-0.051000003,0.9310261,0,4,1,19
4432795533,1686758092800259,371027674,-763879686,37625,1855,0.202,0.10821983,0.781,1.113,0.59999996,1.05,94,19,2.552,1.534,2.039,0.035,0.92847896,0,4,1,19
4432998798,1686758093000259,371027700,-763879642,37640,1870,0.185,0.1096332,0.78200006,1.1120001,0.59999996,1.05,94,19,2.4250002,1.5270001,1.8830001,0.022000002,0.9091416,0,4,1,19
4433200039,1686758093200259,371027725,-763879599,37694,1924,0.187,0.1147526,0.78200006,1.113,0.59999996,1.05,94,19,2.365,1.4180001,1.894,0.024,0.91827893,0,4,1,19
4433401483,1686758093400259,371027750,-763879555,37731,1961,0.185,0.10586312,0.78300005,1.113,0.59999996,1.05,94,19,2.5470002,1.5090001,2.052,-0.001,0.92822397,0,4,1,19
4433598495,1686758093600259,371027777,-763879509,37765,1995,0.18400002,0.099119514,0.78300005,1.113,0.59999996,1.05,94,19,2.684,1.6450001,2.121,-0.115,0.91894984,0,4,1,19
4433798820,1686758093800259,371027806,-763879462,37800,2030,0.18400002,0.10026305,0.78300005,1.1120001,0.62,1.09,94,19,2.6420002,1.6730001,2.045,-0.087000005,0.9020973,0,4,1,18
4433999486,1686758094000259,371027835,-763879415,37851,2081,0.18400002,0.08904949,0.78300005,1.1120001,0.62,1.09,94,19,2.789,1.723,2.193,-0.17500001,0.90370506,0,4,1,18
4434198930,1686758094200259,371027866,-763879367,37924,2154,0.186,0.089546554,0.78300005,1.1120001,0.59999996,1.05,94,19,2.8030002,1.8030001,2.1460001,-0.163,0.8876992,0,4,1,19
4434399824,1686758094400259,371027898,-763879320,37988,2218,0.186,0.08899433,0.78200006,1.113,0.59999996,1.05,94,19,2.821,1.8340001,2.144,-0.126,0.87520456,0,4,1,19
4434597717,1686758094600259,371027932,-763879273,38025,2255,0.18300001,0.087794244,0.78200006,1.1120001,0.59999996,1.05,94,19,2.8130002,1.8370001,2.131,-0.21400002,0.86709577,0,4,1,19
4434797519,1686758094800259,371027964,-763879227,38054,2284,0.185,0.099789895,0.78200006,1.113,0.59999996,1.05,94,19,2.8590002,1.927,2.112,-0.12100001,0.8513154,0,4,1,19
4434998509,1686758095000259,371027996,-763879182,38078,2307,0.179,0.0999817,0.78300005,1.1140001,0.59999996,1.05,94,19,2.7370002,1.7370001,2.115,-0.18400002,0.8673326,0,4,1,19
4435195514,1686758095200259,371028026,-763879137,38112,2342,0.21000001,0.09594423,0.78300005,1.116,0.62,1.09,94,19,2.653,1.697,2.039,-0.069000006,0.8721572,0,4,1,18
4435398726,1686758095400259,371028056,-763879092,38124,2354,0.21000001,0.093535155,0.78300005,1.118,0.62,1.09,94,19,2.7280002,1.718,2.1190002,-0.113000005,0.8811055,0,4,1,18
4435598697,1686758095600259,371028085,-763879046,38139,2369,0.21700001,0.09768712,0.78300005,1.121,0.62,1.09,94,19,2.647,1.5990001,2.1090002,-0.042000003,0.9008333,0,4,1,18
4435799512,1686758095800258,371028111,-763879000,38156,2386,0.194,0.09514365,0.78200006,1.121,0.62,1.09,94,18,2.631,1.5000001,2.1620002,-0.076000005,0.93363625,0,4,1,18
4436000642,1686758096000258,371028138,-763878954,38181,2411,0.19000001,0.085685186,0.781,1.1220001,0.62,1.09,94,18,2.6820002,1.547,2.1910002,0.081,0.94599754,0,4,1,18
4436198490,1686758096200258,371028164,-763878906,38198,2428,0.21200001,0.0861203,0.78000003,1.1240001,0.62,1.09,94,18,2.6620002,1.447,2.2340002,0.009000001,0.97122926,0,4,1,18
4436398510,1686758096400258,371028190,-763878859,38215,2445,0.20400001,0.0915652,0.77900004,1.126,0.62,1.09,94,18,2.6020002,1.432,2.173,0.016,0.9791974,0,4,1,18
4436595490,1686758096600258,371028216,-763878813,38228,2458,0.209,0.09281957,0.77900004,1.1270001,0.62,1.09,94,18,2.5900002,1.3720001,2.196,-0.019000001,0.9957129,0,4,1,18
4436798574,1686758096800258,371028241,-763878765,38254,2484,0.209,0.089059256,0.77900004,1.1290001,0.62,1.09,94,25,2.6980002,1.4020001,2.306,-0.124000005,1.0108628,0,4,1,18
4436999891,1686758097000258,371028265,-763878716,38278,2508,0.21200001,0.09215966,0.77900004,1.13,0.62,1.09,94,25,2.6060002,1.264,2.279,-0.040000003,1.0369704,0,4,1,18
4437201336,1686758097200258,371028289,-763878666,38294,2523,0.22000001,0.09475828,0.77900004,1.1320001,0.62,1.09,94,25,2.6950002,1.4260001,2.2870002,0.055000003,1.0254052,0,4,1,18
4437397487,1686758097400258,371028314,-763878616,38300,2530,0.18400002,0.08909836,0.77900004,1.1320001,0.62,1.09,94,25,2.7210002,1.3560001,2.3600001,-0.080000006,1.0382228,0,4,1,18
4437602547,1686758097600258,371028338,-763878565,38315,2545,0.186,0.095950514,0.77900004,1.1320001,0.62,1.09,94,25,2.6850002,1.353,2.319,-0.055000003,1.0402125,0,4,1,18
4437795565,1686758097800258,371028363,-763878516,38322,2552,0.21300001,0.09798417,0.77900004,1.133,0.62,1.09,94,18,2.6290002,1.383,2.236,-0.12200001,1.0286993,0,4,1,18
4437998805,1686758098000258,371028391,-763878469,38301,2531,0.21200001,0.09828786,0.78000003,1.1340001,0.59999996,1.05,94,18,2.6330001,1.4890001,2.1720002,-0.007,0.9991526,0,4,1,19
4438199822,1686758098200258,371028418,-763878421,38315,2545,0.21300001,0.09671933,0.78000003,1.1350001,0.62,1.09,94,18,2.6680002,1.4660001,2.229,0.067,0.99399585,0,4,1,18
4438401224,1686758098400258,371028445,-763878372,38312,2542,0.21000001,0.09766059,0.781,1.136,0.62,1.09,94,18,2.641,1.4410001,2.213,-0.008,0.9938124,0,4,1,18
4438597482,1686758098600258,371028472,-763878324,38303,2533,0.21000001,0.099350415,0.781,1.136,0.62,1.09,94,18,2.5970001,1.3970001,2.19,-0.071,0.99836826,0,4,1,18
4438798568,1686758098800258,371028498,-763878276,38313,2543,0.21100001,0.095418714,0.78200006,1.136,0.62,1.09,94,30,2.661,1.3970001,2.265,-0.049000002,1.0086619,0,4,1,18
4438999514,1686758099000257,371028523,-763878226,38338,2568,0.21200001,0.09512166,0.78200006,1.1370001,0.62,1.09,94,30,2.661,1.315,2.3140001,0.067,1.0314991,0,4,1,18
4439199479,1686758099200257,371028547,-763878175,38350,2580,0.209,0.09661654,0.78200006,1.139,0.62,1.09,94,30,2.653,1.3490001,2.2840002,-0.068,1.0344831,0,4,1,18
4439398630,1686758099400257,371028573,-763878124,38359,2589,0.20600002,0.09346429,0.78300005,1.1400001,0.62,1.09,94,30,2.7250001,1.437,2.315,0.09,1.0245858,0,4,1,18
4439600821,1686758099600257,371028599,-763878074,38345,2575,0.18100001,0.09439316,0.78200006,1.1400001,0.62,1.09,94,30,2.6820002,1.3640001,2.3100002,-0.006,1.0309265,0,4,1,18
4439797624,1686758099800257,371028624,-763878026,38350,2579,0.18,0.09787736,0.781,1.1400001,0.62,1.09,94,19,2.592,1.406,2.1780002,0.014,1.0147171,0,4,1,18
4440022815,1686758100000257,371028651,-763877979,38326,2556,0.209,0.09902701,0.78200006,1.143,0.62,1.09,94,19,2.5900002,1.4560001,2.1420002,0.048,0.9942749,0,4,1,18
4440206514,1686758100200257,371028679,-763877933,38326,2556,0.208,0.10172686,0.78200006,1.144,0.62,1.09,94,19,2.5400002,1.5530001,2.01,0.004,0.9544966,0,4,1,18
4440399479,1686758100400257,371028707,-763877889,38345,2575,0.18300001,0.10345334,0.78200006,1.143,0.62,1.09,94,19,2.592,1.5790001,2.056,-0.094000004,0.93543553,0,4,1,18
4440599499,1686758100600257,371028735,-763877842,38391,2621,0.18100001,0.10011121,0.78200006,1.143,0.62,1.09,94,19,2.5770001,1.5050001,2.091,-0.10700001,0.9414009,0,4,1,18
4440799577,1686758100800257,371028762,-763877796,38435,2665,0.18100001,0.09821613,0.781,1.143,0.62,1.09,94,24,2.628,1.5920001,2.091,-0.08400001,0.9304772,0,4,1,18
4440999506,1686758101000257,371028791,-763877750,38442,2672,0.18100001,0.098166384,0.781,1.143,0.62,1.09,94,24,2.6660001,1.5740001,2.151,-0.098000005,0.9347953,0,4,1,18
4441201482,1686758101200257,371028818,-763877703,38472,2702,0.18200001,0.09907483,0.781,1.144,0.62,1.09,94,24,2.641,1.457,2.203,-0.12100001,0.9605084,0,4,1,18
4441402490,1686758101400257,371028843,-763877655,38510,2739,0.192,0.10015484,0.78000003,1.1450001,0.62,1.09,94,24,2.571,1.3840001,2.1660001,-0.15900001,0.9814097,0,4,1,18
4441599509,1686758101600257,371028867,-763877606,38540,2770,0.21200001,0.09764209,0.781,1.148,0.62,1.09,94,24,2.644,1.389,2.249,-0.148,1.0000652,0,4,1,18
4441799522,1686758101800257,371028891,-763877558,38590,2819,0.20500001,0.099576965,0.781,1.151,0.62,1.09,94,18,2.592,1.3590001,2.206,-0.19100001,1.009202,0,4,1,18
4442003570,1686758102000256,371028916,-763877509,38612,2842,0.193,0.0986207,0.781,1.1520001,0.62,1.09,94,18,2.6710002,1.4590001,2.237,-0.035,1.0007907,0,4,1,18
4442200820,1686758102200256,371028942,-763877460,38616,2846,0.194,0.09820356,0.781,1.153,0.62,1.09,94,18,2.64,1.3160001,2.289,-0.16100001,1.025292,0,4,1,18
4442401484,1686758102400256,371028967,-763877411,38601,2830,0.19800001,0.098719485,0.78200006,1.154,0.62,1.09,94,18,2.6750002,1.404,2.2770002,-0.024,1.0217242,0,4,1,18
4442602499,1686758102600256,371028993,-763877362,38583,2813,0.19700001,0.09858946,0.78200006,1.156,0.62,1.09,94,18,2.673,1.416,2.2670002,-0.011000001,1.0169933,0,4,1,18
4442798482,1686758102800256,371029019,-763877312,38544,2774,0.19600001,0.10042624,0.78200006,1.154,0.62,1.09,94,19,2.6460001,1.3410001,2.2800002,-0.128,1.0279403,0,4,1,18
4442999519,1686758103000256,371029044,-763877262,38517,2747,0.2,0.09665947,0.78200006,1.151,0.62,1.09,94,19,2.7170002,1.3470001,2.3600001,-0.18100001,1.0405724,0,4,1,18
4443202978,1686758103200256,371029070,-763877210,38534,2764,0.19900002,0.095387995,0.78200006,1.1500001,0.62,1.09,94,19,2.7600002,1.4180001,2.368,-0.136,1.0358436,0,4,1,18
4443400543,1686758103400256,371029097,-763877159,38538,2768,0.19800001,0.094838046,0.78200006,1.1500001,0.62,1.09,94,19,2.8360002,1.5580001,2.3690002,-0.15400001,1.0121101,0,4,1,18
4443601225,1686758103600256,371029125,-763877107,38548,2778,0.2,0.0975187,0.78300005,1.1500001,0.62,1.09,94,19,2.887,1.595,2.4060001,-0.13100001,0.9990742,0,4,1,18
4443800572,1686758103800256,371029153,-763877055,38558,2788,0.19600001,0.091770105,0.78300005,1.1500001,0.62,1.09,94,18,2.8140001,1.557,2.344,-0.095000006,0.9913005,0,4,1,18
4444005090,1686758104000256,371029182,-763877005,38567,2796,0.19500001,0.09310877,0.78200006,1.1500001,0.62,1.09,94,18,2.7730002,1.6010001,2.2640002,-0.062000003,0.9733945,0,4,1,18
4444202904,1686758104200256,371029210,-763876957,38587,2816,0.19500001,0.10048733,0.78200006,1.1500001,0.62,1.09,94,18,2.6790001,1.575,2.167,-0.14600001,0.95891297,0,4,1,18
4444399480,1686758104400256,371029239,-763876910,38557,2787,0.19600001,0.10123782,0.78300005,1.1500001,0.62,1.09,94,18,2.654,1.4920001,2.194,-0.07,0.9662673,0,4,1,18
4444603365,1686758104600256,371029266,-763876864,38518,2748,0.194,0.10545156,0.78300005,1.149,0.62,1.09,94,18,2.535,1.4280001,2.094,-0.142,0.96912473,0,4,1,18
4444800635,1686758104800256,371029293,-763876819,38515,2744,0.19600001,0.103431344,0.78300005,1.148,0.62,1.09,94,18,2.5830002,1.5170001,2.091,-0.07700001,0.9557351,0,4,1,18
4445000681,1686758105000255,371029321,-763876773,38487,2717,0.19500001,0.10195986,0.78300005,1.146,0.62,1.09,94,18,2.607,1.5090001,2.1260002,-0.063,0.9545868,0,4,1,18
4445198496,1686758105200255,371029348,-763876728,38506,2735,0.193,0.10538123,0.78200006,1.1450001,0.62,1.09,94,18,2.526,1.4460001,2.071,-0.16000001,0.95783573,0,4,1,18
4445398810,1686758105400255,371029375,-763876683,38502,2732,0.19500001,0.10337707,0.78200006,1.143,0.62,1.09,94,18,2.592,1.5630001,2.068,-0.064,0.94025975,0,4,1,18
4445595555,1686758105600255,371029404,-763876638,38448,2678,0.193,0.10205114,0.78200006,1.1420001,0.62,1.09,94,18,2.605,1.6170001,2.042,0.007,0.9203306,0,4,1,18
4445798414,1686758105800255,371029433,-763876595,38444,2674,0.19500001,0.105418056,0.781,1.141,0.62,1.09,94,19,2.5400002,1.644,1.9360001,-0.006,0.894222,0,4,1,18
4446004185,1686758106000255,371029461,-763876552,38448,2678,0.194,0.10694068,0.781,1.1400001,0.62,1.09,94,19,2.5010002,1.5550001,1.9590001,0.008,0.8969695,0,4,1,18
4446196659,1686758106200255,371029489,-763876509,38429,2659,0.216,0.105423816,0.78200006,1.141,0.62,1.09,94,19,2.522,1.5530001,1.9870001,0.001,0.9023844,0,4,1,18
4446401474,1686758106400255,371029517,-763876463,38388,2618,0.194,0.10308368,0.78200006,1.1400001,0.62,1.09,94,19,2.591,1.511,2.104,0.072000004,0.92587113,0,4,1,18
4446598608,1686758106600255,371029544,-763876416,38352,2582,0.19600001,0.10217104,0.78200006,1.138,0.62,1.09,94,19,2.5630002,1.399,2.148,0.21700001,0.96023715,0,4,1,18
4446799527,1686758106800255,371029569,-763876368,38323,2552,0.19600001,0.099175535,0.781,1.1370001,0.62,1.09,94,22,2.64,1.409,2.233,0.063,0.985032,0,4,1,18
4447002748,1686758107000255,371029595,-763876318,38278,2508,0.19700001,0.09970088,0.781,1.136,0.62,1.09,94,22,2.6690001,1.3390001,2.309,0.15900001,1.015159,0,4,1,18
4447196648,1686758107200255,371029619,-763876266,38263,2493,0.18400002,0.095207706,0.781,1.136,0.62,1.09,94,22,2.742,1.3770001,2.371,0.074,1.0307162,0,4,1,18
4447400200,1686758107400255,371029644,-763876214,38248,2478,0.20300001,0.10207208,0.781,1.138,0.62,1.09,94,22,2.759,1.3460001,2.4080002,-0.025,1.0449356,0,4,1,18
4447597509,1686758107600255,371029668,-763876162,38265,2494,0.19800001,0.09822224,0.78200006,1.138,0.62,1.09,94,22,2.7140002,1.4050001,2.3230002,-0.014,1.0354985,0,4,1,18
4447806570,1686758107800255,371029694,-763876111,38234,2464,0.19700001,0.097473666,0.78200006,1.139,0.62,1.09,94,23,2.729,1.3920001,2.3470001,-0.012,1.0354443,0,4,1,18
4447998484,1686758108000254,371029719,-763876060,38227,2456,0.19500001,0.09852802,0.78200006,1.139,0.62,1.09,94,23,2.6680002,1.304,2.3270001,-0.086,1.0476882,0,4,1,18
4448199510,1686758108200254,371029743,-763876009,38211,2440,0.18900001,0.099602796,0.781,1.139,0.62,1.09,94,23,2.5970001,1.299,2.249,0.016,1.047332,0,4,1,18
4448399484,1686758108400254,371029767,-763875959,38197,2426,0.18400002,0.0944607,0.78000003,1.138,0.62,1.09,94,23,2.559,1.3870001,2.151,0.060000002,1.0211346,0,4,1,18
4448600572,1686758108600254,371029794,-763875909,38163,2392,0.193,0.09872647,0.77900004,1.138,0.62,1.09,94,23,2.742,1.521,2.282,0.079,1.0027026,0,4,1,18
4448801514,1686758108800254,371029824,-763875856,38139,2368,0.187,0.093992084,0.78000003,1.1350001,0.59999996,1.05,94,19,3.045,1.8340001,2.4310002,-0.32700002,0.9613437,0,4,1,19
4448997502,1686758109000254,371029860,-763875795,38261,2491,0.208,0.07932713,0.781,1.136,0.61,1.06,94,19,3.604,2.137,2.9020002,-1.0020001,0.9464524,0,4,1,18
4449186122,1686758109200254,371029902,-763875721,38501,2730,0.20500001,0.057511736,0.78000003,1.136,0.62,1.06,94,19,4.4900002,2.5430002,3.7010002,-1.365,0.9612454,0,4,1,17
4449406508,1686758109400254,371029952,-763875632,38745,2975,0.20300001,0.0493052,0.77900004,1.1370001,0.62,1.06,94,19,5.2050004,3.0360003,4.228,-1.3850001,0.9533789,0,4,1,17
4449602794,1686758109600254,371030007,-763875533,38990,3220,0.19800001,0.050033174,0.77900004,1.1370001,0.62,1.06,94,19,5.5280004,3.1050003,4.5740004,-1.1980001,0.9644003,0,4,1,17
4449799800,1686758109800254,371030064,-763875430,39214,3443,0.22800002,0.04931637,0.78000003,1.138,0.62,1.06,94,22,5.583,3.144,4.6140003,-1.2750001,0.96886903,0,4,1,17
4450003712,1686758110000254,371030119,-763875327,39424,3654,0.22900002,0.044548303,0.78000003,1.1400001,0.59999996,1.05,94,22,5.5080004,2.976,4.635,-1.1500001,0.98689044,0,4,1,19
4450208926,1686758110200254,371030172,-763875225,39601,3831,0.22500001,0.04444603,0.77900004,1.141,0.59999996,1.05,94,22,5.3300004,2.8370001,4.512,-1.128,0.9990065,0,4,1,19
4450398560,1686758110400254,371030222,-763875123,39785,4014,0.23200001,0.043967284,0.77900004,1.1420001,0.59999996,1.05,94,22,5.3560004,2.6450002,4.657,-1.085,1.0288254,0,4,1,19
4450595544,1686758110600254,371030269,-763875013,39992,4222,0.19900002,0.03898524,0.777,1.141,0.59999996,1.05,94,22,5.663,2.48,5.091,-1.166,1.0817183,0,4,1,19
4450782514,1686758110800254,371030311,-763874892,40256,4486,0.19700001,0.036782637,0.771,1.141,0.59999996,1.05,94,24,5.9670005,2.4,5.4630003,-1.3280001,1.1252066,0,4,1,19
4450999482,1686758111000253,371030351,-763874764,40528,4757,0.2,0.035443794,0.768,1.1420001,0.59999996,1.05,94,24,6.249,2.2210002,5.841,-1.296,1.172504,0,4,1,19
4451200619,1686758111200253,371030390,-763874631,40791,5021,0.23300001,0.035628624,0.767,1.1450001,0.59999996,1.05,94,24,6.4610004,2.2080002,6.0720005,-1.2340001,1.2002712,0,4,1,19
4451397483,1686758111400253,371030428,-763874494,41038,5268,0.23,0.03513976,0.767,1.1470001,0.59999996,1.05,94,24,6.5400004,2.1780002,6.1670003,-1.199,1.2179499,0,4,1,19
4451598481,1686758111600253,371030467,-763874355,41257,5487,0.23,0.03473135,0.76600003,1.149,0.59999996,1.05,94,24,6.5980005,2.1360002,6.2430005,-1.1650001,1.2311603,0,4,1,19
4451781213,1686758111800253,371030506,-763874215,41460,5690,0.224,0.03411106,0.76600003,1.149,0.59999996,1.05,94,20,6.6670003,2.16,6.308,-1.154,1.236774,0,4,1,19
4451994689,1686758112000253,371030546,-763874072,41656,5886,0.23300001,0.03400512,0.76600003,1.1500001,0.59999996,1.05,94,20,6.7900004,2.2240002,6.4150004,-1.154,1.23695,0,4,1,19
4452187035,1686758112200253,371030588,-763873928,41844,6074,0.238,0.03306823,0.76600003,1.151,0.59999996,1.05,94,20,6.8950005,2.2570002,6.5150003,-1.1190001,1.2371743,0,4,1,19
4452384036,1686758112400253,371030628,-763873782,42069,6298,0.22500001,0.035713624,0.76600003,1.151,0.59999996,1.05,94,20,6.8610005,2.1550002,6.5140004,-1.2620001,1.2447124,0,4,1,19
4452600143,1686758112600253,371030668,-763873635,42299,6529,0.224,0.036728356,0.767,1.1520001,0.59999996,1.05,94,20,6.965,2.3560002,6.5540004,-1.2140001,1.2342389,0,4,1,19
4452801513,1686758112800253,371030711,-763873490,42531,6761,0.21800001,0.03527886,0.767,1.151,0.59999996,1.05,94,19,6.9750004,2.437,6.5360003,-1.1450001,1.2224302,0,4,1,19
4453001490,1686758113000253,371030755,-763873343,42784,7013,0.21800001,0.036665875,0.767,1.1500001,0.59999996,1.05,94,19,6.977,2.407,6.5490003,-1.241,1.2203135,0,4,1,19
4453198025,1686758113200253,371030800,-763873195,42991,7221,0.21700001,0.036009282,0.768,1.1470001,0.59999996,1.05,94,19,7.103,2.49,6.6530004,-1.302,1.2159525,0,4,1,19
4453399481,1686758113400253,371030846,-763873046,43257,7487,0.21700001,0.036104403,0.768,1.1470001,0.59999996,1.05,94,19,7.1010003,2.598,6.609,-1.205,1.20485,0,4,1,19
4453599505,1686758113600253,371030893,-763872898,43486,7715,0.22200002,0.035946626,0.76900005,1.1470001,0.59999996,1.05,94,19,7.129,2.5310001,6.6640005,-1.2820001,1.206553,0,4,1,19
4453800593,1686758113800253,371030939,-763872747,43738,7968,0.21900001,0.034107048,0.76900005,1.1470001,0.59999996,1.05,94,18,7.248,2.5140002,6.7980003,-1.366,1.2125314,0,4,1,19
4454000706,1686758114000252,371030985,-763872596,43974,8203,0.22900002,0.034163423,0.76900005,1.148,0.59999996,1.05,94,18,7.248,2.525,6.794,-1.304,1.2139153,0,4,1,19
4454198506,1686758114200252,371031031,-763872444,44223,8453,0.21900001,0.033393208,0.77000004,1.148,0.59999996,1.05,94,18,7.2200003,2.502,6.7730002,-1.3410001,1.2157074,0,4,1,19
4454381145,1686758114400252,371031077,-763872291,44428,8657,0.22200002,0.031398647,0.76900005,1.148,0.59999996,1.05,94,18,7.2880006,2.4650002,6.8580003,-1.3240001,1.2218313,0,4,1,19
