timestamp,x,y,z,yaw,yawspeed,vx,vy,vz,acc_x,acc_y,acc_z,thrust[0],thrust[1],thrust[2]
4385001854,23.811558,-81.12507,-31.173668,-0.0810546,0.0,-0.20231132,0.2476326,-0.3261009,-0.34940603,0.3330128,-5.5100455,0.0,0.0,0.0
4385102202,23.811558,-81.12507,-31.173668,-0.0810546,0.0,-0.20931281,0.2586132,-0.4263099,-0.35278818,0.38408566,-5.7146835,0.0,0.0,0.0
4385202762,23.811558,-81.12507,-31.173668,-0.0810546,0.0,-0.21553516,0.2705578,-0.52699894,-0.36182377,0.3780244,-5.9360385,0.0,0.0,0.0
4385306824,23.811558,-81.12507,-31.173668,-0.0810546,0.0,-0.22188072,0.28221244,-0.6310309,-0.35979366,0.46024925,-6.1494555,0.0,0.0,0.0
4385406827,23.811558,-81.12507,-31.173668,-0.0810546,0.0,-0.2280487,0.29341048,-0.73101676,-0.3471465,0.44255877,-6.3608236,0.0,0.0,0.0
4385507253,23.811558,-81.12507,-31.173668,-0.0810546,0.0,-0.23285045,0.30466652,-0.8313077,-0.36902478,0.4453967,-6.5801396,0.0,0.0,0.0
4385607753,23.811558,-81.12507,-31.173668,-0.0810546,0.0,-0.23774824,0.31557465,-0.93183374,-0.37905106,0.46239495,-6.779705,0.0,0.0,0.0
4385708382,23.811558,-81.12507,-31.173668,-0.0810546,0.0,-0.24300118,0.32750472,-1.0,-0.36503932,0.56345373,-6.992901,0.0,0.0,0.0
4385807778,23.811558,-81.12507,-31.173668,-0.0810546,0.0,-0.24696216,0.33017197,-1.0,-0.216428,-0.07717565,-6.4981356,0.0,0.0,0.0
4385913398,23.811558,-81.12507,-31.173668,-0.0810546,0.0,-0.23636027,0.3010353,-1.0,-0.17458096,-0.05512538,-5.9694505,0.0,0.0,0.0
4386017430,23.811558,-81.12507,-31.173668,-0.0810546,0.0,-0.22668429,0.27207258,-1.0,-0.16275991,-0.053448044,-5.337005,0.0,0.0,0.0
4386117221,23.811558,-81.12507,-31.173668,-0.0810546,0.0,-0.20827998,0.23125954,-1.0,-0.16280411,-0.16502245,-5.095566,0.0,0.0,0.0
4386217673,23.811558,-81.12507,-31.173668,-0.0810546,0.0,-0.18527146,0.1875473,-1.0,-0.020923326,-0.26284912,-5.0609894,0.0,0.0,0.0
4386322007,23.811558,-81.12507,-31.173668,-0.0810546,0.0,-0.15896873,0.13837013,-1.0,-0.030643268,-0.25949097,-5.096023,0.0,0.0,0.0
4386422170,23.811558,-81.12507,-31.173668,-0.0810546,0.0,-0.1332676,0.09014244,-1.0,-0.0043431986,-0.26398572,-5.1049185,0.0,0.0,0.0
4386522545,23.811558,-81.12507,-31.173668,-0.0810546,0.0,-0.11047468,0.043175887,-1.0,-0.000908411,-0.28980336,-5.1319194,0.0,0.0,0.0
4386623752,23.811558,-81.12507,-31.173668,-0.0810546,0.0,-0.08955536,-0.0029064177,-1.0,-0.0027387957,-0.32031414,-5.193438,0.0,0.0,0.0
4386727137,23.811558,-81.12507,-31.173668,-0.0810546,0.0,-0.065039255,-0.049952697,-1.0,0.015728636,-0.3194282,-5.2559104,0.0,0.0,0.0
4386827027,23.811558,-81.12507,-31.173668,-0.0810546,0.0,-0.043146897,-0.09061355,-1.0,0.009017538,-0.33663926,-5.2947383,0.0,0.0,0.0
4386928062,23.811558,-81.12507,-31.173668,-0.0810546,0.0,-0.021609688,-0.12857093,-1.0,-0.017735098,-0.2882709,-5.2936125,0.0,0.0,0.0
4387032386,23.811558,-81.12507,-31.173668,-0.0810546,0.0,-0.00405159,-0.1611721,-1.0,-0.05973106,-0.27579093,-5.235167,0.0,0.0,0.0
4387132568,23.811558,-81.12507,-31.173668,-0.0810546,0.0,0.00902729,-0.18991737,-1.0,-0.08425593,-0.30791402,-5.231769,0.0,0.0,0.0
4387233114,23.811558,-81.12507,-31.173668,-0.0810546,0.0,0.01666479,-0.21350212,-1.0,-0.06974659,-0.27584127,-5.219001,0.0,0.0,0.0
4387337001,23.811558,-81.12507,-31.173668,-0.0810546,0.0,0.023271274,-0.23512992,-1.0,-0.124982364,-0.25765067,-5.2557797,0.0,0.0,0.0
4387437415,23.811558,-81.12507,-31.173668,-0.0810546,0.0,0.02456684,-0.24986495,-1.0,-0.1298062,-0.28581533,-5.2690883,0.0,0.0,0.0
4387537632,23.811558,-81.12507,-31.173668,-0.0810546,0.0,0.024414634,-0.26075134,-1.0,-0.18536583,-0.2016029,-5.303304,0.0,0.0,0.0
4387637217,23.811558,-81.12507,-31.173668,-0.0810546,0.0,0.02052431,-0.2652523,-1.0,-0.18051913,-0.13297075,-5.34484,0.0,0.0,0.0
4387742138,23.811558,-81.12507,-31.173668,-0.0810546,0.0,0.020399284,-0.27108687,-1.0,-0.14972329,-0.16116862,-5.3422894,0.0,0.0,0.0
4387843318,23.811558,-81.12507,-31.173668,-0.0810546,0.0,0.018889904,-0.27316704,-1.0,-0.18748014,-0.14104795,-5.2673626,0.0,0.0,0.0
4387943389,23.811558,-81.12507,-31.173668,-0.0810546,0.0,0.006921768,-0.27360916,-1.0,-0.21506095,-0.1392852,-5.241302,0.0,0.0,0.0
4388047559,23.811558,-81.12507,-31.173668,-0.0810546,0.0,-0.007048607,-0.27092743,-1.0,-0.22371526,-0.17494848,-5.18883,0.0,0.0,0.0
4388147020,23.811558,-81.12507,-31.173668,-0.0810546,0.0,-0.012361336,-0.27266693,-1.0,-0.25654057,-0.22569445,-5.1812043,0.0,0.0,0.0
4388247628,23.811558,-81.12507,-31.173668,-0.0810546,0.0,-0.020116614,-0.2743412,-1.0,-0.26985586,-0.21998192,-5.1215615,0.0,0.0,0.0
4388351592,23.811558,-81.12507,-31.173668,-0.0810546,0.0,-0.02342348,-0.2805744,-1.0,-0.30801886,-0.24387476,-5.081533,0.0,0.0,0.0
4388452960,23.811558,-81.12507,-31.173668,-0.0810546,0.0,-0.03175497,-0.28572768,-1.0,-0.32497716,-0.2534074,-5.0463853,0.0,0.0,0.0
4388552600,23.811558,-81.12507,-31.173668,-0.0810546,0.0,-0.03822918,-0.2923233,-1.0,-0.36663786,-0.28237066,-5.0552483,0.0,0.0,0.0
4388656642,23.811558,-81.12507,-31.173668,-0.0810546,0.0,-0.050068665,-0.2980129,-1.0,-0.3706918,-0.32711354,-5.052671,0.0,0.0,0.0
4388757969,23.811558,-81.12507,-31.173668,-0.0810546,0.0,-0.054817867,-0.30721778,-1.0,-0.37326333,-0.3192049,-5.054211,0.0,0.0,0.0
4388857217,23.811558,-81.12507,-31.173668,-0.0810546,0.0,-0.065927126,-0.3121826,-1.0,-0.4100104,-0.26913503,-5.0747857,0.0,0.0,0.0
4388957641,23.811558,-81.12507,-31.173668,-0.0810546,0.0,-0.06581841,-0.31408882,-1.0,-0.39725643,-0.23842262,-5.039608,0.0,0.0,0.0
4389062440,23.811558,-81.12507,-31.173668,-0.0810546,0.0,-0.07225818,-0.31114617,-1.0,-0.37551394,-0.20220202,-5.0353475,0.0,0.0,0.0
4389161994,23.811558,-81.12507,-31.173668,-0.0810546,0.0,-0.069993205,-0.30446357,-1.0,-0.36433753,-0.2071673,-5.091769,0.0,0.0,0.0
4389264376,23.811558,-81.12507,-31.173668,-0.0810546,0.0,-0.068790056,-0.29328004,-1.0,-0.34587032,-0.21370085,-5.0977798,0.0,0.0,0.0
4389367584,23.811558,-81.12507,-31.173668,-0.0810546,0.0,-0.052400682,-0.27744332,-1.0,-0.3074085,-0.12441876,-5.1256256,0.0,0.0,0.0
4389473052,23.811558,-81.12507,-31.173668,-0.0810546,0.0,-0.040026665,-0.25697517,-1.0,-0.2626502,-0.07534869,-5.1153207,0.0,0.0,0.0
4389576157,23.811558,-81.12507,-31.173668,-0.0810546,0.0,-0.02218771,-0.23415145,-1.0,-0.23627551,-0.083490305,-5.165651,0.0,0.0,0.0
4389675912,23.811558,-81.12507,-31.173668,-0.0810546,0.0,-0.009558201,-0.2111248,-1.0,-0.19756874,-0.042856205,-5.2154064,0.0,0.0,0.0
4389777174,23.811558,-81.12507,-31.173668,-0.0810546,0.0,0.008755493,-0.19025803,-1.0,-0.19826038,-0.011113254,-5.216837,0.0,0.0,0.0
4389881016,23.811558,-81.12507,-31.173668,-0.0810546,0.0,0.025003528,-0.16789818,-1.0,-0.14910506,-0.0122025795,-5.230585,0.0,0.0,0.0
4389980527,23.811558,-81.12507,-31.173668,-0.0810546,0.0,0.04190025,-0.1445961,-1.0,-0.15224251,-0.015544081,-5.2510567,0.0,0.0,0.0
4390082471,23.811558,-81.12507,-31.173668,-0.0810546,0.0,0.05833492,-0.12133751,-1.0,-0.14282246,0.024671884,-5.249885,0.0,0.0,0.0
4390185902,23.811558,-81.12507,-31.173668,-0.0810546,0.0,0.07596731,-0.09779625,-1.0,-0.099377885,0.06589613,-5.2564898,0.0,0.0,0.0
4390286140,23.811558,-81.12507,-31.173668,-0.0810546,0.0,0.08900995,-0.074813075,-1.0,-0.068546265,0.10037964,-5.228091,0.0,0.0,0.0
4390386793,23.811558,-81.12507,-31.173668,-0.0810546,0.0,0.10318146,-0.052822877,-1.0,-0.09015773,0.095291115,-5.243363,0.0,0.0,0.0
4390492156,23.811558,-81.12507,-31.173668,-0.0810546,0.0,0.113507934,-0.029883193,-1.0,-0.08907431,0.117348395,-5.2662315,0.0,0.0,0.0
4390595327,23.811558,-81.12507,-31.173668,-0.0810546,0.0,0.121980764,-0.0076683043,-1.0,-0.04376102,0.04781563,-5.3088007,0.0,0.0,0.0
4390694950,23.811558,-81.12507,-31.173668,-0.0810546,0.0,0.13077249,0.011277771,-1.0,-0.0355808,0.054285582,-5.3252983,0.0,0.0,0.0
4390795613,23.811558,-81.12507,-31.173668,-0.0810546,0.0,0.14253768,0.02724495,-1.0004487,-0.024706114,0.009179355,-5.3671436,0.0,0.0,0.0
4390899843,23.811558,-81.12507,-31.173668,-0.0810546,0.0,0.15171356,0.03863144,-1.0057095,-0.01303914,0.053838536,-5.3282537,0.0,0.0,0.0
4391000333,23.811558,-81.12507,-31.173668,-0.0810546,0.0,0.15870418,0.04438629,-1.0107251,0.02387235,0.010435561,-5.309877,0.0,0.0,0.0
4391100613,23.811558,-81.12507,-31.173668,-0.0810546,0.0,0.16364908,0.045386504,-1.0155176,0.041884217,-0.009065921,-5.316257,0.0,0.0,0.0
4391204525,23.811558,-81.12507,-31.173668,-0.0810546,0.0,0.16711721,0.041856766,-1.0203568,0.0072982125,-0.13368222,-5.281922,0.0,0.0,0.0
4391305905,23.811558,-81.12507,-31.173668,-0.0810546,0.0,0.16637792,0.037377547,-1.0253648,-0.023094013,-0.108914666,-5.275044,0.0,0.0,0.0
4391405673,23.811558,-81.12507,-31.173668,-0.0810546,0.0,0.16288805,0.031195069,-1.0308067,-0.028200269,-0.095324546,-5.236883,0.0,0.0,0.0
4391509167,23.811558,-81.12507,-31.173668,-0.0810546,0.0,0.15253258,0.023505019,-1.036751,-0.019153934,-0.11535279,-5.212871,0.0,0.0,0.0
4391610222,23.811558,-81.12507,-31.173668,-0.0810546,0.0,0.13868904,0.014698791,-1.0425253,-0.032090336,-0.1926078,-5.192315,0.0,0.0,0.0
4391710775,23.811558,-81.12507,-31.173668,-0.0810546,0.0,0.121911906,0.0042037964,-1.0479848,-0.09871108,-0.26278156,-5.1796246,0.0,0.0,0.0
4391810796,23.811558,-81.12507,-31.173668,-0.0810546,0.0,0.10516558,-0.0093425745,-1.0535595,-0.129601,-0.26263458,-5.1702013,0.0,0.0,0.0
4391914823,23.811558,-81.12507,-31.173668,-0.0810546,0.0,0.09303255,-0.02741165,-1.0599455,-0.14135683,-0.28307512,-5.1314154,0.0,0.0,0.0
4392015591,23.811558,-81.12507,-31.173668,-0.0810546,0.0,0.0839364,-0.04847412,-1.066326,-0.17859884,-0.32963535,-5.111382,0.0,0.0,0.0
4392115848,23.811558,-81.12507,-31.173668,-0.0810546,0.0,0.06944237,-0.074747846,-1.0727583,-0.22165333,-0.41992265,-5.0601063,0.0,0.0,0.0
4392217126,23.811558,-81.12507,-31.173668,-0.0810546,0.0,0.051282693,-0.10496444,-1.0790737,-0.24382542,-0.47616166,-5.1099195,0.0,0.0,0.0
4392321370,23.811558,-81.12507,-31.173668,-0.0810546,0.0,0.031220436,-0.13521728,-1.0853862,-0.2564817,-0.5767902,-5.060749,0.0,0.0,0.0
4392424903,23.811558,-81.12507,-31.173668,-0.0810546,0.0,0.010826588,-0.16559334,-1.0913885,-0.23029384,-0.5088271,-5.1120524,0.0,0.0,0.0
4392524422,23.811558,-81.12507,-31.173668,-0.0810546,0.0,-0.003370285,-0.19921646,-1.0968479,-0.2255135,-0.6348506,-5.206162,0.0,0.0,0.0
4392626326,23.811558,-81.12507,-31.173668,-0.0810546,0.0,-0.013800048,-0.23359336,-1.1023911,-0.21117723,-0.6486278,-5.218511,0.0,0.0,0.0
4392730506,23.811558,-81.12507,-31.173668,-0.0810546,0.0,-0.018779373,-0.26446953,-1.1079617,-0.15641539,-0.6229624,-5.2338734,0.0,0.0,0.0
4392830457,23.811558,-81.12507,-31.173668,-0.0810546,0.0,-0.019335652,-0.291613,-1.1130176,-0.1372042,-0.6271676,-5.2218943,0.0,0.0,0.0
4392930239,23.811558,-81.12507,-31.173668,-0.0810546,0.0,-0.016510772,-0.3155674,-1.1172894,-0.08081112,-0.6418765,-5.291942,0.0,0.0,0.0
4393033980,23.811558,-81.12507,-31.173668,-0.0810546,0.0,-0.007956409,-0.337043,-1.1216716,0.02374434,-0.67548347,-5.376389,0.0,0.0,0.0
4393135334,23.811558,-81.12507,-31.173668,-0.0810546,0.0,0.0036076545,-0.3551338,-1.1255646,0.07051873,-0.5384479,-5.3890457,0.0,0.0,0.0
4393235056,23.811558,-81.12507,-31.173668,-0.0810546,0.0,0.020745372,-0.36864394,-1.1291738,0.17756307,-0.572407,-5.4451513,0.0,0.0,0.0
4393338762,23.811558,-81.12507,-31.173668,-0.0810546,0.0,0.037935637,-0.37640646,-1.1327553,0.19855566,-0.50153965,-5.496933,0.0,0.0,0.0
4393440041,23.811558,-81.12507,-31.173668,-0.0810546,0.0,0.057816695,-0.37891427,-1.1361127,0.2290012,-0.5417715,-5.5191965,0.0,0.0,0.0
4393539564,23.811558,-81.12507,-31.173668,-0.0810546,0.0,0.081283666,-0.37434807,-1.1398827,0.23056762,-0.5070109,-5.5170918,0.0,0.0,0.0
4393641222,23.811558,-81.12507,-31.173668,-0.0810546,0.0,0.106488325,-0.3664768,-1.1438016,0.2574069,-0.50324464,-5.4916487,0.0,0.0,0.0
4393745202,23.811558,-81.12507,-31.173668,-0.0810546,0.0,0.13584241,-0.35926512,-1.1478115,0.30683097,-0.47262797,-5.463428,0.0,0.0,0.0
4393845421,23.811558,-81.12507,-31.173668,-0.0810546,0.0,0.16361828,-0.35193747,-1.1517161,0.30144906,-0.46279567,-5.4480205,0.0,0.0,0.0
4393945706,23.811558,-81.12507,-31.173668,-0.0810546,0.0,0.18527146,-0.34768295,-1.1555934,0.24364917,-0.51427686,-5.382903,0.0,0.0,0.0
4394049962,23.811558,-81.12507,-31.173668,-0.0810546,0.0,0.20477562,-0.34301528,-1.1599876,0.22907813,-0.46586272,-5.3595314,0.0,0.0,0.0
4394150171,23.811558,-81.12507,-31.173668,-0.0810546,0.0,0.21114291,-0.3324913,-1.1643634,0.19262308,-0.46125266,-5.31586,0.0,0.0,0.0
4394251345,23.811558,-81.12507,-31.173668,-0.0810546,0.0,0.21263418,-0.32304725,-1.1689548,0.12687923,-0.48829,-5.27526,0.0,0.0,0.0
4394354690,23.811558,-81.12507,-31.173668,-0.0810546,0.0,0.20796832,-0.3163574,-1.1740717,0.09478666,-0.49500963,-5.2627797,0.0,0.0,0.0
4394456829,23.811558,-81.12507,-31.173668,-0.0810546,0.0,0.19948281,-0.31084898,-1.1791805,0.066632785,-0.5627686,-5.292864,0.0,0.0,0.0
4394559483,23.811558,-81.12507,-31.173668,-0.0810546,0.0,0.18899508,-0.30566671,-1.1845291,0.014140028,-0.53512144,-5.3079896,0.0,0.0,0.0
4394659751,23.811558,-81.12507,-31.173668,-0.0810546,0.0,0.17833157,-0.3016514,-1.1894358,0.026315508,-0.53341186,-5.3408823,0.0,0.0,0.0
4394763630,23.811558,-81.12507,-31.173668,-0.0810546,0.0,0.16288805,-0.30094832,-1.1943419,0.046658397,-0.55627394,-5.3236523,0.0,0.0,0.0
4394867544,23.811558,-81.12507,-31.173668,-0.0810546,0.0,0.14921303,-0.30012205,-1.1992258,0.03176426,-0.52106476,-5.3913097,0.0,0.0,0.0
4394969673,23.811558,-81.12507,-31.173668,-0.0810546,0.0,0.13590221,-0.29980317,-1.2042416,0.0051595657,-0.5145252,-5.360807,0.0,0.0,0.0
4395072906,23.811558,-81.12507,-31.173668,-0.0810546,0.0,0.12267656,-0.29852027,-1.209305,-0.00066908577,-0.5007307,-5.35502,0.0,0.0,0.0
4395173411,23.811558,-81.12507,-31.173668,-0.0810546,0.0,0.1079669,-0.29542542,-1.2144473,-0.038123723,-0.5180632,-5.3502727,0.0,0.0,0.0
4395273952,23.811558,-81.12507,-31.173668,-0.0810546,0.0,0.09252701,-0.29125062,-1.2194827,-0.04862163,-0.5283343,-5.3284626,0.0,0.0,0.0
4395373326,23.811558,-81.12507,-31.173668,-0.0810546,0.0,0.07329826,-0.2851406,-1.224437,-0.09296968,-0.45139378,-5.3108006,0.0,0.0,0.0
4395478324,23.811558,-81.12507,-31.173668,-0.0810546,0.0,0.054190923,-0.27783468,-1.2298546,-0.09642697,-0.5094266,-5.335896,0.0,0.0,0.0
4395578519,23.811558,-81.12507,-31.173668,-0.0810546,0.0,0.03478098,-0.27024612,-1.2350475,-0.09927869,-0.5189514,-5.3639264,0.0,0.0,0.0
4395678819,23.811558,-81.12507,-31.173668,-0.0810546,0.0,0.018525695,-0.2623966,-1.2400244,-0.12768047,-0.5190325,-5.4003553,0.0,0.0,0.0
4395783109,23.811558,-81.12507,-31.173668,-0.0810546,0.0,0.0059759137,-0.25574303,-1.2450112,-0.099138565,-0.45718265,-5.4399667,0.0,0.0,0.0
4395883786,23.811558,-81.12507,-31.173668,-0.0810546,0.0,-0.0038069724,-0.24753113,-1.2497066,-0.048854716,-0.49490702,-5.4479365,0.0,0.0,0.0
4395983927,23.811558,-81.12507,-31.173668,-0.0810546,0.0,-0.0117289545,-0.23818855,-1.254801,-0.006530379,-0.4804422,-5.377253,0.0,0.0,0.0
4396084222,23.811558,-81.12507,-31.173668,-0.0810546,0.0,-0.013761997,-0.22854881,-1.2598513,0.068420194,-0.52523327,-5.3758183,0.0,0.0,0.0
4396185429,23.811558,-81.12507,-31.173668,-0.0810546,0.0,-0.01099329,-0.21899605,-1.2648902,0.013852406,-0.4621145,-5.4081655,0.0,0.0,0.0
4396288932,23.811558,-81.12507,-31.173668,-0.0810546,0.0,-0.0059034345,-0.2062107,-1.2700393,-0.008332216,-0.44964412,-5.4493575,0.0,0.0,0.0
4396388553,23.811558,-81.12507,-31.173668,-0.0810546,0.0,9.784698e-05,-0.18942451,-1.2748275,0.00749974,-0.39163437,-5.5913243,0.0,0.0,0.0
4396493204,23.811558,-81.12507,-31.173668,-0.0810546,0.0,0.00307312,-0.16894187,-1.2794123,0.016624488,-0.33103654,-5.7934875,0.0,0.0,0.0
4396594220,23.811558,-81.12507,-31.173668,-0.0810546,0.0,0.0027252196,-0.14371909,-1.283589,0.046961185,-0.2975922,-5.9363155,0.0,0.0,0.0
4396693980,23.811558,-81.12507,-31.173668,-0.0810546,0.0,0.003748989,-0.11852531,-1.2861111,0.06706469,-0.20582074,-5.999765,0.0,0.0,0.0
4396794732,23.811558,-81.12507,-31.173668,-0.0810546,0.0,0.0077552795,-0.091265865,-1.2861111,0.16053028,-0.15384582,-6.007966,0.0,0.0,0.0
4396898755,23.811558,-81.12507,-31.173668,-0.0810546,0.0,0.019852066,-0.059708405,-1.2861111,0.31139418,-0.054390218,-5.9936075,0.0,0.0,0.0
4396999407,23.811558,-81.12507,-31.173668,-0.0810546,0.0,0.04015894,-0.027063752,-1.2861111,0.353355,0.014632592,-6.0275407,0.0,0.0,0.0
4397098829,23.811558,-81.12507,-31.173668,-0.0810546,0.0,0.06742925,0.010147095,-1.2861111,0.41846725,0.05643285,-5.9813366,0.0,0.0,0.0
4397202840,23.811558,-81.12507,-31.173668,-0.0810546,0.0,0.10103426,0.05245323,-1.2861111,0.50830877,0.101133324,-5.96932,0.0,0.0,0.0
4397304258,23.811558,-81.12507,-31.173668,-0.0810546,0.0,0.13220759,0.0937954,-1.2861111,0.4762826,0.16613895,-5.8371367,0.0,0.0,0.0
4397403760,23.811558,-81.12507,-31.173668,-0.0810546,0.0,0.1598276,0.13368072,-1.2861111,0.44332898,0.13870847,-5.781368,0.0,0.0,0.0
4397505674,23.811558,-81.12507,-31.173668,-0.0810546,0.0,0.18177976,0.1713047,-1.2861111,0.3972304,0.11661407,-5.6543884,0.0,0.0,0.0
4397608830,23.811558,-81.12507,-31.173668,-0.0810546,0.0,0.19786653,0.20595703,-1.2861111,0.3451604,0.1644334,-5.555168,0.0,0.0,0.0
4397708555,23.811558,-81.12507,-31.173668,-0.0810546,0.0,0.21136941,0.23264389,-1.2861111,0.31289092,0.12730469,-5.521313,0.0,0.0,0.0
4397810429,23.811558,-81.12507,-31.173668,-0.0810546,0.0,0.22143316,0.25317726,-1.2861111,0.23026527,0.07043493,-5.4334702,0.0,0.0,0.0
4397913850,23.811558,-81.12507,-31.173668,-0.0810546,0.0,0.22633457,0.27159423,-1.2861111,0.17538276,0.09041487,-5.3446403,0.0,0.0,0.0
4398014541,23.811558,-81.12507,-31.173668,-0.0810546,0.0,0.22516222,0.2857422,-1.2861111,0.17539795,0.047319952,-5.307528,0.0,0.0,0.0
4398114002,23.811558,-81.12507,-31.173668,-0.0810546,0.0,0.21816978,0.2943962,-1.2861111,0.09665811,0.06103503,-5.2282,0.0,0.0,0.0
4398218844,23.811558,-81.12507,-31.173668,-0.0810546,0.0,0.20563269,0.2993103,-1.2861111,0.043551818,0.029115181,-5.2182813,0.0,0.0,0.0
4398319028,23.811558,-81.12507,-31.173668,-0.0810546,0.0,0.19335832,0.30211523,-1.2861111,0.039530877,0.028735189,-5.196637,0.0,0.0,0.0
4398418930,23.811558,-81.12507,-31.173668,-0.0810546,0.0,0.17854357,0.30257186,-1.2861111,-0.007801057,0.04111896,-5.201071,0.0,0.0,0.0
4398520028,23.811558,-81.12507,-31.173668,-0.0810546,0.0,0.16026612,0.29940453,-1.2861111,-0.033821255,-0.01423857,-5.1924224,0.0,0.0,0.0
4398624283,23.811558,-81.12507,-31.173668,-0.0810546,0.0,0.13792801,0.2925045,-1.2861111,-0.06417508,-0.028374812,-5.1537466,0.0,0.0,0.0
4398723744,23.811558,-81.12507,-31.173668,-0.0810546,0.0,0.111442275,0.28258207,-1.2861111,-0.13700837,-0.12528087,-5.1330037,0.0,0.0,0.0
4398825020,23.811558,-81.12507,-31.173668,-0.0810546,0.0,0.0819396,0.26986924,-1.2861111,-0.12303751,-0.12116352,-5.1103644,0.0,0.0,0.0
4398929098,23.811558,-81.12507,-31.173668,-0.0810546,0.0,0.047178555,0.2539238,-1.2861111,-0.16381489,-0.1601976,-5.0846705,0.0,0.0,0.0
4399033900,23.811558,-81.12507,-31.173668,-0.0810546,0.0,0.0123087885,0.23547782,-1.2861111,-0.22611028,-0.1739789,-5.0698943,0.0,0.0,0.0
4399133443,23.811558,-81.12507,-31.173668,-0.0810546,0.0,-0.01972885,0.21873511,-1.2861111,-0.23915328,-0.16055799,-5.0748396,0.0,0.0,0.0
4399234035,23.811558,-81.12507,-31.173668,-0.0810546,0.0,-0.050267983,0.20006447,-1.2861111,-0.25390485,-0.21349032,-5.0838284,0.0,0.0,0.0
4399334592,23.811558,-81.12507,-31.173668,-0.0810546,0.0,-0.08038492,0.18211861,-1.2861111,-0.31199434,-0.20140004,-5.0531993,0.0,0.0,0.0
4399433972,23.811558,-81.12507,-31.173668,-0.0810546,0.0,-0.108474255,0.1622303,-1.2861111,-0.30527708,-0.24842519,-5.076442,0.0,0.0,0.0
4399538020,23.811558,-81.12507,-31.173668,-0.0810546,0.0,-0.13552351,0.14073296,-1.2861111,-0.3480211,-0.28573567,-5.0814104,0.0,0.0,0.0
4399639222,23.811558,-81.12507,-31.173668,-0.0810546,0.0,-0.15991278,0.119097896,-1.2861111,-0.33037594,-0.31183016,-5.074025,0.0,0.0,0.0
4399738819,23.811558,-81.12507,-31.173668,-0.0810546,0.0,-0.18197727,0.0993618,-1.2861111,-0.37384546,-0.33958465,-5.076653,0.0,0.0,0.0
4399840024,23.811558,-81.12507,-31.173668,-0.0810546,0.0,-0.20248164,0.0801548,-1.2861111,-0.31516925,-0.2852043,-5.091501,0.0,0.0,0.0
4399944208,23.811558,-81.12507,-31.173668,-0.0810546,0.0,-0.22088231,0.06345558,-1.2861111,-0.33648857,-0.3323456,-5.14718,0.0,0.0,0.0
4400049038,23.811558,-81.12507,-31.173668,-0.0810546,0.0,-0.23644543,0.04669113,-1.2861111,-0.34203815,-0.32781962,-5.116554,0.0,0.0,0.0
4400153119,23.811558,-81.12507,-31.173668,-0.0810546,0.0,-0.2536212,0.03600044,-1.2861111,-0.32949382,-0.3192064,-5.128539,0.0,0.0,0.0
4400252566,23.811558,-81.12507,-31.173668,-0.0810546,0.0,-0.2647504,0.024998093,-1.2861111,-0.29770944,-0.3682607,-5.1454153,0.0,0.0,0.0
4400357124,23.811558,-81.12507,-31.173668,-0.0810546,0.0,-0.27585962,0.01948967,-1.2861111,-0.2906844,-0.2896862,-5.1153207,0.0,0.0,0.0
4400458747,23.811558,-81.12507,-31.173668,-0.0810546,0.0,-0.28224686,0.014691544,-1.2861111,-0.2915022,-0.267691,-5.140694,0.0,0.0,0.0
4400562449,23.811558,-81.12507,-31.173668,-0.0810546,0.0,-0.28469124,0.012596893,-1.2861111,-0.27683163,-0.19693823,-5.102958,0.0,0.0,0.0
4400662138,23.811558,-81.12507,-31.173668,-0.0810546,0.0,-0.2846405,0.010299301,-1.2861111,-0.2804042,-0.2746193,-5.0853395,0.0,0.0,0.0
4400766179,23.811558,-81.12507,-31.173668,-0.0810546,0.0,-0.2864833,0.014321899,-1.2861111,-0.32251802,-0.2236885,-5.0545597,0.0,0.0,0.0
4400867349,23.811558,-81.12507,-31.173668,-0.0810546,0.0,-0.2880126,0.019250488,-1.2861111,-0.2967763,-0.20693709,-5.068534,0.0,0.0,0.0
4400966948,23.811558,-81.12507,-31.173668,-0.0810546,0.0,-0.2895564,0.027259445,-1.2861111,-0.3297036,-0.17568234,-5.0879645,0.0,0.0,0.0
4401068456,23.811558,-81.12507,-31.173668,-0.0810546,0.0,-0.29107484,0.036014937,-1.2861111,-0.38506034,-0.1385547,-5.1571665,0.0,0.0,0.0
4401172162,23.811558,-81.12507,-31.173668,-0.0810546,0.0,-0.29161662,0.048220444,-1.2861111,-0.36481646,-0.09627451,-5.1861205,0.0,0.0,0.0
4401272060,23.811558,-81.12507,-31.173668,-0.0810546,0.0,-0.2920026,0.060259245,-1.2861111,-0.35438433,-0.0983483,-5.23518,0.0,0.0,0.0
4401373194,23.811558,-81.12507,-31.173668,-0.0810546,0.0,-0.29613933,0.07933579,-1.2861111,-0.3463532,0.00052214245,-5.2332106,0.0,0.0,0.0
4401477119,23.811558,-81.12507,-31.173668,-0.0810546,0.0,-0.29779005,0.09829635,-1.2861111,-0.32871443,-0.044153836,-5.270424,0.0,0.0,0.0
4401577986,23.811558,-81.12507,-31.173668,-0.0810546,0.0,-0.29669198,0.11832962,-1.2861111,-0.3016657,-0.05341931,-5.2483196,0.0,0.0,0.0
4401677227,23.811558,-81.12507,-31.173668,-0.0810546,0.0,-0.29204607,0.13708,-1.2861111,-0.28568402,0.13384277,-5.2625513,0.0,0.0,0.0
4401778598,23.811558,-81.12507,-31.173668,-0.0810546,0.0,-0.2845499,0.15806274,-1.2861111,-0.25732923,0.02147645,-5.283505,0.0,0.0,0.0
4401878752,23.811558,-81.12507,-31.173668,-0.0810546,0.0,-0.27358922,0.17766114,-1.2861111,-0.20057066,0.06728311,-5.288692,0.0,0.0,0.0
4401978023,23.811558,-81.12507,-31.173668,-0.0810546,0.0,-0.26013708,0.19559975,-1.2861111,-0.17934735,0.15078847,-5.1970096,0.0,0.0,0.0
4402082243,23.811558,-81.12507,-31.173668,-0.0810546,0.0,-0.24404125,0.21436462,-1.2861111,-0.15743834,0.15032415,-5.133235,0.0,0.0,0.0
4402183884,23.811558,-81.12507,-31.173668,-0.0810546,0.0,-0.22930802,0.2327816,-1.2861111,-0.1421973,0.15306738,-5.128386,0.0,0.0,0.0
4402287228,23.811558,-81.12507,-31.173668,-0.0810546,0.0,-0.21286973,0.2503288,-1.2861111,-0.1549616,0.13476896,-5.0745263,0.0,0.0,0.0
4402387597,23.811558,-81.12507,-31.173668,-0.0810546,0.0,-0.19613247,0.2651798,-1.2861111,-0.19297987,0.18264765,-5.0038595,0.0,0.0,0.0
4402491774,23.811558,-81.12507,-31.173668,-0.0810546,0.0,-0.1829195,0.2769722,-1.2861111,-0.1956815,0.074796826,-4.947525,0.0,0.0,0.0
4402592354,23.811558,-81.12507,-31.173668,-0.0810546,0.0,-0.17392664,0.2843868,-1.2861111,-0.27131638,0.048797414,-4.911012,0.0,0.0,0.0
4402692737,23.811558,-81.12507,-31.173668,-0.0810546,0.0,-0.16645584,0.28665543,-1.2861111,-0.2654237,0.022813324,-4.93235,0.0,0.0,0.0
4402796662,23.811558,-81.12507,-31.173668,-0.0810546,0.0,-0.16019544,0.2842926,-1.2861111,-0.22827908,0.000426975,-4.931887,0.0,0.0,0.0
4402897770,23.811558,-81.12507,-31.173668,-0.0810546,0.0,-0.15377197,0.2753559,-1.2861111,-0.24197565,-0.06988666,-4.8806753,0.0,0.0,0.0
4402997203,23.811558,-81.12507,-31.173668,-0.0810546,0.0,-0.14644432,0.25976562,-1.2861111,-0.2406297,-0.23691198,-4.9069133,0.0,0.0,0.0
4403101391,23.811558,-81.12507,-31.173668,-0.0810546,0.0,-0.13755293,0.23935546,-1.2861111,-0.17485668,-0.31417432,-4.9333696,0.0,0.0,0.0
4403202738,23.811558,-81.12507,-31.173668,-0.0810546,0.0,-0.12649079,0.21583594,-1.2861111,-0.09318759,-0.36880767,-4.9279714,0.0,0.0,0.0
4403306475,23.811558,-81.12507,-31.173668,-0.0810546,0.0,-0.10893087,0.18585853,-1.2861111,-0.0686553,-0.32485357,-4.931401,0.0,0.0,0.0
4403406194,23.811558,-81.12507,-31.173668,-0.0810546,0.0,-0.08677034,0.15306167,-1.2861111,0.05581838,-0.38555804,-4.971587,0.0,0.0,0.0
4403507470,23.811558,-81.12507,-31.173668,-0.0810546,0.0,-0.06029186,0.11694527,-1.2861111,0.09220781,-0.47089693,-4.965166,0.0,0.0,0.0
4403611806,23.811558,-81.12507,-31.173668,-0.0810546,0.0,-0.02957878,0.07722664,-1.2861111,0.14777903,-0.48670042,-4.951434,0.0,0.0,0.0
4403712123,23.811558,-81.12507,-31.173668,-0.0810546,0.0,0.004044342,0.038819883,-1.2861111,0.18935105,-0.52179027,-4.959781,0.0,0.0,0.0
4403811859,23.811558,-81.12507,-31.173668,-0.0810546,0.0,0.0389884,0.00012321472,-1.2861111,0.20119311,-0.52880436,-4.9684644,0.0,0.0,0.0
4403916406,23.811558,-81.12507,-31.173668,-0.0810546,0.0,0.07982864,-0.041479874,-1.2861111,0.21653774,-0.6071214,-5.0054574,0.0,0.0,0.0
4404017343,23.811558,-81.12507,-31.173668,-0.0810546,0.0,0.118873216,-0.08016205,-1.2861111,0.255312,-0.6245761,-5.0502224,0.0,0.0,0.0
4404116708,23.811558,-81.12507,-31.173668,-0.0810546,0.0,0.15693931,-0.118039705,-1.2861111,0.30982882,-0.53844243,-5.0591497,0.0,0.0,0.0
4404221527,23.811558,-81.12507,-31.173668,-0.0810546,0.0,0.194248,-0.15505485,-1.2861111,0.31895918,-0.5672969,-5.0522304,0.0,0.0,0.0
4404321876,23.811558,-81.12507,-31.173668,-0.0810546,0.0,0.22838755,-0.18556137,-1.2861111,0.3115186,-0.5783642,-5.0708036,0.0,0.0,0.0
4404422145,23.811558,-81.12507,-31.173668,-0.0810546,0.0,0.25794095,-0.21169738,-1.2861111,0.32629454,-0.63090694,-5.0445232,0.0,0.0,0.0
4404523319,23.811558,-81.12507,-31.173668,-0.0810546,0.0,0.28368196,-0.23452835,-1.2861111,0.30980274,-0.6192336,-5.0710273,0.0,0.0,0.0
4404626967,23.811558,-81.12507,-31.173668,-0.0810546,0.0,0.30634984,-0.25472108,-1.2861111,0.34225497,-0.5418649,-5.0407567,0.0,0.0,0.0
4404727003,23.811558,-81.12507,-31.173668,-0.0810546,0.0,0.32690495,-0.27011564,-1.2861111,0.3838818,-0.5317035,-5.0516305,0.0,0.0,0.0
4404826702,23.811558,-81.12507,-31.173668,-0.0810546,0.0,0.34474573,-0.28176308,-1.2861111,0.34837762,-0.6488815,-5.0420136,0.0,0.0,0.0
4404931790,23.811558,-81.12507,-31.173668,-0.0810546,0.0,0.36159715,-0.28893128,-1.2861111,0.37891522,-0.5582171,-5.0355935,0.0,0.0,0.0
4405035777,23.811558,-81.12507,-31.173668,-0.0810546,0.0,0.37454376,-0.29362068,-1.2861111,0.3499428,-0.5196565,-5.0352535,0.0,0.0,0.0
4405136274,23.811558,-81.12507,-31.173668,-0.0810546,0.0,0.38414362,-0.29506302,-1.2861111,0.3445118,-0.5835288,-4.9966025,0.0,0.0,0.0
4405236645,23.811558,-81.12507,-31.173668,-0.0810546,0.0,0.38876417,-0.29481658,-1.2861111,0.26246604,-0.58124447,-4.965324,0.0,0.0,0.0
4405340582,23.811558,-81.12507,-31.173668,-0.0810546,0.0,0.39201126,-0.29351196,-1.2861111,0.26236215,-0.5197105,-4.9811306,0.0,0.0,0.0
4405441058,23.811558,-81.12507,-31.173668,-0.0810546,0.0,0.39030075,-0.29024315,-1.2861111,0.2533571,-0.48099986,-4.94269,0.0,0.0,0.0
4405541471,23.811558,-81.12507,-31.173668,-0.0810546,0.0,0.38522902,-0.28597412,-1.2861111,0.2411073,-0.5015322,-4.949827,0.0,0.0,0.0
4405645354,23.811558,-81.12507,-31.173668,-0.0810546,0.0,0.3763068,-0.2797699,-1.2861111,0.20990884,-0.49292713,-5.006725,0.0,0.0,0.0
4405746372,23.811558,-81.12507,-31.173668,-0.0810546,0.0,0.3653842,-0.27437744,-1.2861111,0.19015488,-0.38312802,-5.0408416,0.0,0.0,0.0
4405846124,23.811558,-81.12507,-31.173668,-0.0810546,0.0,0.35166386,-0.2659481,-1.2861111,0.18602248,-0.39340928,-5.0898614,0.0,0.0,0.0
4405949919,23.811558,-81.12507,-31.173668,-0.0810546,0.0,0.33886585,-0.25693893,-1.2861111,0.15758264,-0.42377305,-5.1274014,0.0,0.0,0.0
4406050814,23.811558,-81.12507,-31.173668,-0.0810546,0.0,0.32345495,-0.24440727,-1.2861111,0.117058605,-0.25771466,-5.0972886,0.0,0.0,0.0
4406151599,23.811558,-81.12507,-31.173668,-0.0810546,0.0,0.31203583,-0.23427467,-1.2861111,0.11207882,-0.29684165,-5.180725,0.0,0.0,0.0
4406251607,23.811558,-81.12507,-31.173668,-0.0810546,0.0,0.2961158,-0.21864815,-1.2861111,0.09077638,-0.31473947,-5.2307796,0.0,0.0,0.0
4406355608,23.811558,-81.12507,-31.173668,-0.0810546,0.0,0.28089875,-0.2023838,-1.2861111,0.090586096,-0.24212967,-5.261545,0.0,0.0,0.0
4406457909,23.811558,-81.12507,-31.173668,-0.0810546,0.0,0.26381177,-0.18256797,-1.2861111,0.07314989,-0.16767603,-5.255332,0.0,0.0,0.0
4406561257,23.811558,-81.12507,-31.173668,-0.0810546,0.0,0.24435835,-0.16075897,-1.2861111,0.072468035,-0.19105183,-5.2949157,0.0,0.0,0.0
4406665203,23.811558,-81.12507,-31.173668,-0.0810546,0.0,0.22462043,-0.13626823,-1.2861111,0.07126833,-0.16973892,-5.2831426,0.0,0.0,0.0
4406765456,23.811558,-81.12507,-31.173668,-0.0810546,0.0,0.20727615,-0.11307488,-1.2861111,0.06924371,-0.16074133,-5.2336817,0.0,0.0,0.0
4406865917,23.811558,-81.12507,-31.173668,-0.0810546,0.0,0.19245596,-0.09152679,-1.2861111,0.077844456,-0.1614677,-5.150969,0.0,0.0,0.0
4406965214,23.811558,-81.12507,-31.173668,-0.0810546,0.0,0.18379106,-0.07428398,-1.2861111,0.09489472,-0.22607107,-5.113679,0.0,0.0,0.0
4407070018,23.811558,-81.12507,-31.173668,-0.0810546,0.0,0.17648877,-0.05867195,-1.2861111,0.13792512,-0.22673357,-5.071758,0.0,0.0,0.0
4407170914,23.811558,-81.12507,-31.173668,-0.0810546,0.0,0.17265281,-0.048213195,-1.2861111,0.14496389,-0.2579692,-5.0629964,0.0,0.0,0.0
4407271420,23.811558,-81.12507,-31.173668,-0.0810546,0.0,0.17052373,-0.03991432,-1.2861111,0.16817066,-0.29417333,-5.0844207,0.0,0.0,0.0
4407376022,23.811558,-81.12507,-31.173668,-0.0810546,0.0,0.17274523,-0.035261154,-1.2861111,0.19298038,-0.2931081,-5.10279,0.0,0.0,0.0
4407479417,23.811558,-81.12507,-31.173668,-0.0810546,0.0,0.17731322,-0.031108093,-1.2861111,0.24942578,-0.25846183,-5.168148,0.0,0.0,0.0
4407579714,23.811558,-81.12507,-31.173668,-0.0810546,0.0,0.1862318,-0.027824784,-1.2861111,0.2603134,-0.26901627,-5.1390815,0.0,0.0,0.0
4407680048,23.811558,-81.12507,-31.173668,-0.0810546,0.0,0.19912405,-0.024258804,-1.2861111,0.32533714,-0.16958095,-5.162662,0.0,0.0,0.0
4407784897,23.811558,-81.12507,-31.173668,-0.0810546,0.0,0.21761532,-0.021120453,-1.2861111,0.38267362,-0.2116284,-5.1679254,0.0,0.0,0.0
4407888900,23.811558,-81.12507,-31.173668,-0.0810546,0.0,0.23513718,-0.016923904,-1.2861111,0.36677086,-0.1533905,-5.146375,0.0,0.0,0.0
4407988882,23.811558,-81.12507,-31.173668,-0.0810546,0.0,0.25085974,-0.012451935,-1.2861111,0.38091072,-0.22728306,-5.128977,0.0,0.0,0.0
4408089818,23.811558,-81.12507,-31.173668,-0.0810546,0.0,0.26647902,-0.007037735,-1.2861111,0.41599455,-0.23757991,-5.1484666,0.0,0.0,0.0
4408193928,23.811558,-81.12507,-31.173668,-0.0810546,0.0,0.28150758,-0.00023193359,-1.2861111,0.38395426,-0.19833197,-5.1416664,0.0,0.0,0.0
4408297665,23.811558,-81.12507,-31.173668,-0.0810546,0.0,0.29443607,0.0064144135,-1.2861111,0.40405223,-0.19679548,-5.154301,0.0,0.0,0.0
4408398719,23.811558,-81.12507,-31.173668,-0.0810546,0.0,0.30429143,0.01250267,-1.2861111,0.40574843,-0.21970832,-5.152073,0.0,0.0,0.0
4408498131,23.811558,-81.12507,-31.173668,-0.0810546,0.0,0.31091785,0.020359421,-1.2861111,0.4041922,-0.17469686,-5.149057,0.0,0.0,0.0
4408603225,23.811558,-81.12507,-31.173668,-0.0810546,0.0,0.31438962,0.029868698,-1.2861111,0.3436608,-0.21896186,-5.1573405,0.0,0.0,0.0
4408703855,23.811558,-81.12507,-31.173668,-0.0810546,0.0,0.31341475,0.03747177,-1.2861111,0.31029618,-0.18434438,-5.156442,0.0,0.0,0.0
4408802950,23.811558,-81.12507,-31.173668,-0.0810546,0.0,0.30775595,0.044292066,-1.2861111,0.3064701,-0.12031414,-5.1770086,0.0,0.0,0.0
4408907733,23.811558,-81.12507,-31.173668,-0.0810546,0.0,0.30004597,0.05207634,-1.2861111,0.2705469,-0.15458481,-5.145392,0.0,0.0,0.0
4409007950,23.811558,-81.12507,-31.173668,-0.0810546,0.0,0.29084653,0.059635926,-1.2861111,0.2492051,-0.15186797,-5.164204,0.0,0.0,0.0
4409108617,23.811558,-81.12507,-31.173668,-0.0810546,0.0,0.27861205,0.06331787,-1.2861111,0.21670632,-0.106357776,-5.16703,0.0,0.0,0.0
4409209329,23.811558,-81.12507,-31.173668,-0.0810546,0.0,0.2632428,0.06470222,-1.2861111,0.17802669,-0.14153543,-5.151465,0.0,0.0,0.0
4409314145,23.811558,-81.12507,-31.173668,-0.0810546,0.0,0.24318056,0.06625328,-1.2861111,0.11636567,-0.17901675,-5.1630964,0.0,0.0,0.0
4409417735,23.811558,-81.12507,-31.173668,-0.0810546,0.0,0.21963204,0.06745643,-1.2861111,0.053124428,-0.19126637,-5.169773,0.0,0.0,0.0
4409517169,23.811558,-81.12507,-31.173668,-0.0810546,0.0,0.19248857,0.06771736,-1.2861111,0.019858684,-0.2318303,-5.1836014,0.0,0.0,0.0
4409618006,23.811558,-81.12507,-31.173668,-0.0810546,0.0,0.16184072,0.0675869,-1.2861111,-0.008774944,-0.20027205,-5.168183,0.0,0.0,0.0
4409722014,23.811558,-81.12507,-31.173668,-0.0810546,0.0,0.124956034,0.068123244,-1.2861111,-0.06886149,-0.22340938,-5.177736,0.0,0.0,0.0
4409822681,23.811558,-81.12507,-31.173668,-0.0810546,0.0,0.08830509,0.06884079,-1.2861111,-0.086102,-0.22425026,-5.203714,0.0,0.0,0.0
4409922763,23.811558,-81.12507,-31.173668,-0.0810546,0.0,0.05309286,0.07072525,-1.2861111,-0.081454694,-0.19490072,-5.171873,0.0,0.0,0.0
4410026803,23.811558,-81.12507,-31.173668,-0.0810546,0.0,0.020015145,0.07154427,-1.2861111,-0.07531605,-0.23856474,-5.161698,0.0,0.0,0.0
4410128197,23.811558,-81.12507,-31.173668,-0.0810546,0.0,-0.005298233,0.0700222,-1.2861111,-0.04485088,-0.25696462,-5.182805,0.0,0.0,0.0
4410227794,23.811558,-81.12507,-31.173668,-0.0810546,0.0,-0.024537848,0.06574593,-1.2861111,0.013253641,-0.24048212,-5.1732154,0.0,0.0,0.0
4410331859,23.811558,-81.12507,-31.173668,-0.0810546,0.0,-0.03794832,0.057816695,-1.2861111,0.025612928,-0.30549923,-5.1395845,0.0,0.0,0.0
4410433033,23.811558,-81.12507,-31.173668,-0.0810546,0.0,-0.045504283,0.047524642,-1.2861111,0.066994146,-0.33500242,-5.142848,0.0,0.0,0.0
4410532375,23.811558,-81.12507,-31.173668,-0.0810546,0.0,-0.050461862,0.03530464,-1.2861111,0.08475186,-0.3222321,-5.1488104,0.0,0.0,0.0
4410633927,23.811558,-81.12507,-31.173668,-0.0810546,0.0,-0.052266598,0.021526337,-1.2861111,0.10464067,-0.35971844,-5.124312,0.0,0.0,0.0
4410737629,23.811558,-81.12507,-31.173668,-0.0810546,0.0,-0.04775114,0.0073856353,-1.2861111,0.11617041,-0.30722785,-5.129803,0.0,0.0,0.0
4410837341,23.811558,-81.12507,-31.173668,-0.0810546,0.0,-0.042340565,-0.0061897277,-1.2861111,0.094805546,-0.36294812,-5.1311483,0.0,0.0,0.0
4410938443,23.811558,-81.12507,-31.173668,-0.0810546,0.0,-0.03725252,-0.018395232,-1.2861111,0.1191405,-0.3581285,-5.207664,0.0,0.0,0.0
4411042668,23.811558,-81.12507,-31.173668,-0.0810546,0.0,-0.03338213,-0.029941177,-1.2861111,0.10436855,-0.39540988,-5.2221975,0.0,0.0,0.0
4411143505,23.811558,-81.12507,-31.173668,-0.0810546,0.0,-0.035995007,-0.040697098,-1.2861111,0.07321399,-0.35507873,-5.259498,0.0,0.0,0.0
4411243053,23.811558,-81.12507,-31.173668,-0.0810546,0.0,-0.039390657,-0.04951782,-1.2861111,0.04615574,-0.3529666,-5.2553196,0.0,0.0,0.0
4411347008,23.811558,-81.12507,-31.173668,-0.0810546,0.0,-0.043704987,-0.056707762,-1.2861111,0.0070110387,-0.35910857,-5.2380466,0.0,0.0,0.0
4411448569,23.811558,-81.12507,-31.173668,-0.0810546,0.0,-0.04923334,-0.063136674,-1.2861111,0.027740423,-0.38918576,-5.2288084,0.0,0.0,0.0
4411547604,23.811558,-81.12507,-31.173668,-0.0810546,0.0,-0.05372343,-0.067043304,-1.2861111,-0.02652017,-0.3686554,-5.175828,0.0,0.0,0.0
4411649022,23.811558,-81.12507,-31.173668,-0.0810546,0.0,-0.059708405,-0.07127609,-1.2340775,-0.0417767,-0.38001713,-5.1111226,0.0,0.0,0.0
4411752858,23.811558,-81.12507,-31.173668,-0.0810546,0.0,-0.07036829,-0.07600898,-1.1082687,-0.046943028,-0.38394278,-4.9391103,0.0,0.0,0.0
4411852695,23.811558,-81.12507,-31.173668,-0.0810546,0.0,-0.08112602,-0.07993011,-0.99375343,-0.08592228,-0.3001905,-4.853307,0.0,0.0,0.0
4411953694,23.811558,-81.12507,-31.173668,-0.0810546,0.0,-0.09662027,-0.08395996,-0.88721466,-0.12646696,-0.34399834,-4.802469,0.0,0.0,0.0
4412058592,23.811558,-81.12507,-31.173668,-0.0810546,0.0,-0.11366377,-0.0859169,-0.78858757,-0.19735713,-0.3738482,-4.761503,0.0,0.0,0.0
4412163355,25.586329,-79.647415,-30.952816,-0.0810546,0.0,1.5530111,1.3173248,-0.4707241,1.2610052,0.9788301,-4.302417,0.0,0.0,0.0
4412266931,25.594881,-79.635254,-30.952816,0.95284617,0.0,1.5361469,1.3270878,-0.39165688,1.0666723,0.82041067,-4.4398546,0.0,0.0,0.0
4412366229,25.63875,-79.572845,-30.952816,0.95303893,0.0,1.5489558,1.3787365,-0.33034515,0.9918999,0.8307869,-4.553347,0.0,0.0,0.0
4412467608,25.693556,-79.49488,-30.952816,0.9532734,0.0,1.5558594,1.4357994,-0.27814674,0.8408101,0.81912684,-4.597719,0.0,0.0,0.0
4412571494,25.762308,-79.39708,-30.952816,0.95359313,0.0,1.5580791,1.4977401,-0.22322083,0.5316406,0.6208074,-4.625573,0.0,0.0,0.0
4412671352,25.845688,-79.278465,-30.952816,0.95359313,0.0,1.5506264,1.5639354,-0.175251,0.40575472,0.5187271,-4.7755165,0.0,0.0,0.0
4412772278,25.949741,-79.13044,-30.952816,0.95463645,0.0,1.5323364,1.6385746,-0.1337738,0.27053493,0.49297723,-4.8948226,0.0,0.0,0.0
4412871926,26.067158,-78.96341,-30.952816,0.9552579,0.0,1.510087,1.71512,-0.10321236,0.1353351,0.32205987,-5.0001974,0.0,0.0,0.0
4412976748,26.205935,-78.766,-30.952816,0.9560941,0.0,1.4827007,1.7984349,-0.08023262,-0.030196456,0.34788778,-5.058964,0.0,0.0,0.0
4413077096,26.350313,-78.56061,-30.952816,0.95678943,0.0,1.4565212,1.8781692,-0.062000275,-0.12052001,0.29908285,-5.089057,0.0,0.0,0.0
4413184847,26.51755,-78.32271,-30.952816,0.9571634,0.0,1.4275929,1.9643108,-0.043561935,-0.18182433,0.31940454,-5.101113,0.0,0.0,0.0
4413285511,26.682142,-78.08857,-30.952816,0.95829284,0.0,1.4042963,2.0422332,-0.027599335,-0.2730142,0.3218009,-5.1353674,0.0,0.0,0.0
4413386025,26.852373,-77.84641,-30.952816,0.9589116,0.0,1.3853847,2.1170535,-0.013462067,-0.26275945,0.3208092,-5.1193233,0.0,0.0,0.0
4413490647,27.027113,-77.59783,-30.952816,0.95922655,0.0,1.3593103,2.1837127,-0.0054397583,-0.3672735,0.35106388,-5.1005034,0.0,0.0,0.0
4413590919,27.172329,-77.39126,-30.952816,0.9598804,0.0,1.3116841,2.2126465,0.0066337585,-0.42959407,0.32509208,-5.045314,0.0,0.0,0.0
4413698197,27.331545,-77.164764,-30.952816,0.9607566,0.0,1.2620122,2.2413483,0.01184845,-0.483627,0.32192928,-5.0605745,0.0,0.0,0.0
4413803595,27.488148,-76.94199,-30.952816,0.9612968,0.0,1.2163286,2.2664623,0.014736176,-0.52566904,0.3323675,-5.100546,0.0,0.0,0.0
4413903380,27.639061,-76.72732,-30.952816,0.9618114,0.0,1.1743976,2.288467,0.021375656,-0.5457856,0.30605617,-5.0487084,0.0,0.0,0.0
4414004062,27.791634,-76.51027,-30.952816,0.96204865,0.0,1.1346264,2.3084495,0.0347538,-0.5749527,0.31836557,-5.000234,0.0,0.0,0.0
4414107823,27.950193,-76.284706,-30.952816,0.96204865,0.0,1.0964733,2.3268158,0.04917717,-0.57794183,0.2627367,-4.9660864,0.0,0.0,0.0
4414208262,28.103512,-76.066605,-30.952816,0.96319985,0.0,1.0634083,2.342116,0.06482506,-0.55288565,0.24691416,-4.993772,0.0,0.0,0.0
4414308682,28.258366,-75.84632,-30.952816,0.9635277,0.0,1.0356795,2.354503,0.074625015,-0.52949214,0.28495908,-5.027357,0.0,0.0,0.0
4414412817,28.418613,-75.61836,-30.952816,0.9635277,0.0,1.0131222,2.3642948,0.07849884,-0.5218843,0.2516845,-5.045098,0.0,0.0,0.0
4414513869,28.574339,-75.396835,-30.952816,0.96395963,0.0,0.99811536,2.370673,0.07759857,-0.5268735,0.23978682,-5.005842,0.0,0.0,0.0
4414614232,28.728947,-75.176895,-30.952816,0.9641082,0.0,0.9890482,2.374471,0.073970795,-0.48505235,0.22704902,-5.06739,0.0,0.0,0.0
4414717449,28.89042,-74.94719,-30.952816,0.96415395,0.0,0.9846034,2.3763192,0.067193985,-0.47266454,0.15313733,-5.0941415,0.0,0.0,0.0
4414818597,29.047115,-74.72429,-30.952816,0.9642211,0.0,0.98540246,2.3759856,0.057050705,-0.4559451,0.15957691,-5.137402,0.0,0.0,0.0
4414918152,29.204025,-74.50108,-30.952816,0.96419597,0.0,0.9910341,2.3736374,0.04096794,-0.35307592,0.1352788,-5.169181,0.0,0.0,0.0
4415020331,29.361708,-74.276764,-30.952816,0.9641123,0.0,1.0009203,2.3694916,0.020889282,-0.35075757,0.10823939,-5.2182374,0.0,0.0,0.0
4415127080,29.531788,-74.03482,-30.952816,0.96399266,0.0,1.0151207,2.3634396,0.009860992,-0.28791147,0.06512118,-5.200733,0.0,0.0,0.0
4415227424,29.687887,-73.81277,-30.952816,0.96392286,0.0,1.03101,2.3565466,0.0021572113,-0.29597795,0.062420893,-5.2555976,0.0,0.0,0.0
4415331832,29.852097,-73.57917,-30.952816,0.96392286,0.0,1.0483507,2.3488858,-0.0048675537,-0.29769436,0.037972182,-5.1773086,0.0,0.0,0.0
4415432370,30.008736,-73.35634,-30.952816,0.9634396,0.0,1.0669543,2.3404999,-0.00790596,-0.2487997,0.046842005,-5.1781654,0.0,0.0,0.0
4415532628,30.167435,-73.130585,-30.952816,0.96321505,0.0,1.087908,2.330831,-0.007844925,-0.23370034,0.07447129,-5.1984315,0.0,0.0,0.0
4415633184,30.32399,-72.90788,-30.952816,0.962949,0.0,1.1105759,2.3201115,-0.010969162,-0.21725795,0.035777885,-5.209805,0.0,0.0,0.0
4415738678,30.485348,-72.67834,-30.952816,0.96267515,0.0,1.1352334,2.3081524,-0.018163681,-0.16488796,0.07338311,-5.207447,0.0,0.0,0.0
4415842640,30.645988,-72.44983,-30.952816,0.9625267,0.0,1.1610813,2.2952511,-0.024515152,-0.15669912,0.08319011,-5.2081075,0.0,0.0,0.0
4415949439,30.809504,-72.21721,-30.952816,0.9620742,0.0,1.1877338,2.2815814,-0.034154892,-0.08335099,0.078687474,-5.2269893,0.0,0.0,0.0
4416050760,30.96032,-72.00267,-30.952816,0.9617703,0.0,1.2127734,2.2683685,-0.04509735,-0.07082138,0.088388756,-5.212727,0.0,0.0,0.0
4416150449,31.107061,-71.79393,-30.952816,0.9616082,0.0,1.2404605,2.2533436,-0.056632996,-0.05254767,0.110591166,-5.219457,0.0,0.0,0.0
4416254594,31.258362,-71.57869,-30.952816,0.9616082,0.0,1.2681676,2.2378764,-0.06653786,0.0033872633,0.042725682,-5.2527647,0.0,0.0,0.0
4416354991,31.403908,-71.37165,-30.952816,0.96069735,0.0,1.2948906,2.2225108,-0.07174492,-0.010674882,0.08229966,-5.208286,0.0,0.0,0.0
4416459348,31.553766,-71.15846,-30.952816,0.9603682,0.0,1.3209469,2.2071307,-0.06945419,-0.032145105,0.08720098,-5.232993,0.0,0.0,0.0
4416560359,31.697367,-70.954185,-30.952816,0.96003723,0.0,1.3463908,2.1917,-0.063186646,0.04197947,0.038068004,-5.185479,0.0,0.0,0.0
4416665421,31.846165,-70.74252,-30.952816,0.9597256,0.0,1.3706895,2.1765807,-0.05566597,0.028013404,0.03331231,-5.188978,0.0,0.0,0.0
4416768151,31.994316,-70.53177,-30.952816,0.9595685,0.0,1.3924459,2.16273,-0.040445328,0.0815981,0.004618344,-5.1412535,0.0,0.0,0.0
4416868609,32.13922,-70.32562,-30.952816,0.9595685,0.0,1.4110585,2.1506405,-0.024438858,-0.020751432,0.025162261,-5.1110625,0.0,0.0,0.0
4416972943,32.289173,-70.11232,-30.952816,0.958921,0.0,1.4265982,2.1403556,-0.0020103455,0.07153034,-0.03533389,-5.099189,0.0,0.0,0.0
4417073866,32.435467,-69.904205,-30.952816,0.95872885,0.0,1.4392874,2.1318467,0.015285492,0.01159433,0.018211551,-5.0415606,0.0,0.0,0.0
4417173846,32.581226,-69.69686,-30.952816,0.95872885,0.0,1.4500452,2.1245406,0.03343773,0.034898564,0.012135515,-4.9825764,0.0,0.0,0.0
4417273825,32.72707,-69.489395,-30.952816,0.9584215,0.0,1.4588532,2.118503,0.05862236,0.0060032867,-0.01710123,-4.926755,0.0,0.0,0.0
4417374784,32.87415,-69.28016,-30.952816,0.9583114,0.0,1.4660866,2.1135094,0.08372879,-0.032107275,0.031668764,-4.8962207,0.0,0.0,0.0
4417479110,33.02618,-69.06389,-30.952816,0.9583114,0.0,1.4736735,2.1082256,0.109853745,0.03581214,-0.011190092,-4.9053254,0.0,0.0,0.0
4417582983,33.17794,-68.84801,-30.952816,0.95809174,0.0,1.4819361,2.10242,0.13781548,-0.038016915,-0.0040645734,-4.8377976,0.0,0.0,0.0
4417683025,33.3266,-68.636536,-30.952816,0.9579684,0.0,1.490976,2.09602,0.16160774,0.10773759,-0.14752121,-4.837901,0.0,0.0,0.0
4417786994,33.48136,-68.41637,-30.952816,0.9578166,0.0,1.5013334,2.08862,0.1854229,-0.020085277,-0.04436223,-4.811334,0.0,0.0,0.0
4417888589,33.633175,-68.20042,-30.952816,0.95767117,0.0,1.511185,2.0814953,0.20552826,-0.0049826815,-0.061649665,-4.781051,0.0,0.0,0.0
4417987930,33.785343,-67.983955,-30.952816,0.95752335,0.0,1.5207886,2.0744865,0.21935654,-0.075930946,-0.09183661,-4.8363214,0.0,0.0,0.0
4418089080,33.940723,-67.76291,-30.952816,0.9573851,0.0,1.5305551,2.0672965,0.22122765,0.0110893715,-0.17947684,-4.9142084,0.0,0.0,0.0
4418193089,34.10274,-67.53243,-30.952816,0.9572256,0.0,1.5410357,2.0594978,0.21022987,-0.028638143,-0.16842204,-4.966297,0.0,0.0,0.0
4418292721,34.25973,-67.309105,-30.952816,0.9570476,0.0,1.5499398,2.052808,0.19614792,-0.0062722033,-0.2184178,-5.052463,0.0,0.0,0.0
4418393811,34.4188,-67.082825,-30.952816,0.95692176,0.0,1.5578146,2.0468357,0.18251419,0.00961787,-0.21784717,-5.020557,0.0,0.0,0.0
4418498178,34.58369,-66.84827,-30.952816,0.9568097,0.0,1.5648088,2.0414867,0.16765785,0.050178025,-0.1912815,-5.0789437,0.0,0.0,0.0
4418602602,34.74828,-66.61413,-30.952816,0.9567134,0.0,1.5709333,2.0367827,0.15493393,-0.009721056,-0.18275599,-5.0284905,0.0,0.0,0.0
4418707124,34.913826,-66.37863,-30.952816,0.95661706,0.0,1.577076,2.0320282,0.13905525,-0.038624153,-0.16521925,-4.993148,0.0,0.0,0.0
4418806316,35.071423,-66.15444,-30.952816,0.95652753,0.0,1.5825517,2.0277736,0.12719727,0.072106205,-0.24419723,-5.0127044,0.0,0.0,0.0
4418911048,35.236263,-65.919945,-30.952816,0.9564409,0.0,1.5877666,2.023693,0.11115074,0.08214108,-0.23250206,-5.003048,0.0,0.0,0.0
4419012005,35.39305,-65.69691,-30.952816,0.95640016,0.0,1.5925357,2.0199387,0.09467697,0.013602327,-0.20351285,-4.9915476,0.0,0.0,0.0
4419111051,35.549347,-65.47457,-30.952816,0.95628524,0.0,1.5965583,2.016764,0.073272705,0.052779354,-0.18268067,-5.0445557,0.0,0.0,0.0
4419212411,35.70654,-65.25096,-30.952816,0.95622146,0.0,1.6004976,2.0136402,0.048330307,0.14832383,-0.24650681,-5.0821176,0.0,0.0,0.0
4419316533,35.86765,-65.02178,-30.952816,0.95614207,0.0,1.606296,2.0090086,0.031913757,0.15840407,-0.25514996,-5.064952,0.0,0.0,0.0
4419416935,36.023415,-64.800186,-30.952816,0.956029,0.0,1.6134098,2.0033047,0.021640778,0.07340184,-0.22905351,-5.042191,0.0,0.0,0.0
4419520945,36.184315,-64.571304,-30.952816,0.955899,0.0,1.6219369,1.9963974,0.0062503815,0.14925957,-0.2937803,-5.0749536,0.0,0.0,0.0
4419621395,36.34024,-64.349495,-30.952816,0.95567507,0.0,1.6310512,1.9889683,-0.016376495,0.10591788,-0.24396142,-5.0944285,0.0,0.0,0.0
4419721869,36.494263,-64.13038,-30.952816,0.9555207,0.0,1.6399734,1.9816189,-0.03913498,0.20606293,-0.34584793,-5.1456656,0.0,0.0,0.0
4419821629,36.648167,-63.911453,-30.952816,0.9555207,0.0,1.6498777,1.973378,-0.056444168,0.24667817,-0.33732423,-5.1371384,0.0,0.0,0.0
4419923103,36.80391,-63.6899,-30.952816,0.9552444,0.0,1.6595247,1.9652711,-0.068725586,0.20779394,-0.33690804,-5.094924,0.0,0.0,0.0
4420027276,36.96472,-63.46114,-30.952816,0.9550667,0.0,1.6702553,1.9561605,-0.07732773,0.20098433,-0.35928237,-5.123682,0.0,0.0,0.0
4420130652,37.124912,-63.233257,-30.952816,0.95497066,0.0,1.6795652,1.9481733,-0.087314606,0.26783472,-0.39298677,-5.115721,0.0,0.0,0.0
4420231880,37.27983,-63.012886,-30.952816,0.95468336,0.0,1.6884838,1.9404434,-0.09581375,0.25262716,-0.38718367,-5.102532,0.0,0.0,0.0
4420335512,37.438427,-62.78727,-30.952816,0.95452714,0.0,1.6969639,1.933036,-0.10545349,0.21677677,-0.35493398,-5.080469,0.0,0.0,0.0
4420436129,37.5919,-62.56895,-30.952816,0.95452714,0.0,1.7055382,1.92548,-0.11205101,0.32295102,-0.39294228,-5.099622,0.0,0.0,0.0
4420536644,37.74307,-62.353905,-30.952816,0.9542431,0.0,1.7132355,1.9186271,-0.11323547,0.30311653,-0.3970424,-5.0735006,0.0,0.0,0.0
4420640372,37.899982,-62.130688,-30.952816,0.954093,0.0,1.7213532,1.9113466,-0.113033295,0.2686225,-0.35411227,-5.0733542,0.0,0.0,0.0
4420740553,38.050877,-61.91603,-30.952816,0.95397633,0.0,1.7263216,1.9068674,-0.110860825,0.34125382,-0.38550422,-5.0742226,0.0,0.0,0.0
4420841152,38.200138,-61.7037,-30.952816,0.95389163,0.0,1.7302753,1.9032797,-0.10920715,0.25800076,-0.3348244,-5.018663,0.0,0.0,0.0
4420941399,38.34795,-61.493435,-30.952816,0.9538462,0.0,1.7309095,1.9026998,-0.112314224,0.3167048,-0.3696,-5.0882215,0.0,0.0,0.0
4421045520,38.50016,-61.27691,-30.952816,0.9538273,0.0,1.7308986,1.9027107,-0.115924835,0.2948457,-0.31603566,-5.0881186,0.0,0.0,0.0
4421145876,38.64591,-61.06958,-30.952816,0.95385605,0.0,1.7265317,1.9066753,-0.107299805,0.30200902,-0.27524602,-5.0523763,0.0,0.0,0.0
4421246297,38.792538,-60.860992,-30.952816,0.95385605,0.0,1.7229259,1.9099332,-0.09918785,0.2694636,-0.24101968,-5.077875,0.0,0.0,0.0
4421350532,38.94119,-60.64952,-30.952816,0.95401204,0.0,1.7170334,1.9152352,-0.099012375,0.28601667,-0.21963722,-5.084533,0.0,0.0,0.0
4421450512,39.083588,-60.446957,-30.952816,0.9540946,0.0,1.7114344,1.9202362,-0.098508835,0.36392882,-0.26880112,-5.072715,0.0,0.0,0.0
4421551111,39.227097,-60.24281,-30.952816,0.95422345,0.0,1.7033638,1.9273971,-0.096227646,0.2641535,-0.18016239,-5.0282397,0.0,0.0,0.0
4421655238,39.3754,-60.03184,-30.952816,0.95433545,0.0,1.6962029,1.9337028,-0.09038353,0.2978227,-0.2621352,-5.0524116,0.0,0.0,0.0
4421757128,39.517475,-59.82974,-30.952816,0.9544749,0.0,1.68669,1.9420053,-0.086465836,0.27320153,-0.2173316,-5.057431,0.0,0.0,0.0
4421860964,39.66542,-59.619274,-30.952816,0.9546104,0.0,1.677949,1.9495649,-0.08613205,0.28072673,-0.20879352,-5.0658107,0.0,0.0,0.0
4421961164,39.809883,-59.413765,-30.952816,0.9547654,0.0,1.6685773,1.957592,-0.09358597,0.28228456,-0.28317058,-5.0385747,0.0,0.0,0.0
4422065360,39.96063,-59.199326,-30.952816,0.9547654,0.0,1.6601734,1.964724,-0.097616196,0.20058724,-0.26555264,-5.0517645,0.0,0.0,0.0
4422169324,40.11286,-58.98277,-30.952816,0.9550631,0.0,1.6493957,1.9737803,-0.09836388,0.28255326,-0.3433958,-5.085464,0.0,0.0,0.0
4422274791,40.268135,-58.761887,-30.952816,0.9551988,0.0,1.6412164,1.9805824,-0.10190773,0.22825193,-0.32490876,-5.092534,0.0,0.0,0.0
4422378205,40.42331,-58.54114,-30.952816,0.9553805,0.0,1.632856,1.987486,-0.10517311,0.17722307,-0.33180904,-5.135254,0.0,0.0,0.0
4422477418,40.574493,-58.326077,-30.952816,0.9554731,0.0,1.6267532,1.9924835,-0.11016846,0.23059922,-0.37794346,-5.1972885,0.0,0.0,0.0
4422579540,40.72813,-58.107517,-30.952816,0.955597,0.0,1.6199619,1.99801,-0.12334442,0.21942583,-0.36030996,-5.22065,0.0,0.0,0.0
4422682618,40.887615,-57.88065,-30.952816,0.95567167,0.0,1.6142868,2.0025942,-0.13590813,0.23592801,-0.37182528,-5.2988324,0.0,0.0,0.0
4422783391,41.04213,-57.660847,-30.952816,0.95578945,0.0,1.6084739,2.0072656,-0.13996315,0.133731,-0.31816366,-5.209148,0.0,0.0,0.0
4422886936,41.20249,-57.432716,-30.952816,0.95588577,0.0,1.6030561,2.0115998,-0.13945007,0.19169484,-0.36336166,-5.249025,0.0,0.0,0.0
4422988360,41.35915,-57.209866,-30.952816,0.9559812,0.0,1.5976311,2.0159087,-0.13349533,0.19473377,-0.3579523,-5.1957507,0.0,0.0,0.0
4423092612,41.520172,-56.98081,-30.952816,0.9560147,0.0,1.592456,2.0199966,-0.12197685,0.22210844,-0.3853363,-5.1808486,0.0,0.0,0.0
4423191921,41.67411,-56.761818,-30.952816,0.9561533,0.0,1.587339,2.0240228,-0.10708237,0.17090927,-0.36900276,-5.1232333,0.0,0.0,0.0
4423296988,41.835342,-56.532463,-30.952816,0.9562332,0.0,1.5814826,2.0286,-0.094976425,0.2100423,-0.39173657,-5.131187,0.0,0.0,0.0
4423397045,41.988956,-56.313934,-30.952816,0.9562332,0.0,1.5769527,2.0321224,-0.09160805,0.16824292,-0.36095148,-5.1785126,0.0,0.0,0.0
4423498033,42.142433,-56.095608,-30.952816,0.95638555,0.0,1.5733831,2.0348911,-0.08276558,0.24374144,-0.3855942,-5.21408,0.0,0.0,0.0
4423597482,42.29352,-55.880684,-30.952816,0.9564309,0.0,1.5712522,2.03654,-0.07188606,0.20736726,-0.35824266,-5.1768417,0.0,0.0,0.0
4423701492,42.449203,-55.659218,-30.952816,0.9564377,0.0,1.5699874,2.037511,-0.059984207,0.28604576,-0.3621824,-5.2053714,0.0,0.0,0.0
4423802819,42.598656,-55.446613,-30.952816,0.9564563,0.0,1.5693026,2.0380366,-0.048826218,0.2878013,-0.3868063,-5.2751417,0.0,0.0,0.0
4423902198,42.747528,-55.234837,-30.952816,0.95644695,0.0,1.5683204,2.038794,-0.04005432,0.24154666,-0.29020682,-5.3212757,0.0,0.0,0.0
4424006303,42.90195,-55.01516,-30.952816,0.95649064,0.0,1.5664722,2.0402148,-0.030208588,0.19038492,-0.2688422,-5.351918,0.0,0.0,0.0
4424107373,43.050774,-54.803455,-30.952816,0.9565153,0.0,1.563776,2.042284,-0.018325806,0.26640746,-0.29035795,-5.3164682,0.0,0.0,0.0
4424207108,43.197742,-54.594387,-30.952816,0.95657146,0.0,1.5614748,2.0440416,-0.0061130524,0.25161585,-0.2799731,-5.2303042,0.0,0.0,0.0
4424308233,43.345787,-54.383785,-30.952816,0.95659775,0.0,1.558514,2.046303,0.009151459,0.24844438,-0.30773354,-5.146653,0.0,0.0,0.0
4424408228,43.49338,-54.17383,-30.952816,0.95663035,0.0,1.5569847,2.0474663,0.01908493,0.26931936,-0.344259,-5.1311297,0.0,0.0,0.0
4424508194,43.641438,-53.963207,-30.952816,0.9566497,0.0,1.555401,2.0486693,0.03968239,0.3444055,-0.41377607,-5.10205,0.0,0.0,0.0
4424612641,43.797478,-53.741234,-30.952816,0.95667595,0.0,1.5552851,2.0487564,0.05953598,0.23924273,-0.35373923,-5.0944057,0.0,0.0,0.0
4424713182,43.9472,-53.528244,-30.952816,0.95666873,0.0,1.5557019,2.0484412,0.07785034,0.22708754,-0.39610383,-5.0547304,0.0,0.0,0.0
4424813637,44.099728,-53.31127,-30.952816,0.9566256,0.0,1.5581552,2.0465784,0.09340477,0.21029171,-0.3930402,-5.0799675,0.0,0.0,0.0
4424913964,44.25296,-53.093292,-30.952816,0.9565853,0.0,1.5580139,2.0466797,0.11149788,0.20607078,-0.42273325,-5.004866,0.0,0.0,0.0
4425018566,44.41565,-52.861866,-30.952816,0.95660084,0.0,1.558032,2.0466654,0.12419891,0.20473756,-0.47360104,-5.0473433,0.0,0.0,0.0
4425122783,44.577995,-52.630913,-30.952816,0.9566123,0.0,1.553897,2.0498073,0.13235092,0.13841541,-0.4308028,-5.0101314,0.0,0.0,0.0
4425222301,44.735962,-52.406204,-30.952816,0.95667547,0.0,1.5498455,2.0528731,0.14132881,0.114676274,-0.4649856,-5.008377,0.0,0.0,0.0
4425326535,44.901096,-52.171288,-30.952816,0.95679176,0.0,1.5460693,2.055718,0.14699745,0.09206891,-0.520121,-5.013232,0.0,0.0,0.0
4425427121,45.062405,-51.941814,-30.952816,0.9568576,0.0,1.5423222,2.058534,0.1518898,0.036236458,-0.45495054,-5.048211,0.0,0.0,0.0
4425527442,45.223106,-51.713215,-30.952816,0.9569636,0.0,1.5358678,2.0633538,0.14360428,0.054399844,-0.45410278,-5.0884147,0.0,0.0,0.0
4425627808,45.385715,-51.481895,-30.952816,0.9570801,0.0,1.5298014,2.0678546,0.1329174,0.026731255,-0.46352345,-5.0699434,0.0,0.0,0.0
4425731858,45.552658,-51.24442,-30.952816,0.95712966,0.0,1.5195999,2.0753634,0.12441254,0.034634687,-0.45081994,-5.073075,0.0,0.0,0.0
4425833806,45.71415,-51.014683,-30.952816,0.95742804,0.0,1.5103732,2.0820897,0.11568451,0.0076797134,-0.45628068,-5.1107917,0.0,0.0,0.0
4425932697,45.87292,-50.788826,-30.952816,0.9576035,0.0,1.5004727,2.089236,0.10593033,0.03527029,-0.4099031,-5.134634,0.0,0.0,0.0
4426036824,46.036976,-50.55545,-30.952816,0.9576035,0.0,1.491275,2.0958064,0.09663391,0.06286431,-0.43023324,-5.180783,0.0,0.0,0.0
4426137987,46.193455,-50.332848,-30.952816,0.9579575,0.0,1.4815375,2.1027026,0.08632851,0.049341876,-0.35471234,-5.168578,0.0,0.0,0.0
4426237337,46.347313,-50.11398,-30.952816,0.95812964,0.0,1.4734088,2.1084068,0.075380325,0.030988108,-0.3057677,-5.170607,0.0,0.0,0.0
4426341682,46.50579,-49.88854,-30.952816,0.958328,0.0,1.461689,2.1165462,0.060230255,0.07683774,-0.33828607,-5.15823,0.0,0.0,0.0
4426442954,46.65831,-49.671574,-30.952816,0.9585287,0.0,1.451984,2.1232216,0.046863556,0.054756094,-0.28459835,-5.1881557,0.0,0.0,0.0
4426546731,46.812244,-49.452595,-30.952816,0.9587209,0.0,1.4420072,2.130002,0.043172836,0.03397729,-0.25096673,-5.134436,0.0,0.0,0.0
4426647397,46.961193,-49.240707,-30.952816,0.958887,0.0,1.4344875,2.1350791,0.041849136,0.0674635,-0.2533303,-5.139224,0.0,0.0,0.0
4426750994,47.114132,-49.023148,-30.952816,0.9590666,0.0,1.4228437,2.1428525,0.03901291,0.08323116,-0.25642765,-5.154263,0.0,0.0,0.0
4426852072,47.260918,-48.81433,-30.952816,0.9590666,0.0,1.413146,2.1492598,0.030807495,0.06410846,-0.23466884,-5.195282,0.0,0.0,0.0
4426952874,47.4082,-48.60482,-30.952816,0.9595062,0.0,1.4041948,2.1551232,0.018432617,0.118455626,-0.22420475,-5.2024064,0.0,0.0,0.0
4427052062,47.553867,-48.397602,-30.952816,0.95964104,0.0,1.3990923,2.1584392,0.0062828064,0.12801833,-0.24301594,-5.2164316,0.0,0.0,0.0
4427153640,47.700268,-48.189342,-30.952816,0.959745,0.0,1.3944899,2.1614144,-0.0041179657,0.13253616,-0.20845655,-5.300619,0.0,0.0,0.0
4427257679,47.850212,-47.97604,-30.952816,0.9597988,0.0,1.3930403,2.1623495,-0.012273788,0.12061496,-0.17676373,-5.2913566,0.0,0.0,0.0
4427356632,47.993313,-47.77247,-30.952816,0.95983785,0.0,1.3912898,2.1634765,-0.020664215,0.16763617,-0.17889705,-5.3269463,0.0,0.0,0.0
4427461741,48.141666,-47.56143,-30.952816,0.95984125,0.0,1.3927504,2.1625342,-0.026042938,0.23143645,-0.16627066,-5.300189,0.0,0.0,0.0
4427565407,48.284016,-47.35893,-30.952816,0.959812,0.0,1.3947544,2.1612442,-0.02573967,0.23712277,-0.1418837,-5.2246466,0.0,0.0,0.0
4427667313,48.421417,-47.16347,-30.952816,0.9596944,0.0,1.4006723,2.1574173,-0.030056,0.30839258,-0.18544614,-5.204581,0.0,0.0,0.0
4427766261,48.55693,-46.970703,-30.952816,0.95955205,0.0,1.408732,2.1521552,-0.030498505,0.23984736,-0.1582868,-5.146815,0.0,0.0,0.0
4427870532,48.69814,-46.769825,-30.952816,0.9594439,0.0,1.4211622,2.1439688,-0.028335571,0.39047098,-0.2526623,-5.1175046,0.0,0.0,0.0
4427970971,48.835445,-46.574497,-30.952816,0.959021,0.0,1.4343787,2.1351516,-0.027954102,0.36690724,-0.21748944,-5.1023297,0.0,0.0,0.0
4428072835,48.97169,-46.380684,-30.952816,0.95869625,0.0,1.449864,2.1246674,-0.024658203,0.37778082,-0.23167402,-5.087174,0.0,0.0,0.0
4428172074,49.108116,-46.186607,-30.952816,0.9585549,0.0,1.4649106,2.114321,-0.019716263,0.40974244,-0.26845595,-5.0358105,0.0,0.0,0.0
4428275868,49.250404,-45.9842,-30.952816,0.95803845,0.0,1.4825666,2.1019778,-0.014364243,0.4382144,-0.27300653,-5.01705,0.0,0.0,0.0
4428376926,49.38877,-45.787373,-30.952816,0.9578532,0.0,1.5008132,2.0889895,-0.0075416565,0.457154,-0.350789,-4.932127,0.0,0.0,0.0
4428476700,49.530212,-45.586166,-30.952816,0.9572928,0.0,1.5195564,2.075396,-0.00016784668,0.36581925,-0.3508402,-4.9614735,0.0,0.0,0.0
4428578155,49.672234,-45.38413,-30.952816,0.9568874,0.0,1.538064,2.0617156,0.0032138824,0.39529142,-0.38773572,-4.990235,0.0,0.0,0.0
4428682197,49.82247,-45.170414,-30.952816,0.9566838,0.0,1.5551945,2.0488253,0.0093307495,0.3562121,-0.35885745,-4.9486017,0.0,0.0,0.0
4428781503,49.966476,-44.965565,-30.952816,0.9561432,0.0,1.5681973,2.0388882,0.0134887695,0.43126896,-0.43058735,-5.010984,0.0,0.0,0.0
4428885507,50.117493,-44.750732,-30.952816,0.9558878,0.0,1.5794061,2.0302162,0.017911911,0.32463455,-0.3420735,-4.988681,0.0,0.0,0.0
4428986316,50.26498,-44.54092,-30.952816,0.95569694,0.0,1.5872556,2.0240843,0.01997757,0.33957127,-0.3381784,-4.9893684,0.0,0.0,0.0
4429087005,50.411396,-44.33264,-30.952816,0.9555778,0.0,1.5916914,2.0206017,0.027650833,0.37559146,-0.34988692,-5.019078,0.0,0.0,0.0
4429187319,50.558586,-44.123257,-30.952816,0.9555564,0.0,1.5928221,2.0197067,0.023195267,0.3035816,-0.28511685,-4.993957,0.0,0.0,0.0
4429291099,50.709812,-43.908134,-30.952816,0.9555418,0.0,1.5912311,2.0209641,0.01811409,0.38748822,-0.30471873,-5.009591,0.0,0.0,0.0
4429392216,50.854645,-43.7021,-30.952816,0.9556111,0.0,1.5872918,2.024059,0.014486313,0.25510532,-0.23889081,-4.9780617,0.0,0.0,0.0
4429491833,50.99912,-43.49658,-30.952816,0.9556618,0.0,1.5825227,2.0277917,0.010580063,0.23439379,-0.18609446,-4.9713492,0.0,0.0,0.0
4429595906,51.147266,-43.28583,-30.952816,0.9558149,0.0,1.5769454,2.0321333,0.0077266693,0.30080733,-0.25055286,-4.981267,0.0,0.0,0.0
4429696999,51.29065,-43.08186,-30.952816,0.9559468,0.0,1.5700744,2.0374424,0.008869171,0.2550954,-0.23037092,-4.9777007,0.0,0.0,0.0
4429796886,51.43349,-42.878654,-30.952816,0.956115,0.0,1.5626743,2.0431247,0.0010433197,0.21218903,-0.20856476,-4.919238,0.0,0.0,0.0
4429900627,51.583424,-42.66538,-30.952816,0.95627445,0.0,1.5549046,2.0490463,-0.009210587,0.19037105,-0.19401498,-4.9245157,0.0,0.0,0.0
4430002649,51.729496,-42.45759,-30.952816,0.9563574,0.0,1.5476494,2.0545294,-0.017486572,0.25619677,-0.2933649,-4.929833,0.0,0.0,0.0
4430105796,51.880726,-42.24245,-30.952816,0.95660424,0.0,1.541601,2.05907,-0.02459526,0.21033013,-0.24741556,-4.8883142,0.0,0.0,0.0
