timestamp,ref_timestamp,ref_lat,ref_lon,x,y,z,delta_xy[0],delta_xy[1],delta_z,vx,vy,vz,z_deriv,delta_vxy[0],delta_vxy[1],delta_vz,ax,ay,az,yaw,ref_alt,dist_bottom,dist_bottom_rate,eph,epv,evh,evv,vxy_max,vz_max,hagl_min,hagl_max,xy_valid,z_valid,v_xy_valid,v_z_valid,xy_reset_counter,z_reset_counter,vxy_reset_counter,vz_reset_counter,xy_global,z_global,dist_bottom_valid
4385000563,44125377,37.102281,-76.387524,24.024517,-81.385735,-0.44619334,0.0013837058,-0.007301951,0.0,0.11883774,-0.098760806,0.036296092,0.040462065,-0.03502048,-0.020939376,0.09591912,0.32576156,0.5685479,-0.1747493,-0.081257604,8.180764,0.1,-0.036296092,0.3481368,0.23966093,0.16235577,0.10048518,inf,inf,inf,inf,1,1,1,1,2,0,2,2,1,1,0
4385101374,44125377,37.102281,-76.387524,24.031887,-81.39729,-0.43952566,0.0013837058,-0.007301951,0.0,0.11989397,-0.10392479,0.036211498,0.042830717,-0.03502048,-0.020939376,0.09591912,-1.8571105,0.046835132,0.3477036,-0.08107997,8.180764,0.1,-0.036211498,0.33595172,0.23886158,0.15774743,0.09997477,inf,inf,inf,inf,1,1,1,1,2,0,2,2,1,1,0
4385201361,44125377,37.102281,-76.387524,24.038437,-81.40987,-0.4376526,0.0013837058,-0.007301951,0.0,0.10959274,-0.10321921,0.04329068,0.047298435,-0.03502048,-0.020939376,0.09591912,2.2454634,1.6688493,1.0976256,-0.081037864,8.180764,0.1,-0.04329068,0.34827244,0.23993647,0.16241826,0.10054191,inf,inf,inf,inf,1,1,1,1,2,0,2,2,1,1,0
4385305479,44125377,37.102281,-76.387524,24.045116,-81.422134,-0.43178058,0.0013837058,-0.007301951,0.0,0.109594986,-0.121044524,0.041651733,0.047124684,-0.03502048,-0.020939376,0.09591912,0.4093194,-0.027170077,-0.28634307,-0.08217676,8.180764,0.1,-0.041651733,0.3371227,0.23978908,0.15815847,0.100205615,inf,inf,inf,inf,1,1,1,1,2,0,2,2,1,1,0
4385406032,44125377,37.102281,-76.387524,24.051609,-81.43392,-0.42374027,0.0013837058,-0.007301951,0.0,0.1017986,-0.107107416,0.04212832,0.05110293,-0.03502048,-0.020939376,0.09591912,0.60889554,0.046778124,0.25159422,-0.08209657,8.180764,0.1,-0.04212832,0.34852317,0.2402324,0.16247025,0.10059176,inf,inf,inf,inf,1,1,1,1,2,0,2,2,1,1,0
4385506157,44125377,37.102281,-76.387524,24.056664,-81.44577,-0.41117784,0.0013837058,-0.007301951,0.0,0.1078406,-0.10277692,0.045504853,0.061795127,-0.03502048,-0.020939376,0.09591912,-0.573828,-1.390851,0.5598942,-0.081341244,8.180764,0.1,-0.045504853,0.3373441,0.24008021,0.15826552,0.10025559,inf,inf,inf,inf,1,1,1,1,2,0,2,2,1,1,0
4385606962,44125377,37.102281,-76.387524,24.06182,-81.45725,-0.397854,0.0013837058,-0.007301951,0.0,0.10691122,-0.10814349,0.037366234,0.06079063,-0.03502048,-0.020939376,0.09591912,-1.3511925,0.61898,1.4383512,-0.08084087,8.180764,0.1,-0.037366234,0.34875527,0.24050647,0.16257717,0.10063659,inf,inf,inf,inf,1,1,1,1,2,0,2,2,1,1,0
4385706944,44125377,37.102281,-76.387524,24.067348,-81.46981,-0.38515142,0.0013837058,-0.007301951,0.0,0.10105959,-0.13619506,0.06790775,0.09797454,-0.03502048,-0.020939376,0.09591912,-0.7809857,1.0197752,2.2751596,-0.076247066,8.180764,0.1,-0.06790775,0.33760047,0.24029304,0.15833825,0.10029657,inf,inf,inf,inf,1,1,1,1,2,0,2,2,1,1,0
4385806955,44125377,37.102281,-76.387524,24.071518,-81.47262,-0.38125098,0.0013837058,-0.007301951,0.0,0.030730871,0.14754358,-0.19393133,-0.15820026,-0.03502048,-0.020939376,0.09591912,-2.7639263,6.010372,0.31152266,-0.06941021,8.180764,0.1,0.19393133,0.34912154,0.24080138,0.16285145,0.100695714,inf,inf,inf,inf,1,1,1,1,2,0,2,2,1,1,0
4385911778,44125377,37.102281,-76.387524,24.060358,-81.44195,-0.4082537,0.0013837058,-0.007301951,0.0,-0.09150728,0.37232715,-0.4704556,-0.43075627,-0.03502048,-0.020939376,0.09591912,-1.2693971,0.6722375,-6.021302,-0.06833299,8.180764,0.1,0.4704556,0.3386772,0.23944294,0.15907764,0.10008671,inf,inf,inf,inf,1,1,1,1,2,0,2,2,1,1,0
4386016041,44125377,37.102281,-76.387524,24.050173,-81.41146,-0.47787312,0.0013837058,-0.007301951,0.0,-0.082390904,0.33904254,-0.7963788,-0.76094234,-0.03502048,-0.020939376,0.09591912,-0.8400202,3.84659,1.3947473,-0.061736006,8.180764,0.1,0.7963788,0.35116985,0.24048425,0.16492446,0.10063349,inf,inf,inf,inf,1,1,1,1,2,0,2,2,1,1,0
4386116415,44125377,37.102281,-76.387524,24.0308,-81.3685,-0.5788884,0.0013837058,-0.007301951,0.0,-0.13521855,0.48894465,-0.92089385,-0.9030392,-0.03502048,-0.020939376,0.09591912,2.834555,-2.8973665,-1.1831193,-0.059857953,8.180764,0.1949664,0.92089385,0.3384367,0.23940216,0.16134709,0.10008082,inf,inf,inf,inf,1,1,1,1,2,0,2,2,1,1,0
4386216555,44125377,37.102281,-76.387524,24.00658,-81.32249,-0.7076686,0.0013837058,-0.007301951,0.0,-0.20147482,0.52588856,-0.93916506,-0.95785517,-0.03502048,-0.020939376,0.09591912,-1.8092088,-1.9398932,-0.5016942,-0.058897473,8.180764,0.3237466,0.93916506,0.3510394,0.24044132,0.1669048,0.10063628,inf,inf,inf,inf,1,1,1,1,2,0,2,2,1,1,0
4386320571,44125377,37.102281,-76.387524,23.978893,-81.27072,-0.8462298,0.0013837058,-0.007301951,0.0,-0.21257739,0.5333485,-0.9218741,-0.97727674,-0.03502048,-0.020939376,0.09591912,-0.8189803,1.062907,1.3226604,-0.056968737,8.180764,0.46230778,0.9218741,0.33963704,0.24026737,0.16265623,0.1002977,inf,inf,inf,inf,1,1,1,1,2,0,2,2,1,1,0
4386421398,44125377,37.102281,-76.387524,23.95184,-81.219955,-0.9594424,0.0013837058,-0.007301951,0.0,-0.23066533,0.52338785,-0.9180825,-0.98624516,-0.03502048,-0.020939376,0.09591912,0.13981834,-1.5108078,-2.1505227,-0.054160744,8.180764,0.5755204,0.9180825,0.351329,0.24067776,0.16698688,0.100677766,inf,inf,inf,inf,1,1,1,1,2,0,2,2,1,1,0
4386521460,44125377,37.102281,-76.387524,23.927847,-81.17052,-1.0553253,0.0013837058,-0.007301951,0.0,-0.22178277,0.49588135,-0.9051947,-0.9693435,-0.03502048,-0.020939376,0.09591912,-0.81524855,2.357646,-1.9090908,-0.05119974,8.180764,0.6714033,0.9051947,0.33992335,0.24051546,0.16225497,0.100344926,inf,inf,inf,inf,1,1,1,1,2,0,2,2,1,1,0
4386621999,44125377,37.102281,-76.387524,23.905827,-81.12201,-1.135997,0.0013837058,-0.007301951,0.0,-0.21042158,0.47020394,-0.8749326,-0.92230064,-0.03502048,-0.020939376,0.09591912,0.46941474,-1.3273512,0.025374906,-0.048578538,8.180764,0.7520751,0.8749326,0.35260305,0.23982033,0.16692545,0.10047759,inf,inf,inf,inf,1,1,1,1,2,0,2,2,1,1,0
4386726040,44125377,37.102281,-76.387524,23.88002,-81.07249,-1.2094264,0.0013837058,-0.007301951,0.0,-0.19634782,0.42353362,-0.8445627,-0.87068415,-0.03502048,-0.020939376,0.09591912,-2.0310376,-1.5209205,-0.96235204,-0.045683496,8.180764,0.8255044,0.8445627,0.34100989,0.23962182,0.16225205,0.10014888,inf,inf,inf,inf,1,1,1,1,2,0,2,2,1,1,0
4386826182,44125377,37.102281,-76.387524,23.856976,-81.029686,-1.2735474,0.0013837058,-0.007301951,0.0,-0.17845981,0.37726492,-0.82642806,-0.8307407,-0.03502048,-0.020939376,0.09591912,-0.76686656,0.6571638,-0.4686905,-0.043011177,8.180764,0.88962543,0.82642806,0.3523239,0.23983093,0.16628583,0.10051453,inf,inf,inf,inf,1,1,1,1,2,0,2,2,1,1,0
4386926974,44125377,37.102281,-76.387524,23.834305,-80.98973,-1.3395072,0.0013837058,-0.007301951,0.0,-0.14270994,0.312426,-0.8286856,-0.8151263,-0.03502048,-0.020939376,0.09591912,1.5657809,1.1224498,0.68827283,-0.038678955,8.180764,0.95558524,0.8286856,0.34086487,0.23964205,0.1616229,0.10018614,inf,inf,inf,inf,1,1,1,1,2,0,2,2,1,1,0
4387031013,44125377,37.102281,-76.387524,23.815823,-80.955414,-1.4130908,0.0013837058,-0.007301951,0.0,-0.096942574,0.25428718,-0.8601402,-0.8348782,-0.03502048,-0.020939376,0.09591912,0.5267134,-0.55753076,-1.7695383,-0.034279417,8.180764,1.0291688,0.8601402,0.35364184,0.24076657,0.16634282,0.10075526,inf,inf,inf,inf,1,1,1,1,2,0,2,2,1,1,0
4387131797,44125377,37.102281,-76.387524,23.802055,-80.925156,-1.4896277,0.0013837058,-0.007301951,0.0,-0.05233474,0.21516521,-0.8632991,-0.831281,-0.03502048,-0.020939376,0.09591912,0.6701388,1.3735261,2.005073,-0.031260766,8.180764,1.1057057,0.8632991,0.34118214,0.23996603,0.16145636,0.1002548,inf,inf,inf,inf,1,1,1,1,2,0,2,2,1,1,0
4387231731,44125377,37.102281,-76.387524,23.794016,-80.90033,-1.566162,0.0013837058,-0.007301951,0.0,-0.018522914,0.1608227,-0.8710211,-0.8318535,-0.03502048,-0.020939376,0.09591912,-0.6397288,0.37099767,-3.4322822,-0.028925914,8.180764,1.18224,0.8710211,0.3538623,0.24103028,0.16626023,0.1008165,inf,inf,inf,inf,1,1,1,1,2,0,2,2,1,1,0
4387335754,44125377,37.102281,-76.387524,23.787062,-80.87756,-1.6356301,0.0013837058,-0.007301951,0.0,0.032609776,0.11121687,-0.8535661,-0.7980255,-0.03502048,-0.020939376,0.09591912,0.110437766,-1.6664113,-0.95139605,-0.028726168,8.180764,1.2517081,0.8535661,0.34246102,0.23915604,0.16189188,0.10006952,inf,inf,inf,inf,1,1,1,1,2,0,2,2,1,1,0
4387436558,44125377,37.102281,-76.387524,23.785698,-80.86205,-1.7030878,0.0013837058,-0.007301951,0.0,0.05865832,0.07844346,-0.8482428,-0.78034246,-0.03502048,-0.020939376,0.09591912,-2.3667593,0.5341105,1.0869323,-0.030060122,8.180764,1.3191658,0.8482428,0.3542019,0.23959923,0.16624352,0.10045611,inf,inf,inf,inf,1,1,1,1,2,0,2,2,1,1,0
4387536418,44125377,37.102281,-76.387524,23.785858,-80.85059,-1.7679697,0.0013837058,-0.007301951,0.0,0.08684032,0.012440968,-0.8324852,-0.7548664,-0.03502048,-0.020939376,0.09591912,2.4473784,0.15280284,0.6223334,-0.0323874,8.180764,1.3840477,0.8324852,0.34274104,0.23941791,0.16165268,0.10013742,inf,inf,inf,inf,1,1,1,1,2,0,2,2,1,1,0
4387636567,44125377,37.102281,-76.387524,23.789953,-80.845856,-1.8404279,0.0013837058,-0.007301951,0.0,0.09860131,-0.045162525,-0.813083,-0.7344177,-0.03502048,-0.020939376,0.09591912,1.1756173,-2.3888352,1.7081591,-0.035648756,8.180764,1.4565059,0.813083,0.35456377,0.23992805,0.16598871,0.1005362,inf,inf,inf,inf,1,1,1,1,2,0,2,2,1,1,0
4387741443,44125377,37.102281,-76.387524,23.790085,-80.839714,-1.9345568,0.0013837058,-0.007301951,0.0,0.09689661,-0.069166966,-0.81613517,-0.7535653,-0.03502048,-0.020939376,0.09591912,-0.11342372,0.22902603,0.789592,-0.038184438,8.180764,1.5506349,0.81613517,0.342982,0.23972455,0.16140787,0.10020499,inf,inf,inf,inf,1,1,1,1,2,0,2,2,1,1,0
4387841515,44125377,37.102281,-76.387524,23.791674,-80.837524,-2.0306542,0.0013837058,-0.007301951,0.0,0.11111377,-0.09785476,-0.85591215,-0.8119466,-0.03502048,-0.020939376,0.09591912,-0.8948618,0.42294765,-1.6598587,-0.038791962,8.180764,1.6467322,0.85591215,0.3557892,0.24084479,0.16615981,0.10077709,inf,inf,inf,inf,1,1,1,1,2,0,2,2,1,1,0
4387942031,44125377,37.102281,-76.387524,23.804272,-80.83706,-2.1295161,0.0013837058,-0.007301951,0.0,0.12314157,-0.10788107,-0.8706891,-0.8443171,-0.03502048,-0.020939376,0.09591912,0.3003267,-2.5880458,-0.20053868,-0.038360648,8.180764,1.7455941,0.8706891,0.34432992,0.23893194,0.1617124,0.10003651,inf,inf,inf,inf,1,1,1,1,2,0,2,2,1,1,0
4388046196,44125377,37.102281,-76.387524,23.818977,-80.83988,-2.2420886,0.0013837058,-0.007301951,0.0,0.13055731,-0.100012496,-0.89875567,-0.89629817,-0.03502048,-0.020939376,0.09591912,-1.8554056,1.3466194,-2.3086708,-0.036887843,8.180764,1.8581666,0.89875567,0.3566834,0.23975441,0.16626543,0.100579865,inf,inf,inf,inf,1,1,1,1,2,0,2,2,1,1,0
4388146138,44125377,37.102281,-76.387524,23.82457,-80.83805,-2.3573303,0.0013837058,-0.007301951,0.0,0.1417621,-0.080405205,-0.9036437,-0.9257134,-0.03502048,-0.020939376,0.09591912,1.7117789,0.03460865,-1.2201215,-0.035691142,8.180764,1.9734083,0.9036437,0.34412372,0.23896146,0.16142707,0.10008642,inf,inf,inf,inf,1,1,1,1,2,0,2,2,1,1,0
4388246915,44125377,37.102281,-76.387524,23.832733,-80.83629,-2.4769878,0.0013837058,-0.007301951,0.0,0.15522525,-0.068808384,-0.9348494,-0.979849,-0.03502048,-0.020939376,0.09591912,-0.7759729,-0.9344973,-1.2857215,-0.034584098,8.180764,2.0930657,0.9348494,0.35685554,0.24003305,0.16616763,0.10065419,inf,inf,inf,inf,1,1,1,1,2,0,2,2,1,1,0
4388350932,44125377,37.102281,-76.387524,23.836214,-80.82973,-2.6020353,0.0013837058,-0.007301951,0.0,0.17658192,-0.04915425,-0.95592695,-1.0221236,-0.03502048,-0.020939376,0.09591912,-0.7970166,-1.4926679,-2.1587274,-0.033874914,8.180764,2.2181132,0.95592695,0.3450467,0.23962583,0.16161685,0.100318655,inf,inf,inf,inf,1,1,1,1,2,0,2,2,1,1,0
4388451759,44125377,37.102281,-76.387524,23.844984,-80.8243,-2.725963,0.0013837058,-0.007301951,0.0,0.19132423,-0.0342215,-0.9743634,-1.059969,-0.03502048,-0.020939376,0.09591912,-0.57021254,-1.7742938,-2.093013,-0.033850074,8.180764,2.342041,0.9743634,0.35780346,0.24070054,0.16634338,0.10088572,inf,inf,inf,inf,1,1,1,1,2,0,2,2,1,1,0
4388551743,44125377,37.102281,-76.387524,23.851799,-80.81736,-2.8458292,0.0013837058,-0.007301951,0.0,0.21736063,-0.018320048,-0.9702482,-1.0697374,-0.03502048,-0.020939376,0.09591912,0.42283255,-0.8192941,-1.8459024,-0.03463019,8.180764,2.4619071,0.9702482,0.34531674,0.23991702,0.16155022,0.10039529,inf,inf,inf,inf,1,1,1,1,2,0,2,2,1,1,0
4388655838,44125377,37.102281,-76.387524,23.864262,-80.81137,-2.9752078,0.0013837058,-0.007301951,0.0,0.22837421,-0.002131218,-0.9719421,-1.0878994,-0.03502048,-0.020939376,0.09591912,-1.5378436,-0.6483004,0.14204526,-0.03740697,8.180764,2.5912857,0.9719421,0.35817006,0.24107425,0.16625042,0.100977495,inf,inf,inf,inf,1,1,1,1,2,0,2,2,1,1,0
4388756610,44125377,37.102281,-76.387524,23.86926,-80.80168,-3.1008332,0.0013837058,-0.007301951,0.0,0.23583192,-0.0086988965,-0.97149783,-1.1011595,-0.03502048,-0.020939376,0.09591912,-2.5672598,-0.9733577,-2.3953755,-0.041659247,8.180764,2.716911,0.97149783,0.34667605,0.23915268,0.16180506,0.10022751,inf,inf,inf,inf,1,1,1,1,2,0,2,2,1,1,0
4388856416,44125377,37.102281,-76.387524,23.880955,-80.796455,-3.2264292,0.0013837058,-0.007301951,0.0,0.2462986,-0.032083124,-0.96132505,-1.1048406,-0.03502048,-0.020939376,0.09591912,-0.36927402,-2.003779,-3.0845988,-0.047125228,8.180764,2.8425071,0.96132505,0.35856736,0.23966517,0.16621526,0.100622475,inf,inf,inf,inf,1,1,1,1,2,0,2,2,1,1,0
4388956420,44125377,37.102281,-76.387524,23.88084,-80.79445,-3.3600721,0.0013837058,-0.007301951,0.0,0.23671854,-0.061524767,-0.9795163,-1.1411902,-0.03502048,-0.020939376,0.09591912,-1.3288933,-0.55155843,0.8291809,-0.053640787,8.180764,2.97615,0.9795163,0.3470529,0.2394964,0.1616964,0.10030591,inf,inf,inf,inf,1,1,1,1,2,0,2,2,1,1,0
4389061356,44125377,37.102281,-76.387524,23.887619,-80.79755,-3.4941235,0.0013837058,-0.007301951,0.0,0.21796477,-0.095560536,-0.9819648,-1.1557131,-0.03502048,-0.020939376,0.09591912,-2.120565,-2.8846045,-3.6027615,-0.061195727,8.180764,3.1102014,0.9819648,0.35984793,0.24058574,0.16641006,0.10087365,inf,inf,inf,inf,1,1,1,1,2,0,2,2,1,1,0
4389161340,44125377,37.102281,-76.387524,23.885235,-80.80458,-3.619018,0.0013837058,-0.007301951,0.0,0.19720101,-0.120601416,-0.95350945,-1.1357324,-0.03502048,-0.020939376,0.09591912,1.2448494,0.5647685,3.866015,-0.06834345,8.180764,3.235096,0.95350945,0.3472599,0.23986913,0.16152193,0.10039094,inf,inf,inf,inf,1,1,1,1,2,0,2,2,1,1,0
4389262230,44125377,37.102281,-76.387524,23.883968,-80.81635,-3.744266,0.0013837058,-0.007301951,0.0,0.17549197,-0.14528641,-0.95088184,-1.13961,-0.03502048,-0.020939376,0.09591912,-0.9171829,0.7021017,0.6461975,-0.07431491,8.180764,3.360344,0.95088184,0.3361776,0.23969805,0.15713531,0.100055754,inf,inf,inf,inf,1,1,1,1,2,0,2,2,1,1,0
4389366140,44125377,37.102281,-76.387524,23.866716,-80.83302,-3.8710904,0.0013837058,-0.007301951,0.0,0.13895376,-0.19469756,-0.93721014,-1.1310529,-0.03502048,-0.020939376,0.09591912,1.4233688,-1.0662248,-0.66094196,-0.078780636,8.180764,3.4871683,0.93721014,0.34848392,0.23911268,0.16168557,0.10021796,inf,inf,inf,inf,1,1,1,1,2,0,2,2,1,1,0
4389471032,44125377,37.102281,-76.387524,23.853691,-80.85457,-4.0029845,0.0013837058,-0.007301951,0.0,0.104657955,-0.23293196,-0.943109,-1.1468155,-0.03502048,-0.020939376,0.09591912,-0.2780255,1.0590241,1.8519448,-0.08140945,8.180764,3.6190624,0.943109,0.3373603,0.2389269,0.15725224,0.099878125,inf,inf,inf,inf,1,1,1,1,2,0,2,2,1,1,0
4389574948,44125377,37.102281,-76.387524,23.834913,-80.87859,-4.1306176,0.0013837058,-0.007301951,0.0,0.07453016,-0.23861924,-0.91821194,-1.128648,-0.03502048,-0.020939376,0.09591912,-0.35927317,-1.0455863,4.2063847,-0.083524585,8.180764,3.7466955,0.91821194,0.34960374,0.23998162,0.16181287,0.10044381,inf,inf,inf,inf,1,1,1,1,2,0,2,2,1,1,0
4389675059,44125377,37.102281,-76.387524,23.821619,-80.90283,-4.250609,0.0013837058,-0.007301951,0.0,0.04731877,-0.24738084,-0.89377075,-1.1098807,-0.03502048,-0.020939376,0.09591912,0.9529517,-0.58818233,2.1691215,-0.083232984,8.180764,3.8666868,0.89377075,0.33751416,0.2392293,0.15698385,0.099930786,inf,inf,inf,inf,1,1,1,1,2,0,2,2,1,1,0
4389775812,44125377,37.102281,-76.387524,23.802341,-80.9248,-4.372029,0.0013837058,-0.007301951,0.0,0.041128907,-0.2549162,-0.8941314,-1.1158669,-0.03502048,-0.020939376,0.09591912,0.44807488,2.0601873,1.2179444,-0.08174759,8.180764,3.9881067,0.8941314,0.3497344,0.24030179,0.16151033,0.100503996,inf,inf,inf,inf,1,1,1,1,2,0,2,2,1,1,0
4389879622,44125377,37.102281,-76.387524,23.785238,-80.94833,-4.4896255,0.0013837058,-0.007301951,0.0,0.01990596,-0.24301283,-0.88836247,-1.109759,-0.03502048,-0.020939376,0.09591912,-1.2434977,-1.7481765,1.70805,-0.07966536,8.180764,4.1057034,0.88836247,0.33861887,0.23840657,0.15717332,0.09975317,inf,inf,inf,inf,1,1,1,1,2,0,2,2,1,1,0
4389979628,44125377,37.102281,-76.387524,23.767452,-80.97286,-4.5989943,0.0013837058,-0.007301951,0.0,0.020090878,-0.24010298,-0.87917507,-1.0981393,-0.03502048,-0.020939376,0.09591912,0.370664,0.6109639,2.3182533,-0.078354955,8.180764,4.215072,0.87917507,0.35000378,0.2406413,0.16132194,0.10057839,inf,inf,inf,inf,1,1,1,1,2,0,2,2,1,1,0
4390080828,44125377,37.102281,-76.387524,23.750153,-80.997345,-4.714237,0.0013837058,-0.007301951,0.0,0.017793525,-0.24574988,-0.8809775,-1.1007853,-0.03502048,-0.020939376,0.09591912,1.267201,-0.6547414,3.2000692,-0.07776045,8.180764,4.330315,0.8809775,0.3388432,0.23871571,0.15708476,0.09981708,inf,inf,inf,inf,1,1,1,1,2,0,2,2,1,1,0
4390184563,44125377,37.102281,-76.387524,23.731592,-81.022125,-4.8371487,0.0013837058,-0.007301951,0.0,0.010127602,-0.24752022,-0.8788136,-1.1036581,-0.03502048,-0.020939376,0.09591912,-0.19884065,-1.0031977,-0.10341986,-0.07673947,8.180764,4.4532266,0.8788136,0.35119215,0.23984458,0.1617352,0.10039511,inf,inf,inf,inf,1,1,1,1,2,0,2,2,1,1,0
4390285388,44125377,37.102281,-76.387524,23.717863,-81.04632,-4.956182,0.0013837058,-0.007301951,0.0,0.0076164096,-0.24912898,-0.8943893,-1.1238568,-0.03502048,-0.020939376,0.09591912,-2.3959637,1.5254966,-2.558452,-0.07566151,8.180764,4.57226,0.8943893,0.3390293,0.23904853,0.15714651,0.09989058,inf,inf,inf,inf,1,1,1,1,2,0,2,2,1,1,0
4390385625,44125377,37.102281,-76.387524,23.702946,-81.069466,-5.0697846,0.0013837058,-0.007301951,0.0,0.01499048,-0.24018082,-0.88764834,-1.1144226,-0.03502048,-0.020939376,0.09591912,0.111127146,0.44505912,-0.2906038,-0.07544337,8.180764,4.6858625,0.88764834,0.3512751,0.24013077,0.16176556,0.10046784,inf,inf,inf,inf,1,1,1,1,2,0,2,2,1,1,0
4390490030,44125377,37.102281,-76.387524,23.692076,-81.09361,-5.1855774,0.0013837058,-0.007301951,0.0,0.018012589,-0.22726841,-0.877168,-1.1003733,-0.03502048,-0.020939376,0.09591912,2.2641313,-1.3259082,-0.17159778,-0.0751252,8.180764,4.8016553,0.877168,0.34015116,0.23831132,0.15752181,0.09973283,inf,inf,inf,inf,1,1,1,1,2,0,2,2,1,1,0
4390594158,44125377,37.102281,-76.387524,23.683157,-81.117,-5.293707,0.0013837058,-0.007301951,0.0,0.006732897,-0.19006789,-0.8567778,-1.0717169,-0.03502048,-0.020939376,0.09591912,-0.611859,2.9251676,0.0633093,-0.07598116,8.180764,4.909785,0.8567778,0.35244596,0.23940156,0.1621387,0.1003114,inf,inf,inf,inf,1,1,1,1,2,0,2,2,1,1,0
4390694236,44125377,37.102281,-76.387524,23.673903,-81.13694,-5.3891993,0.0013837058,-0.007301951,0.0,0.0016131299,-0.167523,-0.84980726,-1.051823,-0.03502048,-0.020939376,0.09591912,0.7800871,0.17593984,-0.26554185,-0.07663064,8.180764,5.005277,0.84980726,0.34036747,0.23868366,0.15753752,0.09982114,inf,inf,inf,inf,1,1,1,1,2,0,2,2,1,1,0
4390794819,44125377,37.102281,-76.387524,23.661518,-81.15375,-5.4806576,0.0013837058,-0.007301951,0.0,-0.006771462,-0.12610757,-0.8304237,-1.0153502,-0.03502048,-0.020939376,0.09591912,2.241933,1.8171057,2.8163784,-0.07740291,8.180764,5.0967355,0.8304237,0.35265514,0.239754,0.16203046,0.1003899,inf,inf,inf,inf,1,1,1,1,2,0,2,2,1,1,0
4390899072,44125377,37.102281,-76.387524,23.65186,-81.16573,-5.5725946,0.0013837058,-0.007301951,0.0,-0.014643884,-0.09721601,-0.85709023,-1.0248095,-0.03502048,-0.020939376,0.09591912,2.751521,-0.2121658,0.97410727,-0.077164374,8.180764,5.1886725,0.85709023,0.341061,0.23934144,0.15761165,0.10003827,inf,inf,inf,inf,1,1,1,1,2,0,2,2,1,1,0
4390998950,44125377,37.102281,-76.387524,23.6445,-81.17179,-5.660246,0.0013837058,-0.007301951,0.0,-0.025978897,-0.052161075,-0.87295645,-1.0241783,-0.03502048,-0.020939376,0.09591912,-1.6575414,1.0184536,-3.8747883,-0.07686522,8.180764,5.276324,0.87295645,0.35337117,0.23873329,0.16226642,0.10019888,inf,inf,inf,inf,1,1,1,1,2,0,2,2,1,1,0
4391099750,44125377,37.102281,-76.387524,23.639296,-81.172844,-5.743997,0.0013837058,-0.007301951,0.0,-0.028221037,-0.008038048,-0.8759485,-1.0084821,-0.03502048,-0.020939376,0.09591912,-1.6385238,0.11816886,-4.6750407,-0.07606536,8.180764,5.360075,0.8759485,0.34111282,0.2396775,0.15767398,0.10011879,inf,inf,inf,inf,1,1,1,1,2,0,2,2,1,1,0
4391203734,44125377,37.102281,-76.387524,23.635645,-81.16913,-5.828565,0.0013837058,-0.007301951,0.0,-0.012144309,0.058336936,-0.89966875,-1.0107397,-0.03502048,-0.020939376,0.09591912,0.48114002,0.64637965,-1.0008261,-0.074676044,8.180764,5.444643,0.89966875,0.35351107,0.23910204,0.16239831,0.10027698,inf,inf,inf,inf,1,1,1,1,2,0,2,2,1,1,0
4391304568,44125377,37.102281,-76.387524,23.636423,-81.16441,-5.9160843,0.0013837058,-0.007301951,0.0,0.0070563913,0.07492238,-0.9093368,-1.0052854,-0.03502048,-0.020939376,0.09591912,2.1703918,-0.5210222,2.461239,-0.07341598,8.180764,5.532162,0.9093368,0.3423514,0.23893628,0.15827289,0.09995251,inf,inf,inf,inf,1,1,1,1,2,0,2,2,1,1,0
4391404524,44125377,37.102281,-76.387524,23.640097,-81.157906,-6.011185,0.0013837058,-0.007301951,0.0,0.018172301,0.09094318,-0.93523616,-1.0245852,-0.03502048,-0.020939376,0.09591912,0.10546915,-0.41678947,0.050462853,-0.072405964,8.180764,5.627263,0.93523616,0.35374853,0.23938552,0.16274112,0.10034095,inf,inf,inf,inf,1,1,1,1,2,0,2,2,1,1,0
4391508405,44125377,37.102281,-76.387524,23.650997,-81.14981,-6.1150665,0.0013837058,-0.007301951,0.0,0.028758423,0.11412364,-0.95429534,-1.0397768,-0.03502048,-0.020939376,0.09591912,-0.7542868,1.65848,-1.4615519,-0.07198658,8.180764,5.7311444,0.95429534,0.34263694,0.23926589,0.15865475,0.10001916,inf,inf,inf,inf,1,1,1,1,2,0,2,2,1,1,0
4391609412,44125377,37.102281,-76.387524,23.66557,-81.14054,-6.2159777,0.0013837058,-0.007301951,0.0,0.04217129,0.14646915,-0.97131896,-1.0521003,-0.03502048,-0.020939376,0.09591912,-2.7734368,1.2870414,-2.8841987,-0.07187289,8.180764,5.8320556,0.97131896,0.3550272,0.24034634,0.16342795,0.10059003,inf,inf,inf,inf,1,1,1,1,2,0,2,2,1,1,0
4391709632,44125377,37.102281,-76.387524,23.68323,-81.12949,-6.311386,0.0013837058,-0.007301951,0.0,0.06516496,0.17914973,-0.98399067,-1.055328,-0.03502048,-0.020939376,0.09591912,0.43579116,0.4190106,1.4858778,-0.07069936,8.180764,5.927464,0.98399067,0.34341905,0.23993318,0.15912211,0.1002406,inf,inf,inf,inf,1,1,1,1,2,0,2,2,1,1,0
4391809993,44125377,37.102281,-76.387524,23.700857,-81.115234,-6.408809,0.0013837058,-0.007301951,0.0,0.07885114,0.19427775,-0.9950269,-1.0584102,-0.03502048,-0.020939376,0.09591912,2.8117094,1.1222867,0.57115364,-0.06759018,8.180764,6.024887,0.9950269,0.35487375,0.2404012,0.16345252,0.10063665,inf,inf,inf,inf,1,1,1,1,2,0,2,2,1,1,0
4391913994,44125377,37.102281,-76.387524,23.713629,-81.096214,-6.5204062,0.0013837058,-0.007301951,0.0,0.0905296,0.21581575,-1.0216461,-1.0855151,-0.03502048,-0.020939376,0.09591912,1.5538063,-0.84320396,-0.020935068,-0.06351126,8.180764,6.136484,1.0216461,0.34364733,0.24020292,0.15925224,0.10029662,inf,inf,inf,inf,1,1,1,1,2,0,2,2,1,1,0
4392014171,44125377,37.102281,-76.387524,23.723204,-81.07404,-6.6319113,0.0013837058,-0.007301951,0.0,0.11240482,0.24305785,-1.0384376,-1.1038408,-0.03502048,-0.020939376,0.09591912,1.184493,0.24892184,0.20122893,-0.059101082,8.180764,6.247989,1.0384376,0.3561849,0.24130368,0.16406563,0.1008569,inf,inf,inf,inf,1,1,1,1,2,0,2,2,1,1,0
4392115012,44125377,37.102281,-76.387524,23.73846,-81.04639,-6.744321,0.0013837058,-0.007301951,0.0,0.1383754,0.28459272,-1.0710384,-1.1355784,-0.03502048,-0.020939376,0.09591912,0.96836513,-0.7721012,-0.45648852,-0.05575137,8.180764,6.360399,1.0710384,0.3439276,0.24045725,0.15952985,0.10033193,inf,inf,inf,inf,1,1,1,1,2,0,2,2,1,1,0
4392215001,44125377,37.102281,-76.387524,23.757576,-81.01458,-6.8546863,0.0013837058,-0.007301951,0.0,0.1548698,0.31699875,-1.0519481,-1.113257,-0.03502048,-0.020939376,0.09591912,1.4696486,0.57722735,-0.6797873,-0.05398694,8.180764,6.470764,1.0519481,0.35638797,0.23976907,0.16435033,0.10046312,inf,inf,inf,inf,1,1,1,1,2,0,2,2,1,1,0
4392319770,44125377,37.102281,-76.387524,23.778694,-80.982735,-6.9650006,0.0013837058,-0.007301951,0.0,0.15882969,0.35603818,-1.0834404,-1.1369421,-0.03502048,-0.020939376,0.09591912,-0.390183,-2.306948,-0.27044788,-0.055799652,8.180764,6.5810785,1.0834404,0.3452131,0.2395934,0.16020007,0.1001206,inf,inf,inf,inf,1,1,1,1,2,0,2,2,1,1,0
4392423848,44125377,37.102281,-76.387524,23.800161,-80.95076,-7.069896,0.0013837058,-0.007301951,0.0,0.1508562,0.3387244,-1.0635289,-1.1065687,-0.03502048,-0.020939376,0.09591912,-1.6857983,2.713725,-3.1627526,-0.05814046,8.180764,6.685974,1.0635289,0.35773635,0.24062225,0.16489536,0.10067031,inf,inf,inf,inf,1,1,1,1,2,0,2,2,1,1,0
4392523761,44125377,37.102281,-76.387524,23.815105,-80.91537,-7.1653037,0.0013837058,-0.007301951,0.0,0.13252915,0.36818075,-1.0215094,-1.0525842,-0.03502048,-0.020939376,0.09591912,-0.4485773,-0.18149912,1.077516,-0.06275824,8.180764,6.7813816,1.0215094,0.34557685,0.23984991,0.16023812,0.100162454,inf,inf,inf,inf,1,1,1,1,2,0,2,2,1,1,0
4392624536,44125377,37.102281,-76.387524,23.826084,-80.87918,-7.262175,0.0013837058,-0.007301951,0.0,0.10101668,0.35380143,-1.0214221,-1.0433335,-0.03502048,-0.020939376,0.09591912,-0.604317,0.9018901,1.1470252,-0.06723111,8.180764,6.878253,1.0214221,0.35810274,0.24089669,0.16486187,0.10071829,inf,inf,inf,inf,1,1,1,1,2,0,2,2,1,1,0
4392728534,44125377,37.102281,-76.387524,23.831326,-80.84668,-7.359525,0.0013837058,-0.007301951,0.0,0.054025177,0.323806,-1.019882,-1.030491,-0.03502048,-0.020939376,0.09591912,-0.36014038,-0.09916234,-1.0982851,-0.071200475,8.180764,6.975603,1.019882,0.34687245,0.23902795,0.16047671,0.09996661,inf,inf,inf,inf,1,1,1,1,2,0,2,2,1,1,0
4392829358,44125377,37.102281,-76.387524,23.831911,-80.81811,-7.447881,0.0013837058,-0.007301951,0.0,0.016602334,0.29244,-1.0318204,-1.0269305,-0.03502048,-0.020939376,0.09591912,-0.34871584,-1.9265686,3.1727536,-0.07506278,8.180764,7.063959,1.0318204,0.35944927,0.24008521,0.16527055,0.10052163,inf,inf,inf,inf,1,1,1,1,2,0,2,2,1,1,0
4392929351,44125377,37.102281,-76.387524,23.828938,-80.79289,-7.5225334,0.0013837058,-0.007301951,0.0,-0.037751075,0.26321766,-1.001367,-0.97184366,-0.03502048,-0.020939376,0.09591912,0.39338756,-3.1999602,1.7497057,-0.07822225,8.180764,7.1386113,1.001367,0.3471703,0.23928271,0.16058092,0.100015536,inf,inf,inf,inf,1,1,1,1,2,0,2,2,1,1,0
4393033220,44125377,37.102281,-76.387524,23.819933,-80.77029,-7.5991163,0.0013837058,-0.007301951,0.0,-0.11546637,0.22989446,-0.96395934,-0.91281325,-0.03502048,-0.020939376,0.09591912,-0.93311083,1.346893,1.3091204,-0.0816418,8.180764,7.215194,0.96395934,0.35935518,0.24009278,0.16507235,0.10054323,inf,inf,inf,inf,1,1,1,1,2,0,2,2,1,1,0
4393134001,44125377,37.102281,-76.387524,23.80776,-80.75124,-7.6671486,0.0013837058,-0.007301951,0.0,-0.17233118,0.15007643,-0.96291214,-0.88967896,-0.03502048,-0.020939376,0.09591912,0.07046611,-3.5931242,1.2945828,-0.08382502,8.180764,7.2832265,0.96291214,0.34812388,0.2399105,0.16083069,0.100212,inf,inf,inf,inf,1,1,1,1,2,0,2,2,1,1,0
4393234139,44125377,37.102281,-76.387524,23.78972,-80.73702,-7.730221,0.0013837058,-0.007301951,0.0,-0.24299258,0.113803975,-0.9397495,-0.84492475,-0.03502048,-0.020939376,0.09591912,-2.9414275,1.5275308,0.28674567,-0.08519745,8.180764,7.3462987,0.9397495,0.3598422,0.24041188,0.16508356,0.100598395,inf,inf,inf,inf,1,1,1,1,2,0,2,2,1,1,0
4393338003,44125377,37.102281,-76.387524,23.771626,-80.72885,-7.792811,0.0013837058,-0.007301951,0.0,-0.2776341,0.04694905,-0.91914725,-0.80465734,-0.03502048,-0.020939376,0.09591912,-2.9319117,-3.5225763,-0.21567276,-0.085861,8.180764,7.408889,0.91914725,0.3486293,0.24019322,0.16076353,0.10025119,inf,inf,inf,inf,1,1,1,1,2,0,2,2,1,1,0
4393438938,44125377,37.102281,-76.387524,23.750698,-80.72621,-7.851484,0.0013837058,-0.007301951,0.0,-0.30244002,0.015648976,-0.91339225,-0.78125453,-0.03502048,-0.020939376,0.09591912,-3.2967644,1.4720045,-0.67424476,-0.0870503,8.180764,7.4675617,0.91339225,0.36123717,0.24122141,0.16536808,0.100793146,inf,inf,inf,inf,1,1,1,1,2,0,2,2,1,1,0
4393538794,44125377,37.102281,-76.387524,23.725996,-80.73102,-7.9173675,0.0013837058,-0.007301951,0.0,-0.31442806,-0.02712274,-0.9204225,-0.7782505,-0.03502048,-0.020939376,0.09591912,2.511816,-0.14175808,0.90814275,-0.089787684,8.180764,7.5334454,0.9204225,0.3491036,0.24044521,0.16078748,0.100285344,inf,inf,inf,inf,1,1,1,1,2,0,2,2,1,1,0
4393639606,44125377,37.102281,-76.387524,23.699465,-80.7393,-7.9858527,0.0013837058,-0.007301951,0.0,-0.3170365,-0.049195208,-0.9394233,-0.7902268,-0.03502048,-0.020939376,0.09591912,0.65176773,0.38119364,-0.89075106,-0.092194065,8.180764,7.6019306,0.9394233,0.36172464,0.2397532,0.16560376,0.10041284,inf,inf,inf,inf,1,1,1,1,2,0,2,2,1,1,0
4393743765,44125377,37.102281,-76.387524,23.668566,-80.746895,-8.055931,0.0013837058,-0.007301951,0.0,-0.3167374,-0.07313333,-0.9598939,-0.8014755,-0.03502048,-0.020939376,0.09591912,-2.2901917,0.6864145,-4.8926682,-0.093930095,8.180764,7.672009,0.9598939,0.35041675,0.23956004,0.16141391,0.100087345,inf,inf,inf,inf,1,1,1,1,2,0,2,2,1,1,0
4393844571,44125377,37.102281,-76.387524,23.639328,-80.75461,-8.124166,0.0013837058,-0.007301951,0.0,-0.29522714,-0.082703575,-0.97355926,-0.8050492,-0.03502048,-0.020939376,0.09591912,0.29313684,2.7588627,-0.5582094,-0.095253095,8.180764,7.7402434,0.97355926,0.36220443,0.24005666,0.16591607,0.10047931,inf,inf,inf,inf,1,1,1,1,2,0,2,2,1,1,0
4393944514,44125377,37.102281,-76.387524,23.616535,-80.75909,-8.191923,0.0013837058,-0.007301951,0.0,-0.24848329,-0.06807518,-1.0123314,-0.83454394,-0.03502048,-0.020939376,0.09591912,1.793055,0.65260726,0.576733,-0.09627268,8.180764,7.808001,1.0123314,0.3510213,0.23984502,0.16176914,0.10014911,inf,inf,inf,inf,1,1,1,1,2,0,2,2,1,1,0
4394048555,44125377,37.102281,-76.387524,23.596004,-80.764,-8.268715,0.0013837058,-0.007301951,0.0,-0.20498218,-0.07681174,-1.0301043,-0.8455491,-0.03502048,-0.020939376,0.09591912,1.5176961,-1.9870969,-1.6211066,-0.096763365,8.180764,7.884793,1.0301043,0.36383504,0.24095164,0.16661625,0.10071175,inf,inf,inf,inf,1,1,1,1,2,0,2,2,1,1,0
4394149371,44125377,37.102281,-76.387524,23.589302,-80.77508,-8.345185,0.0013837058,-0.007301951,0.0,-0.14611214,-0.07469116,-1.0579101,-0.86540926,-0.03502048,-0.020939376,0.09591912,3.0632427,-0.30514657,1.323466,-0.09773274,8.180764,7.961263,1.0579101,0.35153928,0.24013619,0.16208127,0.10021004,inf,inf,inf,inf,1,1,1,1,2,0,2,2,1,1,0
4394249064,44125377,37.102281,-76.387524,23.587732,-80.78502,-8.425426,0.0013837058,-0.007301951,0.0,-0.07645041,-0.06197735,-1.0841361,-0.8882255,-0.03502048,-0.020939376,0.09591912,1.6590403,-0.36613974,2.3534894,-0.09842954,8.180764,8.041504,1.0841361,0.36428005,0.23946734,0.1669894,0.10034575,inf,inf,inf,inf,1,1,1,1,2,0,2,2,1,1,0
4394353355,44125377,37.102281,-76.387524,23.592644,-80.79206,-8.514845,0.0013837058,-0.007301951,0.0,-0.020418605,-0.05129043,-1.0964429,-0.9003382,-0.03502048,-0.020939376,0.09591912,-0.44893026,2.2253816,-3.422025,-0.09908671,8.180764,8.130923,1.0964429,0.35300565,0.2393528,0.16279998,0.10003622,inf,inf,inf,inf,1,1,1,1,2,0,2,2,1,1,0
4394454144,44125377,37.102281,-76.387524,23.601576,-80.79786,-8.604127,0.0013837058,-0.007301951,0.0,0.028952716,-0.029364172,-1.0869782,-0.893104,-0.03502048,-0.020939376,0.09591912,-0.52186006,2.2215276,-1.3438474,-0.10047607,8.180764,8.220205,1.0869782,0.342172,0.23915291,0.15869744,0.09969615,inf,inf,inf,inf,1,1,1,1,2,0,2,2,1,1,0
4394558147,44125377,37.102281,-76.387524,23.612616,-80.803314,-8.697597,0.0013837058,-0.007301951,0.0,0.068965055,-0.029226687,-1.0855484,-0.89457387,-0.03502048,-0.020939376,0.09591912,1.0986481,-0.8212544,2.6615884,-0.10183899,8.180764,8.313675,1.0855484,0.35405716,0.23996685,0.16329814,0.1002448,inf,inf,inf,inf,1,1,1,1,2,0,2,2,1,1,0
4394658985,44125377,37.102281,-76.387524,23.62384,-80.80754,-8.783346,0.0013837058,-0.007301951,0.0,0.07682482,-0.026147261,-1.0747391,-0.88118255,-0.03502048,-0.020939376,0.09591912,-0.79802924,-2.6012542,0.37479588,-0.102856934,8.180764,8.399425,1.0747391,0.3659041,0.24043109,0.167668,0.1006393,inf,inf,inf,inf,1,1,1,1,2,0,2,2,1,1,0
4394762929,44125377,37.102281,-76.387524,23.640097,-80.80828,-8.869083,0.0013837058,-0.007301951,0.0,0.07612469,-0.015979555,-1.0896478,-0.89295036,-0.03502048,-0.020939376,0.09591912,-1.7951032,0.33395097,-2.9786334,-0.10324716,8.180764,8.485162,1.0896478,0.35459074,0.23861524,0.16331494,0.09992036,inf,inf,inf,inf,1,1,1,1,2,0,2,2,1,1,0
4394866795,44125377,37.102281,-76.387524,23.654491,-80.80915,-8.9544325,0.0013837058,-0.007301951,0.0,0.08017854,-0.025088072,-1.0613434,-0.86194754,-0.03502048,-0.020939376,0.09591912,-0.86263126,1.6565008,-1.4787784,-0.1028203,8.180764,8.570511,1.0613434,0.34365106,0.23844102,0.15890235,0.09959441,inf,inf,inf,inf,1,1,1,1,2,0,2,2,1,1,0
4394967766,44125377,37.102281,-76.387524,23.668503,-80.80949,-9.042088,0.0013837058,-0.007301951,0.0,0.08320634,-0.028811838,-1.0831163,-0.8860745,-0.03502048,-0.020939376,0.09591912,-0.56464916,1.736639,-2.226498,-0.10266556,8.180764,8.658166,1.0831163,0.35596234,0.23950683,0.16361724,0.100171976,inf,inf,inf,inf,1,1,1,1,2,0,2,2,1,1,0
4395071743,44125377,37.102281,-76.387524,23.682425,-80.81084,-9.130574,0.0013837058,-0.007301951,0.0,0.08476109,-0.035816718,-1.0923603,-0.89383715,-0.03502048,-0.020939376,0.09591912,-0.82860416,-3.7794158,0.95500916,-0.102008775,8.180764,8.746653,1.0923603,0.34505138,0.23939009,0.15938166,0.09985212,inf,inf,inf,inf,1,1,1,1,2,0,2,2,1,1,0
4395172615,44125377,37.102281,-76.387524,23.697908,-80.814095,-9.220439,0.0013837058,-0.007301951,0.0,0.09773728,-0.03650926,-1.1010779,-0.9032806,-0.03502048,-0.020939376,0.09591912,0.63536197,-1.2365834,-2.7054248,-0.10090473,8.180764,8.836517,1.1010779,0.35644448,0.2398639,0.16369213,0.10026341,inf,inf,inf,inf,1,1,1,1,2,0,2,2,1,1,0
4395272607,44125377,37.102281,-76.387524,23.71416,-80.81849,-9.308435,0.0013837058,-0.007301951,0.0,0.096203335,-0.042224407,-1.1182855,-0.92049366,-0.03502048,-0.020939376,0.09591912,-0.47796446,0.4627548,1.0143055,-0.10063375,8.180764,8.924514,1.1182855,0.3454669,0.23966408,0.15953748,0.09992801,inf,inf,inf,inf,1,1,1,1,2,0,2,2,1,1,0
4395372593,44125377,37.102281,-76.387524,23.734402,-80.82492,-9.395017,0.0013837058,-0.007301951,0.0,0.10802384,-0.06831956,-1.1332573,-0.9313466,-0.03502048,-0.020939376,0.09591912,1.8605171,-0.31003764,0.84636444,-0.09893458,8.180764,9.011095,1.1332573,0.3569683,0.24018179,0.16391073,0.100340225,inf,inf,inf,inf,1,1,1,1,2,0,2,2,1,1,0
4395477371,44125377,37.102281,-76.387524,23.754515,-80.83261,-9.489692,0.0013837058,-0.007301951,0.0,0.110123694,-0.06361306,-1.1269428,-0.92537886,-0.03502048,-0.020939376,0.09591912,1.9065467,-1.0952957,-1.5686133,-0.097044736,8.180764,9.10577,1.1269428,0.34589645,0.23828374,0.15967439,0.09959107,inf,inf,inf,inf,1,1,1,1,2,0,2,2,1,1,0
4395577354,44125377,37.102281,-76.387524,23.774946,-80.8406,-9.580441,0.0013837058,-0.007301951,0.0,0.11347042,-0.069876224,-1.1189167,-0.91918236,-0.03502048,-0.020939376,0.09591912,-1.151397,-2.2173414,-3.0157108,-0.095723726,8.180764,9.19652,1.1189167,0.35838017,0.23942126,0.16442932,0.100179255,inf,inf,inf,inf,1,1,1,1,2,0,2,2,1,1,0
4395678133,44125377,37.102281,-76.387524,23.792057,-80.84886,-9.667418,0.0013837058,-0.007301951,0.0,0.11397119,-0.07561754,-1.1065593,-0.9029553,-0.03502048,-0.020939376,0.09591912,-0.5220095,-0.49969032,-0.3651325,-0.09451491,8.180764,9.283496,1.1065593,0.34630972,0.23864481,0.15971665,0.09968233,inf,inf,inf,inf,1,1,1,1,2,0,2,2,1,1,0
4395782195,44125377,37.102281,-76.387524,23.805267,-80.855865,-9.754565,0.0013837058,-0.007301951,0.0,0.09054001,-0.09510514,-1.0927762,-0.8852518,-0.03502048,-0.020939376,0.09591912,0.9711759,-0.067601636,1.4455894,-0.093315616,8.180764,9.370644,1.0927762,0.35869992,0.23973872,0.16438176,0.100269,inf,inf,inf,inf,1,1,1,1,2,0,2,2,1,1,0
4395882144,44125377,37.102281,-76.387524,23.815565,-80.86451,-9.836622,0.0013837058,-0.007301951,0.0,0.04779686,-0.08663589,-1.0948856,-0.8836705,-0.03502048,-0.020939376,0.09591912,-0.43203238,-0.2828132,1.1409168,-0.094030015,8.180764,9.452701,1.0948856,0.3477869,0.23794493,0.1600834,0.09954732,inf,inf,inf,inf,1,1,1,1,2,0,2,2,1,1,0
4395982949,44125377,37.102281,-76.387524,23.823904,-80.874344,-9.92565,0.0013837058,-0.007301951,0.0,0.004987898,-0.07994328,-1.1374274,-0.9256474,-0.03502048,-0.020939376,0.09591912,-1.027566,0.6376203,-0.41964087,-0.09554985,8.180764,9.541728,1.1374274,0.35925582,0.24012244,0.16445442,0.10036869,inf,inf,inf,inf,1,1,1,1,2,0,2,2,1,1,0
4396082944,44125377,37.102281,-76.387524,23.826044,-80.88449,-10.013908,0.0013837058,-0.007301951,0.0,-0.057997927,-0.058692582,-1.1443952,-0.93158674,-0.03502048,-0.020939376,0.09591912,-2.9736214,0.79501927,-0.14050245,-0.09638657,8.180764,9.629987,1.1443952,0.34831718,0.23823737,0.1602556,0.09962975,inf,inf,inf,inf,1,1,1,1,2,0,2,2,1,1,0
4396183813,44125377,37.102281,-76.387524,23.82313,-80.89455,-10.101965,0.0013837058,-0.007301951,0.0,-0.070805505,-0.069990106,-1.1341195,-0.91848934,-0.03502048,-0.020939376,0.09591912,0.37900344,1.7878618,0.71510196,-0.09351205,8.180764,9.718043,1.1341195,0.36087704,0.23938052,0.16507894,0.10021726,inf,inf,inf,inf,1,1,1,1,2,0,2,2,1,1,0
4396287776,44125377,37.102281,-76.387524,23.817772,-80.908005,-10.191951,0.0013837058,-0.007301951,0.0,-0.06781359,-0.08089309,-1.1196351,-0.9007725,-0.03502048,-0.020939376,0.09591912,3.0183597,-0.359236,2.8560605,-0.087284714,8.180764,9.808029,1.1196351,0.34969988,0.23922418,0.16074415,0.099901386,inf,inf,inf,inf,1,1,1,1,2,0,2,2,1,1,0
4396387799,44125377,37.102281,-76.387524,23.811455,-80.925674,-10.275626,0.0013837058,-0.007301951,0.0,-0.0671264,-0.1194628,-1.0539263,-0.833586,-0.03502048,-0.020939376,0.09591912,0.67700726,-0.18834122,1.555573,-0.08283203,8.180764,9.891705,1.0539263,0.360836,0.23947878,0.16487776,0.10029241,inf,inf,inf,inf,1,1,1,1,2,0,2,2,1,1,0
4396492524,44125377,37.102281,-76.387524,23.808323,-80.947235,-10.355749,0.0013837058,-0.007301951,0.0,-0.06314227,-0.14300604,-0.9583273,-0.7383944,-0.03502048,-0.020939376,0.09591912,0.5527231,-1.322413,-0.40029567,-0.081336446,8.180764,9.9718275,0.9583273,0.34970728,0.23933576,0.1604435,0.09997821,inf,inf,inf,inf,1,1,1,1,2,0,2,2,1,1,0
4396592520,44125377,37.102281,-76.387524,23.80869,-80.973785,-10.4287405,0.0013837058,-0.007301951,0.0,-0.073761865,-0.17370526,-0.89319515,-0.6783778,-0.03502048,-0.020939376,0.09591912,0.24884702,-1.7043779,-0.4061313,-0.08231115,8.180764,10.044819,0.89319515,0.36228794,0.23878124,0.1648964,0.10014903,inf,inf,inf,inf,1,1,1,1,2,0,2,2,1,1,0
4396693202,44125377,37.102281,-76.387524,23.807611,-81.000305,-10.501092,0.0013837058,-0.007301951,0.0,-0.091222584,-0.22051002,-0.867491,-0.65878636,-0.03502048,-0.020939376,0.09591912,0.7801693,-0.85045993,0.0863094,-0.08497275,8.180764,10.11717,0.867491,0.35018912,0.2380303,0.16006139,0.099661514,inf,inf,inf,inf,1,1,1,1,2,0,2,2,1,1,0
4396793331,44125377,37.102281,-76.387524,23.803394,-81.029,-10.5705185,0.0013837058,-0.007301951,0.0,-0.15724954,-0.25142765,-0.8675913,-0.66636586,-0.03502048,-0.020939376,0.09591912,-1.7820258,-0.05871699,-3.7476048,-0.086405456,8.180764,10.186597,0.8675913,0.36265194,0.23912586,0.16448295,0.100242086,inf,inf,inf,inf,1,1,1,1,2,0,2,2,1,1,0
4396897227,44125377,37.102281,-76.387524,23.79066,-81.06222,-10.6483755,0.0013837058,-0.007301951,0.0,-0.25522193,-0.32312354,-0.8794509,-0.69020295,-0.03502048,-0.020939376,0.09591912,-0.8940651,1.9780883,-4.621242,-0.08939994,8.180764,10.264454,0.8794509,0.351644,0.23901951,0.16021742,0.09992494,inf,inf,inf,inf,1,1,1,1,2,0,2,2,1,1,0
4396997978,44125377,37.102281,-76.387524,23.769285,-81.09658,-10.730669,0.0013837058,-0.007301951,0.0,-0.31740862,-0.36556256,-0.8663489,-0.6927018,-0.03502048,-0.020939376,0.09591912,0.25815582,0.9014815,0.70977247,-0.08973221,8.180764,10.346747,0.8663489,0.36414987,0.24011144,0.16492608,0.1005003,inf,inf,inf,inf,1,1,1,1,2,0,2,2,1,1,0
4397098215,44125377,37.102281,-76.387524,23.74058,-81.13575,-10.814498,0.0013837058,-0.007301951,0.0,-0.38205498,-0.38637948,-0.8941011,-0.73478824,-0.03502048,-0.020939376,0.09591912,-0.66517675,0.7913173,-2.8251839,-0.08622309,8.180764,10.430576,0.8941011,0.35207468,0.23933847,0.16036466,0.10000821,inf,inf,inf,inf,1,1,1,1,2,0,2,2,1,1,0
4397202162,44125377,37.102281,-76.387524,23.705206,-81.18028,-10.903558,0.0013837058,-0.007301951,0.0,-0.43411973,-0.4091447,-0.9044606,-0.759332,-0.03502048,-0.020939376,0.09591912,-0.5583256,0.41033512,-2.9215908,-0.08158138,8.180764,10.519636,0.9044606,0.3641898,0.2401874,0.1648173,0.100560695,inf,inf,inf,inf,1,1,1,1,2,0,2,2,1,1,0
4397302977,44125377,37.102281,-76.387524,23.672392,-81.2238,-10.988674,0.0013837058,-0.007301951,0.0,-0.4186822,-0.41975808,-0.9754239,-0.8368862,-0.03502048,-0.020939376,0.09591912,-0.41497028,-4.0318704,-1.2805649,-0.07650835,8.180764,10.604753,0.9754239,0.35307887,0.2383133,0.16061534,0.099820614,inf,inf,inf,inf,1,1,1,1,2,0,2,2,1,1,0
4397402957,44125377,37.102281,-76.387524,23.643318,-81.265785,-11.080012,0.0013837058,-0.007301951,0.0,-0.37980744,-0.3893819,-1.0067776,-0.87359416,-0.03502048,-0.020939376,0.09591912,2.2682726,-0.3016797,0.24797322,-0.07173812,8.180764,10.696091,1.0067776,0.36473364,0.23885907,0.16513753,0.100235015,inf,inf,inf,inf,1,1,1,1,2,0,2,2,1,1,0
4397503728,44125377,37.102281,-76.387524,23.62021,-81.30539,-11.180049,0.0013837058,-0.007301951,0.0,-0.31507713,-0.3513004,-1.0738766,-0.9487298,-0.03502048,-0.020939376,0.09591912,0.28105742,4.2974296,-0.3008709,-0.0689647,8.180764,10.796127,1.0738766,0.35362443,0.23871468,0.16116115,0.09991604,inf,inf,inf,inf,1,1,1,1,2,0,2,2,1,1,0
4397607759,44125377,37.102281,-76.387524,23.603277,-81.341866,-11.288366,0.0013837058,-0.007301951,0.0,-0.23889957,-0.3194696,-1.1264433,-1.0086763,-0.03502048,-0.020939376,0.09591912,-0.9048985,-1.2544087,-3.6335948,-0.06838749,8.180764,10.904445,1.1264433,0.36620003,0.23982571,0.16613469,0.10049174,inf,inf,inf,inf,1,1,1,1,2,0,2,2,1,1,0
4397707784,44125377,37.102281,-76.387524,23.589064,-81.36996,-11.399759,0.0013837058,-0.007301951,0.0,-0.16515101,-0.264522,-1.1452031,-1.0365702,-0.03502048,-0.020939376,0.09591912,1.1965699,-1.0440983,-1.4958398,-0.06966025,8.180764,11.015838,1.1452031,0.35411674,0.23913588,0.16156797,0.10000034,inf,inf,inf,inf,1,1,1,1,2,0,2,2,1,1,0
4397808570,44125377,37.102281,-76.387524,23.57847,-81.39157,-11.516799,0.0013837058,-0.007301951,0.0,-0.08139786,-0.20163938,-1.1910957,-1.0919828,-0.03502048,-0.020939376,0.09591912,3.4197369,2.1132526,0.657156,-0.071428984,8.180764,11.132877,1.1910957,0.3667172,0.24025923,0.16642542,0.100576624,inf,inf,inf,inf,1,1,1,1,2,0,2,2,1,1,0
4397912519,44125377,37.102281,-76.387524,23.57331,-81.41096,-11.642409,0.0013837058,-0.007301951,0.0,-0.0077971634,-0.16340148,-1.2372116,-1.148176,-0.03502048,-0.020939376,0.09591912,0.6946185,-0.039920572,0.7222203,-0.07376906,8.180764,11.258488,1.2372116,0.35566506,0.23844536,0.16233267,0.09983365,inf,inf,inf,inf,1,1,1,1,2,0,2,2,1,1,0
4398013366,44125377,37.102281,-76.387524,23.574545,-81.42585,-11.771144,0.0013837058,-0.007301951,0.0,0.045671023,-0.11203996,-1.2566193,-1.1803079,-0.03502048,-0.020939376,0.09591912,-1.8245487,0.50906795,0.32045764,-0.07571899,8.180764,11.387222,1.2566193,0.36833817,0.23953678,0.16719703,0.10039849,inf,inf,inf,inf,1,1,1,1,2,0,2,2,1,1,0
4398113220,44125377,37.102281,-76.387524,23.581905,-81.43496,-11.905752,0.0013837058,-0.007301951,0.0,0.11030444,-0.082583964,-1.2972364,-1.2352005,-0.03502048,-0.020939376,0.09591912,0.42056572,-0.2208758,-1.3239341,-0.07582458,8.180764,11.521831,1.2972364,0.35609975,0.23878105,0.1625788,0.099906646,inf,inf,inf,inf,1,1,1,1,2,0,2,2,1,1,0
4398218163,44125377,37.102281,-76.387524,23.595102,-81.44013,-12.046986,0.0013837058,-0.007301951,0.0,0.16053472,-0.04305315,-1.3022242,-1.2513798,-0.03502048,-0.020939376,0.09591912,1.7569075,-0.3259101,5.686495,-0.07577339,8.180764,11.663064,1.3022242,0.3683874,0.2396562,0.16730557,0.10046184,inf,inf,inf,inf,1,1,1,1,2,0,2,2,1,1,0
4398317935,44125377,37.102281,-76.387524,23.608023,-81.443085,-12.186532,0.0013837058,-0.007301951,0.0,0.18960081,-0.018262893,-1.3130971,-1.2755835,-0.03502048,-0.020939376,0.09591912,-1.8869432,-0.8274338,-1.3467714,-0.07538537,8.180764,11.80261,1.3130971,0.35694727,0.23951112,0.1629358,0.10014303,inf,inf,inf,inf,1,1,1,1,2,0,2,2,1,1,0
4398418126,44125377,37.102281,-76.387524,23.623617,-81.443565,-12.327605,0.0013837058,-0.007301951,0.0,0.2225863,0.0034010783,-1.310618,-1.2857821,-0.03502048,-0.020939376,0.09591912,1.2203515,-0.66826373,0.5162281,-0.075776204,8.180764,11.943684,1.310618,0.3687712,0.24006909,0.16737476,0.10055564,inf,inf,inf,inf,1,1,1,1,2,0,2,2,1,1,0
4398518926,44125377,37.102281,-76.387524,23.642857,-81.44023,-12.473666,0.0013837058,-0.007301951,0.0,0.24364856,0.045045476,-1.3147653,-1.3046905,-0.03502048,-0.020939376,0.09591912,-0.14631589,-0.8476107,0.10170872,-0.077389136,8.180764,12.089745,1.3147653,0.35737124,0.23988672,0.16302189,0.100227706,inf,inf,inf,inf,1,1,1,1,2,0,2,2,1,1,0
4398622959,44125377,37.102281,-76.387524,23.66637,-81.43297,-12.622639,0.0013837058,-0.007301951,0.0,0.26521558,0.07533739,-1.334119,-1.3348111,-0.03502048,-0.020939376,0.09591912,-2.289032,-0.25634322,-3.1362164,-0.077784754,8.180764,12.238717,1.334119,0.37008843,0.24096668,0.16769312,0.10079532,inf,inf,inf,inf,1,1,1,1,2,0,2,2,1,1,0
4398722954,44125377,37.102281,-76.387524,23.69425,-81.42252,-12.769352,0.0013837058,-0.007301951,0.0,0.28884378,0.12410201,-1.3442345,-1.3565791,-0.03502048,-0.020939376,0.09591912,1.1934226,0.005587798,5.311214,-0.0767115,8.180764,12.38543,1.3442345,0.3576329,0.2402079,0.16297074,0.10029034,inf,inf,inf,inf,1,1,1,1,2,0,2,2,1,1,0
4398823780,44125377,37.102281,-76.387524,23.725306,-81.40914,-12.918646,0.0013837058,-0.007301951,0.0,0.28920698,0.14277275,-1.3551569,-1.3776646,-0.03502048,-0.020939376,0.09591912,-2.2947912,-0.576999,-4.272028,-0.07413593,8.180764,12.534724,1.3551569,0.37034798,0.23954168,0.16772513,0.100428484,inf,inf,inf,inf,1,1,1,1,2,0,2,2,1,1,0
4398927755,44125377,37.102281,-76.387524,23.761896,-81.39236,-13.076719,0.0013837058,-0.007301951,0.0,0.29656973,0.17281538,-1.3674526,-1.4015725,-0.03502048,-0.020939376,0.09591912,-1.4268192,2.1869247,0.8768672,-0.070952706,8.180764,12.692798,1.3674526,0.35895917,0.23942606,0.16344437,0.1001148,inf,inf,inf,inf,1,1,1,1,2,0,2,2,1,1,0
4399032583,44125377,37.102281,-76.387524,23.798601,-81.37294,-13.233119,0.0013837058,-0.007301951,0.0,0.30422428,0.19040243,-1.3740833,-1.414721,-0.03502048,-0.020939376,0.09591912,0.0889499,-0.064856045,-1.0363755,-0.067737974,8.180764,12.849197,1.3740833,0.37172806,0.24046952,0.1681711,0.10066904,inf,inf,inf,inf,1,1,1,1,2,0,2,2,1,1,0
4399132620,44125377,37.102281,-76.387524,23.832325,-81.355316,-13.378483,0.0013837058,-0.007301951,0.0,0.29570514,0.19994326,-1.3706833,-1.4133116,-0.03502048,-0.020939376,0.09591912,2.53102,0.17376286,-0.16439399,-0.065216005,8.180764,12.994561,1.3706833,0.35918218,0.23965648,0.16343902,0.100165114,inf,inf,inf,inf,1,1,1,1,2,0,2,2,1,1,0
4399232639,44125377,37.102281,-76.387524,23.864471,-81.33566,-13.522556,0.0013837058,-0.007301951,0.0,0.28490382,0.22188087,-1.3652683,-1.4083017,-0.03502048,-0.020939376,0.09591912,-0.1516152,-0.56204927,0.8966843,-0.06350941,8.180764,13.138635,1.3652683,0.37204692,0.24077885,0.16812445,0.100735456,inf,inf,inf,inf,1,1,1,1,2,0,2,2,1,1,0
4399333217,44125377,37.102281,-76.387524,23.896173,-81.31677,-13.671525,0.0013837058,-0.007301951,0.0,0.2844486,0.22412391,-1.3801038,-1.4280864,-0.03502048,-0.020939376,0.09591912,0.80485505,0.4009793,-0.7325531,-0.06276336,8.180764,13.287603,1.3801038,0.36041418,0.23887241,0.1637463,0.09999048,inf,inf,inf,inf,1,1,1,1,2,0,2,2,1,1,0
4399433339,44125377,37.102281,-76.387524,23.925741,-81.29584,-13.815781,0.0013837058,-0.007301951,0.0,0.2659401,0.24153744,-1.3674308,-1.416515,-0.03502048,-0.020939376,0.09591912,0.9974659,1.7484548,-1.0934455,-0.06358643,8.180764,13.431859,1.3674308,0.37180987,0.24081303,0.16784826,0.10078261,inf,inf,inf,inf,1,1,1,1,2,0,2,2,1,1,0
4399537223,44125377,37.102281,-76.387524,23.954214,-81.27321,-13.96348,0.0013837058,-0.007301951,0.0,0.26294357,0.24889049,-1.3640537,-1.4117362,-0.03502048,-0.020939376,0.09591912,2.6487095,-1.1111072,3.4345732,-0.0664718,8.180764,13.579558,1.3640537,0.36005482,0.23889963,0.16335176,0.100031145,inf,inf,inf,inf,1,1,1,1,2,0,2,2,1,1,0
4399638019,44125377,37.102281,-76.387524,23.979887,-81.250435,-14.105618,0.0013837058,-0.007301951,0.0,0.23819463,0.2523182,-1.3670027,-1.4123418,-0.03502048,-0.020939376,0.09591912,-1.255389,1.9083453,-0.27008352,-0.069736615,8.180764,13.721696,1.3670027,0.37282747,0.23997329,0.16810554,0.10059694,inf,inf,inf,inf,1,1,1,1,2,0,2,2,1,1,0
4399738137,44125377,37.102281,-76.387524,24.003113,-81.22966,-14.24734,0.0013837058,-0.007301951,0.0,0.23035254,0.24647829,-1.3648746,-1.4096705,-0.03502048,-0.020939376,0.09591912,2.7287502,1.880012,2.6397667,-0.07310455,8.180764,13.863419,1.3648746,0.36000714,0.23925334,0.16320838,0.10010903,inf,inf,inf,inf,1,1,1,1,2,0,2,2,1,1,0
4399838832,44125377,37.102281,-76.387524,24.024696,-81.20944,-14.38588,0.0013837058,-0.007301951,0.0,0.19390005,0.21545906,-1.3565553,-1.3967556,-0.03502048,-0.020939376,0.09591912,-2.2441254,1.6852721,-3.9714215,-0.07526745,8.180764,14.001959,1.3565553,0.37276185,0.24034208,0.16789544,0.100680046,inf,inf,inf,inf,1,1,1,1,2,0,2,2,1,1,0
4399942953,44125377,37.102281,-76.387524,24.044065,-81.191864,-14.5301485,0.0013837058,-0.007301951,0.0,0.17195867,0.21581131,-1.3274988,-1.3661219,-0.03502048,-0.020939376,0.09591912,-0.6984771,0.31349388,-1.2097005,-0.07753003,8.180764,14.146227,1.3274988,0.3610351,0.23847851,0.16350074,0.099949755,inf,inf,inf,inf,1,1,1,1,2,0,2,2,1,1,0
4400047747,44125377,37.102281,-76.387524,24.060448,-81.17422,-14.672704,0.0013837058,-0.007301951,0.0,0.14366744,0.19753155,-1.3425505,-1.3776987,-0.03502048,-0.020939376,0.09591912,0.72348106,0.4311719,-2.0080898,-0.078464046,8.180764,14.288782,1.3425505,0.37392578,0.2396329,0.16821255,0.10052948,inf,inf,inf,inf,1,1,1,1,2,0,2,2,1,1,0
4400151807,44125377,37.102281,-76.387524,24.078527,-81.162964,-14.803735,0.0013837058,-0.007301951,0.0,0.1074168,0.175466,-1.335924,-1.3583922,-0.03502048,-0.020939376,0.09591912,0.689483,0.17050278,2.3165953,-0.07926038,8.180764,14.419813,1.335924,0.36217093,0.23946439,0.16380018,0.10021157,inf,inf,inf,inf,1,1,1,1,2,0,2,2,1,1,0
4400251788,44125377,37.102281,-76.387524,24.090242,-81.15138,-14.927382,0.0013837058,-0.007301951,0.0,0.06397169,0.17262943,-1.3268425,-1.3366598,-0.03502048,-0.020939376,0.09591912,-0.2536514,0.8134813,3.4967813,-0.0801472,8.180764,14.543461,1.3268425,0.37409496,0.23998943,0.16811886,0.100608945,inf,inf,inf,inf,1,1,1,1,2,0,2,2,1,1,0
4400356351,44125377,37.102281,-76.387524,24.101936,-81.145584,-15.057611,0.0013837058,-0.007301951,0.0,0.031216543,0.13540502,-1.3417634,-1.3410264,-0.03502048,-0.020939376,0.09591912,-1.7712272,-2.8417456,-0.7962952,-0.08136361,8.180764,14.67369,1.3417634,0.36231148,0.23983034,0.16375443,0.10029528,inf,inf,inf,inf,1,1,1,1,2,0,2,2,1,1,0
4400456544,44125377,37.102281,-76.387524,24.10866,-81.14053,-15.185111,0.0013837058,-0.007301951,0.0,0.0066901594,0.10627502,-1.3283608,-1.3215708,-0.03502048,-0.020939376,0.09591912,1.1249475,-0.18330818,0.7409031,-0.081794396,8.180764,14.801189,1.3283608,0.35115442,0.23802434,0.15948851,0.09955891,inf,inf,inf,inf,1,1,1,1,2,0,2,2,1,1,0
4400561398,44125377,37.102281,-76.387524,24.111233,-81.13833,-15.329597,0.0013837058,-0.007301951,0.0,-0.015737375,0.069383234,-1.3469489,-1.3434114,-0.03502048,-0.020939376,0.09591912,-0.51227844,0.23734108,-0.51399213,-0.08230477,8.180764,14.945676,1.3469489,0.36343825,0.23912032,0.16410401,0.10014391,inf,inf,inf,inf,1,1,1,1,2,0,2,2,1,1,0
4400661358,44125377,37.102281,-76.387524,24.11118,-81.13591,-15.466239,0.0013837058,-0.007301951,0.0,-0.027178744,0.0749768,-1.355225,-1.3524748,-0.03502048,-0.020939376,0.09591912,-0.24394384,-2.3289628,-1.3644401,-0.08348193,8.180764,15.082317,1.355225,0.37530303,0.23958133,0.16850409,0.100531735,inf,inf,inf,inf,1,1,1,1,2,0,2,2,1,1,0
4400765377,44125377,37.102281,-76.387524,24.11312,-81.140144,-15.609177,0.0013837058,-0.007301951,0.0,-0.018919105,0.04423445,-1.3701376,-1.3682021,-0.03502048,-0.020939376,0.09591912,0.6928908,0.8934198,-0.90106565,-0.083138645,8.180764,15.225255,1.3701376,0.363523,0.23947549,0.16419564,0.10022299,inf,inf,inf,inf,1,1,1,1,2,0,2,2,1,1,0
4400866201,44125377,37.102281,-76.387524,24.114729,-81.14533,-15.748458,0.0013837058,-0.007301951,0.0,-0.022740709,0.017794896,-1.3622197,-1.3614118,-0.03502048,-0.020939376,0.09591912,-1.2884054,1.1419963,-1.3568461,-0.082264446,8.180764,15.364536,1.3622197,0.35224542,0.23930527,0.15987001,0.099893056,inf,inf,inf,inf,1,1,1,1,2,0,2,2,1,1,0
4400965979,44125377,37.102281,-76.387524,24.116354,-81.15376,-15.88886,0.0013837058,-0.007301951,0.0,-0.010187698,-0.0040592626,-1.3516531,-1.3555188,-0.03502048,-0.020939376,0.09591912,-2.577502,-1.9018148,-0.32364702,-0.08128159,8.180764,15.504938,1.3516531,0.36360437,0.23979157,0.16421053,0.10030522,inf,inf,inf,inf,1,1,1,1,2,0,2,2,1,1,0
4401066169,44125377,37.102281,-76.387524,24.117952,-81.16298,-16.024473,0.0013837058,-0.007301951,0.0,0.0091581065,-0.031700466,-1.3159357,-1.3213302,-0.03502048,-0.020939376,0.09591912,1.3581614,-2.3420057,2.4545603,-0.07971144,8.180764,15.640552,1.3159357,0.35229668,0.23798968,0.15988499,0.09956998,inf,inf,inf,inf,1,1,1,1,2,0,2,2,1,1,0
4401171066,44125377,37.102281,-76.387524,24.118523,-81.17583,-16.16211,0.0013837058,-0.007301951,0.0,0.0045688604,-0.051204823,-1.3010664,-1.3071009,-0.03502048,-0.020939376,0.09591912,-0.07728746,-2.2839444,-0.8274915,-0.07776416,8.180764,15.778188,1.3010664,0.3646131,0.23908803,0.16442996,0.10015606,inf,inf,inf,inf,1,1,1,1,2,0,2,2,1,1,0
4401271072,44125377,37.102281,-76.387524,24.118929,-81.1885,-16.296144,0.0013837058,-0.007301951,0.0,-0.0021291976,-0.06730091,-1.2761056,-1.2870295,-0.03502048,-0.020939376,0.09591912,0.15885594,-1.2045338,-1.2657493,-0.0749745,8.180764,15.912223,1.2761056,0.3523302,0.23839705,0.15963075,0.09967114,inf,inf,inf,inf,1,1,1,1,2,0,2,2,1,1,0
4401371786,44125377,37.102281,-76.387524,24.123283,-81.20858,-16.43456,0.0013837058,-0.007301951,0.0,-0.009634792,-0.109155476,-1.2771537,-1.2953767,-0.03502048,-0.020939376,0.09591912,-1.536719,0.8876783,-3.1359024,-0.07189668,8.180764,16.050638,1.2771537,0.36463133,0.23947687,0.1641906,0.100248545,inf,inf,inf,inf,1,1,1,1,2,0,2,2,1,1,0
4401475798,44125377,37.102281,-76.387524,24.125021,-81.22854,-16.581266,0.0013837058,-0.007301951,0.0,-0.028434034,-0.10049643,-1.2582103,-1.2869021,-0.03502048,-0.020939376,0.09591912,1.0309455,0.05488165,0.0011016913,-0.06989972,8.180764,16.197344,1.2582103,0.3533789,0.2393538,0.15998538,0.099922344,inf,inf,inf,inf,1,1,1,1,2,0,2,2,1,1,0
4401576629,44125377,37.102281,-76.387524,24.123865,-81.249626,-16.726446,0.0013837058,-0.007301951,0.0,-0.050023478,-0.104459256,-1.2696083,-1.3106242,-0.03502048,-0.020939376,0.09591912,-1.2218378,1.9602735,1.1748832,-0.06812945,8.180764,16.342524,1.2696083,0.36572617,0.24041942,0.16461661,0.10049356,inf,inf,inf,inf,1,1,1,1,2,0,2,2,1,1,0
4401676575,44125377,37.102281,-76.387524,24.118975,-81.26936,-16.869827,0.0013837058,-0.007301951,0.0,-0.0788608,-0.15343946,-1.2626351,-1.3158503,-0.03502048,-0.020939376,0.09591912,-0.6339199,-3.09648,-0.09503501,-0.06608847,8.180764,16.485905,1.2626351,0.35345167,0.2396193,0.15998015,0.099987455,inf,inf,inf,inf,1,1,1,1,2,0,2,2,1,1,0
4401776553,44125377,37.102281,-76.387524,24.111084,-81.29145,-17.018673,0.0013837058,-0.007301951,0.0,-0.11163062,-0.123361,-1.2523037,-1.3218862,-0.03502048,-0.020939376,0.09591912,0.63509774,0.4754113,1.8913157,-0.065188885,8.180764,16.63475,1.2523037,0.36541015,0.23874857,0.16439116,0.10012303,inf,inf,inf,inf,1,1,1,1,2,0,2,2,1,1,0
4401877325,44125377,37.102281,-76.387524,24.099546,-81.31208,-17.164598,0.0013837058,-0.007301951,0.0,-0.1494382,-0.14278431,-1.2499435,-1.3296041,-0.03502048,-0.020939376,0.09591912,0.3250863,0.4121095,1.436941,-0.062378936,8.180764,16.780676,1.2499435,0.3539087,0.23860165,0.1600184,0.09980275,inf,inf,inf,inf,1,1,1,1,2,0,2,2,1,1,0
4401977370,44125377,37.102281,-76.387524,24.085386,-81.33096,-17.311613,0.0013837058,-0.007301951,0.0,-0.17621604,-0.17110033,-1.2967486,-1.3859122,-0.03502048,-0.020939376,0.09591912,-1.6414468,0.047048207,0.036635015,-0.059122466,8.180764,16.92769,1.2967486,0.36490664,0.23883034,0.16413914,0.10018257,inf,inf,inf,inf,1,1,1,1,2,0,2,2,1,1,0
4402081502,44125377,37.102281,-76.387524,24.068443,-81.350716,-17.47212,0.0013837058,-0.007301951,0.0,-0.19391686,-0.16695943,-1.3290448,-1.4315244,-0.03502048,-0.020939376,0.09591912,-1.4935371,2.4798203,-0.7857876,-0.057052936,8.180764,17.088198,1.3290448,0.35347694,0.23867866,0.15990597,0.0998596,inf,inf,inf,inf,1,1,1,1,2,0,2,2,1,1,0
4402182167,44125377,37.102281,-76.387524,24.052935,-81.3701,-17.627068,0.0013837058,-0.007301951,0.0,-0.1955372,-0.1611888,-1.3310347,-1.4413397,-0.03502048,-0.020939376,0.09591912,-1.5402379,1.7404766,-0.8027691,-0.056543097,8.180764,17.243145,1.3310347,0.3658183,0.23978677,0.16467759,0.100447565,inf,inf,inf,inf,1,1,1,1,2,0,2,2,1,1,0
4402286142,44125377,37.102281,-76.387524,24.035631,-81.38857,-17.783781,0.0013837058,-0.007301951,0.0,-0.17971972,-0.13725708,-1.3576934,-1.4695297,-0.03502048,-0.020939376,0.09591912,-0.46399075,2.1596103,-1.2336178,-0.05706848,8.180764,17.399858,1.3576934,0.3543531,0.23963453,0.16046508,0.10012548,inf,inf,inf,inf,1,1,1,1,2,0,2,2,1,1,0
4402386828,44125377,37.102281,-76.387524,24.018013,-81.404205,-17.93665,0.0013837058,-0.007301951,0.0,-0.15285331,-0.118268065,-1.3927053,-1.5049304,-0.03502048,-0.020939376,0.09591912,-1.1413876,2.0258904,-2.976967,-0.058257595,8.180764,17.552727,1.3927053,0.3658697,0.24017213,0.16488874,0.10053741,inf,inf,inf,inf,1,1,1,1,2,0,2,2,1,1,0
4402491024,44125377,37.102281,-76.387524,24.004105,-81.41662,-18.10229,0.0013837058,-0.007301951,0.0,-0.12507902,-0.052845724,-1.4201114,-1.5373762,-0.03502048,-0.020939376,0.09591912,-0.50786203,1.8964393,-0.3694027,-0.060312264,8.180764,17.718367,1.4201114,0.35446054,0.2382972,0.16078308,0.099793755,inf,inf,inf,inf,1,1,1,1,2,0,2,2,1,1,0
4402590942,44125377,37.102281,-76.387524,23.994638,-81.42442,-18.262901,0.0013837058,-0.007301951,0.0,-0.07493463,-0.00098418,-1.4372606,-1.5574892,-0.03502048,-0.020939376,0.09591912,2.6180286,-0.0073330267,3.6642268,-0.06123411,8.180764,17.878979,1.4372606,0.3669697,0.23945197,0.16555089,0.100379415,inf,inf,inf,inf,1,1,1,1,2,0,2,2,1,1,0
4402691744,44125377,37.102281,-76.387524,23.986774,-81.42681,-18.422335,0.0013837058,-0.007301951,0.0,-0.05530621,0.049006507,-1.4247522,-1.5453134,-0.03502048,-0.020939376,0.09591912,1.267516,2.417207,0.33369005,-0.061983045,8.180764,18.038412,1.4247522,0.3545682,0.23869357,0.16094287,0.09988561,inf,inf,inf,inf,1,1,1,1,2,0,2,2,1,1,0
4402795872,44125377,37.102281,-76.387524,23.980185,-81.424324,-18.574234,0.0013837058,-0.007301951,0.0,-0.04759002,0.10296699,-1.4234084,-1.5319811,-0.03502048,-0.020939376,0.09591912,-0.60750973,3.8966424,-1.7721437,-0.06429031,8.180764,18.190311,1.4234084,0.36709636,0.23986445,0.16574651,0.10047656,inf,inf,inf,inf,1,1,1,1,2,0,2,2,1,1,0
