timestamp,lat,lon,alt,delta_alt,vel_n,vel_e,vel_d,yaw,eph,epv,terrain_alt,lat_lon_reset_counter,alt_reset_counter,terrain_alt_valid,dead_reckoning
4384791733,37.1024969128307,-76.38844143643942,8.636432,-0.0,0.10950786,-0.09938924,0.03829103,-0.08161745,1.2127497,1.8804297,0.0,2,0,0,0
4384996378,37.10249705230135,-76.3884416957314,8.627325,-0.0,0.11803067,-0.09683999,0.039942205,-0.081465654,1.212753,1.8802577,0.0,2,0,0,0
4385197352,37.10249717808367,-76.38844196715327,8.618388,-0.0,0.10066497,-0.11111335,0.040874057,-0.08097828,1.2127918,1.8802927,0.0,2,0,0,0
4385398171,37.102497293591256,-76.38844223367137,8.605274,-0.0,0.09977791,-0.10846173,0.038143802,-0.08209197,1.212864,1.8803304,0.0,2,0,0,0
4385602946,37.102497385650395,-76.388442502598,8.578756,-0.0,0.112466425,-0.1086325,0.031111285,-0.08090231,1.2132083,1.8804438,0.0,2,0,0,0
4385806955,37.10249747681827,-76.3884426807644,8.562016,-0.0,0.030730871,0.14754358,-0.19393133,-0.06941021,1.2133136,1.8804815,0.0,2,0,0,0
4386007725,37.102497292958226,-76.38844202006227,8.651884,-0.0,-0.06758274,0.32860103,-0.80478996,-0.06210495,1.2136188,1.8803619,0.0,2,0,0,0
4386208518,37.10249691165024,-76.38844103253497,8.877288,-0.0,-0.19439264,0.53665286,-0.9420513,-0.05888246,1.2135801,1.8803569,0.0,2,0,0,0
4386409327,37.10249642841904,-76.38843990133864,9.128413,-0.0,-0.23002507,0.53745925,-0.91848665,-0.054849353,1.2136636,1.8803871,0.0,2,0,0,0
4386614138,37.10249600220507,-76.3884387689386,9.310795,-0.0,-0.20944043,0.47159016,-0.88202363,-0.048822466,1.2140307,1.8805,0.0,2,0,0,0
4386814138,37.10249556957501,-76.38843773968682,9.44584,-0.0,-0.18477124,0.37847272,-0.8246845,-0.043239344,1.2139512,1.8802794,0.0,2,0,0,0
4387014726,37.102495198815035,-76.38843690313996,9.582051,-0.0,-0.10414637,0.266714,-0.84331864,-0.0350659,1.2140458,1.8803203,0.0,2,0,0,0
4387215856,37.102494989585196,-76.38843626712777,9.734659,-0.0,-0.02260219,0.1633045,-0.8926098,-0.029091645,1.2141074,1.8803531,0.0,2,0,0,0
4387416547,37.102494903685376,-76.388435823219,9.869915,-0.0,0.06452756,0.06281809,-0.85136026,-0.029174466,1.2142047,1.880392,0.0,2,0,0,0
4387616572,37.102494933756525,-76.38843561537419,10.005356,-0.0,0.093074635,-0.027230013,-0.8254027,-0.034836553,1.2143115,1.880435,0.0,2,0,0,0
4387821387,37.10249495675967,-76.38843552280765,10.19219,-0.0,0.10734689,-0.08145486,-0.8350878,-0.03917577,1.214379,1.8804733,0.0,2,0,0,0
4388022253,37.10249517366176,-76.38843553674691,10.395695,-0.0,0.12509605,-0.109890625,-0.8772347,-0.03716559,1.2147521,1.8803645,0.0,2,0,0,0
4388222978,37.10249530828029,-76.38843550775688,10.630089,-0.0,0.15668043,-0.07136723,-0.93058646,-0.035007052,1.2146865,1.8803686,0.0,2,0,0,0
4388427047,37.10249541487122,-76.38843538293062,10.87639,-0.0,0.18344387,-0.03696579,-0.9477395,-0.033836737,1.2149612,1.8804537,0.0,2,0,0,0
4388627730,37.10249557446568,-76.38843523849047,11.121581,-0.0,0.23173878,-0.0136921,-0.96740806,-0.036199365,1.2150688,1.8802803,0.0,2,0,0,0
4388828580,37.10249572632426,-76.38843506686517,11.372473,-0.0,0.24681218,-0.016589444,-0.9678608,-0.045732114,1.215185,1.880322,0.0,2,0,0,0
4389029317,37.10249580095793,-76.38843505181106,11.634483,-0.0,0.22672041,-0.07962455,-0.97559685,-0.05871668,1.215265,1.8803596,0.0,2,0,0,0
4389230001,37.102495799275545,-76.38843523315938,11.886047,-0.0,0.18726228,-0.13924277,-0.9487169,-0.07254087,1.2153221,1.8804086,0.0,2,0,0,0
4389430225,37.10249556936832,-76.38843561185466,12.132402,-0.0,0.11351316,-0.2263518,-0.9465744,-0.080620505,1.2153963,1.8804522,0.0,2,0,0,0
4389634918,37.10249528125909,-76.3884361484978,12.382587,-0.0,0.056638703,-0.2606694,-0.8984988,-0.08316976,1.2154679,1.8804919,0.0,2,0,0,0
4389835778,37.10249498805559,-76.38843665408453,12.620821,-0.0,0.030970674,-0.24115658,-0.8769492,-0.08063742,1.2154729,1.8803046,0.0,2,0,0,0
4390036557,37.102494671008834,-76.38843720191102,12.842882,-0.0,0.010820129,-0.25318435,-0.8839532,-0.07772415,1.2155505,1.8803458,0.0,2,0,0,0
4390237435,37.10249436521459,-76.38843774638255,13.080206,-0.0,0.021278018,-0.26009095,-0.8791431,-0.07599445,1.2156154,1.8803877,0.0,2,0,0,0
4390437320,37.10249411971401,-76.38843826848732,13.307801,-0.0,0.018531652,-0.23320505,-0.89603716,-0.07532952,1.21567,1.8804338,0.0,2,0,0,0
4390642181,37.102493957886786,-76.38843878199027,13.521365,-0.0,0.010500439,-0.17893001,-0.8556511,-0.07646338,1.2159908,1.8803333,0.0,2,0,0,0
4390842832,37.10249374796304,-76.38843916120193,13.704403,-0.0,-0.015933163,-0.11899437,-0.8525232,-0.07725897,1.2160523,1.8803772,0.0,2,0,0,0
4391043846,37.10249361612247,-76.388439301427,13.878407,-0.0,-0.02238911,-0.027614564,-0.87018096,-0.07658137,1.2159745,1.8803897,0.0,2,0,0,0
4391247761,37.10249354931131,-76.3884392295923,14.046909,-0.0,-0.0068511283,0.04633549,-0.8989493,-0.073423676,1.2163095,1.8802947,0.0,2,0,0,0
4391448841,37.1024936201208,-76.38843908979662,14.23499,-0.0,0.02919168,0.121199116,-0.9499902,-0.072696134,1.2164105,1.880337,0.0,2,0,0,0
4391649228,37.10249387580796,-76.38843888324497,14.435848,-0.0,0.048179723,0.15328047,-0.9783552,-0.07151222,1.2164742,1.8803744,0.0,2,0,0,0
4391854028,37.10249421640427,-76.38843857001885,14.635914,-0.0,0.080638744,0.2154642,-1.0030564,-0.06612989,1.2167244,1.8804595,0.0,2,0,0,0
4392054163,37.10249438524701,-76.38843807406583,14.857704,-0.0,0.123524316,0.2741387,-1.0559394,-0.057940096,1.2168238,1.8804933,0.0,2,0,0,0
4392254950,37.10249472344492,-76.38843736321535,15.078218,-0.0,0.16042256,0.327831,-1.0637958,-0.054477252,1.2169155,1.8805279,0.0,2,0,0,0
4392455735,37.10249509112898,-76.38843667817379,15.28179,-0.0,0.14798544,0.3650831,-1.0374814,-0.05992065,1.2169951,1.8805511,0.0,2,0,0,0
4392656592,37.10249529635608,-76.38843586425938,15.473516,-0.0,0.09529035,0.34327272,-1.0408472,-0.06833943,1.2171047,1.8803638,0.0,2,0,0,0
4392857436,37.10249531876312,-76.38843521698023,15.651376,-0.0,-0.003147934,0.268313,-1.0251882,-0.075544536,1.2172115,1.8804041,0.0,2,0,0,0
4393062146,37.10249518420025,-76.38843469736568,15.799625,-0.0,-0.1275038,0.21370131,-0.96151084,-0.082723096,1.2106471,1.880323,0.0,2,0,0,0
4393266194,37.102494885325584,-76.38843434894613,15.930908,-0.0,-0.24664184,0.100278206,-0.9090645,-0.085753165,1.2107875,1.880363,0.0,2,0,0,0
4393470949,37.10249452471448,-76.3884342722903,16.052208,-0.0,-0.30944592,0.007182825,-0.9030124,-0.087749004,1.2111539,1.880245,0.0,2,0,0,0
4393671727,37.10249404739116,-76.38843443935215,16.188004,-0.0,-0.3264942,-0.07579398,-0.9599414,-0.09249597,1.2112795,1.8802804,0.0,2,0,0,0
4393872560,37.10249352984362,-76.38843459944522,16.322111,-0.0,-0.2864605,-0.07487167,-0.9728621,-0.0957281,1.2114447,1.8803183,0.0,2,0,0,0
4394072622,37.10249317876822,-76.38843471712816,16.467072,-0.0,-0.19317424,-0.0732993,-1.0330417,-0.09707291,1.2115873,1.8803537,0.0,2,0,0,0
4394273211,37.10249313202398,-76.38843494931886,16.62638,-0.0,-0.07145154,-0.05835774,-1.087893,-0.09866271,1.2117262,1.8801757,0.0,2,0,0,0
4394474182,37.10249326595512,-76.3884350840413,16.804081,-0.0,0.032221522,-0.030446477,-1.0924908,-0.10087687,1.2118552,1.8802077,0.0,2,0,0,0
4394674833,37.102493474142726,-76.3884351831488,16.977438,-0.0,0.07784757,-0.027138263,-1.0872716,-0.10293015,1.2118729,1.8802123,0.0,2,0,0,0
4394874963,37.102493737255514,-76.38843519975549,17.142208,-0.0,0.085526645,-0.037346058,-1.0929372,-0.1028418,1.2120137,1.880258,0.0,2,0,0,0
4395075886,37.1024939807107,-76.38843522006117,17.315716,-0.0,0.0832908,-0.03173445,-1.09712,-0.10191274,1.2121488,1.8803014,0.0,2,0,0,0
4395280633,37.10249427878115,-76.38843531030878,17.495941,-0.0,0.095440604,-0.035623062,-1.1048274,-0.1006837,1.2125328,1.8801957,0.0,2,0,0,0
4395481330,37.10249463705879,-76.38843546765946,17.673561,-0.0,0.10814067,-0.06439487,-1.1294359,-0.09693414,1.212657,1.8802383,0.0,2,0,0,0
4395686114,37.10249497384326,-76.38843565279713,17.855051,-0.0,0.11636303,-0.07844426,-1.0970702,-0.09432438,1.2127742,1.880284,0.0,2,0,0,0
4395890272,37.10249518312805,-76.38843583345978,18.02383,-0.0,0.050354138,-0.07808355,-1.1059716,-0.094368935,1.2131988,1.8801948,0.0,2,0,0,0
4396090935,37.102495268480645,-76.38843605833964,18.201832,-0.0,-0.050087534,-0.060783084,-1.1488978,-0.096257575,1.213352,1.8802321,0.0,2,0,0,0
4396295815,37.10249519017422,-76.38843632958697,18.379364,-0.0,-0.080570556,-0.08499726,-1.1131492,-0.08669444,1.2137516,1.880141,0.0,2,0,0,0
4396496558,37.10249511322158,-76.3884367732357,18.538742,-0.0,-0.062452443,-0.14787468,-0.96008724,-0.08149003,1.2137536,1.8801552,0.0,2,0,0,0
4396701332,37.10249510355967,-76.38843738025359,18.687382,-0.0,-0.103624016,-0.21298686,-0.8497569,-0.08505337,1.2138923,1.8802059,0.0,2,0,0,0
4396901483,37.10249494171398,-76.38843806684613,18.83259,-0.0,-0.26737905,-0.30483827,-0.8689675,-0.089797355,1.2140418,1.8802541,0.0,2,0,0,0
4397102031,37.10249449268829,-76.38843890217872,18.998579,-0.0,-0.3990436,-0.3709971,-0.8674451,-0.08632379,1.21444,1.8801554,0.0,2,0,0,0
4397302977,37.102493887413054,-76.38843987506918,19.169437,-0.0,-0.4186822,-0.41975808,-0.9754239,-0.07650835,1.2144582,1.8801645,0.0,2,0,0,0
4397503728,37.102493418128766,-76.38844079505367,19.360813,-0.0,-0.31507713,-0.3513004,-1.0738766,-0.0689647,1.214617,1.8802154,0.0,2,0,0,0
4397703620,37.10249314401515,-76.38844151123868,19.575968,-0.0,-0.16868067,-0.26442924,-1.1585919,-0.0695253,1.2147604,1.8802689,0.0,2,0,0,0
4397908396,37.10249299721449,-76.38844197699589,19.818087,-0.0,-0.01234755,-0.16044974,-1.211493,-0.07369277,1.2149347,1.8803211,0.0,2,0,0,0
4398109323,37.10249306968462,-76.3884422523744,20.081333,-0.0,0.10768651,-0.08274908,-1.2754697,-0.07582641,1.2153399,1.8802239,0.0,2,0,0,0
4398310027,37.10249329891925,-76.38844234589031,20.35631,-0.0,0.19082905,-0.020829787,-1.2962611,-0.07548176,1.215309,1.880239,0.0,2,0,0,0
4398510948,37.10249360671644,-76.38844232034354,20.642738,-0.0,0.2414484,0.04326063,-1.316967,-0.07727918,1.2154329,1.8802866,0.0,2,0,0,0
4398714770,37.102494062066725,-76.38844212678465,20.938385,-0.0,0.28102002,0.112888604,-1.337962,-0.076653905,1.2155099,1.8803275,0.0,2,0,0,0
4398915814,37.1024946511444,-76.38844179936682,21.238693,-0.0,0.3041964,0.17554604,-1.363494,-0.07146134,1.2156181,1.8803692,0.0,2,0,0,0
4399116534,37.10249527826847,-76.38844139108252,21.535816,-0.0,0.28935164,0.19649678,-1.3578651,-0.0653069,1.2156835,1.8803991,0.0,2,0,0,0
4399317340,37.102495855168165,-76.38844095879564,21.828556,-0.0,0.28498802,0.22932701,-1.3673847,-0.06288528,1.216043,1.8802981,0.0,2,0,0,0
4399521180,37.10249638338751,-76.38844047136381,22.121586,-0.0,0.25959995,0.24973816,-1.3579694,-0.06589073,1.2159401,1.8803021,0.0,2,0,0,0
4399722027,37.10249682918578,-76.38843997747882,22.405697,-0.0,0.2282037,0.24625821,-1.34961,-0.07271514,1.2159268,1.8803468,0.0,2,0,0,0
4399922913,37.10249719842881,-76.38843955095332,22.683285,-0.0,0.17870216,0.22209083,-1.3491396,-0.07729106,1.2159461,1.8801699,0.0,2,0,0,0
4400127620,37.10249750713748,-76.3884392181983,22.954998,-0.0,0.10958534,0.176782,-1.3354427,-0.079170294,1.2162788,1.8802958,0.0,2,0,0,0
4400328524,37.10249772904995,-76.38843901654987,23.20362,-0.0,0.03642491,0.13834026,-1.325636,-0.08129261,1.2163212,1.880342,0.0,2,0,0,0
4400529200,37.10249782939692,-76.3884389186505,23.465477,-0.0,-0.010786955,0.09131722,-1.3622435,-0.08197425,1.2163687,1.880174,0.0,2,0,0,0
4400733336,37.10249784641289,-76.38843891830658,23.745913,-0.0,-0.024241604,0.062774286,-1.3518401,-0.08360915,1.2163956,1.88022,0.0,2,0,0,0
4400934025,37.10249787468032,-76.38843905397408,24.024223,-0.0,-0.002111054,-0.0048763966,-1.3651868,-0.08142515,1.2164187,1.8802593,0.0,2,0,0,0
4401134950,37.10249789877881,-76.38843928324067,24.29557,-0.0,-0.0009834648,-0.03156654,-1.2962443,-0.078547366,1.2164311,1.8803093,0.0,2,0,0,0
4401335810,37.10249792903447,-76.38843961806448,24.565483,-0.0,-0.0014788879,-0.065676734,-1.2754889,-0.07339426,1.2164385,1.8803604,0.0,2,0,0,0
4401535789,37.10249795386885,-76.38844006704822,24.847862,-0.0,-0.033552624,-0.1111906,-1.2787503,-0.06886254,1.216475,1.8804036,0.0,2,0,0,0
4401736544,37.102497866538236,-76.38844054485021,25.14,-0.0,-0.10232247,-0.129358,-1.2594597,-0.065639704,1.216666,1.8802669,0.0,2,0,0,0
4401937420,37.102497655807724,-76.3884409962399,25.43229,-0.0,-0.17075565,-0.17487283,-1.2952031,-0.059942435,1.2166331,1.8803091,0.0,2,0,0,0
4402138258,37.10249737118136,-76.3884414311112,25.740395,-0.0,-0.18521819,-0.1668786,-1.3372093,-0.056780793,1.2165023,1.88032,0.0,2,0,0,0
4402338151,37.10249706945351,-76.3884418308826,26.04309,-0.0,-0.16515963,-0.1114981,-1.3928336,-0.057864126,1.2165169,1.8803707,0.0,2,0,0,0
4402542822,37.10249682139899,-76.38844210651533,26.367958,-0.0,-0.08868502,-0.02568671,-1.4472427,-0.06072138,1.2168055,1.8802707,0.0,2,0,0,0
4402743613,37.10249668317805,-76.38844216647561,26.681183,-0.0,-0.041514877,0.071463645,-1.441882,-0.06293129,1.2168403,1.8803222,0.0,2,0,0,0
4402948381,37.1024965597625,-76.38844194512245,26.967316,-0.0,-0.046496134,0.19151472,-1.4216406,-0.06929016,1.2168609,1.8803711,0.0,2,0,0,0
4403149341,37.10249639514685,-76.38844147815703,27.252705,-0.0,-0.10150032,0.30877164,-1.4317486,-0.07654757,1.2168918,1.8802011,0.0,2,0,0,0
4403349319,37.102496085519675,-76.38844080222633,27.53955,-0.0,-0.2045548,0.37614775,-1.4084535,-0.081892416,1.216892,1.8802526,0.0,2,0,0,0
4403554009,37.10249558043326,-76.38843993513764,27.827076,-0.0,-0.30002394,0.42514646,-1.4089259,-0.086543426,1.2171652,1.8803687,0.0,2,0,0,0
4403754801,37.10249495589235,-76.38843902107588,28.08054,-0.0,-0.34139642,0.44465765,-1.3945091,-0.08977795,1.2171801,1.8801997,0.0,2,0,0,0
4403955773,37.10249423227471,-76.38843808412933,28.316746,-0.0,-0.33329,0.43052453,-1.345641,-0.091873385,1.2170678,1.8802121,0.0,2,0,0,0
4404156512,37.10249350927432,-76.38843718202442,28.544384,-0.0,-0.2952239,0.34915552,-1.333962,-0.094043516,1.2170669,1.8802569,0.0,2,0,0,0
4404360548,37.1024928583505,-76.38843643141678,28.803925,-0.0,-0.23301044,0.27095678,-1.3225758,-0.09787515,1.2173964,1.8803813,0.0,2,0,0,0
4404561206,37.10249236736158,-76.38843587919311,29.067791,-0.0,-0.18628736,0.1941494,-1.3253752,-0.09926401,1.2174326,1.8804144,0.0,2,0,0,0
4404762007,37.102491980474085,-76.3884355018669,29.315845,-0.0,-0.15610047,0.13113922,-1.3332326,-0.09846162,1.217518,1.8804523,0.0,2,0,0,0
4404962955,37.10249167487414,-76.38843531397669,29.557991,-0.0,-0.108165815,0.051538922,-1.3502811,-0.08814635,1.2174976,1.8804511,0.0,2,0,0,0
4405166947,37.102491481866785,-76.38843525762562,29.811035,-0.0,-0.030846246,-0.005401169,-1.378173,-0.08113521,1.2179074,1.880341,0.0,2,0,0,0
4405367582,37.102491426084356,-76.38843528670263,30.069576,-0.0,0.067370966,-0.04208141,-1.3890235,-0.08541768,1.2180159,1.8803719,0.0,2,0,0,0
4405568529,37.102491508470436,-76.38843538331376,30.333153,-0.0,0.12299801,-0.06776053,-1.38045,-0.095976435,1.2180976,1.8803962,0.0,2,0,0,0
4405773373,37.10249171545696,-76.38843552973698,30.59272,-0.0,0.1683491,-0.11580537,-1.325539,-0.1037146,1.2182075,1.880433,0.0,2,0,0,0
4405974159,37.102491961243516,-76.38843574059611,30.82993,-0.0,0.19326313,-0.16651592,-1.3075272,-0.10473659,1.218612,1.8803256,0.0,2,0,0,0
4406174225,37.102492217201416,-76.38843601941797,31.076775,-0.0,0.22256,-0.23280089,-1.2635475,-0.103852905,1.2185721,1.8803251,0.0,2,0,0,0
4406374959,37.10249250847694,-76.3884364014746,31.328197,-0.0,0.24505807,-0.2830281,-1.2434199,-0.10228979,1.2186636,1.8803618,0.0,2,0,0,0
4406575832,37.102492854881994,-76.38843689683162,31.576157,-0.0,0.23473233,-0.30249938,-1.2110171,-0.09916321,1.2187806,1.8804034,0.0,2,0,0,0
4406776659,37.10249319420232,-76.38843744939759,31.834251,-0.0,0.2049124,-0.27393785,-1.2522708,-0.09426764,1.2188799,1.8804414,0.0,2,0,0,0
4406977331,37.102493407018585,-76.3884379014806,32.09971,-0.0,0.1492144,-0.21912682,-1.3199601,-0.08681776,1.2189705,1.8804742,0.0,2,0,0,0
4407181360,37.10249351031281,-76.38843820610921,32.366383,-0.0,0.08979442,-0.16685067,-1.3378118,-0.07767318,1.2190524,1.880512,0.0,2,0,0,0
4407382167,37.1024935016322,-76.38843834779827,32.622654,-0.0,0.0336646,-0.0846243,-1.2840693,-0.07336185,1.219392,1.8803937,0.0,2,0,0,0
4407582944,37.102493370083685,-76.3884384310724,32.87896,-0.0,-0.03701646,-0.099648505,-1.2798685,-0.07169975,1.2192851,1.880391,0.0,2,0,0,0
4407783711,37.10249307890753,-76.3884385110755,33.141556,-0.0,-0.08777935,-0.09778036,-1.2770027,-0.07108505,1.2193553,1.8804305,0.0,2,0,0,0
4407983829,37.1024927674733,-76.38843860991864,33.394,-0.0,-0.09118949,-0.110167064,-1.2867025,-0.07245186,1.219417,1.8804692,0.0,2,0,0,0
4408184645,37.10249248370685,-76.38843875237862,33.630676,-0.0,-0.0900738,-0.088146575,-1.283045,-0.076343514,1.2194688,1.8802873,0.0,2,0,0,0
4408385531,37.10249226874181,-76.3884389019798,33.879616,-0.0,-0.05097269,-0.106034756,-1.2862365,-0.07956805,1.219498,1.8803233,0.0,2,0,0,0
4408590016,37.10249216290503,-76.38843910423184,34.13622,-0.0,0.012454503,-0.10444136,-1.2813793,-0.0824122,1.2197007,1.8804044,0.0,2,0,0,0
4408794130,37.102492220143894,-76.3884392808493,34.402546,-0.0,0.084781215,-0.097651236,-1.2935283,-0.0852263,1.2197787,1.8804463,0.0,2,0,0,0
4408994941,37.102492374075325,-76.3884394591885,34.66027,-0.0,0.15024337,-0.08328152,-1.2843388,-0.08766045,1.2198255,1.8802692,0.0,2,0,0,0
4409199725,37.102492633774226,-76.38843952810056,34.91728,-0.0,0.2005552,-0.054251492,-1.2627376,-0.08969911,1.2201701,1.8803872,0.0,2,0,0,0
4409400559,37.102493022962896,-76.38843955976381,35.17072,-0.0,0.26674488,-0.042733215,-1.2782516,-0.088855214,1.2202137,1.8802191,0.0,2,0,0,0
4409605463,37.10249357148785,-76.38843956252335,35.44291,-0.0,0.31959623,-0.025659848,-1.268975,-0.08931041,1.2205899,1.8803488,0.0,2,0,0,0
4409809367,37.10249426044593,-76.38843957896316,35.724007,-0.0,0.33519194,-0.015725909,-1.2675236,-0.09440901,1.2205034,1.8803605,0.0,2,0,0,0
4410010223,37.10249490413661,-76.3884396107155,36.0013,-0.0,0.28871974,0.017385107,-1.2864984,-0.10315054,1.2205601,1.8804034,0.0,2,0,0,0
4410214921,37.102495352298696,-76.38843954912441,36.288937,-0.0,0.17897984,0.07557841,-1.2790647,-0.106969245,1.2209394,1.8803134,0.0,2,0,0,0
4410415792,37.10249556160358,-76.38843934661554,36.572933,-0.0,0.06479537,0.118260205,-1.282018,-0.10193594,1.2210221,1.8803679,0.0,2,0,0,0
4410620652,37.102495632740265,-76.38843903820376,36.863586,-0.0,-0.014886333,0.14294441,-1.3053716,-0.09213068,1.2210933,1.8804164,0.0,2,0,0,0
4410820614,37.102495547405596,-76.38843871387479,37.14202,-0.0,-0.031829815,0.14586109,-1.298652,-0.08519598,1.2211212,1.8804601,0.0,2,0,0,0
4411021400,37.102495461298716,-76.38843843015133,37.39768,-0.0,-0.023352811,0.10732891,-1.2538565,-0.08224047,1.2211593,1.8804909,0.0,2,0,0,0
4411222155,37.10249550541857,-76.38843819357311,37.62788,-0.0,0.007046773,0.09801759,-1.2216697,-0.0813498,1.2214905,1.8803803,0.0,2,0,0,0
4411422982,37.10249559240368,-76.38843803029182,37.854107,-0.0,0.034302384,0.07349145,-1.2387149,-0.07815995,1.2214077,1.8803767,0.0,2,0,0,0
4411623014,37.10249568889121,-76.38843792809098,38.090904,-0.0,0.057549223,0.050442215,-1.2517565,-0.07650422,1.2214874,1.8804107,0.0,2,0,0,0
4411823931,37.10249587682245,-76.38843782331037,38.329426,-0.0,0.09647725,0.047917984,-1.1607429,-0.07899575,1.2215587,1.8804451,0.0,2,0,0,0
4412024571,37.10249616262963,-76.38843774795274,38.5363,-0.0,0.14626463,0.008991387,-1.0195273,-0.08057568,1.2215852,1.8804677,0.0,2,0,0,0
4412225477,37.10249653411655,-76.3884377341066,38.712986,-0.0,0.27180514,0.017091906,-0.7955297,-0.078092314,1.2216107,1.8804955,0.0,2,0,0,0
4412429338,37.10249716454977,-76.38843750932139,38.836113,-0.0,0.5550195,0.17057607,-0.57028306,-0.038684625,1.2216077,1.8805274,0.0,2,0,0,0
4412630257,37.10249839275892,-76.38843674789676,38.93954,-0.0,0.9757714,0.48097265,-0.41084984,0.07414669,1.2215716,1.8805588,0.0,2,0,0,0
4412830987,37.10250059417823,-76.38843516267359,39.018517,-0.0,1.37824,0.85561854,-0.20228454,0.2258118,1.2214931,1.8805753,0.0,2,0,0,0
4413031832,37.10250348339553,-76.38843276328353,39.063053,-0.0,1.6524675,1.1999522,-0.06780125,0.3880488,1.2214359,1.880594,0.0,2,0,0,0
4413232601,37.102506785735656,-76.38842967265809,39.096832,-0.0,1.8069474,1.4761409,-0.04468083,0.5493448,1.2216309,1.8804617,0.0,2,0,0,0
4413432607,37.10251019804921,-76.38842600951303,39.122826,-0.0,1.896425,1.6618054,0.00010276679,0.69347036,1.2214239,1.8806667,0.0,2,0,0,0
4413637348,37.10251379112603,-76.3884219527887,39.14255,-0.0,1.9393133,1.7744921,0.0042841043,0.80496216,1.221672,1.8805234,0.0,2,0,0,0
4413842017,37.10251738979658,-76.38841763849426,39.149734,-0.0,1.9362111,1.8663132,0.009427935,0.88180596,1.2215037,1.8807161,0.0,2,0,0,0
4414042951,37.102520877160515,-76.38841323705105,39.172832,-0.0,1.8989283,1.9477832,-0.024600243,0.93356323,1.2215061,1.8807217,0.0,2,0,0,0
4414243718,37.10252427851933,-76.38840867748577,39.20188,-0.0,1.7993281,2.0312965,0.02351809,0.96611136,1.2215096,1.8807275,0.0,2,0,0,0
4414447714,37.102527539429374,-76.38840387462938,39.211346,-0.0,1.6830937,2.1007655,0.044617712,0.9849711,1.2217951,1.8808116,0.0,2,0,0,0
4414652542,37.1025305785497,-76.38839889153994,39.20519,-0.0,1.5911505,2.154294,0.060436323,0.9954689,1.2145275,1.8806299,0.0,2,0,0,0
4414853465,37.10253338581021,-76.38839388401529,39.185627,-0.0,1.50258,2.2174733,0.09568383,0.9995946,1.2218165,1.8805662,0.0,2,0,0,0
4415054224,37.10253605612056,-76.38838871363642,39.150307,-0.0,1.435336,2.2707808,0.06026133,0.99893165,1.2217833,1.8807925,0.0,2,0,0,0
4415260408,37.102538635742555,-76.38838342832184,39.132534,-0.0,1.3777153,2.3262615,0.058613937,0.9960424,1.2145739,1.8804758,0.0,2,0,0,0
4415459400,37.10254111431436,-76.3883782076133,39.125477,-0.0,1.3574957,2.3270383,0.029936504,0.99391,1.2143797,1.8804334,0.0,2,0,0,0
4415667631,37.10254361798313,-76.38837269767625,39.120678,-0.0,1.2980065,2.3232567,0.041506782,0.9872098,1.2145902,1.8805163,0.0,2,0,0,0
4415868418,37.10254593015141,-76.38836745898519,39.10697,-0.0,1.2446588,2.2982175,0.02805354,0.9796465,1.2145523,1.880508,0.0,2,0,0,0
4416069940,37.102548161733075,-76.38836231561268,39.086823,-0.0,1.2082734,2.250776,0.01834283,0.9745525,1.2144861,1.8807312,0.0,2,0,0,0
4416270187,37.10255027742688,-76.38835725929962,39.065464,-0.0,1.1946361,2.234223,0.0065288367,0.97482485,1.2147917,1.8805721,0.0,2,0,0,0
4416474152,37.1025524275471,-76.3883521820817,39.06513,-0.0,1.2334824,2.198776,-0.022963073,0.979722,1.2146074,1.8805306,0.0,2,0,0,0
4416675345,37.1025545511131,-76.38834722960482,39.079006,-0.0,1.2437924,2.2044005,-0.017459447,0.9871906,1.2145581,1.880742,0.0,2,0,0,0
4416876142,37.10255676547045,-76.38834232083121,39.110767,-0.0,1.2937796,2.185218,-0.023873104,0.9954644,1.2145354,1.8807251,0.0,2,0,0,0
4417076872,37.10255911984897,-76.38833744234094,39.148975,-0.0,1.3454838,2.172318,-0.03321548,0.99836326,1.2145555,1.880713,0.0,2,0,0,0
4417280568,37.102561607696664,-76.38833251300882,39.194267,-0.0,1.3681326,2.1582987,-0.029100534,0.9979826,1.2148782,1.8805467,0.0,2,0,0,0
4417481478,37.1025641086828,-76.38832768682492,39.243458,-0.0,1.4022104,2.1677377,-0.003511263,0.9978096,1.2148892,1.8805308,0.0,2,0,0,0
4417682158,37.10256659623806,-76.38832282106736,39.29519,-0.0,1.3844805,2.2228172,0.026073305,0.99414784,1.2147669,1.8804854,0.0,2,0,0,0
4417886783,37.10256916206465,-76.38831773103345,39.339108,-0.0,1.4318095,2.2271698,0.043992132,0.9890384,1.2151138,1.8805578,0.0,2,0,0,0
4418087620,37.10257174458118,-76.38831262921343,39.35481,-0.0,1.4607401,2.279107,0.13005684,0.98115903,1.215175,1.8805497,0.0,2,0,0,0
4418291834,37.102574430017896,-76.38830734019564,39.329727,-0.0,1.4999896,2.3071237,0.17668961,0.97230935,1.2152094,1.8805462,0.0,2,0,0,0
4418492655,37.10257714814798,-76.38830211337655,39.301853,-0.0,1.5308158,2.3031077,0.119906135,0.96382487,1.215192,1.8805379,0.0,2,0,0,0
4418693189,37.10257989101257,-76.38829691193584,39.274345,-0.0,1.5162412,2.2825053,0.09948897,0.95557153,1.2151953,1.8805368,0.0,2,0,0,0
4418894205,37.102582635317596,-76.38829174215333,39.2468,-0.0,1.5080482,2.2623553,0.07131616,0.94916373,1.2152113,1.8805434,0.0,2,0,0,0
4419094176,37.10258536761479,-76.38828663173014,39.21043,-0.0,1.4995824,2.2397928,0.051513728,0.94442433,1.2151741,1.8805462,0.0,2,0,0,0
4419294789,37.10258809250148,-76.38828153722184,39.16887,-0.0,1.4966246,2.2383392,0.012778015,0.9382801,1.2151244,1.8805493,0.0,2,0,0,0
4419495849,37.10259074160529,-76.38827641466703,39.144222,-0.0,1.4592664,2.282118,-0.00853697,0.9311658,1.215031,1.8805453,0.0,2,0,0,0
4419696416,37.102593360896805,-76.38827126484048,39.099297,-0.0,1.4277302,2.2964263,-0.011076391,0.926633,1.2151911,1.8804069,0.0,2,0,0,0
4419897227,37.102595961319594,-76.38826611062592,39.067158,-0.0,1.4146996,2.294794,-0.054942787,0.9224814,1.2149807,1.8803878,0.0,2,0,0,0
4420101434,37.102598603253554,-76.3882608528328,39.049328,-0.0,1.4091064,2.3029904,-0.06530039,0.9181544,1.2148693,1.8804077,0.0,2,0,0,0
4420302032,37.10260121197779,-76.38825573948125,39.0308,-0.0,1.425102,2.2867188,-0.094949536,0.91736346,1.2150277,1.8804971,0.0,2,0,0,0
4420502822,37.10260379974031,-76.38825067516555,39.021145,-0.0,1.4144391,2.27406,-0.1106297,0.9195597,1.2148148,1.8804791,0.0,2,0,0,0
4420703739,37.10260638739928,-76.38824567769385,39.021206,-0.0,1.4216886,2.233424,-0.13347796,0.9249917,1.2147025,1.880501,0.0,2,0,0,0
4420907566,37.102609052452834,-76.38824075291683,39.023193,-0.0,1.4441398,2.1847818,-0.12056371,0.9316937,1.2146192,1.8805256,0.0,2,0,0,0
4421108388,37.10261171640694,-76.38823606953615,39.02218,-0.0,1.4470464,2.1330895,-0.109630644,0.9351901,1.2145327,1.8805445,0.0,2,0,0,0
4421313448,37.1026144701062,-76.38823141944914,39.03433,-0.0,1.4545544,2.0713577,-0.10585888,0.9346392,1.2146724,1.8804088,0.0,2,0,0,0
4421514172,37.1026171647628,-76.388226969034,39.035748,-0.0,1.4566813,2.0351806,-0.10633818,0.9353006,1.2146055,1.8804222,0.0,2,0,0,0
4421714955,37.10261987835611,-76.38822256012762,39.04631,-0.0,1.4542289,2.0391924,-0.09272302,0.9352763,1.2145448,1.8804418,0.0,2,0,0,0
4421918791,37.102622657200406,-76.38821808368891,39.044666,-0.0,1.4671094,2.054209,-0.097683765,0.93844026,1.2145587,1.8804631,0.0,2,0,0,0
4422119794,37.102625450762034,-76.3882136006258,39.037014,-0.0,1.5131989,2.0738134,-0.10109726,0.94399416,1.2146344,1.8805265,0.0,2,0,0,0
4422320557,37.102628285388896,-76.38820900581135,39.030193,-0.0,1.5216129,2.134423,-0.08379238,0.9472132,1.2145683,1.8803233,0.0,2,0,0,0
4422521338,37.10263113881625,-76.38820427403888,39.017895,-0.0,1.5254407,2.1912317,-0.051232595,0.9494987,1.2145216,1.8803538,0.0,2,0,0,0
4422721400,37.10263400373644,-76.38819947576592,38.994717,-0.0,1.5252467,2.218942,-0.045926545,0.9515085,1.2144992,1.880384,0.0,2,0,0,0
4422926027,37.102636945984,-76.3881945111566,38.995457,-0.0,1.5409485,2.2257178,-0.048957147,0.9536778,1.2144771,1.880417,0.0,2,0,0,0
4423126963,37.10263983948156,-76.38818961898274,39.017025,-0.0,1.5544423,2.2269974,-0.09005467,0.955497,1.2144476,1.880441,0.0,2,0,0,0
4423327596,37.10264272086853,-76.3881847669408,39.039856,-0.0,1.5107445,2.2472532,-0.041428555,0.95426893,1.214739,1.88033,0.0,2,0,0,0
4423528410,37.102645546095715,-76.38817991988769,39.05449,-0.0,1.4919038,2.2220523,-0.05178295,0.95146465,1.214598,1.8803223,0.0,2,0,0,0
4423732536,37.1026483210297,-76.38817503902447,39.0768,-0.0,1.4664978,2.1985905,0.024658144,0.9524639,1.2146436,1.8803566,0.0,2,0,0,0
4423933323,37.10265102220413,-76.38817026982565,39.09632,-0.0,1.4536785,2.168581,0.07207102,0.9576853,1.2146565,1.8803805,0.0,2,0,0,0
4424138025,37.10265379250598,-76.38816545739759,39.118843,-0.0,1.4525138,2.1366081,0.058010653,0.9606363,1.2149832,1.8804927,0.0,2,0,0,0
4424338800,37.1026564959095,-76.3881607717751,39.14524,-0.0,1.4362462,2.1404357,0.034779184,0.9622252,1.2150217,1.8805201,0.0,2,0,0,0
4424543614,37.10265924744551,-76.38815593418276,39.181343,-0.0,1.415582,2.197147,0.06844526,0.96017486,1.2153425,1.8804015,0.0,2,0,0,0
4424747739,37.10266198011321,-76.38815101864782,39.21663,-0.0,1.440715,2.2185445,0.058455147,0.96130586,1.2152262,1.8803867,0.0,2,0,0,0
4424948599,37.10266472475378,-76.38814607777712,39.249523,-0.0,1.4861121,2.2597306,0.071889594,0.9654778,1.2152358,1.8806183,0.0,2,0,0,0
4425153279,37.10266765468368,-76.38814100420811,39.268982,-0.0,1.5500743,2.2807357,0.07677916,0.9677765,1.215538,1.8804834,0.0,2,0,0,0
4425354148,37.10267059089131,-76.3881359567485,39.28227,-0.0,1.6052974,2.3175597,0.11029224,0.9653732,1.2155696,1.8805,0.0,2,0,0,0
4425558116,37.102673643809624,-76.38813079934461,39.273045,-0.0,1.6403049,2.3151417,0.13832396,0.9629616,1.2157555,1.8805618,0.0,2,0,0,0
4425758810,37.102676709180294,-76.38812577313436,39.255177,-0.0,1.6478719,2.3086057,0.099207446,0.9653938,1.2158103,1.8805878,0.0,2,0,0,0
4425959738,37.10267976329794,-76.38812080774599,39.23761,-0.0,1.6253449,2.2671506,0.13712679,0.96570146,1.2158742,1.8806107,0.0,2,0,0,0
4426160583,37.102682754634216,-76.38811593359034,39.217487,-0.0,1.601041,2.202416,0.11974065,0.9644512,1.2158712,1.8803983,0.0,2,0,0,0
4426360558,37.102685692554566,-76.38811119699402,39.19081,-0.0,1.5815401,2.1415894,0.099574134,0.9635013,1.2159277,1.8804163,0.0,2,0,0,0
4426561370,37.10268856584108,-76.38810654005954,39.17638,-0.0,1.5467355,2.1046197,0.05856985,0.960359,1.2159808,1.8804412,0.0,2,0,0,0
4426762180,37.1026914085944,-76.38810194820532,39.17148,-0.0,1.5335782,2.0779214,0.047535356,0.9565987,1.2160306,1.8804661,0.0,2,0,0,0
4426966958,37.102694277455086,-76.38809728030142,39.149555,-0.0,1.4688762,2.0811622,0.08493707,0.94645506,1.2164346,1.8805635,0.0,2,0,0,0
4427167606,37.10269698833435,-76.38809266870187,39.127563,-0.0,1.4316593,2.0652843,0.08557325,0.9362797,1.2163236,1.8805462,0.0,2,0,0,0
4427371766,37.102699647136625,-76.38808799481671,39.111862,-0.0,1.3728557,2.0465229,0.082680844,0.9349852,1.2163229,1.8805667,0.0,2,0,0,0
4427572609,37.10270211879653,-76.38808349328869,39.10781,-0.0,1.3024393,2.0198972,0.011169074,0.94249725,1.2163074,1.8805882,0.0,2,0,0,0
4427773519,37.102704435391274,-76.38807900487862,39.103176,-0.0,1.2391006,2.0415046,-0.0076396675,0.9487673,1.2162868,1.8805995,0.0,2,0,0,0
4427974008,37.10270665215466,-76.38807442497585,39.105843,-0.0,1.1724974,2.0645113,-0.024514928,0.95169127,1.2165403,1.8804673,0.0,2,0,0,0
4428174934,37.10270881478256,-76.38806980450983,39.113956,-0.0,1.1673305,2.089145,-0.060112152,0.9572311,1.2163459,1.8804432,0.0,2,0,0,0
4428379021,37.102710998646806,-76.38806499662977,39.126297,-0.0,1.2063788,2.1265996,-0.0731486,0.9628033,1.2163275,1.880463,0.0,2,0,0,0
4428580194,37.102713196336595,-76.38806012500214,39.13709,-0.0,1.2554827,2.168953,-0.08400674,0.9636149,1.2163136,1.8804805,0.0,2,0,0,0
4428780541,37.102715512726434,-76.38805523117959,39.147068,-0.0,1.303298,2.1769373,-0.036640793,0.9616951,1.216258,1.8804876,0.0,2,0,0,0
4428985437,37.10271801684098,-76.38805026720152,39.153557,-0.0,1.3866416,2.1234586,-0.039991826,0.95751333,1.216572,1.8805757,0.0,2,0,0,0
4429186134,37.10272060462774,-76.38804550569266,39.156776,-0.0,1.438192,2.0644338,-0.033276677,0.95292354,1.2164631,1.880551,0.0,2,0,0,0
4429386144,37.102723263942465,-76.38804090041243,39.148354,-0.0,1.4609226,2.0055883,-0.034071647,0.95015776,1.2164924,1.8805623,0.0,2,0,0,0
4429590980,37.10272599557488,-76.38803629943384,39.141083,-0.0,1.4925563,1.9661998,-0.0615039,0.9502419,1.2168702,1.8806514,0.0,2,0,0,0
4429791598,37.10272870374094,-76.38803183876784,39.134315,-0.0,1.4922835,1.9957668,-0.067684114,0.9504031,1.2169186,1.8806518,0.0,2,0,0,0
4429992593,37.102731452971845,-76.38802731891394,39.116615,-0.0,1.5157825,2.01831,-0.093409054,0.948757,1.2169875,1.8806567,0.0,2,0,0,0
4430192852,37.102734164465765,-76.38802274309766,39.105026,-0.0,1.4830873,2.0258455,-0.14946584,0.9422279,1.2170203,1.8806677,0.0,2,0,0,0
4430393351,37.102736785184895,-76.3880181432784,39.09559,-0.0,1.4209992,2.0114062,-0.11536633,0.9358861,1.2170699,1.8806697,0.0,2,0,0,0
4430598007,37.102739313311226,-76.38801346061238,39.06743,-0.0,1.340456,2.0217974,-0.112626776,0.9311268,1.2173003,1.8804921,0.0,2,0,0,0
4430798958,37.10274169734991,-76.38800892221562,39.064835,-0.0,1.2992357,2.0114238,-0.12907776,0.93065315,1.2173599,1.8805025,0.0,2,0,0,0
4430999791,37.10274399816085,-76.38800444846876,39.083298,-0.0,1.2869196,1.9909155,-0.164269,0.92632556,1.2173826,1.8805138,0.0,2,0,0,0
4431203821,37.10274632826957,-76.38799990297369,39.12362,-0.0,1.2811983,1.9727603,-0.1690553,0.9241644,1.2174493,1.8805264,0.0,2,0,0,0
4431404543,37.10274864911497,-76.3879954595516,39.145336,-0.0,1.302612,1.9388466,-0.10185994,0.92174345,1.2174422,1.8805274,0.0,2,0,0,0
4431605385,37.10275093740292,-76.38799115067829,39.16357,-0.0,1.3177742,1.8826765,-0.07186901,0.92763364,1.2177552,1.8806164,0.0,2,0,0,0
4431806197,37.10275327488561,-76.38798696547158,39.18222,-0.0,1.3463247,1.8494864,-0.032013945,0.9442162,1.2176318,1.8805846,0.0,2,0,0,0
4432006986,37.10275574245802,-76.38798277299595,39.20669,-0.0,1.4296981,1.854852,0.03149635,0.9603881,1.2176765,1.8805933,0.0,2,0,0,0
4432206924,37.1027583899333,-76.38797851255828,39.218784,-0.0,1.5368032,1.9106551,-0.0068927594,0.9656371,1.2177116,1.8806067,0.0,2,0,0,0
4432408051,37.10276114341558,-76.38797415107997,39.233658,-0.0,1.534288,1.9526904,0.0034046732,0.95945275,1.2177476,1.8806186,0.0,2,0,0,0
4432608542,37.10276384938342,-76.38796976366334,39.2438,-0.0,1.5466784,1.9061394,0.019238269,0.95259374,1.2178192,1.8806362,0.0,2,0,0,0
4432809325,37.10276647654932,-76.3879653762029,39.222286,-0.0,1.4923955,1.9126164,0.0028988488,0.94981,1.2178973,1.8806481,0.0,2,0,0,0
4433013342,37.102769108003905,-76.38796083982609,39.198074,-0.0,1.4737005,1.9518569,-0.015313879,0.9473282,1.2179762,1.8806603,0.0,2,0,0,0
4433214184,37.10277174158521,-76.38795633080619,39.158512,-0.0,1.49763,2.0043738,-0.008347198,0.94888663,1.2182075,1.8804847,0.0,2,0,0,0
4433414917,37.10277443300705,-76.38795178591224,39.116344,-0.0,1.5702869,2.0514383,-0.021998595,0.9529648,1.2182692,1.8804948,0.0,2,0,0,0
4433616036,37.102777239184,-76.38794713447173,39.087433,-0.0,1.6774873,2.0660088,-0.06511137,0.9580741,1.2183262,1.880731,0.0,2,0,0,0
4433816588,37.102780204165455,-76.3879423770441,39.074497,-0.0,1.7314065,2.1032267,-0.06244036,0.95855635,1.2184176,1.8807368,0.0,2,0,0,0
4434016528,37.102783272305935,-76.38793764968376,39.07194,-0.0,1.7691543,2.113394,-0.064450905,0.9574292,1.2184987,1.8805152,0.0,2,0,0,0
4434221363,37.102786487827025,-76.38793277788122,39.077763,-0.0,1.8209529,2.0991514,-0.05253029,0.95845,1.21884,1.8805994,0.0,2,0,0,0
4434422019,37.10278971068908,-76.38792801985161,39.087162,-0.0,1.8262633,2.0885885,-0.055262644,0.9610978,1.218766,1.88057,0.0,2,0,0,0
4434622958,37.10279295046383,-76.3879233158909,39.09364,-0.0,1.8536328,2.0484884,-0.054781925,0.9644407,1.2187853,1.8805791,0.0,2,0,0,0
4434823775,37.10279615970559,-76.387918642771,39.105312,-0.0,1.8169839,2.0353217,-0.036736235,0.9671534,1.2188339,1.8805896,0.0,2,0,0,0
4435023770,37.10279933141594,-76.387913982899,39.121376,-0.0,1.7655369,2.0538743,-0.01727549,0.96975464,1.2188749,1.8805989,0.0,2,0,0,0
4435224598,37.102802378216644,-76.38790927626918,39.139233,-0.0,1.7113574,2.0792837,-0.016650012,0.97318405,1.2188928,1.8806038,0.0,2,0,0,0
4435425397,37.10280528717402,-76.38790458908088,39.14702,-0.0,1.6343436,2.10127,0.011559054,0.97685975,1.2189344,1.8806129,0.0,2,0,0,0
4435625407,37.10280809029605,-76.38789987655613,39.164158,-0.0,1.580585,2.1253362,0.015818756,0.97881246,1.2189672,1.8806208,0.0,2,0,0,0
4435826262,37.102810791699575,-76.38789511826313,39.186096,-0.0,1.5426396,2.1390164,0.035118368,0.9783879,1.2188426,1.8805892,0.0,2,0,0,0
4436031006,37.102813426754814,-76.38789020266545,39.198334,-0.0,1.4666501,2.189869,0.053185757,0.97352076,1.219167,1.8806808,0.0,2,0,0,0
4436235834,37.10281601498183,-76.38788521660945,39.20045,-0.0,1.4291908,2.2188635,0.084906474,0.9692872,1.2191406,1.8806853,0.0,2,0,0,0
4436436409,37.10281847908795,-76.38788028279365,39.201286,-0.0,1.4173262,2.2104654,0.064949445,0.9675719,1.2191335,1.8806949,0.0,2,0,0,0
4436640887,37.10282093815096,-76.38787529903766,39.194473,-0.0,1.3702476,2.2331462,0.06684689,0.9669747,1.2194147,1.8807833,0.0,2,0,0,0
4436841222,37.102823315667216,-76.38787039905172,39.19707,-0.0,1.3528548,2.2608774,0.05916754,0.96905065,1.2193968,1.8807842,0.0,2,0,0,0
4437046117,37.102825762173886,-76.38786534490181,39.188736,-0.0,1.378329,2.245953,0.046859335,0.97429913,1.2196577,1.8806261,0.0,2,0,0,0
4437246935,37.10282815516199,-76.38786041859042,39.18141,-0.0,1.3957068,2.228561,0.061346196,0.9785258,1.219497,1.8808162,0.0,2,0,0,0
4437451792,37.10283070506746,-76.38785545537299,39.18152,-0.0,1.4250417,2.209577,0.023993403,0.9827756,1.2194726,1.8805851,0.0,2,0,0,0
4437651807,37.10283321603466,-76.38785059754058,39.1871,-0.0,1.448988,2.1743956,0.032329462,0.9843999,1.219488,1.8805943,0.0,2,0,0,0
4437852533,37.10283570569741,-76.38784573775061,39.180027,-0.0,1.4339894,2.1723647,0.031376787,0.9820004,1.2194368,1.8805966,0.0,2,0,0,0
4438053209,37.10283817937296,-76.38784095566595,39.172485,-0.0,1.4259586,2.1407988,0.030511864,0.978037,1.2126561,1.8805208,0.0,2,0,0,0
4438254128,37.102840725915,-76.38783621850995,39.17039,-0.0,1.4202899,2.1416442,0.012142023,0.9750634,1.219644,1.8806578,0.0,2,0,0,0
4438454954,37.10284330446481,-76.38783144582376,39.175774,-0.0,1.4442189,2.138724,0.005657065,0.973199,1.2196604,1.880673,0.0,2,0,0,0
4438654994,37.102845870115345,-76.38782662351997,39.18578,-0.0,1.4055461,2.1917202,0.0051160343,0.9687356,1.2126077,1.8805252,0.0,2,0,0,0
4438855839,37.10284841206026,-76.38782168440983,39.187332,-0.0,1.3870231,2.2476456,0.016402928,0.96328175,1.2126652,1.8805416,0.0,2,0,0,0
4439056544,37.10285091318062,-76.38781664036529,39.193253,-0.0,1.347306,2.2708633,0.033768732,0.9584383,1.2126938,1.880326,0.0,2,0,0,0
4439257361,37.10285335447049,-76.38781155691888,39.18149,-0.0,1.3465836,2.259622,0.05642143,0.9559741,1.2127419,1.8803484,0.0,2,0,0,0
4439461635,37.10285585095911,-76.38780648736606,39.150402,-0.0,1.3726028,2.202318,0.08835392,0.95658207,1.2127972,1.8803734,0.0,2,0,0,0
4439662121,37.10285840144536,-76.38780160505529,39.128765,-0.0,1.3914518,2.1356926,0.068475075,0.9591309,1.2129465,1.8804384,0.0,2,0,0,0
4439867069,37.102861074130665,-76.38779676870567,39.10655,-0.0,1.450741,2.0632317,0.06466772,0.9637897,1.2129561,1.8804554,0.0,2,0,0,0
4440067742,37.10286379402079,-76.38779219689519,39.108635,-0.0,1.5244588,2.004546,0.03902057,0.9592175,1.2201434,1.8806412,0.0,2,0,0,0
4440272527,37.10286666602537,-76.38778760058814,39.1197,-0.0,1.5662252,2.0197752,-0.01848851,0.95098525,1.2131963,1.8803574,0.0,2,0,0,0
4440476400,37.10286961123959,-76.38778301524971,39.141903,-0.0,1.5687315,2.053672,-0.03831034,0.9456145,1.2132435,1.8803802,0.0,2,0,0,0
4440677395,37.10287251720708,-76.38777844255705,39.154793,-0.0,1.5880928,2.0558357,-0.0092963185,0.94529235,1.213266,1.8803933,0.0,2,0,0,0
4440878200,37.102875356482905,-76.38777380693355,39.156883,-0.0,1.5380539,2.083385,0.015738301,0.94581693,1.2132983,1.8804164,0.0,2,0,0,0
4441079008,37.10287817874262,-76.38776914229636,39.1413,-0.0,1.5420846,2.0807455,0.0063238963,0.94703877,1.2133225,1.8804362,0.0,2,0,0,0
4441279621,37.10288097451777,-76.38776441356708,39.120308,-0.0,1.5074923,2.1081662,0.009396825,0.9474121,1.2133443,1.8804531,0.0,2,0,0,0
4441483758,37.1028837225385,-76.38775953144747,39.11522,-0.0,1.49886,2.126833,-0.06646756,0.94977885,1.213622,1.8805485,0.0,2,0,0,0
4441684547,37.102886333058976,-76.3877546706623,39.1386,-0.0,1.4573485,2.1571426,-0.06581521,0.9526427,1.2136204,1.8803357,0.0,2,0,0,0
4441885422,37.10288888374906,-76.38774971496503,39.158905,-0.0,1.4788783,2.1819248,-0.036702946,0.9583884,1.2136452,1.8803538,0.0,2,0,0,0
4442090225,37.102891426411475,-76.38774463955794,39.17726,-0.0,1.4492062,2.1918685,-0.033841815,0.9617977,1.2139364,1.8804545,0.0,2,0,0,0
4442290246,37.10289390409714,-76.38773968467706,39.168858,-0.0,1.4333403,2.2023008,-0.0102554215,0.96520686,1.2138317,1.880227,0.0,2,0,0,0
4442494922,37.102896418765184,-76.38773456031868,39.14155,-0.0,1.4455708,2.2203927,-0.011054007,0.9706599,1.2138721,1.880259,0.0,2,0,0,0
4442695791,37.102898928698615,-76.38772950600911,39.130222,-0.0,1.4644924,2.2493913,-0.07543248,0.97528857,1.2138813,1.8805012,0.0,2,0,0,0
4442896517,37.10290148178932,-76.38772442563251,39.13472,-0.0,1.4605097,2.2958422,-0.082567364,0.9790484,1.2141867,1.8803792,0.0,2,0,0,0
4443096622,37.10290406321698,-76.38771928254043,39.159893,-0.0,1.5204382,2.3413446,-0.12363636,0.9829177,1.2140985,1.8803654,0.0,2,0,0,0
4443297377,37.10290676965712,-76.38771402619102,39.19927,-0.0,1.5990723,2.353443,-0.15337005,0.9807238,1.2141148,1.8803931,0.0,2,0,0,0
4443498016,37.10290961030365,-76.38770877248695,39.214985,-0.0,1.6607435,2.3431575,-0.056353066,0.9778695,1.2141343,1.8804036,0.0,2,0,0,0
4443702972,37.10291260786745,-76.38770348580144,39.18305,-0.0,1.6605518,2.302391,0.040840514,0.97308695,1.2143075,1.8804584,0.0,2,0,0,0
4443903742,37.10291550182538,-76.38769842257588,39.12699,-0.0,1.6302663,2.2363167,0.033553794,0.96643674,1.214364,1.8804808,0.0,2,0,0,0
4444107758,37.10291833307088,-76.38769344133556,39.097317,-0.0,1.5639082,2.1603339,-0.013163701,0.9606977,1.2143676,1.8805014,0.0,2,0,0,0
4444308571,37.10292103937193,-76.38768870848213,39.10621,-0.0,1.5211163,2.1012301,-0.04086051,0.95959663,1.2143742,1.8803058,0.0,2,0,0,0
4444509144,37.10292369736923,-76.38768409342364,39.121376,-0.0,1.4708909,2.0717192,-0.052603886,0.9574272,1.2143991,1.8803239,0.0,2,0,0,0
4444714136,37.1029263730685,-76.38767943872695,39.146435,-0.0,1.4727902,2.0395372,-0.05194,0.9583482,1.2147197,1.8804241,0.0,2,0,0,0
4444914986,37.10292899627863,-76.38767492445086,39.17717,-0.0,1.4801036,2.0174227,-0.03151553,0.95931596,1.2147603,1.8804507,0.0,2,0,0,0
4445114991,37.10293167904447,-76.38767042197131,39.195526,-0.0,1.4878147,2.034269,-0.023088824,0.95924354,1.2146734,1.8804426,0.0,2,0,0,0
4445319735,37.102934521335044,-76.38766578049018,39.21795,-0.0,1.5602024,2.0302274,-0.0037120413,0.96010566,1.2149835,1.8803314,0.0,2,0,0,0
4445520522,37.1029374162513,-76.3876612797202,39.245213,-0.0,1.6384777,1.9871881,0.02256471,0.95886964,1.214985,1.8803504,0.0,2,0,0,0
4445721406,37.10294039727635,-76.38765686859237,39.243866,-0.0,1.6495281,1.9532896,0.07789539,0.95589876,1.2150097,1.8803785,0.0,2,0,0,0
4445922030,37.10294339181782,-76.38765257444236,39.23749,-0.0,1.6435324,1.9106219,0.08304611,0.9545764,1.215014,1.8804066,0.0,2,0,0,0
4446122030,37.102946294898196,-76.3876483549544,39.249207,-0.0,1.5873853,1.9382812,0.0796018,0.9523934,1.2149857,1.880437,0.0,2,0,0,0
4446322935,37.1029490551267,-76.38764403040278,39.269253,-0.0,1.4992402,1.9941845,0.10281519,0.9528293,1.2150068,1.8804694,0.0,2,0,0,0
4446527596,37.10295174509587,-76.38763937917656,39.282227,-0.0,1.4579648,2.0944846,0.08830667,0.9587845,1.2152764,1.8803508,0.0,2,0,0,0
4446728380,37.10295429626135,-76.38763452816862,39.281315,-0.0,1.4085416,2.2091646,0.07831961,0.96381444,1.2151707,1.880349,0.0,2,0,0,0
4446933245,37.10295688440922,-76.38762935194868,39.259495,-0.0,1.4379787,2.2868612,0.075511225,0.97019607,1.2154684,1.8804663,0.0,2,0,0,0
4447133346,37.10295944668985,-76.38762416707166,39.23058,-0.0,1.4705868,2.3296487,0.06413789,0.97418743,1.2153479,1.8804615,0.0,2,0,0,0
4447334000,37.10296202221258,-76.38761890990831,39.19959,-0.0,1.4608554,2.3387609,0.04367292,0.97625434,1.2153556,1.8804853,0.0,2,0,0,0
4447534924,37.102964541335375,-76.38761364423841,39.168896,-0.0,1.430853,2.3210404,0.050226673,0.97346073,1.2153578,1.880296,0.0,2,0,0,0
4447735761,37.10296700302898,-76.38760844278886,39.161484,-0.0,1.4066492,2.2926145,0.010341568,0.97014177,1.2154062,1.880328,0.0,2,0,0,0
4447935810,37.102969440982235,-76.38760337384,39.154366,-0.0,1.3956194,2.2277768,-0.0036390095,0.96516097,1.2154201,1.8803561,0.0,2,0,0,0
4448140583,37.10297191975991,-76.38759829078744,39.165936,-0.0,1.3758888,2.1948688,0.01434961,0.959657,1.2157207,1.8804574,0.0,2,0,0,0
4448341344,37.10297437054322,-76.38759341012891,39.180862,-0.0,1.419071,2.1405528,-0.015385423,0.9565598,1.2155926,1.8804505,0.0,2,0,0,0
4448542152,37.10297694277095,-76.38758857895309,39.208736,-0.0,1.5402815,2.1737342,-0.19765595,0.99033624,1.2156234,1.8804799,0.0,2,0,0,0
4448746938,37.10298000811884,-76.38758333712778,39.323616,-0.0,1.8833668,2.4628632,-0.7527534,1.0546988,1.2158662,1.8803638,0.0,2,0,0,0
4448946821,37.10298387486431,-76.38757723206426,39.547092,-0.0,2.4055433,3.0163882,-1.1876498,1.1162636,1.2157328,1.8803535,0.0,2,0,0,0
4449147747,37.10298866307983,-76.38756971946096,39.836674,-0.0,2.8964338,3.6534228,-1.2787411,1.1575042,1.2157853,1.8803707,0.0,2,0,0,0
4449348568,37.10299412843498,-76.38756078265712,40.112335,-0.0,3.259063,4.162457,-1.1884673,1.1784184,1.2159295,1.8803915,0.0,2,0,0,0
4449549215,37.10300001356277,-76.38755085058835,40.345043,-0.0,3.4119716,4.4492707,-1.114454,1.1882526,1.2159808,1.8804033,0.0,2,0,0,0
4449753208,37.10300603886573,-76.38754040115587,40.562893,-0.0,3.3527772,4.4632525,-1.1204855,1.1958344,1.2160228,1.8804158,0.0,2,0,0,0
4449954013,37.10301169887326,-76.38753021419416,40.771107,-0.0,3.1753309,4.371831,-1.1528156,1.2016788,1.2160709,1.8806423,0.0,2,0,0,0
4450154934,37.10301694329222,-76.38752009515909,40.98356,-0.0,2.9528177,4.414275,-1.186715,1.2019346,1.2160783,1.8806306,0.0,2,0,0,0
4450355819,37.10302179037361,-76.38750967142732,41.214233,-0.0,2.7752874,4.6672273,-1.2668208,1.2009035,1.2160854,1.8806198,0.0,2,0,0,0
4450559617,37.103026400808346,-76.3874983307611,41.45351,-0.0,2.6322727,5.0786567,-1.280614,1.2037337,1.2164108,1.8806891,0.0,2,0,0,0
4450760710,37.10303075497299,-76.38748619198023,41.681583,-0.0,2.530292,5.4946537,-1.2474698,1.2118413,1.2164204,1.8806869,0.0,2,0,0,0
4450965407,37.10303506707623,-76.3874728480815,41.905792,-0.0,2.4640577,5.8366337,-1.215518,1.2192681,1.2163852,1.8806792,0.0,2,0,0,0
4451166744,37.10303915351031,-76.38745913570476,42.134197,-0.0,2.4080815,6.038701,-1.2004994,1.2217484,1.2162703,1.8806745,0.0,2,0,0,0
4451370932,37.10304315897927,-76.38744476933222,42.354332,-0.0,2.3564353,6.198757,-1.2049861,1.2199969,1.2164416,1.8805207,0.0,2,0,0,0
4451571770,37.103047003755364,-76.38743043969824,42.575665,-0.0,2.3155591,6.3096147,-1.1894411,1.2173638,1.2161937,1.8804823,0.0,2,0,0,0
4451771763,37.10305079000293,-76.3874160080483,42.782665,-0.0,2.305629,6.3954506,-1.1759362,1.2146759,1.216103,1.880484,0.0,2,0,0,0
4451976424,37.10305469117467,-76.38740107625485,42.991455,-0.0,2.3116133,6.449461,-1.1773891,1.2133722,1.2163454,1.8805573,0.0,2,0,0,0
4452182160,37.10305869711622,-76.38738610955329,43.193592,-0.0,2.3475456,6.4838247,-1.1962554,1.214653,1.2162628,1.8805615,0.0,2,0,0,0
4452382029,37.10306271417148,-76.38737138701195,43.39189,-0.0,2.380062,6.498102,-1.1819488,1.2169211,1.2162244,1.8805709,0.0,2,0,0,0
4452585924,37.10306685424724,-76.38735636956044,43.600315,-0.0,2.419174,6.5103927,-1.1723508,1.2190235,1.2165086,1.8804346,0.0,2,0,0,0
4452786853,37.10307105415185,-76.38734160008653,43.80261,-0.0,2.460874,6.522807,-1.1671296,1.2201962,1.2164477,1.8804426,0.0,2,0,0,0
4452988189,37.10307538606564,-76.38732683949317,44.028233,-0.0,2.5178864,6.5376306,-1.1864803,1.2206805,1.2163624,1.8804458,0.0,2,0,0,0
4453188569,37.1030797952356,-76.38731206795069,44.263176,-0.0,2.5540097,6.5725803,-1.2052859,1.2202431,1.2161508,1.880419,0.0,2,0,0,0
4453389351,37.103084256960905,-76.38729718033127,44.488632,-0.0,2.5570874,6.606516,-1.2018268,1.2190363,1.216135,1.8804375,0.0,2,0,0,0
4453593371,37.10308886187855,-76.38728194820531,44.714375,-0.0,2.561579,6.654238,-1.215333,1.2181492,1.2164097,1.8805257,0.0,2,0,0,0
4453794139,37.103093392692735,-76.38726685495055,44.938393,-0.0,2.5284045,6.69455,-1.1914078,1.2170918,1.216383,1.8807503,0.0,2,0,0,0
4453995421,37.103097881513705,-76.38725164802791,45.15695,-0.0,2.5088348,6.732962,-1.2084296,1.2173086,1.2162229,1.8807054,0.0,2,0,0,0
4454195876,37.10310234638671,-76.38723637064555,45.381596,-0.0,2.488136,6.7569485,-1.1948801,1.2186114,1.2162081,1.8807036,0.0,2,0,0,0
4454396407,37.10310682196127,-76.38722106272093,45.626953,-0.0,2.4899652,6.7746363,-1.2305828,1.2205554,1.2162435,1.8806992,0.0,2,0,0,0
4454596540,37.10311130576719,-76.3872056762927,45.86651,-0.0,2.4971707,6.796969,-1.2243197,1.2234527,1.2163258,1.8806967,0.0,2,0,0,0
4454801383,37.10311592885401,-76.38718990455816,46.090958,-0.0,2.4993522,6.8220367,-1.2378068,1.227001,1.2166126,1.8807602,0.0,2,0,0,0
4455002155,37.103120482983634,-76.38717439344789,46.315926,-0.0,2.487265,6.8414826,-1.2356863,1.2312516,1.2166071,1.8807567,0.0,2,0,0,0
4455202881,37.103125042463056,-76.38715888319602,46.53839,-0.0,2.4718513,6.870095,-1.2363737,1.2344924,1.2166202,1.880526,0.0,2,0,0,0
4455402924,37.103129629248485,-76.38714341556971,46.758347,-0.0,2.4822133,6.8866944,-1.2524713,1.2371068,1.2166651,1.8805258,0.0,2,0,0,0
4455603798,37.10313425781661,-76.3871278041002,46.991642,-0.0,2.4765658,6.90847,-1.2548302,1.2388885,1.2165629,1.8807135,0.0,2,0,0,0
4455804543,37.10313886545554,-76.38711212010615,47.251995,-0.0,2.4556272,6.9194613,-1.2656928,1.2412527,1.2165891,1.880709,0.0,2,0,0,0
4456005405,37.10314345298877,-76.3870964102585,47.520775,-0.0,2.4354587,6.9289474,-1.2633722,1.244275,1.2166404,1.8807126,0.0,2,0,0,0
4456209374,37.10314805362412,-76.38708047260306,47.795372,-0.0,2.4180703,6.933921,-1.2879934,1.2477317,1.2169474,1.8805673,0.0,2,0,0,0
4456410175,37.10315255133902,-76.38706476602123,48.059784,-0.0,2.3791502,6.9499116,-1.2623445,1.2501342,1.2168169,1.8805345,0.0,2,0,0,0
4456610815,37.103157023802254,-76.38704903130609,48.314228,-0.0,2.373282,6.961318,-1.2769377,1.2514623,1.2168472,1.8805342,0.0,2,0,0,0
4456811766,37.10316146168249,-76.38703328200734,48.59143,-0.0,2.348446,6.967676,-1.256545,1.2501476,1.216845,1.8805348,0.0,2,0,0,0
4457016704,37.10316594772539,-76.38701719633148,48.868713,-0.0,2.3229465,6.9662995,-1.2324835,1.2469554,1.2171636,1.8806247,0.0,2,0,0,0
4457220633,37.103170433354535,-76.38700113241917,49.15149,-0.0,2.3251417,6.9718866,-1.2423745,1.2428572,1.2172076,1.8806398,0.0,2,0,0,0
4457421396,37.10317491671835,-76.38698529996708,49.424366,-0.0,2.3427548,6.972777,-1.2371421,1.2382936,1.2173952,1.8804672,0.0,2,0,0,0
4457621988,37.103179429514746,-76.38696942424009,49.689335,-0.0,2.367788,6.9789834,-1.2341415,1.2333167,1.2174197,1.8804703,0.0,2,0,0,0
4457822966,37.10318397997741,-76.38695354261793,49.963383,-0.0,2.4116814,6.9801455,-1.2440722,1.2293544,1.2174487,1.8804797,0.0,2,0,0,0
4458023760,37.1031885813485,-76.38693762980779,50.227356,-0.0,2.4225032,6.992443,-1.2353098,1.2252799,1.2175114,1.8807155,0.0,2,0,0,0
4458224424,37.10319320549721,-76.38692177859262,50.472176,-0.0,2.4479058,6.982373,-1.2287412,1.2219567,1.2175333,1.880495,0.0,2,0,0,0
4458428391,37.103197903675905,-76.38690570799986,50.71498,-0.0,2.4572527,6.9764338,-1.2309561,1.2189201,1.2175525,1.8805048,0.0,2,0,0,0
4458629243,37.103202534064046,-76.38688984039212,50.94616,-0.0,2.4560337,6.9560556,-1.237268,1.2173079,1.2175896,1.8805073,0.0,2,0,0,0
4458830197,37.1032072043142,-76.38687398899866,51.186783,-0.0,2.4437473,6.956542,-1.2506346,1.2168572,1.2179368,1.8805914,0.0,2,0,0,0
4459031060,37.10321187792433,-76.38685814771165,51.45642,-0.0,2.4361348,6.957368,-1.2613331,1.2173578,1.2178342,1.8805591,0.0,2,0,0,0
4459234975,37.10321657170355,-76.38684213664341,51.726807,-0.0,2.4240637,6.9501414,-1.2474455,1.2173961,1.2178588,1.8805679,0.0,2,0,0,0
4459435814,37.10322116311177,-76.3868263720485,51.993267,-0.0,2.4257748,6.95011,-1.2330313,1.2174842,1.2178495,1.88057,0.0,2,0,0,0
4459636562,37.10322576563279,-76.38681054447802,52.2333,-0.0,2.42797,6.9518037,-1.2247989,1.2181021,1.2182039,1.8806566,0.0,2,0,0,0
4459837333,37.10323037130783,-76.38679470636697,52.47773,-0.0,2.4380832,6.957487,-1.2416451,1.2194849,1.2181044,1.8806305,0.0,2,0,0,0
4460041391,37.10323502418477,-76.38677861210078,52.7314,-0.0,2.4156818,6.944837,-1.2365562,1.2203779,1.2181451,1.8806473,0.0,2,0,0,0
4460242139,37.103239570094026,-76.38676280508611,52.986404,-0.0,2.3989267,6.938843,-1.246404,1.2203965,1.2181528,1.8804317,0.0,2,0,0,0
4460443022,37.10324409630951,-76.38674702869625,53.237083,-0.0,2.3747952,6.933035,-1.2501403,1.2206134,1.2182201,1.880449,0.0,2,0,0,0
4460643736,37.10324856612376,-76.38673133652796,53.492702,-0.0,2.3517091,6.9217057,-1.2168981,1.2205203,1.2182488,1.88047,0.0,2,0,0,0
4460844608,37.10325300780445,-76.38671560968822,53.76545,-0.0,2.3542125,6.92003,-1.2338555,1.220816,1.218308,1.8804914,0.0,2,0,0,0
4461048405,37.10325751020372,-76.38669964265162,54.021484,-0.0,2.3525946,6.907776,-1.2173522,1.2210869,1.2186627,1.8803749,0.0,2,0,0,0
4461249321,37.10326191194804,-76.38668398187929,54.279034,-0.0,2.3649597,6.9011936,-1.2517827,1.2213256,1.2186441,1.8803972,0.0,2,0,0,0
4461450148,37.10326634545815,-76.38666833891287,54.518017,-0.0,2.374355,6.897275,-1.2512238,1.2221698,1.2186536,1.880424,0.0,2,0,0,0
4461659304,37.10327101107823,-76.3866520028882,54.768444,-0.0,2.3764892,6.9129896,-1.240936,1.2235078,1.2119801,1.8803636,0.0,2,0,0,0
4461860010,37.10327550544307,-76.38663627732898,55.012516,-0.0,2.405812,6.9223156,-1.2417792,1.2251787,1.2119045,1.8803405,0.0,2,0,0,0
4462063763,37.10328010121334,-76.38662025918029,55.256775,-0.0,2.3936265,6.937562,-1.2260262,1.2254331,1.2122159,1.8804373,0.0,2,0,0,0
4462264526,37.10328466185374,-76.38660450668924,55.50434,-0.0,2.4185598,6.9529896,-1.253847,1.2261457,1.2122759,1.8804541,0.0,2,0,0,0
4462465436,37.103289253436216,-76.38658872537604,55.746387,-0.0,2.4191234,6.9574723,-1.2346346,1.2266088,1.2123618,1.8804637,0.0,2,0,0,0
4462666151,37.10329379520315,-76.38657287454969,55.999523,-0.0,2.4365826,6.9667025,-1.2461791,1.2280514,1.2124034,1.8802669,0.0,2,0,0,0
4462866145,37.10329831281696,-76.38655711026745,56.24368,-0.0,2.4317632,6.959324,-1.2380513,1.2298057,1.2124524,1.8802973,0.0,2,0,0,0
4463066937,37.103302874752345,-76.3865413184533,56.487617,-0.0,2.457274,6.952531,-1.2501644,1.231569,1.2124944,1.8803235,0.0,2,0,0,0
4463271795,37.10330750529576,-76.38652521021965,56.73398,-0.0,2.4592924,6.945824,-1.2501597,1.2325636,1.2127738,1.8804126,0.0,2,0,0,0
4463472397,37.103312026539626,-76.38650943070444,56.9762,-0.0,2.4579954,6.9445376,-1.2525615,1.2328792,1.2126908,1.8803923,0.0,2,0,0,0
4463677315,37.10331663896475,-76.3864932990671,57.223804,-0.0,2.4524035,6.941601,-1.2383238,1.2331936,1.2127337,1.8804122,0.0,2,0,0,0
4463877358,37.103321129054464,-76.38647755292797,57.474045,-0.0,2.4801655,6.928582,-1.2664459,1.2337366,1.212771,1.8804322,0.0,2,0,0,0
4464078193,37.10332565845665,-76.38646174114588,57.729065,-0.0,2.4704902,6.925349,-1.258333,1.23209,1.2127618,1.8804532,0.0,2,0,0,0
4464282982,37.10333029996742,-76.38644563952664,57.999107,-0.0,2.4570074,6.926588,-1.2489991,1.2288625,1.2130247,1.8803226,0.0,2,0,0,0
4464483826,37.10333480871341,-76.38642988409039,58.242123,-0.0,2.4496164,6.9186325,-1.2339298,1.2245848,1.2130433,1.8803476,0.0,2,0,0,0
4464684420,37.10333922290938,-76.38641417932509,58.472782,-0.0,2.4156966,6.900711,-1.2386509,1.2201359,1.2130598,1.8803747,0.0,2,0,0,0
4464888612,37.103343665781296,-76.38639824821367,58.706768,-0.0,2.3842213,6.8974814,-1.2318817,1.2165458,1.2132095,1.8804421,0.0,2,0,0,0
4465089435,37.103348026112144,-76.38638255299477,58.95172,-0.0,2.3871338,6.899592,-1.2441223,1.216123,1.2130935,1.8804342,0.0,2,0,0,0
4465294143,37.10335246232365,-76.38636654643179,59.1896,-0.0,2.387627,6.9242053,-1.2453676,1.2179748,1.2133664,1.8803158,0.0,2,0,0,0
4465494967,37.10335682326778,-76.38635084733791,59.41805,-0.0,2.3775403,6.945179,-1.2146039,1.2199849,1.2133939,1.8803455,0.0,2,0,0,0
4465694998,37.10336116506753,-76.38633521242062,59.64995,-0.0,2.381679,6.95014,-1.22259,1.2218933,1.2134193,1.8803774,0.0,2,0,0,0
4465895891,37.10336552291968,-76.3863194843312,59.896835,-0.0,2.3947763,6.9506655,-1.2205483,1.223855,1.2134447,1.8804059,0.0,2,0,0,0
4466096408,37.10336988406278,-76.38630371898908,60.137024,-0.0,2.4176176,6.9463496,-1.2233166,1.225572,1.2134409,1.8804266,0.0,2,0,0,0
4466297327,37.10337426743467,-76.3862879853037,60.376263,-0.0,2.446656,6.92828,-1.2257338,1.2260773,1.2134621,1.8804553,0.0,2,0,0,0
4466501990,37.10337875536764,-76.38627199163321,60.63051,-0.0,2.4475706,6.905821,-1.2371901,1.2246768,1.2134813,1.8804795,0.0,2,0,0,0
4466706134,37.103383201445986,-76.38625612201626,60.888103,-0.0,2.4561362,6.8815193,-1.2404265,1.222615,1.2137688,1.8803642,0.0,2,0,0,0
4466906916,37.10338759112556,-76.38624053758669,61.139336,-0.0,2.4719324,6.8532643,-1.2343534,1.2218947,1.2136511,1.8803593,0.0,2,0,0,0
4467107581,37.10339202169677,-76.38622499298633,61.397324,-0.0,2.4866502,6.8327813,-1.2433388,1.222361,1.2136554,1.8803847,0.0,2,0,0,0
4467308422,37.10339648176991,-76.38620949045215,61.639828,-0.0,2.502691,6.810677,-1.2412351,1.223703,1.2136716,1.8804164,0.0,2,0,0,0
4467512541,37.10340105779397,-76.38619374771929,61.878784,-0.0,2.5307534,6.8013635,-1.2326968,1.2252294,1.2139579,1.8803015,0.0,2,0,0,0
4467713362,37.103405598003796,-76.38617833404862,62.131004,-0.0,2.5659215,6.7956343,-1.2127795,1.2253666,1.2139115,1.8803351,0.0,2,0,0,0
4467913979,37.103410134850165,-76.38616297070354,62.375057,-0.0,2.568999,6.802141,-1.1688591,1.2243252,1.2139151,1.8803607,0.0,2,0,0,0
4468118802,37.1034147887443,-76.38614728913073,62.60482,-0.0,2.5649354,6.806491,-1.1681457,1.2237629,1.2140617,1.8804315,0.0,2,0,0,0
4468319754,37.10341936936106,-76.38613187631405,62.825672,-0.0,2.5388105,6.844698,-1.1422306,1.2223068,1.2140692,1.880467,0.0,2,0,0,0
4468520574,37.10342388842862,-76.38611633505431,63.049362,-0.0,2.504668,6.8870673,-1.1412785,1.2220805,1.2141064,1.880279,0.0,2,0,0,0
4468720564,37.10342830718071,-76.386100664492,63.27315,-0.0,2.4519272,6.948772,-1.1552142,1.221072,1.2141427,1.8803091,0.0,2,0,0,0
4468921401,37.10343267405736,-76.3860848202349,63.506207,-0.0,2.3982506,6.9811945,-1.1657004,1.2185147,1.2141631,1.8803295,0.0,2,0,0,0
4469122179,37.10343700305757,-76.3860689705568,63.744232,-0.0,2.370951,6.9876957,-1.1935265,1.2165222,1.2141745,1.8803536,0.0,2,0,0,0
4469326946,37.1034413674566,-76.3860528543562,63.98039,-0.0,2.3574417,6.9703636,-1.1922671,1.216625,1.214505,1.8804533,0.0,2,0,0,0
4469526829,37.1034455953189,-76.38603713268866,64.214615,-0.0,2.345506,6.952994,-1.1992947,1.2185824,1.2144185,1.8804388,0.0,2,0,0,0
4469731603,37.10344990605913,-76.38602107464153,64.462776,-0.0,2.3549361,6.9377427,-1.2294595,1.2210385,1.2144628,1.8804619,0.0,2,0,0,0
4469932557,37.103454160265095,-76.38600539478037,64.706436,-0.0,2.3631852,6.9207845,-1.222856,1.2227712,1.2145064,1.880479,0.0,2,0,0,0
4470133372,37.103458487885895,-76.3859898102369,64.956276,-0.0,2.3868637,6.8972425,-1.2411956,1.2249202,1.2145383,1.8802879,0.0,2,0,0,0
4470337355,37.103462952453654,-76.38597406033969,65.2026,-0.0,2.4309876,6.876454,-1.2381487,1.2265303,1.2148749,1.8803945,0.0,2,0,0,0
4470537996,37.10346736377954,-76.38595859520015,65.45046,-0.0,2.4483354,6.8516126,-1.2285691,1.2263203,1.2148982,1.8804196,0.0,2,0,0,0
4470738820,37.10347180803841,-76.3859431950966,65.7157,-0.0,2.4838831,6.82833,-1.2467941,1.2261796,1.2149221,1.8804364,0.0,2,0,0,0
4470943802,37.10347639418338,-76.38592755771823,65.98406,-0.0,2.5086932,6.7935433,-1.2197002,1.2256016,1.215247,1.8805367,0.0,2,0,0,0
4471144581,37.103480913777034,-76.38591230076293,66.24522,-0.0,2.5120149,6.757511,-1.2123115,1.2250206,1.2151299,1.8805194,0.0,2,0,0,0
4471349331,37.10348555412365,-76.38589678089629,66.496,-0.0,2.5374699,6.737778,-1.2254047,1.2250453,1.2154737,1.8803991,0.0,2,0,0,0
4471553223,37.10349017882542,-76.3858813255504,66.75035,-0.0,2.538929,6.745973,-1.2390907,1.22445,1.2153594,1.8803859,0.0,2,0,0,0
4471754131,37.10349472860328,-76.38586610472142,67.014465,-0.0,2.533919,6.753314,-1.2456303,1.2239456,1.2153697,1.8804048,0.0,2,0,0,0
4471954832,37.10349926410689,-76.38585082384213,67.2762,-0.0,2.5360208,6.774324,-1.246828,1.2245541,1.2154355,1.8804299,0.0,2,0,0,0
4472155857,37.10350379343319,-76.3858355286802,67.52056,-0.0,2.5219896,6.7807527,-1.251182,1.2251312,1.2154492,1.8804529,0.0,2,0,0,0
4472355851,37.10350830821299,-76.38582032987014,67.75847,-0.0,2.5084114,6.784202,-1.2179086,1.2252178,1.2154636,1.8804774,0.0,2,0,0,0
4472560610,37.10351290106644,-76.38580473256651,67.99767,-0.0,2.504851,6.773457,-1.2099557,1.2256982,1.2157761,1.880572,0.0,2,0,0,0
