timestamp,vel_pos_innov[0],vel_pos_innov[1],vel_pos_innov[2],vel_pos_innov[3],vel_pos_innov[4],vel_pos_innov[5],mag_innov[0],mag_innov[1],mag_innov[2],heading_innov,airspeed_innov,beta_innov,flow_innov[0],flow_innov[1],hagl_innov,vel_pos_innov_var[0],vel_pos_innov_var[1],vel_pos_innov_var[2],vel_pos_innov_var[3],vel_pos_innov_var[4],vel_pos_innov_var[5],mag_innov_var[0],mag_innov_var[1],mag_innov_var[2],heading_innov_var,airspeed_innov_var,beta_innov_var,flow_innov_var[0],flow_innov_var[1],hagl_innov_var,output_tracking_error[0],output_tracking_error[1],output_tracking_error[2],drag_innov[0],drag_innov[1],drag_innov_var[0],drag_innov_var[1],aux_vel_innov[0],aux_vel_innov[1]
4384791733,0.11301607,-0.13841376,0.08195701,-0.041244507,0.116882324,0.23099136,0.0,0.0,0.0,0.016527154,0.0,0.0,0.0,0.0,0.0,0.26388952,0.26389006,0.5726999,0.59894145,0.59894204,4.0580306,0.0,0.0,0.0,0.09014828,0.0,0.0,0.0,0.0,0.0,0.00023555431,0.008595914,0.021800004,0.0,0.0,0.0,0.0,0.0,0.0
4384996378,0.10791761,-0.08602789,0.10778952,-0.039686203,0.11707306,-0.038009644,0.0,0.0,0.0,-0.01865618,0.0,0.0,0.0,0.0,0.0,0.26372597,0.2637265,0.57272637,0.5980876,0.59808815,4.0579715,0.0,0.0,0.0,0.090148516,0.0,0.0,0.0,0.0,0.0,0.00021603047,0.006533197,0.015080716,0.0,0.0,0.0,0.0,0.0,0.0
4385197352,0.096291095,-0.082106724,0.06720744,-0.026231766,0.12129974,-0.04201126,0.0,0.0,0.0,0.01637984,0.0,0.0,0.0,0.0,0.0,0.26359433,0.26359487,0.57267016,0.5973805,0.59738106,4.058107,0.0,0.0,0.0,0.090148434,0.0,0.0,0.0,0.0,0.0,0.00019102661,0.0063048033,0.016467731,0.0,0.0,0.0,0.0,0.0,0.0
4385398171,0.11864751,-0.09229686,0.047769506,-0.02264595,0.11429596,-0.64722824,0.0,0.0,0.0,-0.08696255,0.0,0.0,0.0,0.0,0.0,0.26361528,0.26361623,0.5726826,0.5989262,0.59892666,4.0582533,0.0,0.0,0.0,0.09014828,0.0,0.0,0.0,0.0,0.0,0.00020911275,0.006725131,0.017516091,0.0,0.0,0.0,0.0,0.0,0.0
4385602946,0.13709372,-0.118225425,0.08413653,-0.010709763,0.107543945,0.10191727,0.0,0.0,0.0,0.034289166,0.0,0.0,0.0,0.0,0.0,0.26361537,0.2636158,0.5726919,0.5989813,0.5989818,4.0583873,0.0,0.0,0.0,0.09014827,0.0,0.0,0.0,0.0,0.0,0.0003032858,0.0072236178,0.019185124,0.0,0.0,0.0,0.0,0.0,0.0
4385806955,0.06705864,-0.08435984,0.07637096,-0.013561249,0.1049881,0.0027427673,0.0,0.0,0.0,-0.21047524,0.0,0.0,0.0,0.0,0.0,0.26356962,0.26357016,0.572665,0.60017663,0.60017705,4.058229,0.0,0.0,0.0,0.09014835,0.0,0.0,0.0,0.0,0.0,0.00068909005,0.005609924,0.018270869,0.0,0.0,0.0,0.0,0.0,0.0
4386007725,0.06674908,-0.06346945,-0.09091035,0.0034866333,0.09284973,0.047805786,0.0,0.0,0.0,0.08677358,0.0,0.0,0.0,0.0,0.0,0.2637538,0.2637543,0.57274693,0.6024898,0.60249025,4.058375,0.0,0.0,0.0,0.09014845,0.0,0.0,0.0,0.0,0.0,0.0020516724,0.0065844567,0.02125901,0.0,0.0,0.0,0.0,0.0,0.0
4386208518,0.17745987,0.0043300986,-0.040835112,0.023872375,0.09421539,1.5772209,0.0,0.0,0.0,-0.05849511,0.0,0.0,0.0,0.0,0.0,0.26401633,0.2639894,0.5727461,0.6023909,0.602391,4.058356,0.0,0.0,0.0,0.09014832,0.0,0.0,0.0,0.0,0.0,0.0009709495,0.0359017,0.11589728,0.0,0.0,0.0,0.0,0.0,0.0
4386409327,0.095493495,-0.0754886,-0.047394276,-0.05535698,0.1217041,-0.8728142,0.0,0.0,0.0,-0.083756566,0.0,0.0,0.0,0.0,0.0,0.2642781,0.26423833,0.5727171,0.59629,0.5962893,4.0584726,0.0,0.0,0.0,0.090148166,0.0,0.0,0.0,0.0,0.0,0.0006666192,0.00527315,0.021311251,0.0,0.0,0.0,0.0,0.0,0.0
4386614138,-0.026473612,-0.13281214,0.2307601,-0.057699203,0.097480774,0.015544891,0.0,0.0,0.0,-0.08744467,0.0,0.0,0.0,0.0,0.0,0.26426488,0.2642279,0.5727249,0.59785724,0.59785473,4.0583005,0.0,0.0,0.0,0.09014812,0.0,0.0,0.0,0.0,0.0,0.00068089744,0.009795261,0.027618518,0.0,0.0,0.0,0.0,0.0,0.0
4386814138,0.2165881,-0.22751075,-0.020193338,-0.02306366,0.070510864,-0.1655922,0.0,0.0,0.0,-0.046235733,0.0,0.0,0.0,0.0,0.0,0.26419774,0.2641719,0.57264954,0.5979553,0.59795094,4.058056,0.0,0.0,0.0,0.09014801,0.0,0.0,0.0,0.0,0.0,0.00084428757,0.017137764,0.04950896,0.0,0.0,0.0,0.0,0.0,0.0
4387014726,0.12448095,-0.13898614,0.16638738,-0.0032730103,0.045959473,0.01404953,0.0,0.0,0.0,-0.0023520328,0.0,0.0,0.0,0.0,0.0,0.264071,0.26405525,0.57265764,0.6007796,0.600774,4.058214,0.0,0.0,0.0,0.09014823,0.0,0.0,0.0,0.0,0.0,0.0007874886,0.010070487,0.030581687,0.0,0.0,0.0,0.0,0.0,0.0
4387215856,0.08188377,-0.1651232,-0.07323754,0.0061950684,0.01940918,-0.04812622,0.0,0.0,0.0,0.019198377,0.0,0.0,0.0,0.0,0.0,0.26401538,0.26400918,0.5726707,0.602362,0.602356,4.058341,0.0,0.0,0.0,0.09014826,0.0,0.0,0.0,0.0,0.0,0.0005233119,0.010130064,0.030297115,0.0,0.0,0.0,0.0,0.0,0.0
4387416547,0.13870332,-0.13525291,0.032032132,0.032426834,-0.0049743652,0.0025253296,0.0,0.0,0.0,-0.0027874932,0.0,0.0,0.0,0.0,0.0,0.2640095,0.26400927,0.57268274,0.6039069,0.60390157,4.058188,0.0,0.0,0.0,0.09014823,0.0,0.0,0.0,0.0,0.0,0.0005132281,0.012443004,0.039918542,0.0,0.0,0.0,0.0,0.0,0.0
4387616572,0.0031800931,-0.07555623,-0.06952649,0.054260254,-0.014633179,0.7675171,0.0,0.0,0.0,-0.051093467,0.0,0.0,0.0,0.0,0.0,0.2639938,0.26399547,0.5726966,0.6069715,0.6069671,4.0580516,0.0,0.0,0.0,0.090148136,0.0,0.0,0.0,0.0,0.0,0.000894383,0.004163369,0.015018368,0.0,0.0,0.0,0.0,0.0,0.0
4387821387,0.17665642,-0.24133563,0.004345715,0.07804489,-0.041175842,-0.21951294,0.0,0.0,0.0,0.0031691492,0.0,0.0,0.0,0.0,0.0,0.2640063,0.26400667,0.57266134,0.60893756,0.6089347,4.0581665,0.0,0.0,0.0,0.090148136,0.0,0.0,0.0,0.0,0.0,0.0009750241,0.013560966,0.040934473,0.0,0.0,0.0,0.0,0.0,0.0
4388022253,-0.31716526,-0.03646802,-0.21889675,0.05580139,-0.041923523,0.51239395,0.0,0.0,0.0,0.0061440244,0.0,0.0,0.0,0.0,0.0,0.26392534,0.26392174,0.5726402,0.6116111,0.6116097,4.058083,0.0,0.0,0.0,0.09014805,0.0,0.0,0.0,0.0,0.0,0.00050561375,0.019624038,0.0622923,0.0,0.0,0.0,0.0,0.0,0.0
4388222978,0.246041,-0.15584975,-0.15769202,0.089292526,-0.055740356,-0.21662903,0.0,0.0,0.0,-0.026433013,0.0,0.0,0.0,0.0,0.0,0.2639499,0.26394302,0.57268655,0.6119316,0.61193144,4.058098,0.0,0.0,0.0,0.09014795,0.0,0.0,0.0,0.0,0.0,0.00044325253,0.015958682,0.058804646,0.0,0.0,0.0,0.0,0.0,0.0
4388427047,0.16339344,-0.11478147,0.05799645,0.10504532,-0.059921265,0.47612762,0.0,0.0,0.0,-0.010753065,0.0,0.0,0.0,0.0,0.0,0.26388234,0.26387623,0.57266635,0.61459464,0.61459506,4.0581226,0.0,0.0,0.0,0.09014801,0.0,0.0,0.0,0.0,0.0,0.0005045489,0.018599398,0.06458765,0.0,0.0,0.0,0.0,0.0,0.0
4388627730,0.101270825,-0.019578625,0.078831315,0.13020515,-0.06461334,0.75899124,0.0,0.0,0.0,-0.041677922,0.0,0.0,0.0,0.0,0.0,0.2638906,0.26388904,0.5727132,0.61642057,0.6164214,4.058059,0.0,0.0,0.0,0.090148084,0.0,0.0,0.0,0.0,0.0,0.00038514286,0.02132521,0.071645,0.0,0.0,0.0,0.0,0.0,0.0
4388828580,0.1899003,-0.1119539,0.050195277,0.15309143,-0.06250763,0.7653885,0.0,0.0,0.0,0.02338117,0.0,0.0,0.0,0.0,0.0,0.2638785,0.2638823,0.57273185,0.6195283,0.6195295,4.058221,0.0,0.0,0.0,0.09014801,0.0,0.0,0.0,0.0,0.0,0.0004952394,0.0205079,0.067595705,0.0,0.0,0.0,0.0,0.0,0.0
4389029317,0.23339134,0.042929105,0.20760906,0.1933136,-0.04812622,0.39180374,0.0,0.0,0.0,0.022342652,0.0,0.0,0.0,0.0,0.0,0.26386297,0.26387036,0.57266015,0.6211621,0.6211637,4.058064,0.0,0.0,0.0,0.09014793,0.0,0.0,0.0,0.0,0.0,0.00072926044,0.018878404,0.05879187,0.0,0.0,0.0,0.0,0.0,0.0
4389230001,0.17050788,0.021701232,0.17205942,0.20480156,-0.04410553,-0.016273499,0.0,0.0,0.0,-0.004132841,0.0,0.0,0.0,0.0,0.0,0.2639002,0.2639055,0.57271075,0.62162167,0.62162375,4.0579495,0.0,0.0,0.0,0.090147845,0.0,0.0,0.0,0.0,0.0,0.0008050009,0.015573086,0.04781133,0.0,0.0,0.0,0.0,0.0,0.0
4389430225,0.3768071,0.030925266,0.2162646,0.24799538,-0.038604736,-0.27472305,0.0,0.0,0.0,0.0025774986,0.0,0.0,0.0,0.0,0.0,0.26380992,0.26380873,0.57269263,0.62132657,0.62132883,4.0581164,0.0,0.0,0.0,0.09014785,0.0,0.0,0.0,0.0,0.0,0.0010965515,0.019704957,0.055338405,0.0,0.0,0.0,0.0,0.0,0.0
4389634918,0.07701272,0.031203493,0.17156261,0.24923897,-0.030525208,0.5786247,0.0,0.0,0.0,-0.06504329,0.0,0.0,0.0,0.0,0.0,0.2637722,0.26376286,0.57270694,0.6229087,0.62291056,4.0582685,0.0,0.0,0.0,0.09014786,0.0,0.0,0.0,0.0,0.0,0.0009132385,0.015524132,0.04745813,0.0,0.0,0.0,0.0,0.0,0.0
4389835778,0.021013573,-0.06486601,0.044996202,0.24667168,-0.038635254,-0.764431,0.0,0.0,0.0,-0.009236246,0.0,0.0,0.0,0.0,0.0,0.26379427,0.26377806,0.5726667,0.6248534,0.624854,4.058153,0.0,0.0,0.0,0.090147905,0.0,0.0,0.0,0.0,0.0,0.0005489624,0.0063344208,0.022463728,0.0,0.0,0.0,0.0,0.0,0.0
4390040570,0.06653258,0.05828215,0.26039976,0.25049782,-0.019355774,0.53081894,0.0,0.0,0.0,-0.040234715,0.0,0.0,0.0,0.0,0.0,0.2636248,0.26360884,0.5726947,0.6226412,0.62264067,4.058313,0.0,0.0,0.0,0.09014789,0.0,0.0,0.0,0.0,0.0,0.0005406715,0.009249302,0.026360858,0.0,0.0,0.0,0.0,0.0,0.0
4390241341,0.066964425,-0.015350476,0.15001947,0.24801826,-0.018478394,-0.050323486,0.0,0.0,0.0,0.060225792,0.0,0.0,0.0,0.0,0.0,0.26360247,0.263589,0.57270867,0.6227343,0.62273246,4.0581727,0.0,0.0,0.0,0.09014788,0.0,0.0,0.0,0.0,0.0,0.0005813692,0.011416747,0.034507383,0.0,0.0,0.0,0.0,0.0,0.0
4390441415,-0.033952765,-0.013107613,0.17097098,0.24100685,-0.012580872,0.48783493,0.0,0.0,0.0,-0.02277556,0.0,0.0,0.0,0.0,0.0,0.26361424,0.26360252,0.572637,0.6228151,0.62281203,4.0581036,0.0,0.0,0.0,0.09014788,0.0,0.0,0.0,0.0,0.0,0.00046451797,0.008057187,0.019465184,0.0,0.0,0.0,0.0,0.0,0.0
4390646020,-0.12592122,0.046948448,0.060228467,0.2104187,0.0036087036,-0.069366455,0.0,0.0,0.0,0.009039991,0.0,0.0,0.0,0.0,0.0,0.26362088,0.26361233,0.57265437,0.6243771,0.6243733,4.0579615,0.0,0.0,0.0,0.09014788,0.0,0.0,0.0,0.0,0.0,0.0003721442,0.011458275,0.024285933,0.0,0.0,0.0,0.0,0.0,0.0
4390846975,0.07195392,-0.008749381,0.14060396,0.19138336,0.013465881,-0.16186142,0.0,0.0,0.0,-0.04876343,0.0,0.0,0.0,0.0,0.0,0.26361606,0.26361087,0.5726737,0.6259475,0.6259433,4.0581303,0.0,0.0,0.0,0.090147786,0.0,0.0,0.0,0.0,0.0,0.00021897414,0.011689661,0.033851888,0.0,0.0,0.0,0.0,0.0,0.0
4391047602,-0.16140147,-0.07293512,-0.0071932077,0.1553669,0.0087890625,-0.5212059,0.0,0.0,0.0,-0.006593406,0.0,0.0,0.0,0.0,0.0,0.2635987,0.2635968,0.57268685,0.62748444,0.62748045,4.0578766,0.0,0.0,0.0,0.0901478,0.0,0.0,0.0,0.0,0.0,0.000108950684,0.018024364,0.05238305,0.0,0.0,0.0,0.0,0.0,0.0
4391247761,-0.124763004,-0.042810205,-0.22708535,0.13087082,0.013938904,0.39055252,0.0,0.0,0.0,0.019967772,0.0,0.0,0.0,0.0,0.0,0.26364028,0.26364124,0.5726483,0.6277471,0.627744,4.0581145,0.0,0.0,0.0,0.09014779,0.0,0.0,0.0,0.0,0.0,0.0002895631,0.016330916,0.04454739,0.0,0.0,0.0,0.0,0.0,0.0
4391448841,-0.208287,0.08310157,-0.20248204,0.09466171,0.02494049,1.2025642,0.0,0.0,0.0,0.0109713,0.0,0.0,0.0,0.0,0.0,0.26360896,0.26360977,0.57262903,0.6304431,0.63044125,4.0582786,0.0,0.0,0.0,0.090147726,0.0,0.0,0.0,0.0,0.0,0.00025043695,0.015470585,0.035437316,0.0,0.0,0.0,0.0,0.0,0.0
4391649228,-0.32482952,0.05335837,-0.101520896,0.050271988,0.039222717,-0.15881729,0.0,0.0,0.0,0.00022564083,0.0,0.0,0.0,0.0,0.0,0.26366746,0.26366615,0.57264304,0.6305686,0.6305683,4.0581203,0.0,0.0,0.0,0.090147726,0.0,0.0,0.0,0.0,0.0,0.00044617918,0.021185542,0.051244047,0.0,0.0,0.0,0.0,0.0,0.0
4391849978,-0.20048347,0.01806406,-0.31932032,0.016029358,0.047828674,1.5700951,0.0,0.0,0.0,-0.007610284,0.0,0.0,0.0,0.0,0.0,0.26371518,0.263712,0.5726573,0.63214993,0.63215095,4.058446,0.0,0.0,0.0,0.09014771,0.0,0.0,0.0,0.0,0.0,0.00037703943,0.0174705,0.041289106,0.0,0.0,0.0,0.0,0.0,0.0
4392054163,0.23985524,-0.07169074,-0.03880298,0.047685623,0.033943176,0.08646774,0.0,0.0,0.0,0.020169422,0.0,0.0,0.0,0.0,0.0,0.26378387,0.26377797,0.5727011,0.6354704,0.6354724,4.0585775,0.0,0.0,0.0,0.09014772,0.0,0.0,0.0,0.0,0.0,0.00027910803,0.004940107,0.018753314,0.0,0.0,0.0,0.0,0.0,0.0
4392254950,-0.19322348,-0.10942538,-0.258094,0.029277802,0.022109985,0.05309677,0.0,0.0,0.0,-0.049832914,0.0,0.0,0.0,0.0,0.0,0.2638373,0.2638275,0.572709,0.6355953,0.6355979,4.058711,0.0,0.0,0.0,0.090147644,0.0,0.0,0.0,0.0,0.0,0.00034740838,0.012072559,0.033976402,0.0,0.0,0.0,0.0,0.0,0.0
4392455735,-0.09431283,0.15976962,-0.040812373,0.03676033,0.04483795,-0.21846771,0.0,0.0,0.0,0.028019145,0.0,0.0,0.0,0.0,0.0,0.26389024,0.26387712,0.57271785,0.6387297,0.63873243,4.058496,0.0,0.0,0.0,0.090147726,0.0,0.0,0.0,0.0,0.0,0.0003687046,0.015751673,0.046608772,0.0,0.0,0.0,0.0,0.0,0.0
4392656592,0.08663162,-0.14968795,-0.040263176,0.06121254,0.03288269,-0.2636261,0.0,0.0,0.0,0.0036811158,0.0,0.0,0.0,0.0,0.0,0.2639024,0.263886,0.57272327,0.6403426,0.6403451,4.0583825,0.0,0.0,0.0,0.09014765,0.0,0.0,0.0,0.0,0.0,0.00021536148,0.012415704,0.04155475,0.0,0.0,0.0,0.0,0.0,0.0
4392857436,0.038174912,0.08749685,-0.14061564,0.0769577,0.04071045,-1.0383568,0.0,0.0,0.0,0.016411148,0.0,0.0,0.0,0.0,0.0,0.2638951,0.2638768,0.5726466,0.6419934,0.64199513,4.0582347,0.0,0.0,0.0,0.09014766,0.0,0.0,0.0,0.0,0.0,0.00023818876,0.024279898,0.078737184,0.0,0.0,0.0,0.0,0.0,0.0
4393062146,-0.16461667,-0.07851145,-0.1019268,0.05544281,0.02028656,-0.598217,0.0,0.0,0.0,-0.016299434,0.0,0.0,0.0,0.0,0.0,0.26386857,0.26386198,0.5726628,0.6481764,0.6481759,4.0582385,0.0,0.0,0.0,0.09014766,0.0,0.0,0.0,0.0,0.0,0.00031948768,0.026013283,0.07832895,0.0,0.0,0.0,0.0,0.0,0.0
4393262118,-0.28479028,0.017346412,-0.21250969,0.035549164,0.008842468,0.023845673,0.0,0.0,0.0,-0.00044541806,0.0,0.0,0.0,0.0,0.0,0.26386142,0.26386702,0.57267326,0.6514119,0.65141076,4.058394,0.0,0.0,0.0,0.0901476,0.0,0.0,0.0,0.0,0.0,0.00062454736,0.032094758,0.086397804,0.0,0.0,0.0,0.0,0.0,0.0
4393462986,-0.057018474,0.11949259,-0.19097024,0.030626297,0.014717102,0.18379974,0.0,0.0,0.0,0.0035783798,0.0,0.0,0.0,0.0,0.0,0.26384053,0.26385736,0.57267755,0.65308833,0.6530874,4.0584865,0.0,0.0,0.0,0.090147555,0.0,0.0,0.0,0.0,0.0,0.0008297268,0.026106803,0.074603215,0.0,0.0,0.0,0.0,0.0,0.0
4393663632,0.030172497,-0.08467468,-0.02322793,0.045410156,0.00806427,-0.7243309,0.0,0.0,0.0,0.035952352,0.0,0.0,0.0,0.0,0.0,0.26389107,0.2639146,0.5726877,0.6548002,0.6548005,4.0583725,0.0,0.0,0.0,0.09014746,0.0,0.0,0.0,0.0,0.0,0.00046447103,0.019402467,0.06428464,0.0,0.0,0.0,0.0,0.0,0.0
4393864593,-0.1583743,-0.09763289,-0.053021967,0.032411575,-0.011856079,-0.84784317,0.0,0.0,0.0,-0.061372273,0.0,0.0,0.0,0.0,0.0,0.26388273,0.26390386,0.57266605,0.657682,0.6576838,4.0579066,0.0,0.0,0.0,0.09014753,0.0,0.0,0.0,0.0,0.0,0.00043777353,0.023244467,0.072467156,0.0,0.0,0.0,0.0,0.0,0.0
4394064563,-0.30799603,0.20426166,-0.19781107,0.004514694,0.010009766,-0.39855576,0.0,0.0,0.0,-0.009417102,0.0,0.0,0.0,0.0,0.0,0.2640045,0.26401937,0.57262665,0.6613611,0.66136444,4.058356,0.0,0.0,0.0,0.09014748,0.0,0.0,0.0,0.0,0.0,0.0007293074,0.028813874,0.07124607,0.0,0.0,0.0,0.0,0.0,0.0
4394265652,-0.12160277,-0.05008418,-0.0834856,0.023078918,0.0016021729,-0.3025055,0.0,0.0,0.0,0.014869362,0.0,0.0,0.0,0.0,0.0,0.2640699,0.26407778,0.57264066,0.6631048,0.66310894,4.058179,0.0,0.0,0.0,0.0901476,0.0,0.0,0.0,0.0,0.0,0.00068493566,0.018949434,0.04860746,0.0,0.0,0.0,0.0,0.0,0.0
4394466141,-0.052566715,0.034000345,-0.11990106,0.034700394,0.0015716553,0.35324478,0.0,0.0,0.0,-0.023324206,0.0,0.0,0.0,0.0,0.0,0.26405954,0.26406422,0.5726181,0.6628936,0.66289806,4.058336,0.0,0.0,0.0,0.09014761,0.0,0.0,0.0,0.0,0.0,0.00046753974,0.009915005,0.024814103,0.0,0.0,0.0,0.0,0.0,0.0
4394671015,-0.16544876,-0.08117047,-0.04541564,0.024311066,-0.0030288696,-0.20233154,0.0,0.0,0.0,-0.032589123,0.0,0.0,0.0,0.0,0.0,0.26411602,0.26412177,0.5726633,0.6663873,0.6663917,4.0581045,0.0,0.0,0.0,0.09014748,0.0,0.0,0.0,0.0,0.0,0.00036853162,0.015267529,0.038593616,0.0,0.0,0.0,0.0,0.0,0.0
4394874963,-0.07721206,-0.016337961,0.07152939,0.027078629,-0.0016708374,-0.1276741,0.0,0.0,0.0,0.009543292,0.0,0.0,0.0,0.0,0.0,0.26410016,0.26410726,0.5726832,0.66813314,0.6681373,4.0582843,0.0,0.0,0.0,0.09014747,0.0,0.0,0.0,0.0,0.0,0.00032784746,0.009464554,0.025856752,0.0,0.0,0.0,0.0,0.0,0.0
4395075886,-0.13122183,0.035130933,-0.043978095,0.015857697,0.005104065,0.09192276,0.0,0.0,0.0,0.035879686,0.0,0.0,0.0,0.0,0.0,0.26411033,0.26411757,0.57261306,0.669834,0.6698382,4.0581207,0.0,0.0,0.0,0.09014749,0.0,0.0,0.0,0.0,0.0,0.00039060233,0.011207592,0.030491507,0.0,0.0,0.0,0.0,0.0,0.0
4395280633,-0.24303627,0.053131513,-0.11811894,-0.010580063,0.0060424805,-0.69657135,0.0,0.0,0.0,0.023774534,0.0,0.0,0.0,0.0,0.0,0.2640757,0.2640828,0.5726806,0.66964096,0.6696452,4.057732,0.0,0.0,0.0,0.090147644,0.0,0.0,0.0,0.0,0.0,0.00055126264,0.01778307,0.042538334,0.0,0.0,0.0,0.0,0.0,0.0
4395481330,-0.08602893,-0.012955368,-0.117421865,-0.009132385,0.0018463135,0.727829,0.0,0.0,0.0,0.029718503,0.0,0.0,0.0,0.0,0.0,0.26417825,0.26418582,0.57264656,0.6733215,0.67332596,4.0575967,0.0,0.0,0.0,0.09014758,0.0,0.0,0.0,0.0,0.0,0.0006255834,0.009457906,0.019934228,0.0,0.0,0.0,0.0,0.0,0.0
4395686114,0.05590567,-0.07383509,0.025110006,0.013128281,-0.008384705,-0.19357681,0.0,0.0,0.0,-0.030369304,0.0,0.0,0.0,0.0,0.0,0.26418933,0.26419702,0.5726652,0.67504215,0.6750469,4.058083,0.0,0.0,0.0,0.09014743,0.0,0.0,0.0,0.0,0.0,0.0003989245,0.008388942,0.02469984,0.0,0.0,0.0,0.0,0.0,0.0
4395890272,-0.1470443,0.10253446,-0.07043433,-0.004026413,0.0027618408,-0.58753586,0.0,0.0,0.0,-0.020569034,0.0,0.0,0.0,0.0,0.0,0.2641206,0.26412803,0.5726508,0.67794156,0.67794645,4.0574307,0.0,0.0,0.0,0.09014737,0.0,0.0,0.0,0.0,0.0,0.00021873132,0.012172742,0.0363978,0.0,0.0,0.0,0.0,0.0,0.0
4396090935,-0.045176856,0.08689261,-0.04813218,0.0029621124,0.011924744,-0.05319214,0.0,0.0,0.0,-0.0137247965,0.0,0.0,0.0,0.0,0.0,0.26406077,0.26406777,0.5726329,0.67930096,0.6793061,4.057574,0.0,0.0,0.0,0.090147555,0.0,0.0,0.0,0.0,0.0,0.0003237529,0.0085856095,0.021696705,0.0,0.0,0.0,0.0,0.0,0.0
4396295815,0.02264591,0.16670594,-0.055045485,0.007303238,0.029792786,-0.15777206,0.0,0.0,0.0,0.0052273795,0.0,0.0,0.0,0.0,0.0,0.26416817,0.2641771,0.5726029,0.6799184,0.67992395,4.0575204,0.0,0.0,0.0,0.09014748,0.0,0.0,0.0,0.0,0.0,0.00057715224,0.014058185,0.03313246,0.0,0.0,0.0,0.0,0.0,0.0
4396496558,-0.23869798,0.16915286,-0.08234626,-0.0040893555,0.03994751,0.07603073,0.0,0.0,0.0,-0.07130818,0.0,0.0,0.0,0.0,0.0,0.26411602,0.2641254,0.5726191,0.6814627,0.6814686,4.0575747,0.0,0.0,0.0,0.09014755,0.0,0.0,0.0,0.0,0.0,0.0007712376,0.01459566,0.028816167,0.0,0.0,0.0,0.0,0.0,0.0
4396701332,-0.1614536,-0.018363565,-0.01105535,-0.015031815,0.030509949,-0.60562515,0.0,0.0,0.0,-0.06570312,0.0,0.0,0.0,0.0,0.0,0.264052,0.26406074,0.57263917,0.6847682,0.6847744,4.0574727,0.0,0.0,0.0,0.09014756,0.0,0.0,0.0,0.0,0.0,0.00087578903,0.009962211,0.020103956,0.0,0.0,0.0,0.0,0.0,0.0
4396901483,-0.09110879,-0.11393064,-0.081357956,-0.024982452,0.01815033,-0.02225113,0.0,0.0,0.0,-0.06999692,0.0,0.0,0.0,0.0,0.0,0.264003,0.26401144,0.57265854,0.6896535,0.68965995,4.0576587,0.0,0.0,0.0,0.09014751,0.0,0.0,0.0,0.0,0.0,0.0010500144,0.010405658,0.028721778,0.0,0.0,0.0,0.0,0.0,0.0
4397102031,-0.11348383,0.09110275,-0.022023022,-0.013458252,0.019493103,-0.33945084,0.0,0.0,0.0,-0.08677528,0.0,0.0,0.0,0.0,0.0,0.26402357,0.26403934,0.57267517,0.6929629,0.6929698,4.057576,0.0,0.0,0.0,0.09014747,0.0,0.0,0.0,0.0,0.0,0.0014114117,0.012317816,0.038645364,0.0,0.0,0.0,0.0,0.0,0.0
4397302977,-0.27410853,0.010620415,-0.11883986,-0.029788971,0.00932312,0.1158638,0.0,0.0,0.0,0.02110894,0.0,0.0,0.0,0.0,0.0,0.26405475,0.26407936,0.5726366,0.69809955,0.69810754,4.057611,0.0,0.0,0.0,0.09014738,0.0,0.0,0.0,0.0,0.0,0.0013808811,0.012568705,0.028697716,0.0,0.0,0.0,0.0,0.0,0.0
4397503728,-0.16985117,0.018419236,-0.03165835,-0.031505585,0.010040283,0.11582565,0.0,0.0,0.0,0.0017496943,0.0,0.0,0.0,0.0,0.0,0.26413134,0.2641595,0.57265633,0.7014816,0.70149094,4.0575094,0.0,0.0,0.0,0.090147324,0.0,0.0,0.0,0.0,0.0,0.0009576939,0.012444504,0.034619965,0.0,0.0,0.0,0.0,0.0,0.0
4397703620,0.13364393,-0.0976958,-0.0062422752,0.008110046,-0.0057907104,0.12965775,0.0,0.0,0.0,0.008458681,0.0,0.0,0.0,0.0,0.0,0.26423648,0.264253,0.572674,0.70170546,0.70171577,4.057419,0.0,0.0,0.0,0.09014728,0.0,0.0,0.0,0.0,0.0,0.00029759706,0.012763825,0.036424372,0.0,0.0,0.0,0.0,0.0,0.0
4397908396,0.017113507,0.08866903,0.07086587,0.025878906,-0.0023117065,0.3248558,0.0,0.0,0.0,0.020121776,0.0,0.0,0.0,0.0,0.0,0.2642289,0.26423642,0.5726538,0.7030782,0.7030885,4.057617,0.0,0.0,0.0,0.09014719,0.0,0.0,0.0,0.0,0.0,0.00031036112,0.0143089015,0.040396642,0.0,0.0,0.0,0.0,0.0,0.0
4398109323,-0.05139012,-0.062884435,0.06654596,0.031078339,-0.010749817,-0.71910095,0.0,0.0,0.0,0.0012566373,0.0,0.0,0.0,0.0,0.0,0.26429147,0.26429313,0.572669,0.70331514,0.7033248,4.057542,0.0,0.0,0.0,0.090147205,0.0,0.0,0.0,0.0,0.0,0.00014510556,0.014626094,0.044225216,0.0,0.0,0.0,0.0,0.0,0.0
4398310027,0.13270897,0.035768546,0.13466454,0.036540985,0.004760742,-0.8158226,0.0,0.0,0.0,-0.003913313,0.0,0.0,0.0,0.0,0.0,0.26436934,0.26436892,0.572632,0.7021233,0.7021316,4.0575995,0.0,0.0,0.0,0.09014723,0.0,0.0,0.0,0.0,0.0,0.00018611777,0.01825066,0.04904158,0.0,0.0,0.0,0.0,0.0,0.0
4398510948,-0.050071508,-0.021768916,0.20917284,0.03266716,0.007736206,0.32255936,0.0,0.0,0.0,0.031235881,0.0,0.0,0.0,0.0,0.0,0.2643156,0.26431504,0.5727007,0.70188403,0.70189095,4.057784,0.0,0.0,0.0,0.09014708,0.0,0.0,0.0,0.0,0.0,0.00020245885,0.020378217,0.06113119,0.0,0.0,0.0,0.0,0.0,0.0
4398714770,-0.17342229,-0.020127673,0.18591762,0.030984879,0.009864807,-0.21710205,0.0,0.0,0.0,-0.053537905,0.0,0.0,0.0,0.0,0.0,0.26437423,0.26437208,0.5726621,0.70238745,0.70239276,4.057941,0.0,0.0,0.0,0.09014715,0.0,0.0,0.0,0.0,0.0,0.00023648488,0.016067125,0.048472095,0.0,0.0,0.0,0.0,0.0,0.0
4398915814,-0.18995675,-0.013826609,0.09130812,0.015314102,0.01576233,0.25362778,0.0,0.0,0.0,0.023467287,0.0,0.0,0.0,0.0,0.0,0.2643204,0.2643133,0.57263994,0.70369464,0.70369846,4.057771,0.0,0.0,0.0,0.09014717,0.0,0.0,0.0,0.0,0.0,0.000469742,0.018234588,0.054363772,0.0,0.0,0.0,0.0,0.0,0.0
4399116534,-0.040950388,0.06638757,0.13157272,0.024728775,0.042266846,-0.4394455,0.0,0.0,0.0,-0.015842378,0.0,0.0,0.0,0.0,0.0,0.2643372,0.26432458,0.572653,0.70383704,0.7038393,4.0579157,0.0,0.0,0.0,0.090147085,0.0,0.0,0.0,0.0,0.0,0.00039011918,0.0088154925,0.026506113,0.0,0.0,0.0,0.0,0.0,0.0
4399317340,-0.08382675,0.03999737,0.13777125,0.03280258,0.05949402,-0.09293747,0.0,0.0,0.0,-0.010101579,0.0,0.0,0.0,0.0,0.0,0.26433268,0.2643152,0.57266676,0.70395803,0.7039585,4.057828,0.0,0.0,0.0,0.09014708,0.0,0.0,0.0,0.0,0.0,0.00043796227,0.012280861,0.03640341,0.0,0.0,0.0,0.0,0.0,0.0
4399521180,-0.011741936,-0.034059256,0.10352445,0.030906677,0.06781006,0.059848785,0.0,0.0,0.0,-0.02860105,0.0,0.0,0.0,0.0,0.0,0.2643435,0.2643208,0.5727114,0.70265716,0.7026556,4.057843,0.0,0.0,0.0,0.090146996,0.0,0.0,0.0,0.0,0.0,0.00010583035,0.007158739,0.022121206,0.0,0.0,0.0,0.0,0.0,0.0
4399722027,-0.036682338,0.0019451976,0.21419811,0.04002762,0.078125,-0.5059509,0.0,0.0,0.0,-0.054326825,0.0,0.0,0.0,0.0,0.0,0.26438165,0.26435697,0.5726742,0.70145756,0.7014536,4.057686,0.0,0.0,0.0,0.09014691,0.0,0.0,0.0,0.0,0.0,0.00018794544,0.00709031,0.018585129,0.0,0.0,0.0,0.0,0.0,0.0
4399922913,-0.034962073,0.0104795545,0.25536263,0.026197433,0.08823395,0.08391571,0.0,0.0,0.0,-0.07041616,0.0,0.0,0.0,0.0,0.0,0.26422873,0.2642064,0.5726209,0.7006677,0.70066214,4.0576315,0.0,0.0,0.0,0.09014675,0.0,0.0,0.0,0.0,0.0,0.00016817667,0.0070108906,0.01713824,0.0,0.0,0.0,0.0,0.0,0.0
4400127620,-0.18535082,0.06688699,0.1293503,0.011253357,0.09776306,-0.7497864,0.0,0.0,0.0,-0.03667774,0.0,0.0,0.0,0.0,0.0,0.26421738,0.26419815,0.5726412,0.70231634,0.7023091,4.057819,0.0,0.0,0.0,0.090146855,0.0,0.0,0.0,0.0,0.0,0.00030836603,0.008976174,0.027207483,0.0,0.0,0.0,0.0,0.0,0.0
4400328524,-0.14083245,0.06098759,0.21423411,0.014219284,0.10481262,-0.9130211,0.0,0.0,0.0,0.029893205,0.0,0.0,0.0,0.0,0.0,0.26420256,0.2641877,0.5726572,0.70238066,0.70237195,4.0576973,0.0,0.0,0.0,0.09014671,0.0,0.0,0.0,0.0,0.0,0.00040922465,0.009842021,0.02909413,0.0,0.0,0.0,0.0,0.0,0.0
4400529200,-0.0042327046,0.0067228973,0.17493975,0.011293411,0.10348511,0.6332855,0.0,0.0,0.0,-0.04632321,0.0,0.0,0.0,0.0,0.0,0.2642004,0.26419172,0.57267547,0.70402485,0.70401514,4.0576477,0.0,0.0,0.0,0.09014665,0.0,0.0,0.0,0.0,0.0,0.00042929078,0.008725825,0.022284057,0.0,0.0,0.0,0.0,0.0,0.0
4400733336,-0.103168726,0.05876523,0.039197564,0.004808426,0.11791229,-0.35219955,0.0,0.0,0.0,-0.024449453,0.0,0.0,0.0,0.0,0.0,0.26426572,0.26426208,0.5726416,0.7060206,0.70601034,4.057826,0.0,0.0,0.0,0.09014666,0.0,0.0,0.0,0.0,0.0,0.00053721445,0.006652844,0.017133368,0.0,0.0,0.0,0.0,0.0,0.0
4400934025,-0.045071788,0.046412714,0.14949286,0.0109500885,0.106666565,0.38422775,0.0,0.0,0.0,-0.05839876,0.0,0.0,0.0,0.0,0.0,0.2642029,0.26420403,0.5726232,0.70567346,0.70566386,4.0576773,0.0,0.0,0.0,0.090146594,0.0,0.0,0.0,0.0,0.0,0.00030651997,0.008984204,0.025054095,0.0,0.0,0.0,0.0,0.0,0.0
4401134950,-0.0016431361,0.014170436,0.30355394,0.033189774,0.10702515,0.21191025,0.0,0.0,0.0,0.044078045,0.0,0.0,0.0,0.0,0.0,0.2642739,0.2642763,0.57267773,0.7061206,0.70611197,4.0575724,0.0,0.0,0.0,0.09014654,0.0,0.0,0.0,0.0,0.0,0.00016191659,0.0065144147,0.015100863,0.0,0.0,0.0,0.0,0.0,0.0
4401335810,-0.1776703,0.10462188,0.10574341,0.017700195,0.11858368,0.37932968,0.0,0.0,0.0,-0.0101894885,0.0,0.0,0.0,0.0,0.0,0.26422623,0.26422864,0.57261294,0.70612806,0.7061207,4.0577683,0.0,0.0,0.0,0.09014658,0.0,0.0,0.0,0.0,0.0,0.00033106757,0.011594813,0.030552763,0.0,0.0,0.0,0.0,0.0,0.0
4401535789,-0.034087863,-0.0057873577,0.22822177,0.03412628,0.11273956,0.37633133,0.0,0.0,0.0,0.002792418,0.0,0.0,0.0,0.0,0.0,0.2641392,0.26414198,0.5726782,0.7057113,0.7057054,4.057933,0.0,0.0,0.0,0.090146534,0.0,0.0,0.0,0.0,0.0,0.00028049835,0.013539179,0.04074057,0.0,0.0,0.0,0.0,0.0,0.0
4401736544,-0.06474455,0.024803475,0.18838179,0.033037186,0.11008453,0.6820946,0.0,0.0,0.0,-0.07030845,0.0,0.0,0.0,0.0,0.0,0.26408994,0.26409307,0.57265705,0.70378983,0.7037854,4.0577073,0.0,0.0,0.0,0.09014656,0.0,0.0,0.0,0.0,0.0,0.00041871762,0.017592613,0.056282263,0.0,0.0,0.0,0.0,0.0,0.0
4401937420,-0.08156434,-0.14386502,0.070650935,0.024326324,0.09801483,0.23479462,0.0,0.0,0.0,-0.0099432245,0.0,0.0,0.0,0.0,0.0,0.2641643,0.26416942,0.57265425,0.7044183,0.7044153,4.05787,0.0,0.0,0.0,0.09014657,0.0,0.0,0.0,0.0,0.0,0.00034617085,0.011701765,0.036726516,0.0,0.0,0.0,0.0,0.0,0.0
4402138258,-0.10024257,-0.04593315,0.036523342,0.019058228,0.09209442,0.28559494,0.0,0.0,0.0,-0.060424894,0.0,0.0,0.0,0.0,0.0,0.2641352,0.26414278,0.5726659,0.7042186,0.704217,4.057612,0.0,0.0,0.0,0.09014658,0.0,0.0,0.0,0.0,0.0,0.00063986133,0.012046009,0.039742764,0.0,0.0,0.0,0.0,0.0,0.0
4402338151,0.056224957,0.0014209002,0.010536909,0.027980804,0.083091736,0.43072128,0.0,0.0,0.0,-0.0007339753,0.0,0.0,0.0,0.0,0.0,0.2641747,0.26418406,0.5726855,0.7041977,0.7041975,4.057806,0.0,0.0,0.0,0.09014658,0.0,0.0,0.0,0.0,0.0,0.00038924027,0.007768572,0.023426699,0.0,0.0,0.0,0.0,0.0,0.0
4402542822,-0.07836654,0.032238364,0.08349514,0.030309677,0.09049225,-0.15998459,0.0,0.0,0.0,0.03911691,0.0,0.0,0.0,0.0,0.0,0.26415727,0.26416495,0.57266694,0.70225173,0.7022525,4.0577216,0.0,0.0,0.0,0.0901466,0.0,0.0,0.0,0.0,0.0,0.0003466062,0.0075453464,0.025078269,0.0,0.0,0.0,0.0,0.0,0.0
4402743613,0.03270383,0.03789787,0.11333406,0.0376091,0.09376526,-0.3820877,0.0,0.0,0.0,0.052816622,0.0,0.0,0.0,0.0,0.0,0.2641944,0.26419786,0.57268566,0.7023036,0.7023047,4.0576205,0.0,0.0,0.0,0.0901467,0.0,0.0,0.0,0.0,0.0,0.00081837625,0.0067142327,0.014445079,0.0,0.0,0.0,0.0,0.0,0.0
4402948381,0.018290497,-0.07284024,0.11255908,0.04548645,0.08843994,-0.23509216,0.0,0.0,0.0,0.022898637,0.0,0.0,0.0,0.0,0.0,0.2642299,0.26422834,0.5727051,0.7007661,0.7007669,4.057807,0.0,0.0,0.0,0.090146646,0.0,0.0,0.0,0.0,0.0,0.000715356,0.0089721745,0.025100479,0.0,0.0,0.0,0.0,0.0,0.0
4403149341,-0.08207749,0.0740146,-0.025549889,0.04835701,0.09764099,0.3333931,0.0,0.0,0.0,0.055792563,0.0,0.0,0.0,0.0,0.0,0.2642294,0.26422158,0.5726359,0.70238316,0.7023832,4.0577526,0.0,0.0,0.0,0.090146765,0.0,0.0,0.0,0.0,0.0,0.00070689066,0.004470824,0.014248689,0.0,0.0,0.0,0.0,0.0,0.0
4403349319,0.020773523,-0.03603992,0.029889226,0.045251846,0.090652466,0.6330147,0.0,0.0,0.0,-0.061421677,0.0,0.0,0.0,0.0,0.0,0.26431435,0.26429883,0.5726888,0.702767,0.70276594,4.0576525,0.0,0.0,0.0,0.090146944,0.0,0.0,0.0,0.0,0.0,0.00037184273,0.0038275511,0.0093824845,0.0,0.0,0.0,0.0,0.0,0.0
4403554009,-0.059480608,-0.051929414,0.008728623,0.03276825,0.08320618,-0.1451912,0.0,0.0,0.0,-0.04086961,0.0,0.0,0.0,0.0,0.0,0.26423955,0.2642197,0.57267153,0.70079666,0.7007945,4.057799,0.0,0.0,0.0,0.09014692,0.0,0.0,0.0,0.0,0.0,0.00019438936,0.007079866,0.020382276,0.0,0.0,0.0,0.0,0.0,0.0
4403754801,0.024722397,0.0040748417,-0.03572786,0.044757843,0.0854187,-0.8878403,0.0,0.0,0.0,0.024004005,0.0,0.0,0.0,0.0,0.0,0.26422384,0.26420557,0.5726896,0.70081717,0.7008139,4.057747,0.0,0.0,0.0,0.090146974,0.0,0.0,0.0,0.0,0.0,0.00025707978,0.021182356,0.0660183,0.0,0.0,0.0,0.0,0.0,0.0
4403955773,0.17378303,-0.09676671,0.058884382,0.06613159,0.07197571,-0.64881516,0.0,0.0,0.0,-0.0515173,0.0,0.0,0.0,0.0,0.0,0.2642124,0.26419905,0.57261777,0.7006511,0.7006471,4.057795,0.0,0.0,0.0,0.090146996,0.0,0.0,0.0,0.0,0.0,0.00041356692,0.025177533,0.074743144,0.0,0.0,0.0,0.0,0.0,0.0
4404156512,0.07643467,-0.14307985,0.13123524,0.081539154,0.0574646,0.6921768,0.0,0.0,0.0,-0.03829699,0.0,0.0,0.0,0.0,0.0,0.26426733,0.26425785,0.5726679,0.7010341,0.70102936,4.0579686,0.0,0.0,0.0,0.09014691,0.0,0.0,0.0,0.0,0.0,0.00040799764,0.01662838,0.043018196,0.0,0.0,0.0,0.0,0.0,0.0
4404360548,0.035498768,-0.028688043,0.12802553,0.08948898,0.054534912,0.037525177,0.0,0.0,0.0,0.03472638,0.0,0.0,0.0,0.0,0.0,0.26418462,0.26417848,0.57264465,0.70224154,0.7022365,4.0578465,0.0,0.0,0.0,0.09014683,0.0,0.0,0.0,0.0,0.0,0.00047770538,0.010139467,0.023434943,0.0,0.0,0.0,0.0,0.0,0.0
4404561206,-0.056363985,-0.09632674,0.0031136274,0.072675705,0.049621582,-0.31787872,0.0,0.0,0.0,0.053997315,0.0,0.0,0.0,0.0,0.0,0.2641981,0.26419672,0.5726558,0.7054821,0.7054772,4.0579734,0.0,0.0,0.0,0.09014678,0.0,0.0,0.0,0.0,0.0,0.00017469433,0.0070472406,0.016244097,0.0,0.0,0.0,0.0,0.0,0.0
4404762007,-0.018985212,-0.017870665,0.1165154,0.07913971,0.044029236,-0.2910347,0.0,0.0,0.0,-0.034883633,0.0,0.0,0.0,0.0,0.0,0.26421902,0.26421982,0.57266533,0.70876074,0.7087563,4.058118,0.0,0.0,0.0,0.09014671,0.0,0.0,0.0,0.0,0.0,8.736452e-05,0.009654102,0.031075515,0.0,0.0,0.0,0.0,0.0,0.0
4404962955,-0.023485422,0.028527662,0.068957925,0.070373535,0.050247192,-0.18815994,0.0,0.0,0.0,-0.014788367,0.0,0.0,0.0,0.0,0.0,0.26416433,0.2641661,0.57263803,0.7100545,0.710051,4.058115,0.0,0.0,0.0,0.09014673,0.0,0.0,0.0,0.0,0.0,0.000113073285,0.009100206,0.029956533,0.0,0.0,0.0,0.0,0.0,0.0
4405166947,0.018027782,-0.04342694,0.17469382,0.05949211,0.058776855,-0.3123207,0.0,0.0,0.0,-0.048508525,0.0,0.0,0.0,0.0,0.0,0.26423547,0.26423684,0.572676,0.7136099,0.71360743,4.0582943,0.0,0.0,0.0,0.090146825,0.0,0.0,0.0,0.0,0.0,0.00029389677,0.004792597,0.017393759,0.0,0.0,0.0,0.0,0.0,0.0
4405367582,0.08174658,-0.09613911,0.06785464,0.06978226,0.06072235,0.18575668,0.0,0.0,0.0,-0.02730859,0.0,0.0,0.0,0.0,0.0,0.2642744,0.26427656,0.57268417,0.71376663,0.71376514,4.058414,0.0,0.0,0.0,0.090147115,0.0,0.0,0.0,0.0,0.0,0.00028686566,0.006481201,0.014818129,0.0,0.0,0.0,0.0,0.0,0.0
4405568529,-0.01413333,-0.09070152,0.0067802668,0.07439232,0.047668457,0.3603325,0.0,0.0,0.0,0.023493312,0.0,0.0,0.0,0.0,0.0,0.26431316,0.2643189,0.5726899,0.71551406,0.7155134,4.0582066,0.0,0.0,0.0,0.09014705,0.0,0.0,0.0,0.0,0.0,0.0003859964,0.0060507082,0.015107884,0.0,0.0,0.0,0.0,0.0,0.0
4405773373,-0.05421061,-0.14577635,-0.021837711,0.06684303,0.03466797,-0.5697975,0.0,0.0,0.0,-0.022422113,0.0,0.0,0.0,0.0,0.0,0.26434383,0.26435336,0.5727001,0.7172649,0.7172651,4.058045,0.0,0.0,0.0,0.09014696,0.0,0.0,0.0,0.0,0.0,0.00025589307,0.008678147,0.020759976,0.0,0.0,0.0,0.0,0.0,0.0
4405974159,0.053410485,-0.11877779,0.06583524,0.0763855,0.02040863,0.6235771,0.0,0.0,0.0,-0.010027334,0.0,0.0,0.0,0.0,0.0,0.26432246,0.26433265,0.57271236,0.718976,0.7189773,4.058234,0.0,0.0,0.0,0.090146884,0.0,0.0,0.0,0.0,0.0,0.00050479395,0.007146717,0.015658477,0.0,0.0,0.0,0.0,0.0,0.0
4406174225,0.10032275,-0.18011746,0.15719151,0.10649109,-0.01184082,0.33464432,0.0,0.0,0.0,0.0039120764,0.0,0.0,0.0,0.0,0.0,0.26431388,0.26432383,0.57263696,0.7207245,0.72072685,4.057931,0.0,0.0,0.0,0.09014688,0.0,0.0,0.0,0.0,0.0,0.00065948034,0.011258707,0.024034958,0.0,0.0,0.0,0.0,0.0,0.0
4406374959,-0.0045233667,-0.09083108,0.17884016,0.11369324,-0.025871277,-0.014621735,0.0,0.0,0.0,-0.005252868,0.0,0.0,0.0,0.0,0.0,0.2642907,0.26429784,0.5726473,0.7222826,0.72228587,4.0580726,0.0,0.0,0.0,0.09014688,0.0,0.0,0.0,0.0,0.0,0.00043437467,0.008668202,0.021962507,0.0,0.0,0.0,0.0,0.0,0.0
4406575832,-0.11555758,-0.056570247,0.18984699,0.11368942,-0.030815125,0.40604782,0.0,0.0,0.0,0.027633086,0.0,0.0,0.0,0.0,0.0,0.26428786,0.2642916,0.57266426,0.72405005,0.72405416,4.0579314,0.0,0.0,0.0,0.09014687,0.0,0.0,0.0,0.0,0.0,0.00037489142,0.009394247,0.02787174,0.0,0.0,0.0,0.0,0.0,0.0
4406776659,-0.044591963,-0.03137064,0.17847359,0.10642815,-0.03958893,0.3568611,0.0,0.0,0.0,-0.056826875,0.0,0.0,0.0,0.0,0.0,0.26429552,0.26429334,0.57268053,0.72419715,0.72420174,4.0580773,0.0,0.0,0.0,0.090146855,0.0,0.0,0.0,0.0,0.0,0.00022333486,0.007979387,0.02537173,0.0,0.0,0.0,0.0,0.0,0.0
4406977331,0.07147597,-0.10376254,0.1970253,0.12558937,-0.045928955,-0.4883957,0.0,0.0,0.0,0.056350827,0.0,0.0,0.0,0.0,0.0,0.26430276,0.26429883,0.5726913,0.72428584,0.7242904,4.0582037,0.0,0.0,0.0,0.09014677,0.0,0.0,0.0,0.0,0.0,0.0002588958,0.0060028154,0.018953752,0.0,0.0,0.0,0.0,0.0,0.0
4407181360,-0.050501823,-0.026850715,0.23747528,0.12468147,-0.041419983,-0.58553696,0.0,0.0,0.0,0.008666828,0.0,0.0,0.0,0.0,0.0,0.26433748,0.26433435,0.5727028,0.72440416,0.72440827,4.058046,0.0,0.0,0.0,0.0901467,0.0,0.0,0.0,0.0,0.0,0.00030988094,0.0038598941,0.01428947,0.0,0.0,0.0,0.0,0.0,0.0
4407382167,0.01777491,-0.08886923,0.10169375,0.13660431,-0.051734924,-0.36548233,0.0,0.0,0.0,-0.038687818,0.0,0.0,0.0,0.0,0.0,0.26436064,0.26436034,0.5727153,0.7245107,0.7245143,4.0581956,0.0,0.0,0.0,0.090146646,0.0,0.0,0.0,0.0,0.0,0.00032093402,0.005048648,0.01527412,0.0,0.0,0.0,0.0,0.0,0.0
4407582944,0.01791919,-0.041288212,0.13230383,0.13010025,-0.050308228,0.28438568,0.0,0.0,0.0,-0.03878428,0.0,0.0,0.0,0.0,0.0,0.26439282,0.26439363,0.5726705,0.72479296,0.72479624,4.0581846,0.0,0.0,0.0,0.090146735,0.0,0.0,0.0,0.0,0.0,0.00029231713,0.005748509,0.017048674,0.0,0.0,0.0,0.0,0.0,0.0
4407783711,0.11356905,-0.06203547,0.15090144,0.1540451,-0.05355835,-0.39014816,0.0,0.0,0.0,-0.046614103,0.0,0.0,0.0,0.0,0.0,0.26429763,0.26429814,0.57264686,0.7244227,0.72442555,4.058035,0.0,0.0,0.0,0.090146765,0.0,0.0,0.0,0.0,0.0,0.00035176545,0.006601854,0.015228157,0.0,0.0,0.0,0.0,0.0,0.0
4407987771,-0.07996136,-0.030930966,0.12071431,0.13220978,-0.04284668,0.21815109,0.0,0.0,0.0,-0.01395987,0.0,0.0,0.0,0.0,0.0,0.26429507,0.26429614,0.5726635,0.72450876,0.72451097,4.0581822,0.0,0.0,0.0,0.09014671,0.0,0.0,0.0,0.0,0.0,0.00024518414,0.0029212167,0.00890243,0.0,0.0,0.0,0.0,0.0,0.0
4408188605,-0.03791736,0.043511674,0.0773381,0.1327343,-0.036262512,0.22502518,0.0,0.0,0.0,0.0041526332,0.0,0.0,0.0,0.0,0.0,0.26431683,0.26431823,0.5726775,0.7245863,0.7245878,4.0580864,0.0,0.0,0.0,0.090146735,0.0,0.0,0.0,0.0,0.0,0.00022454749,0.0065680114,0.017952831,0.0,0.0,0.0,0.0,0.0,0.0
4408389381,-0.06348457,-0.03124807,0.08393383,0.12526512,-0.039001465,-0.07326126,0.0,0.0,0.0,-0.043165296,0.0,0.0,0.0,0.0,0.0,0.26432678,0.2643287,0.5726942,0.7262711,0.72627217,4.057924,0.0,0.0,0.0,0.09014672,0.0,0.0,0.0,0.0,0.0,0.00012628522,0.0027681084,0.0046563866,0.0,0.0,0.0,0.0,0.0,0.0
4408594215,-0.049664423,0.06690004,0.045018673,0.113204956,-0.016166687,0.39099503,0.0,0.0,0.0,0.05299636,0.0,0.0,0.0,0.0,0.0,0.2643288,0.26433066,0.57271,0.7263066,0.7263076,4.0579343,0.0,0.0,0.0,0.09014668,0.0,0.0,0.0,0.0,0.0,8.896462e-05,0.0057800533,0.0137303285,0.0,0.0,0.0,0.0,0.0,0.0
4408798268,-0.10455423,-0.05890164,0.24473608,0.108881,-0.022201538,0.007320404,0.0,0.0,0.0,0.02256082,0.0,0.0,0.0,0.0,0.0,0.26430857,0.26431027,0.57272094,0.72780275,0.7278038,4.058151,0.0,0.0,0.0,0.09014669,0.0,0.0,0.0,0.0,0.0,0.0002204431,0.0061592134,0.015821697,0.0,0.0,0.0,0.0,0.0,0.0
4408998830,0.023058593,0.042426996,0.14754176,0.11084366,-0.016418457,0.4412384,0.0,0.0,0.0,-0.016879626,0.0,0.0,0.0,0.0,0.0,0.26439148,0.26439387,0.5726847,0.72990716,0.7299085,4.0580163,0.0,0.0,0.0,0.09014671,0.0,0.0,0.0,0.0,0.0,5.8431433e-05,0.004761339,0.011582676,0.0,0.0,0.0,0.0,0.0,0.0
4409199725,-0.050855123,-0.16761744,0.07652664,0.10270882,-0.027313232,-0.23127747,0.0,0.0,0.0,-0.039367296,0.0,0.0,0.0,0.0,0.0,0.26433665,0.26434085,0.57266665,0.72958165,0.7295835,4.0578685,0.0,0.0,0.0,0.090146646,0.0,0.0,0.0,0.0,0.0,0.00034220688,0.0033220022,0.0081802085,0.0,0.0,0.0,0.0,0.0,0.0
4409400559,-0.06811324,-0.004474938,-0.0009406805,0.081890106,-0.024055481,0.8806877,0.0,0.0,0.0,-0.032724984,0.0,0.0,0.0,0.0,0.0,0.2643994,0.26440498,0.5726367,0.731683,0.7316856,4.057822,0.0,0.0,0.0,0.090146996,0.0,0.0,0.0,0.0,0.0,0.00021128655,0.0073143677,0.024300069,0.0,0.0,0.0,0.0,0.0,0.0
4409605463,-0.1053942,-0.0524233,0.15047264,0.06473732,-0.014968872,-0.31811142,0.0,0.0,0.0,-0.0076094866,0.0,0.0,0.0,0.0,0.0,0.2643305,0.26433802,0.5726216,0.73131186,0.73131496,4.058022,0.0,0.0,0.0,0.090146944,0.0,0.0,0.0,0.0,0.0,0.0001784937,0.006628089,0.019151889,0.0,0.0,0.0,0.0,0.0,0.0
4409809367,-0.19101858,0.02432672,0.1686641,0.0441494,-0.008239746,0.122356415,0.0,0.0,0.0,-0.009373121,0.0,0.0,0.0,0.0,0.0,0.2643581,0.2643674,0.5726425,0.73140556,0.7314095,4.057765,0.0,0.0,0.0,0.09014689,0.0,0.0,0.0,0.0,0.0,0.00032217265,0.0131449085,0.038366612,0.0,0.0,0.0,0.0,0.0,0.0
4410010223,-0.050961673,0.070893265,0.12721765,0.031801224,0.010726929,0.18283081,0.0,0.0,0.0,0.013429366,0.0,0.0,0.0,0.0,0.0,0.26433003,0.26433957,0.5726577,0.73291975,0.73292446,4.05793,0.0,0.0,0.0,0.09014677,0.0,0.0,0.0,0.0,0.0,0.00019343127,0.012091381,0.03614646,0.0,0.0,0.0,0.0,0.0,0.0
4410214921,0.031890273,-0.04047864,0.029049158,0.043209076,0.016433716,0.47691727,0.0,0.0,0.0,0.029733114,0.0,0.0,0.0,0.0,0.0,0.26434892,0.26435494,0.57267654,0.73302794,0.7330333,4.057885,0.0,0.0,0.0,0.09014667,0.0,0.0,0.0,0.0,0.0,0.00015316404,0.007724704,0.027186075,0.0,0.0,0.0,0.0,0.0,0.0
4410415792,-0.0012828112,-0.052181706,0.08471811,0.034906387,0.010391235,-0.64033127,0.0,0.0,0.0,-0.031741537,0.0,0.0,0.0,0.0,0.0,0.2643444,0.26434454,0.5726951,0.73471177,0.734717,4.057793,0.0,0.0,0.0,0.09014668,0.0,0.0,0.0,0.0,0.0,0.00024557626,0.003485895,0.014478902,0.0,0.0,0.0,0.0,0.0,0.0
4410620652,-0.10007116,-0.024638586,0.0656364,0.025579453,0.016342163,-0.08649063,0.0,0.0,0.0,-0.007844582,0.0,0.0,0.0,0.0,0.0,0.26436138,0.2643574,0.5727157,0.7348149,0.7348193,4.057979,0.0,0.0,0.0,0.09014665,0.0,0.0,0.0,0.0,0.0,0.00040559034,0.007566414,0.026636811,0.0,0.0,0.0,0.0,0.0,0.0
4410820614,0.1059584,0.0051390827,0.18551064,0.031175613,0.030311584,0.83000946,0.0,0.0,0.0,-0.010161869,0.0,0.0,0.0,0.0,0.0,0.26444086,0.26443723,0.57268184,0.73529106,0.7352941,4.058146,0.0,0.0,0.0,0.090146616,0.0,0.0,0.0,0.0,0.0,0.00035663674,0.0056947926,0.017036563,0.0,0.0,0.0,0.0,0.0,0.0
4411021400,-0.026735954,-0.016086593,0.054565668,0.021995544,0.036231995,-0.57953644,0.0,0.0,0.0,-0.00574027,0.0,0.0,0.0,0.0,0.0,0.26436663,0.26436523,0.57274705,0.736567,0.73656875,4.0582647,0.0,0.0,0.0,0.09014661,0.0,0.0,0.0,0.0,0.0,0.00017959217,0.011137174,0.033123225,0.0,0.0,0.0,0.0,0.0,0.0
4411222155,-0.15936539,-0.079501405,0.09840894,-0.00466156,0.03804016,-0.030971527,0.0,0.0,0.0,0.001287803,0.0,0.0,0.0,0.0,0.0,0.26443014,0.26443133,0.5727056,0.7370419,0.73704255,4.0584464,0.0,0.0,0.0,0.09014672,0.0,0.0,0.0,0.0,0.0,0.00027412496,0.012113643,0.037832815,0.0,0.0,0.0,0.0,0.0,0.0
4411422982,0.0018572535,0.002034612,0.14479434,-0.003965378,0.039916992,0.205616,0.0,0.0,0.0,-0.01822538,0.0,0.0,0.0,0.0,0.0,0.26434496,0.26434666,0.5726759,0.73827595,0.738276,4.058432,0.0,0.0,0.0,0.09014664,0.0,0.0,0.0,0.0,0.0,0.00025082153,0.008976344,0.030618975,0.0,0.0,0.0,0.0,0.0,0.0
4411623014,0.04267917,0.031011932,0.18523204,0.009103775,0.03668976,0.16994476,0.0,0.0,0.0,0.035753377,0.0,0.0,0.0,0.0,0.0,0.26432228,0.26432467,0.5726786,0.7381711,0.7381709,4.058564,0.0,0.0,0.0,0.090146594,0.0,0.0,0.0,0.0,0.0,0.0002815563,0.0065564257,0.022310946,0.0,0.0,0.0,0.0,0.0,0.0
4411823931,-0.079444304,-0.060665824,0.16517496,-0.010457993,0.02785492,-0.46347046,0.0,0.0,0.0,0.10506572,0.0,0.0,0.0,0.0,0.0,0.26436555,0.26436815,0.57268727,0.73827267,0.73827237,4.0583925,0.0,0.0,0.0,0.09014653,0.0,0.0,0.0,0.0,0.0,0.00017013354,0.0033275282,0.011724123,0.0,0.0,0.0,0.0,0.0,0.0
4412024571,-0.0682351,-0.0639391,0.19329822,-0.023368835,0.025108337,-0.67975235,0.0,0.0,0.0,0.027491204,0.0,0.0,0.0,0.0,0.0,0.26436096,0.26436353,0.57269645,0.7383605,0.7383602,4.0584784,0.0,0.0,0.0,0.09014656,0.0,0.0,0.0,0.0,0.0,0.00021323857,0.008346177,0.027932245,0.0,0.0,0.0,0.0,0.0,0.0
4412225477,0.03258203,-0.03392245,0.22145236,-0.017759323,0.020477295,-0.0868988,0.0,0.0,0.0,0.0049268752,0.0,0.0,0.0,0.0,0.0,0.2642835,0.26428622,0.5727033,0.7367964,0.7367962,4.058587,0.0,0.0,0.0,0.09014659,0.0,0.0,0.0,0.0,0.0,9.014841e-05,0.0047775805,0.017380852,0.0,0.0,0.0,0.0,0.0,0.0
4412429338,0.20770329,-0.06471701,0.33023494,0.019563675,0.0076141357,0.13599777,0.0036382824,-0.026148118,-0.016674668,-0.017385222,0.0,0.0,0.0,0.0,0.0,0.26419616,0.26419935,0.57270885,0.7351593,0.7351594,4.058404,0.004168021,0.0041299304,0.004168313,0.09014661,0.0,0.0,0.0,0.0,0.0,0.0005453339,0.008173011,0.01933122,0.0,0.0,0.0,0.0,0.0,0.0
4412630257,0.16186449,-0.03217114,0.28119123,0.0070285797,0.0018463135,0.61494064,-0.008900255,-0.009816034,-0.033310264,-0.017385222,0.0,0.0,0.0,0.0,0.0,0.26399997,0.26400518,0.57271916,0.7335175,0.7335175,4.058527,0.0027494745,0.0027519304,0.0027515977,0.09014661,0.0,0.0,0.0,0.0,0.0,0.0004419707,0.01289758,0.02515017,0.0,0.0,0.0,0.0,0.0,0.0
4412830987,-0.24506271,-0.03653872,0.12783873,-0.06499672,0.0025787354,0.36917496,-0.00495106,-0.015560778,-0.024710685,-0.017385222,0.0,0.0,0.0,0.0,0.0,0.26397553,0.26399058,0.5727174,0.7318469,0.73184603,4.05859,0.002646444,0.0026636606,0.0026410609,0.09014661,0.0,0.0,0.0,0.0,0.0,0.00026579644,0.008515599,0.026018562,0.0,0.0,0.0,0.0,0.0,0.0
4413031832,-0.047330856,-0.019434571,0.052922368,-0.14031601,-0.0031661987,-0.008640289,-0.016560286,0.006071143,0.022504598,-0.017385222,0.0,0.0,0.0,0.0,0.0,0.2639039,0.2639446,0.57267076,0.72654295,0.72654134,4.058967,0.0026094834,0.002640293,0.0025970226,0.09014661,0.0,0.0,0.0,0.0,0.0,0.00030235114,0.008005355,0.02396842,0.0,0.0,0.0,0.0,0.0,0.0
4413232601,-0.011623263,-0.0337255,0.291584,-0.17007256,0.00092315674,1.4985695,0.0032838285,-0.005576387,0.019625366,-0.017385222,0.0,0.0,0.0,0.0,0.0,0.26397175,0.26401573,0.57270277,0.7235787,0.72357696,4.0587616,0.002604878,0.002637524,0.0025781242,0.09014661,0.0,0.0,0.0,0.0,0.0,0.00019614147,0.012186204,0.038524523,0.0,0.0,0.0,0.0,0.0,0.0
4413432607,0.20347464,-0.14154959,0.12352138,-0.16771507,-0.023506165,-0.42242813,0.0031442642,-0.0059293956,-0.016659468,-0.017385222,0.0,0.0,0.0,0.0,0.0,0.26399782,0.26399773,0.57267535,0.723067,0.7230647,4.0589414,0.002609157,0.0026340508,0.0025648985,0.09014661,0.0,0.0,0.0,0.0,0.0,0.00029405497,0.003807079,0.009105498,0.0,0.0,0.0,0.0,0.0,0.0
4413637348,0.100601435,-0.001996994,0.0715643,-0.14502907,-0.008964539,0.02123642,-0.0036782771,-0.008346066,-0.01855141,-0.017385222,0.0,0.0,0.0,0.0,0.0,0.2641582,0.26410326,0.57271755,0.726423,0.72641796,4.0590005,0.0026056692,0.002616558,0.00255328,0.09014661,0.0,0.0,0.0,0.0,0.0,0.00018927349,0.001639208,0.004322441,0.0,0.0,0.0,0.0,0.0,0.0
4413842017,0.11808038,-0.08723462,0.0926575,-0.11561203,-0.013702393,0.26514816,0.014150947,0.011504069,0.015619785,-0.017385222,0.0,0.0,0.0,0.0,0.0,0.2643358,0.2642437,0.5727525,0.72820467,0.72819424,4.05913,0.0025963625,0.002597073,0.0025449214,0.09014661,0.0,0.0,0.0,0.0,0.0,0.00024731288,0.0030875492,0.0055382117,0.0,0.0,0.0,0.0,0.0,0.0
4414042951,0.048006177,-0.013498664,-0.0020480347,-0.09926033,-0.009841919,-0.15118408,0.007885784,0.0008803755,0.02133426,-0.017385222,0.0,0.0,0.0,0.0,0.0,0.2644775,0.26436126,0.57274914,0.7281543,0.72813666,4.0591516,0.0025867203,0.0025831785,0.0025403663,0.09014661,0.0,0.0,0.0,0.0,0.0,0.0001139219,0.0036222069,0.014870073,0.0,0.0,0.0,0.0,0.0,0.0
4414243718,-0.00049078465,-0.032415748,0.14608802,-0.12447357,0.0074920654,0.026943207,0.0020323172,-0.0022714436,-0.0059585273,-0.017385222,0.0,0.0,0.0,0.0,0.0,0.2646732,0.26453263,0.57274634,0.726546,0.726519,4.059174,0.0025756636,0.002570221,0.0025366715,0.09014661,0.0,0.0,0.0,0.0,0.0,8.34805e-05,0.005303416,0.01899025,0.0,0.0,0.0,0.0,0.0,0.0
4414443776,0.12859559,-0.05128181,0.013857435,-0.15317535,0.006500244,0.20397568,0.013055041,-0.0055778474,-0.030174494,-0.017385222,0.0,0.0,0.0,0.0,0.0,0.26488888,0.26471624,0.5727432,0.72171605,0.7216765,4.0591903,0.002563702,0.00255827,0.00253256,0.09014661,0.0,0.0,0.0,0.0,0.0,0.00012094138,0.0031774451,0.0066921297,0.0,0.0,0.0,0.0,0.0,0.0
4414644351,0.1285801,0.0009074211,0.105917856,-0.17214012,-0.03967285,0.6337395,0.013829924,-0.017872274,-0.024186999,-0.017385222,0.0,0.0,0.0,0.0,0.0,0.26508328,0.26488352,0.5727103,0.7124749,0.71240747,4.0594354,0.002554957,0.0025498436,0.002529387,0.09014661,0.0,0.0,0.0,0.0,0.0,0.00036339057,0.005503596,0.0059985956,0.0,0.0,0.0,0.0,0.0,0.0
4414845454,0.1285801,0.0009074211,0.105917856,-0.17214012,-0.03967285,-0.3135605,0.014837161,0.0026612878,-0.0061736405,-0.017385222,0.0,0.0,0.0,0.0,0.0,0.26508328,0.26488352,0.5727103,0.7124749,0.71240747,4.0591283,0.002547089,0.0025422848,0.0025263787,0.09014661,0.0,0.0,0.0,0.0,0.0,0.00017281345,0.0084298,0.024641316,0.0,0.0,0.0,0.0,0.0,0.0
4415046139,0.077346206,-0.08424449,0.14857526,-0.1157608,-0.0034179688,0.98825836,-0.005795032,0.0062725097,0.019624561,-0.017385222,0.0,0.0,0.0,0.0,0.0,0.2654815,0.26528054,0.5726919,0.7085302,0.70843905,4.059423,0.002540378,0.0025364466,0.002523757,0.09014661,0.0,0.0,0.0,0.0,0.0,0.00015512783,0.004612213,0.014813863,0.0,0.0,0.0,0.0,0.0,0.0
4415249987,0.14842975,0.07215619,-0.06089863,-0.103946686,0.031661987,-0.5614586,0.003780283,0.008430585,0.026946843,-0.017385222,0.0,0.0,0.0,0.0,0.0,0.2657848,0.26560044,0.57272434,0.70570207,0.70559126,4.059411,0.0025358791,0.0025322824,0.0025218877,0.09014661,0.0,0.0,0.0,0.0,0.0,0.00017829561,0.008031746,0.02064847,0.0,0.0,0.0,0.0,0.0,0.0
4415451051,0.09553993,0.0050287247,0.03050857,-0.15040588,0.012535095,0.32597733,-0.007418819,0.00028175116,0.022767484,-0.017385222,0.0,0.0,0.0,0.0,0.0,0.26592916,0.26576942,0.572777,0.70205784,0.7019358,4.0592422,0.002532184,0.0025289422,0.002520306,0.09014661,0.0,0.0,0.0,0.0,0.0,0.0001320374,0.004020651,0.007372164,0.0,0.0,0.0,0.0,0.0,0.0
4415651754,0.13308656,-0.07244992,0.01653928,-0.15844727,0.00065612793,-0.12689972,-0.0042442232,0.0027883947,0.026648343,-0.017385222,0.0,0.0,0.0,0.0,0.0,0.2660981,0.26596746,0.5727698,0.69708574,0.6969548,4.0592294,0.0025297143,0.002526427,0.0025191903,0.09014661,0.0,0.0,0.0,0.0,0.0,0.00014641802,0.004751198,0.012344698,0.0,0.0,0.0,0.0,0.0,0.0
4415856367,0.12232435,0.01766181,0.062744245,-0.15141106,-0.015151978,-1.122776,-0.0021873042,-0.0028657317,0.0057013333,-0.017385222,0.0,0.0,0.0,0.0,0.0,0.26622245,0.2661529,0.57270336,0.686754,0.6866226,4.058638,0.002527706,0.0025239994,0.0025181114,0.09014661,0.0,0.0,0.0,0.0,0.0,0.0002254688,0.008895687,0.025631042,0.0,0.0,0.0,0.0,0.0,0.0
4416057347,0.23165393,-0.019340038,0.1401316,-0.09576416,0.020362854,-0.116672516,0.002337873,5.5119395e-05,0.017102033,-0.017385222,0.0,0.0,0.0,0.0,0.0,0.266522,0.26648286,0.5727754,0.6860141,0.6858848,4.059523,0.0025261997,0.0025223554,0.002517241,0.09014661,0.0,0.0,0.0,0.0,0.0,0.00040104715,0.01395426,0.028381908,0.0,0.0,0.0,0.0,0.0,0.0
4416257231,0.14246261,0.022090673,0.11459786,-0.08231926,-0.014419556,0.65670013,0.0028214082,0.0032867342,-0.0077534914,-0.017385222,0.0,0.0,0.0,0.0,0.0,0.26641837,0.26639432,0.57278806,0.6851677,0.6850507,4.059479,0.002523764,0.002521287,0.0025162774,0.09014661,0.0,0.0,0.0,0.0,0.0,0.00044441863,0.010869158,0.017090792,0.0,0.0,0.0,0.0,0.0,0.0
4416462205,0.1516602,0.003417015,0.071212076,-0.043821335,0.026245117,0.259243,0.0039913356,0.0005696863,-0.008914471,-0.017385222,0.0,0.0,0.0,0.0,0.0,0.26669177,0.2666718,0.57280105,0.6862385,0.6861318,4.0593534,0.002521283,0.002520444,0.0025153672,0.09014661,0.0,0.0,0.0,0.0,0.0,0.00042544198,0.012973363,0.022898862,0.0,0.0,0.0,0.0,0.0,0.0
4416663274,0.08854663,0.045377254,0.09307793,-0.04689598,0.022583008,0.6219597,0.008370668,-0.0075907707,-0.01314041,-0.017385222,0.0,0.0,0.0,0.0,0.0,0.26670146,0.26667863,0.5727959,0.68616575,0.686073,4.0595646,0.0025202546,0.0025195747,0.002514701,0.09014661,0.0,0.0,0.0,0.0,0.0,0.00034140635,0.012651551,0.029669454,0.0,0.0,0.0,0.0,0.0,0.0
4416863752,0.030677676,0.033447266,0.016805168,-0.049087524,0.017059326,0.8282738,-0.008569814,-0.015268296,-0.0062562823,-0.017385222,0.0,0.0,0.0,0.0,0.0,0.2666957,0.26666328,0.5727868,0.6845889,0.6845093,4.0598083,0.0025194718,0.0025185721,0.0025140436,0.09014661,0.0,0.0,0.0,0.0,0.0,0.00020118633,0.013928672,0.042144235,0.0,0.0,0.0,0.0,0.0,0.0
4417064640,0.054071426,0.020146608,-0.021873966,-0.046157837,-0.0064849854,0.5001755,-0.004744515,-0.0009836257,0.018285096,-0.017385222,0.0,0.0,0.0,0.0,0.0,0.26658309,0.26653785,0.57283515,0.68416524,0.68409795,4.059759,0.0025189642,0.002518207,0.002513473,0.09014661,0.0,0.0,0.0,0.0,0.0,0.00012214332,0.009126166,0.030479219,0.0,0.0,0.0,0.0,0.0,0.0
4417268556,0.039325,0.051340103,0.03084851,-0.04801178,-0.004722595,0.526989,-0.009541221,-0.008734047,-0.0035178065,-0.017385222,0.0,0.0,0.0,0.0,0.0,0.2665359,0.26647586,0.5728267,0.6857711,0.68571377,4.059693,0.0025180136,0.002517354,0.0025129437,0.09014661,0.0,0.0,0.0,0.0,0.0,0.00011259375,0.014123375,0.046681363,0.0,0.0,0.0,0.0,0.0,0.0
4417469375,0.12108016,0.07660866,0.051594943,-0.053100586,0.007156372,1.0211296,-0.008998938,-0.019291699,-0.041390926,-0.022827089,0.0,0.0,0.0,0.0,0.0,0.26646307,0.2663893,0.5728232,0.6857843,0.6857355,4.0596285,0.0025175104,0.0025157596,0.0025124792,0.09019883,0.0,0.0,0.0,0.0,0.0,0.00028590186,0.017192535,0.05474524,0.0,0.0,0.0,0.0,0.0,0.0
4417670171,0.08431089,-0.013265371,0.039357,-0.0417614,0.0070343018,0.6237068,-0.008998938,-0.019291699,-0.041390926,0.10840285,0.0,0.0,0.0,0.0,0.0,0.26638606,0.26630908,0.5727616,0.6860397,0.6859958,4.0594482,0.0025175104,0.0025157596,0.0025124792,0.09019748,0.0,0.0,0.0,0.0,0.0,0.00095096446,0.016076725,0.05396262,0.0,0.0,0.0,0.0,0.0,0.0
4417871007,0.042866588,-0.008003235,-0.092386745,-0.055189133,-0.0067825317,0.08412552,-0.008998938,-0.019291699,-0.041390926,0.018484712,0.0,0.0,0.0,0.0,0.0,0.26620632,0.26612934,0.57281506,0.6872233,0.68718296,4.059102,0.0025175104,0.0025157596,0.0025124792,0.090196446,0.0,0.0,0.0,0.0,0.0,0.0010607425,0.007399475,0.0312829,0.0,0.0,0.0,0.0,0.0,0.0
4418074793,0.09352529,-0.03705764,0.0076422635,-0.036376953,-0.005760193,-0.5504036,-0.008998938,-0.019291699,-0.041390926,0.037920654,0.0,0.0,0.0,0.0,0.0,0.2660747,0.26599967,0.57281226,0.6888639,0.688825,4.059069,0.0025175104,0.0025157596,0.0025124792,0.090195335,0.0,0.0,0.0,0.0,0.0,0.00047261745,0.004727936,0.0081351455,0.0,0.0,0.0,0.0,0.0,0.0
4418275927,0.037689567,0.021425962,-0.043936417,-0.030261993,-0.0028152466,-0.100681305,-0.008998938,-0.019291699,-0.041390926,0.030196369,0.0,0.0,0.0,0.0,0.0,0.26590222,0.26582822,0.5728109,0.6873578,0.6873191,4.059376,0.0025175104,0.0025157596,0.0025124792,0.09019427,0.0,0.0,0.0,0.0,0.0,0.0005371889,0.0068059415,0.018762926,0.0,0.0,0.0,0.0,0.0,0.0
4418476552,0.016132593,0.0055463314,-0.03440398,-0.03577423,0.007293701,-0.15326309,-0.008998938,-0.019291699,-0.041390926,0.00083363056,0.0,0.0,0.0,0.0,0.0,0.2657751,0.2657008,0.5728109,0.6857759,0.6857367,4.0593424,0.0025175104,0.0025157596,0.0025124792,0.09019324,0.0,0.0,0.0,0.0,0.0,0.00021735307,0.00779733,0.022259826,0.0,0.0,0.0,0.0,0.0,0.0
4418681230,0.033991337,-0.037194967,0.022100598,-0.031398773,0.0033493042,0.6514435,-0.008998938,-0.019291699,-0.041390926,-0.032713294,0.0,0.0,0.0,0.0,0.0,0.2656703,0.26559412,0.5728122,0.6857788,0.68573856,4.0587487,0.0025175104,0.0025157596,0.0025124792,0.090191826,0.0,0.0,0.0,0.0,0.0,0.00014245993,0.008187503,0.024846751,0.0,0.0,0.0,0.0,0.0,0.0
4418885390,0.032273293,-0.025258303,-0.030593328,-0.051063538,-0.014297485,0.7801018,-0.008998938,-0.019291699,-0.041390926,0.041813433,0.0,0.0,0.0,0.0,0.0,0.26552543,0.26544085,0.57278156,0.6838015,0.6837603,4.0587745,0.0025175104,0.0025157596,0.0025124792,0.09019075,0.0,0.0,0.0,0.0,0.0,0.00054233696,0.011080276,0.03421186,0.0,0.0,0.0,0.0,0.0,0.0
4419086028,-0.0034896135,0.0025138855,-0.07841328,-0.043117523,0.010482788,-0.35277176,-0.008998938,-0.019291699,-0.041390926,0.004053235,0.0,0.0,0.0,0.0,0.0,0.26551223,0.26541948,0.5728213,0.6826435,0.68259895,4.058785,0.0025175104,0.0025157596,0.0025124792,0.09018976,0.0,0.0,0.0,0.0,0.0,8.5937565e-05,0.018344665,0.05695971,0.0,0.0,0.0,0.0,0.0,0.0
4419286948,0.08549178,0.004549265,0.058397427,-0.025764465,-0.0028152466,-0.14692307,-0.008998938,-0.019291699,-0.041390926,0.050143957,0.0,0.0,0.0,0.0,0.0,0.26540962,0.26531062,0.57282174,0.6809721,0.68092483,4.0587673,0.0025175104,0.0025157596,0.0025124792,0.09018875,0.0,0.0,0.0,0.0,0.0,0.00043088984,0.011476831,0.040398583,0.0,0.0,0.0,0.0,0.0,0.0
4419487628,0.0033614635,0.003938198,-0.043391757,-0.020503998,-0.005882263,-0.54255295,-0.008998938,-0.019291699,-0.041390926,0.0101156235,0.0,0.0,0.0,0.0,0.0,0.26530805,0.26521337,0.57282436,0.67932487,0.6792746,4.0587807,0.0025175104,0.0025157596,0.0025124792,0.09018804,0.0,0.0,0.0,0.0,0.0,0.00025636697,0.013285196,0.04466751,0.0,0.0,0.0,0.0,0.0,0.0
4419692565,-0.03832531,0.04300356,-0.005758658,-0.012893677,0.029319763,-0.39570236,-0.008998938,-0.019291699,-0.041390926,-0.04203093,0.0,0.0,0.0,0.0,0.0,0.26527604,0.2651887,0.57277465,0.67649823,0.6764445,4.058505,0.0025175104,0.0025157596,0.0025124792,0.090187095,0.0,0.0,0.0,0.0,0.0,0.00045313707,0.01823311,0.05866425,0.0,0.0,0.0,0.0,0.0,0.0
4419892533,-0.027978063,-0.0042521954,-0.038468245,-0.04560852,0.0060043335,-0.1687355,-0.008998938,-0.019291699,-0.041390926,0.033717215,0.0,0.0,0.0,0.0,0.0,0.26507956,0.26499838,0.57274187,0.6757197,0.6756657,4.0581737,0.0025175104,0.0025157596,0.0025124792,0.09018601,0.0,0.0,0.0,0.0,0.0,0.00036048196,0.011432024,0.035036627,0.0,0.0,0.0,0.0,0.0,0.0
4420097438,-0.04940772,0.06510997,-0.030724678,-0.029922485,0.039024353,-0.22354889,-0.008998938,-0.019291699,-0.041390926,0.018773735,0.0,0.0,0.0,0.0,0.0,0.26507825,0.2650055,0.5727888,0.6744495,0.67439353,4.058251,0.0025175104,0.0025157596,0.0025124792,0.09018498,0.0,0.0,0.0,0.0,0.0,0.0007586503,0.014126497,0.040670082,0.0,0.0,0.0,0.0,0.0,0.0
4420302032,0.03281951,0.07315588,0.029237311,-0.039741516,0.025245667,-0.120536804,-0.008998938,-0.019291699,-0.041390926,-0.00055521727,0.0,0.0,0.0,0.0,0.0,0.26491538,0.2648482,0.57276005,0.6707494,0.6706938,4.058292,0.0025175104,0.0025157596,0.0025124792,0.09018401,0.0,0.0,0.0,0.0,0.0,0.0004224279,0.011859384,0.03557344,0.0,0.0,0.0,0.0,0.0,0.0
4420502822,0.038125396,0.025889874,0.012154669,-0.039146423,0.022850037,0.047504425,-0.008998938,-0.019291699,-0.041390926,0.009128392,0.0,0.0,0.0,0.0,0.0,0.26484206,0.26477453,0.57276255,0.6704176,0.6703615,4.0582232,0.0025175104,0.0025157596,0.0025124792,0.09018328,0.0,0.0,0.0,0.0,0.0,0.00013047337,0.006779353,0.020519214,0.0,0.0,0.0,0.0,0.0,0.0
4420703739,-0.02757299,0.06566763,-0.032078452,-0.03265381,0.059547424,-0.46126938,-0.008998938,-0.019291699,-0.041390926,0.034590125,0.0,0.0,0.0,0.0,0.0,0.2648644,0.2647931,0.5728078,0.669149,0.6690911,4.0583076,0.0025175104,0.0025157596,0.0025124792,0.09018259,0.0,0.0,0.0,0.0,0.0,0.00014662094,0.008876483,0.02307403,0.0,0.0,0.0,0.0,0.0,0.0
4420907566,0.021266818,0.15196037,-0.02775783,-0.042259216,0.0738678,-0.41192627,-0.008998938,-0.019291699,-0.041390926,-0.050913572,0.0,0.0,0.0,0.0,0.0,0.26475152,0.2646773,0.5727821,0.66705644,0.6669984,4.058401,0.0025175104,0.0025157596,0.0025124792,0.09018173,0.0,0.0,0.0,0.0,0.0,0.0004420568,0.013952295,0.03479659,0.0,0.0,0.0,0.0,0.0,0.0
4421108388,-0.07110596,0.049232483,0.06748007,-0.042201996,0.07745743,0.5719032,-0.008998938,-0.019291699,-0.041390926,-0.0038484335,0.0,0.0,0.0,0.0,0.0,0.2647031,0.26462257,0.57278615,0.66535455,0.6652947,4.0584435,0.0025175104,0.0025157596,0.0025124792,0.09018091,0.0,0.0,0.0,0.0,0.0,0.00043897596,0.010997032,0.02477875,0.0,0.0,0.0,0.0,0.0,0.0
4421313448,0.025526524,0.033900738,-0.073032156,-0.027584076,0.099536896,-0.017932892,-0.008998938,-0.019291699,-0.041390926,-0.022747576,0.0,0.0,0.0,0.0,0.0,0.26474708,0.26465872,0.5728265,0.665616,0.66555256,4.0585566,0.0025175104,0.0025157596,0.0025124792,0.09018016,0.0,0.0,0.0,0.0,0.0,0.00031124163,0.0080608865,0.021034304,0.0,0.0,0.0,0.0,0.0,0.0
4421514172,-0.055677652,0.010760546,-0.012163661,-0.034770966,0.082221985,-0.024616241,-0.008998938,-0.019291699,-0.041390926,0.065987766,0.0,0.0,0.0,0.0,0.0,0.26463252,0.26453835,0.57279205,0.6650815,0.6650164,4.058609,0.0025175104,0.0025157596,0.0025124792,0.09017937,0.0,0.0,0.0,0.0,0.0,0.00041815423,0.006435434,0.01577517,0.0,0.0,0.0,0.0,0.0,0.0
4421714955,-0.007052183,0.09220052,-0.094532125,-0.031562805,0.094371796,-0.37846756,-0.008998938,-0.019291699,-0.041390926,0.06781489,0.0,0.0,0.0,0.0,0.0,0.26462132,0.26452562,0.57279605,0.66499066,0.6649222,4.058381,0.0025175104,0.0025157596,0.0025124792,0.09017873,0.0,0.0,0.0,0.0,0.0,0.0004908049,0.007588433,0.016861385,0.0,0.0,0.0,0.0,0.0,0.0
4421918791,-0.025503397,0.036079764,0.01583109,-0.057323456,0.05801773,-0.3579445,-0.008998938,-0.019291699,-0.041390926,0.016940057,0.0,0.0,0.0,0.0,0.0,0.26447204,0.26438415,0.5727304,0.6641216,0.664053,4.0584645,0.0025175104,0.0025157596,0.0025124792,0.09017808,0.0,0.0,0.0,0.0,0.0,0.0002586755,0.0091992505,0.025296059,0.0,0.0,0.0,0.0,0.0,0.0
4422119794,-0.11246085,0.051190138,-0.056918494,-0.03945923,0.09756088,-0.62202835,-0.008998938,-0.019291699,-0.041390926,0.043320894,0.0,0.0,0.0,0.0,0.0,0.2645929,0.26451734,0.572722,0.66335195,0.66327965,4.0582237,0.0025175104,0.0025157596,0.0025124792,0.09017745,0.0,0.0,0.0,0.0,0.0,0.0005214473,0.008183294,0.016560098,0.0,0.0,0.0,0.0,0.0,0.0
4422324731,-0.059228063,0.078176975,-0.019765474,-0.041305542,0.088020325,0.28173828,-0.008998938,-0.019291699,-0.041390926,0.06011522,0.0,0.0,0.0,0.0,0.0,0.26453972,0.2644803,0.57272434,0.6630792,0.66300833,4.0582256,0.0025175104,0.0025157596,0.0025124792,0.090176724,0.0,0.0,0.0,0.0,0.0,0.0010487048,0.008323544,0.017537609,0.0,0.0,0.0,0.0,0.0,0.0
4422525443,-0.06618035,0.01579094,-0.009471923,-0.038223267,0.08547974,-0.118083954,-0.008998938,-0.019291699,-0.041390926,0.053229928,0.0,0.0,0.0,0.0,0.0,0.2645292,0.26448688,0.57273674,0.661487,0.66141933,4.058344,0.0025175104,0.0025157596,0.0025124792,0.09017602,0.0,0.0,0.0,0.0,0.0,0.0008258785,0.010416835,0.028281862,0.0,0.0,0.0,0.0,0.0,0.0
4422725364,-0.035506487,0.07590318,0.020160988,-0.034114838,0.08943558,0.13427734,-0.008998938,-0.019291699,-0.041390926,-0.010741293,0.0,0.0,0.0,0.0,0.0,0.26448858,0.2644601,0.57274574,0.6629261,0.6628636,4.0581574,0.0025175104,0.0025157596,0.0025124792,0.090175405,0.0,0.0,0.0,0.0,0.0,0.0005725205,0.0059438488,0.013966776,0.0,0.0,0.0,0.0,0.0,0.0
4422930028,-0.07382214,-0.03773856,0.04920374,-0.040966034,0.079963684,0.7509575,-0.008998938,-0.019291699,-0.041390926,-0.006292522,0.0,0.0,0.0,0.0,0.0,0.2644845,0.264462,0.5727588,0.66289103,0.6628342,4.0582557,0.0025175104,0.0025157596,0.0025124792,0.09017476,0.0,0.0,0.0,0.0,0.0,0.00089730124,0.00845762,0.021874906,0.0,0.0,0.0,0.0,0.0,0.0
4423131027,-0.03010273,0.111662865,-0.07071879,-0.030143738,0.0940361,-0.059368134,-0.008998938,-0.019291699,-0.041390926,0.008249402,0.0,0.0,0.0,0.0,0.0,0.2645015,0.26448306,0.5727697,0.6644097,0.6643584,4.0581293,0.0025175104,0.0025157596,0.0025124792,0.09017411,0.0,0.0,0.0,0.0,0.0,0.00054034544,0.013225362,0.041932423,0.0,0.0,0.0,0.0,0.0,0.0
4423331823,-0.092068315,0.07012153,0.023027621,-0.03491211,0.09458542,-0.4716072,-0.008998938,-0.019291699,-0.041390926,-0.034935474,0.0,0.0,0.0,0.0,0.0,0.264509,0.26449248,0.57278204,0.6659519,0.66590583,4.0582514,0.0025175104,0.0025157596,0.0025124792,0.090173505,0.0,0.0,0.0,0.0,0.0,0.00076301367,0.0063620145,0.013323768,0.0,0.0,0.0,0.0,0.0,0.0
