timestamp,roll,pitch,yaw,thrust
4384959799,0.24333084,0.2525165,-0.0024059406,0.55262035
4385003802,0.25023335,0.26161438,-0.002126301,0.56100285
4385043813,0.2680228,0.17280367,-0.0028251763,0.568786
4385088642,0.25626475,0.3217287,-0.0045996597,0.5789406
4385128656,0.27429938,0.21324253,-0.0025948742,0.5885838
4385168653,0.23210812,0.22901163,-0.0027155373,0.59552467
4385212610,0.2136211,0.28295928,-0.0019366683,0.6062704
4385260611,0.2768362,0.24739867,-0.0009934171,0.61539173
4385304653,0.3126997,0.25617,-0.0012551196,0.6248692
4385345457,0.25947315,0.25371712,5.856326e-05,0.63273084
4385389455,0.29532543,0.2373971,-0.0009706229,0.64273334
4385429449,0.2905961,0.2532868,-0.0015340723,0.65171665
4385473509,0.26507285,0.2430449,-0.0016652059,0.66168535
4385513464,0.26699317,0.22993094,-0.0024792638,0.67049146
4385557423,0.26074812,0.23218113,-0.002856434,0.68059844
4385597441,0.26101735,0.24231452,-0.003324304,0.68914455
4385638270,0.22887117,0.2199921,-0.005007519,0.6968758
4385682222,0.1371189,0.12802239,-0.0075592515,0.70679384
4385722256,-0.004892806,0.068468004,-0.010764598,0.7144467
4385762275,-0.16833545,0.0048420937,-0.015552246,0.6902027
4385806250,-0.39523846,-0.10193176,-0.017500237,0.66142523
4385846293,-0.55806404,-0.16964841,-0.017788595,0.62866175
4385887005,-0.5461303,-0.13285969,-0.018406685,0.6179423
4385931047,-0.3515171,0.0018152021,-0.023679528,0.5873593
4385971021,-0.25146496,0.046146087,-0.029674754,0.56548405
4386015020,-0.3640835,-0.09232018,-0.030785257,0.54154617
4386059018,-0.46604976,-0.17584255,-0.034683734,0.5285558
4386099025,-0.3809132,-0.1386944,-0.03618001,0.518063
4386139809,-0.29235372,-0.11516921,-0.036604874,0.51616436
4386183801,-0.2866639,-0.14542782,-0.038400047,0.5151473
4386223805,-0.25444686,-0.15122156,-0.040238682,0.5125068
4386267801,-0.22605991,-0.08882742,-0.040988978,0.5163122
4386307830,-0.16135822,-0.0563489,-0.042024948,0.5171874
4386352607,-0.15072718,-0.041998915,-0.043913063,0.5189776
4386392609,-0.16644913,-0.011156256,-0.045060728,0.5198831
4386436604,-0.12875164,0.010781398,-0.046358578,0.5216174
4386476636,-0.09238522,0.041898977,-0.047660265,0.5204961
4386516620,-0.0713125,0.054455347,-0.050094333,0.5227501
4386556625,-0.089566134,0.042842895,-0.05216156,0.5258471
4386600608,-0.045289822,0.031615347,-0.05458455,0.5298872
4386641410,-0.0064663896,0.030919984,-0.05645813,0.5335556
4386681423,-0.028309578,0.031466078,-0.058280393,0.5351201
4386725446,0.0143632125,0.048583042,-0.06012237,0.5351431
4386765415,0.043976963,0.053101275,-0.061632317,0.53880996
4386809409,0.018179841,0.05367698,-0.063129656,0.5425131
4386850244,0.02559516,0.07649807,-0.0650431,0.5401674
4386894204,0.025564883,0.103057615,-0.06681439,0.53905934
4386934199,0.02460015,0.13035756,-0.06898698,0.5392757
4386978229,0.03363736,0.14623994,-0.072650425,0.537925
4387018219,0.029389076,0.19381018,-0.07389654,0.5371617
4387062224,0.044072095,0.19426352,-0.07748394,0.53409654
4387102276,-0.00332553,0.21676785,-0.078065135,0.53243756
4387143043,-0.009969694,0.22910286,-0.07942629,0.5312305
4387183057,-0.026119139,0.23180878,-0.0807398,0.5347281
4387227040,0.03956232,0.22461079,-0.084419966,0.5298308
4387267001,0.038132843,0.22184823,-0.08556169,0.52816457
4387311027,0.03818358,0.1996669,-0.08565851,0.5309422
4387351028,0.045718122,0.18754004,-0.08549059,0.5347041
4387395042,0.075241804,0.20224224,-0.08484174,0.5338471
4387435850,0.12088829,0.20349362,-0.08453381,0.5346487
4387475851,0.11249529,0.18389988,-0.08239417,0.53822154
4387519839,0.09189013,0.14710572,-0.0809046,0.54295087
4387559846,0.07916118,0.14785665,-0.07870829,0.54269594
4387599836,0.08334587,0.15033473,-0.0765894,0.5445938
4387640672,0.11941005,0.1595779,-0.07511289,0.5446169
4387684607,0.08291247,0.14917734,-0.07297999,0.53941774
4387724629,0.06565838,0.15616147,-0.07162835,0.53581864
4387768617,0.04719931,0.12450778,-0.07159884,0.5374888
4387808663,-0.013825182,0.11871995,-0.070142545,0.5413939
4387852598,0.021833785,0.1410393,-0.07129088,0.53965586
4387893401,-0.0057128044,0.14789784,-0.071394406,0.5371635
4387937401,-0.03422685,0.13732256,-0.072128914,0.53760314
4387977408,-0.052124914,0.14657113,-0.0728991,0.53412527
4388021412,-0.1280627,0.1554164,-0.07254013,0.5316971
4388061408,-0.11756913,0.16247122,-0.074367724,0.52776253
4388105403,-0.11320685,0.14284809,-0.07641527,0.5298966
4388145440,-0.13157117,0.15489277,-0.07705527,0.5273195
4388186251,-0.15531448,0.17902851,-0.07711128,0.5233127
4388230307,-0.16462973,0.17786776,-0.07774179,0.5226862
4388270243,-0.17060608,0.17851183,-0.078441806,0.5241207
4388314202,-0.17674789,0.19831605,-0.07904912,0.5208032
4388354202,-0.17456485,0.2227007,-0.0787097,0.5180201
4388398219,-0.19380806,0.21546932,-0.0785646,0.51884735
4388438200,-0.18305746,0.24280554,-0.07790547,0.5193713
4388478999,-0.19416443,0.27215064,-0.07623797,0.51842254
4388519006,-0.20085987,0.26195607,-0.07570775,0.51613814
4388562996,-0.19237216,0.2891378,-0.07402956,0.5174204
4388603049,-0.17377165,0.2836821,-0.07292513,0.5171927
4388647003,-0.15382637,0.28612447,-0.07062018,0.5161985
4388687814,-0.12098618,0.26928762,-0.06892307,0.5153772
4388731798,-0.13304053,0.26421502,-0.06454462,0.51694554
4388771809,-0.10363357,0.26238418,-0.061087534,0.51485914
4388815810,-0.12104412,0.245731,-0.055550925,0.51695305
4388855813,-0.103427775,0.2444251,-0.05154923,0.5159893
4388899798,-0.034889504,0.23099251,-0.048173893,0.5166416
4388939813,-0.05419163,0.20894054,-0.04315,0.5191944
4388980615,-0.04288817,0.19857922,-0.038394053,0.5189905
4389024677,0.030339435,0.17942923,-0.035006396,0.5170741
4389064599,0.039573163,0.17389204,-0.029971436,0.5146321
4389104596,0.038610283,0.18080784,-0.024975598,0.5166754
4389148621,0.032214195,0.13720962,-0.020192686,0.5210941
4389189449,0.006342369,0.12147022,-0.01499651,0.52079767
4389229435,0.06330219,0.13251245,-0.012555811,0.519151
4389273487,0.039056465,0.101583496,-0.008243388,0.52184296
4389313418,0.035188384,0.0742112,-0.0055248234,0.52285594
4389357436,0.08320148,0.07794235,-0.0036091465,0.5198355
4389397465,0.03368288,0.05661122,-0.0005518679,0.52501804
4389438257,0.06509862,0.030554458,0.00021487009,0.52644515
4389478240,0.043115377,0.027728291,0.002108611,0.5260498
4389522227,0.064241536,0.021157587,0.0031103508,0.52517647
4389562239,0.03917736,0.03900084,0.004350324,0.52620673
4389606268,0.06276728,0.040094793,0.0037983414,0.52583903
4389646264,0.03307098,0.0117027825,0.0035192482,0.52902544
4389690333,-0.014703085,0.011921859,0.0040388745,0.5321718
4389730996,0.016010355,0.02308789,0.0027081869,0.53507555
4389775002,-0.02607488,0.043627664,0.0026927637,0.5349698
4389819055,-0.0063461536,0.030555636,-8.879017e-06,0.53359497
4389863008,-0.008692858,0.048534084,-0.0015514796,0.5372718
4389907036,0.013064744,0.072480954,-0.0023985666,0.5350846
4389947042,0.061372694,0.058245435,-0.0039634267,0.5350257
4389991797,0.044585105,0.058344685,-0.0042546713,0.5368608
4390031807,0.085428074,0.065275624,-0.00549579,0.5353166
4390075845,0.065943,0.06485078,-0.005440196,0.53404737
4390115842,0.07750471,0.049797207,-0.006232313,0.53477526
4390159811,0.08325264,0.040710997,-0.00696552,0.53593594
4390199801,0.0940005,0.052367706,-0.007928913,0.5350216
4390240643,0.100781254,0.07052735,-0.008975228,0.53602624
4390284651,0.043345734,0.05691008,-0.008428738,0.530615
4390324642,0.051595174,0.053147692,-0.009040797,0.5330859
4390368644,0.06325137,0.030539017,-0.009212842,0.5326215
4390408605,0.084715754,0.014926723,-0.010161086,0.53407705
4390452697,0.0797973,0.013510827,-0.010004589,0.5328071
4390493614,0.093678504,-0.003558255,-0.010243586,0.53702354
4390537401,0.055685848,-0.012929805,-0.009140264,0.5372833
4390577464,0.08117479,-0.030539438,-0.009069929,0.5393327
4390621448,0.03967242,-0.05485455,-0.007947341,0.539852
4390661474,0.021214847,-0.059310272,-0.007894581,0.5422471
4390705397,-0.03365455,-0.065564565,-0.0071411585,0.54198086
4390746202,-0.045275733,-0.05796303,-0.006909453,0.5415268
4390790258,-0.05953899,-0.06851335,-0.005802852,0.54157203
4390834214,-0.064599164,-0.07627516,-0.005689726,0.5424506
4390874209,-0.10652437,-0.061236367,-0.005405501,0.54510367
4390914198,-0.099737704,-0.060580216,-0.0057639596,0.5471163
4390958209,-0.0899977,-0.049784765,-0.005910128,0.54328245
4391002211,-0.08476861,-0.05806058,-0.0068334546,0.54123
4391043008,-0.12936406,-0.052532405,-0.0066111293,0.5453055
4391086999,-0.08882953,-0.04687687,-0.0079385955,0.5415447
4391126995,-0.09809543,-0.021597886,-0.009199583,0.5380105
4391171005,-0.121429265,-0.02865548,-0.0100922715,0.53891057
4391211006,-0.11103077,-0.017276613,-0.011706624,0.53897923
4391255843,-0.14921468,0.023631673,-0.011927617,0.5356638
4391299983,-0.122367986,0.002533736,-0.01313209,0.53371227
4391339886,-0.12315626,0.00028804498,-0.013447771,0.5338322
4391383849,-0.0732531,0.015141668,-0.014817141,0.53273404
4391423845,-0.08225539,0.028412744,-0.01492477,0.5332401
4391467892,-0.13058391,0.018931527,-0.014268563,0.5304381
4391507879,-0.12304736,0.028601227,-0.014521838,0.5295425
4391552599,-0.10801525,0.045439173,-0.015189128,0.5276553
4391592602,-0.13329335,0.054206297,-0.015098512,0.52854145
4391636653,-0.1297264,0.03345602,-0.016244976,0.5269436
4391676646,-0.1331912,0.033709407,-0.017007615,0.52977836
4391720612,-0.21353787,0.032958064,-0.017464355,0.5329345
4391761399,-0.21889684,0.047390822,-0.019307716,0.52709323
4391805461,-0.18518381,0.061251126,-0.02228065,0.52481896
4391845459,-0.20545208,0.069765024,-0.024679882,0.5224876
4391889413,-0.22886127,0.090537556,-0.026943242,0.52360094
4391933412,-0.21693757,0.09030041,-0.030127982,0.5216023
4391977406,-0.2638129,0.12308213,-0.032455795,0.5184851
4392017412,-0.23835933,0.13425846,-0.035847284,0.52101964
4392058240,-0.29319462,0.15371539,-0.036770035,0.5180859
4392102256,-0.27385128,0.16332728,-0.03981759,0.51680046
4392142244,-0.31139493,0.15382141,-0.04101514,0.5157969
4392186215,-0.32116175,0.12917723,-0.042537767,0.5193134
4392226206,-0.28270745,0.12459023,-0.043363445,0.5181317
4392270245,-0.25111672,0.100541055,-0.043579083,0.51941216
4392310247,-0.24978665,0.08983987,-0.041973617,0.51963526
4392351055,-0.19771041,0.1056513,-0.040360704,0.52039623
4392391032,-0.2295666,0.08317423,-0.037663635,0.52284336
4392431042,-0.3043396,0.058445573,-0.034703154,0.5294463
4392471050,-0.25595585,0.03893391,-0.03395679,0.53114325
4392514994,-0.21169427,0.056416087,-0.030585993,0.5346009
4392555800,-0.19027129,0.006926286,-0.029826796,0.5336276
4392599889,-0.18889244,-0.017693255,-0.02740265,0.5305866
4392643850,-0.19476113,-0.010732815,-0.023616815,0.5350932
4392683874,-0.16229293,-0.039000966,-0.02206648,0.5328341
4392727871,-0.1931481,-0.0799738,-0.020807274,0.5324726
4392767853,-0.19560832,-0.08996105,-0.018708307,0.53408146
4392812621,-0.15616053,-0.10583015,-0.016956583,0.5397357
4392856595,-0.16423254,-0.11445011,-0.014909424,0.5386554
4392900664,-0.125375,-0.14177269,-0.014444312,0.5407421
4392940598,-0.147855,-0.18124798,-0.014560636,0.5449611
4392984606,-0.09279975,-0.20354615,-0.01294323,0.54662895
4393024608,-0.077519186,-0.23641187,-0.012533337,0.54808074
4393065651,-0.08082478,-0.24913248,-0.0106129395,0.55155987
4393109447,-0.011370078,-0.26087818,-0.009232952,0.5506004
4393149410,-0.035446215,-0.27024856,-0.0085705025,0.55361336
4393193401,0.0056087677,-0.2899319,-0.008419049,0.5522682
4393233410,0.02586056,-0.28886637,-0.0075097876,0.55532163
4393277400,0.014280001,-0.2841891,-0.006833393,0.5602962
4393317404,0.060612418,-0.26982415,-0.0050865146,0.56234616
4393362205,0.02929409,-0.24486268,-0.003113095,0.5675371
4393402215,0.018124666,-0.22758421,-0.0013898622,0.5664584
4393446250,-0.004713943,-0.20647709,0.0012253124,0.5661551
4393486239,-0.03495687,-0.20782195,0.0031817907,0.5676639
4393530274,-0.0121222865,-0.16558243,0.007536044,0.56327593
4393570248,-0.047922432,-0.15345588,0.010421451,0.5626332
4393615204,-0.077348426,-0.16540046,0.011963174,0.56137985
4393659008,-0.038735993,-0.16040842,0.013700191,0.5575704
4393699010,-0.073578715,-0.13226019,0.016492063,0.5618505
4393743032,-0.08777489,-0.14284803,0.017534928,0.5587676
4393783039,-0.0700397,-0.1303848,0.018750539,0.5546311
4393827002,-0.07613127,-0.12844895,0.020412957,0.5575636
4393867802,-0.09044759,-0.10449168,0.021678476,0.5556995
4393911803,-0.11385158,-0.0957963,0.02280187,0.5550035
4393951822,-0.0926497,-0.078542136,0.023270635,0.5531564
4393995803,-0.129889,-0.05444879,0.024850518,0.55323666
4394035803,-0.14940087,-0.027597096,0.026354631,0.5530754
4394079847,-0.14821842,0.022344694,0.02882523,0.5478751
4394120649,-0.16915643,0.022601236,0.029833864,0.54881394
4394160625,-0.12380031,0.04315673,0.03004226,0.5401571
4394200644,-0.1418133,0.07836275,0.031820476,0.54203504
4394244606,-0.14135382,0.11424941,0.03347192,0.53769624
4394284619,-0.1550247,0.1180994,0.03451624,0.5384667
4394328641,-0.18437648,0.109620474,0.035230216,0.5373907
4394369432,-0.2000014,0.11732929,0.036963936,0.5373632
4394409498,-0.1126,0.109909445,0.035292946,0.5351814
4394453403,-0.14627436,0.08377957,0.036401097,0.53756064
4394497405,-0.12562793,0.052160732,0.0356803,0.53750724
4394541419,-0.11565449,0.021914134,0.035607096,0.54083973
4394581396,-0.13635267,-0.02409046,0.03532994,0.5444992
4394622252,-0.11152234,-0.042695694,0.03489489,0.54306525
4394662205,-0.12948611,-0.039416965,0.036299594,0.54692525
4394706236,-0.13815072,-0.051403165,0.03649863,0.54508775
4394746233,-0.109579355,-0.056860663,0.035920754,0.5471811
4394790241,-0.10263669,-0.052845586,0.03627812,0.54851043
4394830249,-0.13721584,-0.06305526,0.036196508,0.5544594
4394874240,-0.14335279,-0.055355888,0.03658573,0.55021286
4394915056,-0.11650243,-0.071113095,0.035205264,0.5506751
4394958998,-0.137369,-0.047484674,0.036534347,0.54995334
4394999059,-0.12963217,-0.045910936,0.035684384,0.5484707
4395043095,-0.14467335,-0.037893824,0.035572674,0.5484385
4395083076,-0.13526641,-0.02100442,0.035532758,0.55083495
4395127012,-0.14210202,-0.001076347,0.035712194,0.54971766
4395167812,-0.12173901,-0.021513386,0.03388393,0.5485714
4395207800,-0.07110223,-0.025167257,0.032592632,0.54189163
4395251805,-0.08547696,-0.029378247,0.03244657,0.54428893
4395291820,-0.112437226,-0.013961034,0.033321887,0.5474711
4395335809,-0.102809645,-0.0039680814,0.03260175,0.54296434
4395375801,-0.051661376,0.022189742,0.0319008,0.5435161
4395420605,-0.075585045,0.017800856,0.030488363,0.5446256
4395460605,-0.060714196,0.0164594,0.02854845,0.54367775
4395504592,-0.07809032,0.025460968,0.028179802,0.5480355
4395544608,-0.09413633,0.046873074,0.027872028,0.54926693
4395584616,-0.04808603,0.034687445,0.026017364,0.5495826
4395628608,-0.06209082,0.021650644,0.02483929,0.5483728
4395669411,-0.056607917,0.006194526,0.022930348,0.5508593
4395713411,-0.0737144,-0.01266581,0.02183966,0.55523574
4395753413,-0.054859746,-0.055272132,0.0194632,0.55703205
4395797417,-0.08587444,-0.06799535,0.019013245,0.5573272
4395837430,-0.054160275,-0.10821483,0.01709674,0.55358624
4395881398,-0.11017687,-0.13658655,0.017104788,0.5566683
4395921410,-0.11063666,-0.14190072,0.01845819,0.55399674
4395962203,-0.13309099,-0.17709634,0.018450342,0.55238146
4396006216,-0.115614645,-0.19376408,0.018758398,0.55371755
4396050286,-0.123076566,-0.1946989,0.019172003,0.5510376
4396094254,-0.12533012,-0.1922589,0.01912451,0.5486774
4396138302,-0.116677195,-0.18048722,0.018400764,0.5494209
4396179047,-0.06149463,-0.1309639,0.017236454,0.5498661
4396219102,-0.04511651,-0.08633188,0.014999163,0.5511431
4396263000,-0.007417875,-0.030552782,0.012141084,0.55441314
4396303002,-0.01730943,-0.0037253154,0.0097251125,0.56155497
4396343039,0.06000101,0.012531705,0.006685265,0.5644335
4396383033,0.09147909,0.006885401,0.0038505862,0.57068
4396427848,0.047786627,0.0060321717,0.0019692988,0.5833485
4396467841,0.096709035,-0.018923195,-5.5884913e-05,0.58838344
4396511826,0.1554471,-0.050834604,-0.0015263258,0.5917344
4396551806,0.15145761,-0.087152585,-0.002214842,0.59875995
4396595855,0.16102737,-0.12216045,-0.0021919333,0.60510415
4396635834,0.18571965,-0.14749844,-0.0012575522,0.6108321
4396680607,0.23288284,-0.15399435,0.0010043166,0.610387
4396720596,0.22862446,-0.20575704,0.0009364594,0.61282396
4396764626,0.23601261,-0.23060991,0.0014749026,0.61610734
4396804635,0.27409148,-0.24562034,0.0029779132,0.61809325
4396848615,0.31029302,-0.2910446,0.004541811,0.60903805
4396888609,0.32495773,-0.3727704,0.004430624,0.6051833
4396932634,0.30493677,-0.38830826,0.005674693,0.60973066
4396973437,0.3591013,-0.37010923,0.007394884,0.6074657
4397013454,0.36386794,-0.39606375,0.006636303,0.60803324
4397053434,0.31169847,-0.4079577,0.004617424,0.6120994
4397097438,0.30592358,-0.33131087,0.0047853105,0.6119507
4397137404,0.31460068,-0.31185263,0.0038306606,0.6110596
4397181449,0.24479845,-0.29997694,0.00070654205,0.6083347
4397222241,0.19366555,-0.24690148,-0.0018472301,0.6096034
4397262244,0.1913725,-0.19849457,-0.004313407,0.6040959
4397306204,0.19210589,-0.16135892,-0.0072756973,0.59590584
4397346214,0.16056614,-0.1105098,-0.010901932,0.59177667
4397390286,0.1069345,-0.09568718,-0.014315054,0.5901106
4397430284,0.078576535,-0.06362959,-0.016772032,0.58863634
4397475028,0.09566521,-0.004216697,-0.01949437,0.58105403
4397514996,0.0806622,0.020003185,-0.021349188,0.5747711
4397559089,0.041744348,0.019661393,-0.022349475,0.5701586
4397599051,0.029807795,0.045169484,-0.022335617,0.56768763
4397639052,0.020452479,0.056344304,-0.021877132,0.56724775
4397679053,0.0122681465,0.07287496,-0.021813639,0.5622574
4397719841,-0.022500064,0.09201942,-0.020059753,0.56024075
4397759846,-0.007867729,0.11908929,-0.019985195,0.55622065
4397803807,-0.0038541087,0.11387704,-0.018090814,0.5513115
4397843811,-0.015892172,0.115020454,-0.01651495,0.5511871
4397887845,-0.024593659,0.12916309,-0.014480737,0.5489573
4397927822,-0.019300744,0.15376428,-0.013699865,0.54458946
4397971802,-0.017706802,0.14366429,-0.011841153,0.5416192
4398012641,0.0260701,0.13383019,-0.01174978,0.5393834
4398052623,-0.0017676618,0.120334536,-0.010271395,0.54039663
4398096686,0.013311664,0.119184464,-0.010370376,0.5378042
4398136636,-0.0020645682,0.1125707,-0.009509106,0.5352857
4398180647,0.030554784,0.105592996,-0.010286725,0.53196675
4398221451,-0.010120214,0.10201965,-0.009519881,0.5319151
4398261444,-0.023140403,0.093626775,-0.009693985,0.53138053
4398301425,-0.01276049,0.09192032,-0.010074046,0.53222
4398345461,-0.00978542,0.091066815,-0.010210504,0.5318625
4398385457,-0.004438808,0.081719324,-0.009739593,0.5293702
4398429451,-0.0034025032,0.08606954,-0.009521294,0.52972436
4398469422,-0.00027477683,0.0922506,-0.008454353,0.53108203
4398514228,-0.046496898,0.11126776,-0.0067022997,0.5287419
4398554228,-0.026802126,0.12826963,-0.0066438965,0.52430475
4398598212,-0.07231455,0.12590778,-0.0051668687,0.52418596
4398638206,-0.08219268,0.13871083,-0.004985474,0.5247753
4398678264,-0.07430527,0.13169225,-0.0062999623,0.5243739
4398718241,-0.07626513,0.12434859,-0.007108109,0.5244298
4398759050,-0.09017893,0.11036575,-0.008219562,0.5239658
4398799044,-0.06446085,0.11196887,-0.009893682,0.520464
4398843097,-0.0572023,0.1046125,-0.012467543,0.5192337
4398883104,-0.06500348,0.108658746,-0.014175952,0.5210421
4398926996,-0.07644348,0.118430436,-0.016214306,0.51571953
4398967023,-0.08062856,0.12524578,-0.018106084,0.5161014
4399011846,-0.059727546,0.10570359,-0.021180987,0.5167732
4399055807,-0.09206571,0.11284862,-0.02239857,0.5173092
4399095814,-0.060790803,0.12711945,-0.024605732,0.5180485
4399139852,-0.13075009,0.11879976,-0.024369525,0.51740766
4399179856,-0.09554513,0.1217272,-0.026876403,0.51897556
4399223801,-0.13136643,0.114277534,-0.027633466,0.51741165
4399264603,-0.12940176,0.11748707,-0.028540745,0.51990825
4399308650,-0.14130092,0.1419359,-0.02779111,0.5158755
4399348640,-0.16390567,0.13926768,-0.026912509,0.5201097
4399392604,-0.13966267,0.12449089,-0.027160296,0.51909345
4399432617,-0.1617027,0.12780532,-0.025367923,0.5216095
4399476652,-0.10309436,0.14508319,-0.02460399,0.52149284
4399516618,-0.079454035,0.16399741,-0.022725508,0.51787776
4399557439,-0.072645016,0.16416888,-0.020221943,0.5179787
4399601407,-0.091962814,0.13559493,-0.018029712,0.517594
4399645477,-0.09166922,0.1393098,-0.014639013,0.52058387
4399689450,-0.07348958,0.13999152,-0.012099385,0.51945573
4399729456,-0.07654341,0.14124385,-0.01022471,0.5185657
4399773529,-0.102259226,0.13425553,-0.007675968,0.52120507
4399814213,-0.08696759,0.11652428,-0.006549593,0.5210173
4399854290,-0.088784285,0.100561365,-0.005105098,0.5210399
4399898531,-0.047895733,0.083943024,-0.0055263676,0.52344954
4399942219,-0.063761145,0.08851756,-0.0034541017,0.52037394
4399982233,-0.07049807,0.10364969,-0.0016856646,0.5229489
4400026202,-0.052617945,0.063516535,-0.002416633,0.52350086
4400067006,-0.03913099,0.0628415,-0.003221184,0.5219354
4400111017,-0.078580536,0.059154116,-0.0014301662,0.52589047
4400151007,-0.06296537,0.0355677,-0.0017393543,0.52746576
4400191003,-0.069245726,0.019242126,-0.0018124629,0.5267156
4400235005,-0.01266996,0.0281594,-0.0018477147,0.5235814
4400274995,0.011328609,0.029030604,-0.0012422816,0.5254422
4400319804,-0.05936465,0.022676341,0.0013590177,0.5265842
4400359791,-0.018902086,0.04061995,0.0017048552,0.5232507
4400403799,-0.019450303,0.044962816,0.0024362407,0.52659506
4400443806,-0.017906867,0.060402036,0.003348641,0.52582204
4400487795,-0.06189814,0.0830278,0.0051340573,0.5225133
4400528602,-0.047825694,0.09846852,0.005930841,0.5189762
4400572650,0.044593383,0.09342781,0.0047718184,0.51704836
4400612655,-0.0037150513,0.083021834,0.0060611893,0.5195953
4400656607,-0.024346072,0.10966837,0.0076799607,0.5206748
4400696606,0.041629784,0.11932905,0.006800501,0.51993257
4400740661,0.022142308,0.13614954,0.0074934624,0.51695186
4400780603,0.017201954,0.1452144,0.008023389,0.5192838
4400824605,0.05757143,0.15841165,0.007081417,0.5149766
4400865450,0.031695947,0.16021255,0.0068164826,0.5173996
4400905471,0.03189066,0.16769704,0.006186945,0.5196374
4400945430,0.058725875,0.1514181,0.0044974815,0.5196666
4400989471,0.054633044,0.15072039,0.0034857527,0.5224237
4401029398,0.039280124,0.15007758,0.0032826562,0.52464336
4401070300,0.07503643,0.16485994,0.0012170783,0.52683127
4401110316,0.05154127,0.14241342,-0.0004146955,0.5323952
4401150253,0.060320497,0.11421718,-0.0022085041,0.53369206
4401190253,0.091774344,0.12821184,-0.0037109028,0.5308456
4401234213,0.09928114,0.11632573,-0.0064483527,0.5340498
4401278209,0.09220281,0.110979535,-0.00860269,0.53281343
4401319085,0.117638566,0.11558157,-0.011642033,0.5311667
4401363043,0.096216515,0.10478492,-0.012726215,0.53468573
4401407029,0.122747704,0.09161495,-0.015545021,0.5341554
4401451007,0.057512626,0.06419515,-0.016599841,0.5367233
4401491007,0.09372467,0.053302646,-0.018381817,0.5360343
4401535028,0.13925053,0.0679312,-0.020787429,0.53603905
4401575830,0.11954357,0.03679715,-0.02245638,0.53541034
4401615867,0.12076239,0.0024866802,-0.024028022,0.5353611
4401659800,0.07523205,-0.0021674105,-0.02416948,0.5420306
4401699811,0.10164352,-0.011436249,-0.025466066,0.54183143
4401743823,0.12103138,-0.0372597,-0.027376771,0.5411092
4401783852,0.16995314,-0.04686003,-0.028905582,0.5374426
4401828631,0.18753399,-0.015863528,-0.030251486,0.5400043
4401868610,0.16362673,-0.03430134,-0.032174453,0.53996646
4401912626,0.1699247,-0.027014209,-0.034501337,0.531357
4401952664,0.17497732,-0.0202109,-0.03625061,0.5298952
4401996611,0.19387813,-0.012429603,-0.03836089,0.53187025
4402036607,0.16983311,-0.006898481,-0.040088,0.530584
4402080662,0.17734033,0.02386551,-0.041242786,0.524419
4402120650,0.17242827,0.039360955,-0.042607743,0.52275753
4402165415,0.10685028,0.071613565,-0.0425418,0.52035284
4402205407,0.10419947,0.09633013,-0.043732785,0.5175057
4402249474,0.061465397,0.12909287,-0.043292705,0.5144195
4402289444,0.03931883,0.10287259,-0.042448036,0.5176249
4402333437,-0.00666368,0.12733802,-0.041193616,0.5113884
4402373421,0.035682756,0.15076865,-0.042112492,0.5058926
4402414283,0.026360549,0.18639459,-0.041331783,0.5067625
4402458278,0.0012754912,0.19808398,-0.04035178,0.50494224
4402498288,-0.055516046,0.19650261,-0.03787289,0.5035387
4402542246,-0.06949987,0.21818286,-0.037548713,0.50642234
4402582272,-0.12573086,0.22857426,-0.036045372,0.5004425
4402627022,-0.13857956,0.22365047,-0.03567164,0.49709848
4402667056,-0.100964695,0.23005477,-0.036674645,0.49838817
4402711007,-0.11070995,0.23660257,-0.034880687,0.4986033
4402754995,-0.12097591,0.19738959,-0.032800004,0.49857947
4402795019,-0.18251099,0.17841879,-0.02827572,0.49767014
4402835015,-0.15837605,0.17634289,-0.027009044,0.5003244
4402875831,-0.12883563,0.1396376,-0.02542587,0.50401473
4402919799,-0.15352194,0.1054043,-0.022196697,0.5026037
4402959799,-0.18124086,0.09217699,-0.019357055,0.5024296
4403003796,-0.17675728,0.055247504,-0.016842907,0.50261664
4403043848,-0.24463433,0.02767544,-0.014066692,0.49995393
4403087799,-0.28417033,-0.02580611,-0.010692254,0.50216866
4403128603,-0.33726373,-0.05334596,-0.008498154,0.50260156
4403172633,-0.32540566,-0.08819808,-0.00730756,0.4996433
4403212602,-0.31918317,-0.13749087,-0.0053377924,0.50046724
4403256612,-0.26932272,-0.15970266,-0.0041273795,0.5015115
4403296606,-0.2937375,-0.16770725,-0.0029551722,0.50315034
4403340600,-0.23627666,-0.17675684,-0.0015512069,0.50404835
4403380616,-0.27215606,-0.21385688,-0.0013185013,0.5074609
4403425458,-0.16696179,-0.23564732,-0.0008604618,0.50654584
4403465399,-0.18534258,-0.21673316,0.00090846047,0.5089166
4403505394,-0.18173397,-0.21741296,0.0023706846,0.5060921
4403549419,-0.17725281,-0.24187368,0.003029885,0.5044441
4403589415,-0.19001098,-0.211338,0.0050936947,0.50576335
4403629405,-0.24616891,-0.19866629,0.005959037,0.50846046
4403670250,-0.21707201,-0.19243996,0.0070349528,0.5035523
4403714204,-0.22704661,-0.17813937,0.008187513,0.5071845
4403754197,-0.19096552,-0.16371335,0.008776376,0.5054517
4403794222,-0.23140824,-0.17493181,0.008690116,0.5093381
4403838221,-0.21410356,-0.1671119,0.0093000205,0.51294893
4403878219,-0.20137104,-0.13310127,0.0110190995,0.51076055
4403918999,-0.19060057,-0.12021431,0.012548336,0.51356274
4403963004,-0.13274002,-0.11604729,0.012819695,0.5135493
4404002999,-0.14977202,-0.10501864,0.014561934,0.5168635
4404047047,-0.09666482,-0.09974516,0.015191015,0.5176844
4404087019,-0.07233559,-0.11244176,0.015299307,0.519801
4404131013,-0.09915701,-0.11014989,0.01637886,0.52100575
4404171853,-0.06544048,-0.081025206,0.018885124,0.5211532
4404215805,-0.02019939,-0.091903165,0.019843325,0.52143973
4404255861,-0.086520314,-0.10100524,0.021074353,0.5222456
4404299805,-0.06598079,-0.08458539,0.02313914,0.518958
4404339836,-0.061812665,-0.0912869,0.023791486,0.52017736
4404383808,-0.076344326,-0.0993163,0.024024688,0.52043194
4404424623,-0.08941263,-0.09674396,0.025026582,0.5191044
4404464603,-0.09560512,-0.09029868,0.025740946,0.5184309
4404508604,-0.07518268,-0.0949514,0.025603957,0.51896036
4404548605,-0.093899146,-0.13239083,0.024815528,0.52203226
4404592627,-0.07857419,-0.15268388,0.02477424,0.5233938
4404636611,-0.06542806,-0.1514964,0.0250069,0.5227176
4404676649,-0.08354312,-0.17977309,0.023656184,0.521246
4404717402,-0.08716016,-0.20028812,0.022225833,0.520485
4404761402,-0.047464177,-0.2090485,0.020290257,0.5179206
4404801401,-0.06046991,-0.19325943,0.018706847,0.5153904
4404845453,-0.13945688,-0.20226187,0.015047662,0.5175201
4404889394,-0.05692351,-0.2060738,0.010888018,0.5164443
4404930261,-0.085342124,-0.16043149,0.009565811,0.5150319
4404970243,-0.12009968,-0.15397334,0.006359655,0.5180578
4405014255,-0.05731388,-0.13697797,0.0027439485,0.5168839
4405054251,-0.09930829,-0.07306525,0.0029036459,0.5143122
4405094212,-0.1376121,-0.06439944,0.0011193907,0.51637524
4405138201,-0.1344668,-0.066177115,-0.0009765278,0.5137046
4405182265,-0.15063554,-0.024836868,0.0005178912,0.5148919
4405223055,-0.14061567,-0.007164896,0.0013586953,0.5124513
4405263050,-0.09185019,-0.0057836473,0.0012352613,0.5090339
4405307008,-0.095163584,0.0031035594,0.0035263596,0.5068154
4405347004,-0.06863576,0.0056686522,0.0058199735,0.50702155
4405391080,-0.08275531,-0.008292186,0.009122763,0.50653106
4405431067,-0.08824429,-0.017341223,0.012468077,0.50828147
4405475801,-0.020501502,-0.034838095,0.014746016,0.5090576
4405515839,-0.03883885,-0.04449609,0.018104846,0.5054345
4405559841,-0.074318886,-0.06471665,0.021985939,0.50728667
4405603837,-0.030871311,-0.057897754,0.025936171,0.51165605
4405647841,-0.07539748,-0.057768423,0.030345852,0.51326954
4405687839,-0.060278147,-0.063427135,0.032135807,0.51460725
4405728633,-0.040071733,-0.054580208,0.03442133,0.51314217
4405772624,0.016723303,-0.045693588,0.036383428,0.5162097
4405812612,-0.03321647,-0.04710743,0.0385051,0.5206101
4405856630,0.009970277,-0.027092623,0.03958181,0.5222061
4405900610,0.013996501,0.0009777008,0.041480236,0.5205065
4405944631,0.043555375,0.0018641924,0.041233107,0.5191203
4405985433,0.022444699,0.026896564,0.042155676,0.52095723
4406029431,0.06796514,0.008144192,0.04084329,0.5254579
4406073451,0.042934973,0.006793876,0.04123106,0.52778476
4406113448,0.07512819,0.011257183,0.04050011,0.5229974
4406157478,0.06890211,0.011027072,0.040648647,0.5250422
4406197409,0.05718694,0.008331908,0.040759057,0.5308122
4406238274,0.08605381,-0.0014520533,0.03911664,0.53028166
4406278244,0.08307017,-0.012401933,0.038679224,0.5312547
4406322246,0.06979782,-0.0013963915,0.039023843,0.5341825
4406362225,0.13545568,0.004679043,0.037227128,0.53274256
4406406261,0.099691816,0.0049525197,0.036620777,0.5333734
4406446259,0.10060027,-0.005077733,0.035902977,0.53724074
4406491006,0.08976841,-0.017034464,0.03413845,0.5369273
4406530999,0.08118065,-0.012294154,0.033130936,0.5377512
4406575039,0.08145731,-0.033139825,0.031001713,0.5391856
4406615015,0.048949704,-0.03774117,0.029855225,0.53997076
4406655044,0.006765281,-0.05185975,0.027870359,0.54127884
4406698999,0.027900968,-0.066283785,0.025347183,0.54091007
4406739803,0.009871104,-0.1015466,0.022433048,0.53508013
4406779813,-0.059583914,-0.09888695,0.021233259,0.532433
4406823860,-0.012179915,-0.099375874,0.017862745,0.52516586
4406867815,-0.04649934,-0.12309466,0.015383159,0.5251993
4406907804,-0.053574495,-0.13437897,0.012830387,0.52511346
4406951859,-0.08685674,-0.13061905,0.010021661,0.5219556
4406992669,-0.073897645,-0.13429219,0.00691441,0.5204658
4407036602,-0.09243957,-0.14185846,0.0038051072,0.5193631
4407076596,-0.06935494,-0.1459662,0.00029416228,0.5201508
4407120650,-0.1229158,-0.13673072,-0.003078234,0.51743895
4407160649,-0.09189197,-0.16580659,-0.0064367703,0.51563096
4407204605,-0.13357621,-0.1641702,-0.00863214,0.5197967
4407244606,-0.087016724,-0.15904753,-0.011809723,0.5175658
4407285415,-0.05490645,-0.16592008,-0.014450727,0.516962
4407325396,0.0092620235,-0.16372311,-0.015874647,0.51836216
4407369463,-0.05744939,-0.1859153,-0.0174815,0.52179486
4407409436,-0.048932757,-0.20292316,-0.018821837,0.52040136
4407453423,0.036650803,-0.22321452,-0.01996058,0.5237877
4407493398,0.058439482,-0.23964837,-0.01978632,0.5254429
4407534202,0.045954816,-0.24184564,-0.020433143,0.5238775
4407574221,-0.0033807277,-0.249459,-0.021315455,0.52709293
4407618256,0.06787882,-0.24608564,-0.021509478,0.52677244
4407658244,0.07640807,-0.23380455,-0.021452686,0.5266039
4407702205,0.021256868,-0.22604361,-0.02177088,0.5297447
4407746230,0.039456837,-0.21600616,-0.021735113,0.5290527
4407787069,0.04122787,-0.23063117,-0.021910015,0.52768004
4407831044,0.0013579683,-0.20715861,-0.02071423,0.5280292
4407871043,-0.03681024,-0.2113021,-0.020871459,0.5265012
4407915066,0.025872394,-0.21084464,-0.020319926,0.52736396
4407955222,0.054607186,-0.21616077,-0.019545589,0.52606016
4407999054,-0.015521387,-0.21101683,-0.01785432,0.52965266
4408039800,-0.004720266,-0.21474805,-0.017163217,0.52974445
4408079804,0.038697455,-0.20367931,-0.01552707,0.5270814
4408123828,0.010385275,-0.1876316,-0.013571209,0.5271401
4408167816,0.052390512,-0.16751985,-0.012278341,0.52467614
4408211826,0.0417731,-0.15989627,-0.010501863,0.5257394
4408255804,0.076674655,-0.1650558,-0.009194574,0.5274716
4408299820,0.041537777,-0.13576992,-0.0070794644,0.52715266
4408340592,0.07151096,-0.12036063,-0.005672615,0.5265367
4408384605,0.008720354,-0.11335382,-0.003689964,0.5282314
4408424600,0.041916452,-0.09454264,-0.0025144375,0.52656347
4408468657,0.015729073,-0.08209067,-0.0011556312,0.52396125
4408512684,0.031080997,-0.07435171,-6.5783024e-05,0.5259034
4408553478,0.07313103,-0.06655732,0.00082326925,0.52858907
4408597398,0.015856566,-0.055078585,0.0025862912,0.52722776
4408637451,0.05085567,-0.05962823,0.0030354583,0.5281829
4408677441,0.068073876,-0.04038908,0.003773529,0.5258311
4408717464,0.030455036,-0.03510108,0.005107821,0.52903897
4408761435,0.009767031,-0.02414525,0.006765336,0.5273851
4408801469,0.014376285,-0.034154095,0.0075376094,0.52609205
4408842258,0.056576345,-0.031193154,0.00717338,0.5247631
4408882240,0.076869555,-0.02478375,0.0082945675,0.5251132
4408926237,0.02290402,-0.030634105,0.0097480975,0.5256603
4408966239,0.031746954,-0.018028913,0.010690004,0.52659696
4409010310,0.008810001,-0.033149898,0.011783471,0.5274172
4409050284,0.0060625365,-0.03661537,0.012173989,0.52532667
4409095014,0.02185844,-0.032220855,0.01315772,0.52797157
4409134999,0.010688053,0.0050806096,0.01436866,0.5265864
4409179041,0.037731342,0.0157854,0.014495285,0.52848685
4409219014,0.002340054,0.025209054,0.015257887,0.53049475
4409263001,0.022325756,0.06497742,0.015393192,0.52622634
4409303821,0.0069199065,0.063082196,0.015518805,0.5291776
4409343805,0.06728863,0.07850967,0.014263178,0.5257833
4409387846,0.03775778,0.096691385,0.014721647,0.52592707
4409427830,0.029647669,0.08921392,0.01480078,0.5265236
4409471798,0.03225288,0.08876865,0.014208667,0.5250487
4409511811,-0.014958081,0.111277685,0.016189346,0.52759945
4409555795,0.04242085,0.1153303,0.015441221,0.52793807
4409596644,0.027751943,0.12137527,0.016309038,0.52704644
4409640608,0.03888287,0.12988925,0.016945807,0.52557886
4409680611,0.009755291,0.12290995,0.018668093,0.52927715
4409724655,-0.019717665,0.12419878,0.021131296,0.5281789
4409764650,0.024426093,0.10887307,0.021680914,0.5271737
4409808610,-0.040141452,0.09545997,0.025488863,0.5292059
4409848611,-0.010716711,0.082247056,0.027520496,0.5260923
4409893508,-0.022683613,0.04061564,0.030500874,0.52679455
4409937444,-0.0074108327,0.012647816,0.032745674,0.52410567
4409977446,-0.080481775,-0.012863536,0.036221877,0.52954024
4410021484,-0.055168483,-0.05227882,0.038088012,0.52791506
4410061482,-0.06697676,-0.070010245,0.0399302,0.52596813
4410105451,-0.07555869,-0.0882915,0.04134758,0.5255724
4410146216,-0.046802048,-0.12364182,0.041096926,0.5262609
4410190272,-0.09197584,-0.14580552,0.04161398,0.52831197
4410230337,-0.06254122,-0.1672875,0.040827,0.527405
4410274203,-0.11238622,-0.16898401,0.040220905,0.5257438
4410314220,-0.08259516,-0.18615012,0.038045645,0.52416897
4410355008,-0.11094141,-0.18522145,0.035651885,0.52193934
4410395000,-0.12432607,-0.17073132,0.03383973,0.52114934
4410439074,-0.09052132,-0.1711298,0.030161891,0.5235367
4410479035,-0.054279566,-0.16465536,0.026787259,0.5242914
4410523002,-0.06630187,-0.14334716,0.023887713,0.52260816
4410563006,-0.08063105,-0.13046293,0.020694008,0.5246384
4410603821,-0.09901382,-0.122824594,0.017497327,0.5259211
4410643819,-0.09993261,-0.107303955,0.014750887,0.5258526
4410687837,-0.10228306,-0.075462155,0.012914391,0.5234928
4410727831,-0.08191971,-0.07628505,0.010409329,0.5245812
4410767831,-0.06463063,-0.053278584,0.00883345,0.5261887
4410811806,-0.028099611,-0.02295331,0.007039422,0.5261679
4410859826,-0.020200899,-0.021979988,0.005066761,0.5295799
4410900615,0.0071495343,-0.013523785,0.0041803913,0.53042215
4410940601,0.0042886077,-0.008282182,0.0037258114,0.53242487
4410984628,0.005743699,0.01192973,0.0037473326,0.5316099
4411024639,0.042071056,0.02513108,0.0028469567,0.53277546
4411064658,0.024876218,0.03630107,0.0023997994,0.5341431
4411108602,0.008134577,0.057461854,0.0026866442,0.5304819
4411149404,-0.0166128,0.042069975,0.0023751967,0.53653467
4411189416,0.026371056,0.036153786,0.0009338074,0.5355316
4411233405,-0.03673494,0.039212603,0.0016053386,0.5382451
4411273453,-0.002781337,0.040366113,0.00032667315,0.53640574
4411317406,-0.0036262954,0.030141417,-0.0013663932,0.53625643
4411357396,-0.03064498,0.037066255,-0.0020018443,0.5330843
4411398233,-0.06922841,0.04695159,-0.0018743125,0.53454703
4411442222,-0.028521046,0.059737336,-0.0035564357,0.5348681
4411482251,0.018083232,0.07125477,-0.005088341,0.5315156
4411522240,0.004540452,0.07814825,-0.0052649993,0.53194934
4411566200,-0.0016503187,0.06454326,-0.0055147363,0.5295107
4411606209,-0.04471629,0.07839416,-0.003866992,0.5348606
4411646999,0.012679622,0.0778963,-0.004322167,0.5277539
4411687005,0.037495967,0.07323429,-0.004557416,0.5190458
4411731044,-0.013351751,0.06709186,-0.0034802482,0.5102518
4411771057,-0.03179687,0.07059389,-0.0017278617,0.5061727
4411815012,0.03370429,0.09311258,-0.0013196118,0.5000975
4411855042,0.043098673,0.112422034,-7.141997e-05,0.49562937
4411895809,-0.010124222,0.12534332,0.0021380712,0.4963994
4411939875,-0.016505582,0.14407392,0.0038905032,0.49083227
4411979851,0.06391248,0.15174882,0.0028934611,0.48666465
4412023843,-0.023535747,0.17873035,0.007140174,0.48726994
4412063815,0.0062703053,0.19804542,0.0068027913,0.48442775
4412107861,0.87266463,-0.8525548,0.027659455,0.43458483
4412147829,0.87266463,-0.85007286,0.03038575,0.43225747
4412192610,0.87266463,-0.7576738,0.025765004,0.43828714
4412232668,0.87266463,-0.56583095,0.017128125,0.44913718
4412272643,0.63974893,-0.62223697,0.7853982,0.4636942
4412316674,0.5447724,-0.49010915,0.7853982,0.47170812
4412360602,0.45081034,-0.28485093,0.7853982,0.48033935
4412404616,0.27311626,-0.008678394,0.7853982,0.4779251
4412445432,0.27256083,0.13690469,0.7853982,0.47768328
4412489408,0.20500107,0.24665524,0.7853982,0.47851714
4412529399,0.08383841,0.39942387,0.7853982,0.4761775
4412573400,0.027235549,0.5431779,0.7853982,0.4732015
4412613401,-0.0005143481,0.5710893,0.7853982,0.47598073
4412657415,-0.029004462,0.56143796,0.7853982,0.48482737
4412702210,-0.036281556,0.6490923,0.7853982,0.4846215
4412742210,-0.053367656,0.669198,0.7853982,0.48549297
4412786265,0.007310793,0.6187582,0.7853982,0.49060658
4412830279,-0.09664135,0.6243502,0.7853982,0.49742395
4412870273,-0.009930014,0.61244196,0.7853982,0.49905908
4412910238,-0.033145405,0.5814934,0.7853982,0.50760925
4412955062,-0.037433423,0.55430454,0.7853982,0.508031
4412999008,-0.066079386,0.5186794,0.7853982,0.5131865
4413039048,-0.04049891,0.51819324,0.7853982,0.5107182
4413079055,0.021236405,0.47520557,0.7853982,0.51517767
4413123079,0.063922316,0.46427798,0.7853982,0.51358014
4413163086,0.06813347,0.43215674,0.7853982,0.51854485
4413203846,0.058483392,0.37828615,0.7367821,0.52028745
4413243896,0.103928745,0.36367646,0.6841893,0.522401
4413287796,0.18410566,0.3391584,0.6266148,0.52223325
4413331835,0.17225985,0.3067112,0.5727947,0.5230942
4413371832,0.20453392,0.27109975,0.52543277,0.5200759
4413411829,0.25797528,0.26842585,0.47854578,0.5158805
4413459826,0.25420916,0.23202315,0.4284733,0.51463115
4413504601,0.27984565,0.22944044,0.38253042,0.51665354
4413544627,0.30284858,0.20853609,0.34570858,0.5187142
4413588627,0.32191586,0.1956822,0.3065702,0.5202825
4413628650,0.30525815,0.1975126,0.2744338,0.52051705
4413672606,0.31822792,0.18690518,0.24041161,0.5193977
4413712611,0.33948997,0.17598186,0.21298629,0.51965445
4413757418,0.35087636,0.15140091,0.18358012,0.5165129
4413801439,0.35508576,0.16645028,0.15775079,0.51586896
4413841409,0.3147379,0.15630236,0.13597669,0.51573294
4413885460,0.32752407,0.12992953,0.11310363,0.521435
4413925417,0.28654853,0.13441631,0.0949912,0.51712734
4413969441,0.27301413,0.11790821,0.07648043,0.5145265
4414010243,0.25198567,0.11041607,0.0601743,0.51432776
4414054206,0.28949797,0.09025652,0.043168914,0.5168824
4414098200,0.26144147,0.109151214,0.028309757,0.5136708
4414142215,0.25999397,0.08495246,0.01560118,0.5102489
4414186275,0.23552974,0.083467335,0.005821162,0.50874245
4414227019,0.2337422,0.07700444,-0.00339377,0.50869066
4414267027,0.24058284,0.09043283,-0.012242468,0.51303077
4414307056,0.21724649,0.070017345,-0.019106915,0.5094352
4414351007,0.1953181,0.060241744,-0.025802061,0.5128492
4414395049,0.21089953,0.061162487,-0.032933805,0.51386696
4414435079,0.22780457,0.0612285,-0.038170375,0.5154984
4414474999,0.20149283,0.054968245,-0.042844884,0.51137626
4414519795,0.1842327,0.045558944,-0.046120286,0.5175407
4414559795,0.17945458,0.038490694,-0.049267914,0.51986283
4414603840,0.15759864,0.03549755,-0.051906016,0.5189137
4414643851,0.16923304,0.03348832,-0.054723427,0.51733106
4414687813,0.14211893,0.04222197,-0.057040706,0.5233983
4414727803,0.1391452,0.040673193,-0.058762506,0.52241707
4414768600,0.14239237,0.06190152,-0.06110523,0.52446896
4414812685,0.13400759,0.062781096,-0.062486887,0.5256357
4414852668,0.121540114,0.071078666,-0.06317667,0.5256852
4414892644,0.14089525,0.06684663,-0.063792005,0.5274942
4414936614,0.109187126,0.097334534,-0.06403229,0.53181905
4414980672,0.12660512,0.09772359,-0.06412193,0.5342902
4415021506,0.12335111,0.1051961,-0.06347726,0.5328549
4415065399,0.15760492,0.12524919,-0.063435614,0.5323326
4415109461,0.17989539,0.11846615,-0.06315562,0.52942026
4415153405,0.124792784,0.12681672,-0.06111627,0.529209
4415197407,0.1879939,0.099767916,-0.06070462,0.52726203
4415237394,0.1900063,0.120508984,-0.059738934,0.5306981
4415282200,0.13946126,0.09219328,-0.0590098,0.5334157
4415322217,0.18993568,0.08629865,-0.05803228,0.5286613
4415366209,0.16245219,0.06738436,-0.05657513,0.5287028
4415410278,0.11711504,0.06146638,-0.054326564,0.5338578
4415454221,0.18531628,0.061915047,-0.054581225,0.52697086
4415499036,0.14295205,0.040254783,-0.051458526,0.52921
4415539032,0.14845349,0.031307757,-0.049488872,0.52874017
4415583000,0.16239572,0.020811513,-0.047459252,0.523882
4415623011,0.14520122,0.013570674,-0.045140088,0.52823055
4415667029,0.12327411,-0.032913897,-0.041842457,0.5294526
4415707124,0.13963234,-0.0130593935,-0.039198752,0.529281
4415755052,0.10054764,-0.0545217,-0.036348056,0.53137183
4415795823,0.09939115,-0.06945828,-0.033727337,0.52890646
4415835821,0.121873066,-0.063509904,-0.031838406,0.5309893
4415875851,0.13822731,-0.092956804,-0.029430764,0.52678555
4415923823,0.113707684,-0.12166598,-0.027423669,0.53272706
4415963846,0.09648019,-0.13499464,-0.025615275,0.53158504
4416003846,0.08935939,-0.12323278,-0.023664756,0.5312746
4416044635,0.13246292,-0.1268864,-0.022889994,0.53225833
4416088607,0.08847253,-0.11014886,-0.022189556,0.53483504
4416132665,0.12708955,-0.08063435,-0.022731032,0.5336073
4416172637,0.13823342,-0.08507848,-0.02263474,0.5364785
4416220654,0.1542169,-0.07371086,-0.022868315,0.5368344
4416265442,0.14691836,-0.056181453,-0.02294722,0.5365687
4416305407,0.12251878,-0.051409524,-0.025813555,0.53413695
4416345414,0.12361963,-0.05339696,-0.027563263,0.5334732
4416385449,0.119775824,-0.029712979,-0.029245444,0.5319761
4416425446,0.10809609,-0.02930101,-0.030819327,0.5313402
4416469455,0.1613507,-0.057466757,-0.033290163,0.53084284
4416509497,0.14106512,-0.041129027,-0.035385143,0.5303842
4416549434,0.11451271,-0.029224673,-0.038220603,0.53015196
4416594208,0.099410675,-0.020719646,-0.04125945,0.5311261
4416634254,0.10604211,-0.018076563,-0.044506263,0.5278382
4416674230,0.09182674,0.010640022,-0.047227472,0.5247422
4416718248,0.1043545,0.01755132,-0.050967406,0.5292451
4416762210,0.09282173,0.0452003,-0.053277843,0.5225708
4416803006,0.08793602,0.052366182,-0.055842694,0.5219018
4416847007,0.12995532,0.06666837,-0.059971098,0.5178066
4416887007,0.14095482,0.063447006,-0.06306636,0.5178488
4416930999,0.1529767,0.030659005,-0.065559305,0.51799077
4416971031,0.13458769,0.069595166,-0.06635694,0.5153775
4417011002,0.14355671,0.030218408,-0.06725399,0.5172505
4417051002,0.12858272,0.015894236,-0.067378595,0.51418614
4417095805,0.14839427,0.012878157,-0.06835401,0.51486504
4417135805,0.06776996,-0.0063664615,-0.06761761,0.51569885
4417179801,0.09771924,-0.0025274632,-0.06889576,0.5126373
4417219803,0.054751426,-0.019032653,-0.06830797,0.50909436
4417267854,0.084279716,-0.020769086,-0.06887966,0.49857932
4417307795,0.06410217,-0.013907173,-0.06864413,0.4981886
4417348601,0.019557122,0.0040958184,-0.06821729,0.49936518
4417392604,0.023904996,0.024966836,-0.06906289,0.50003874
4417432603,-0.023013333,0.054653466,-0.06809536,0.49571052
4417472624,-0.012602564,0.059677593,-0.06802751,0.4953501
4417516595,0.017535612,0.07058149,-0.068452425,0.4976108
4417556610,-0.09877769,0.102963,-0.065632686,0.49716932
4417597398,-0.09496648,0.11592786,-0.06454712,0.49621052
4417641431,-0.01205728,0.1051299,-0.065464325,0.49172223
4417681403,0.030488024,0.11624795,-0.06506675,0.49115613
4417725486,-0.022311816,0.1181128,-0.06169872,0.49367628
4417765392,-0.016725559,0.118894994,-0.059776686,0.4908175
4417809409,-0.0464425,0.12598377,-0.055795684,0.49256566
4417850286,-0.029186526,0.13722217,-0.054338265,0.48550004
4417894292,-0.038316116,0.11826238,-0.05111081,0.49501103
4417934288,-0.016209736,0.14072903,-0.049250934,0.4894222
4417978281,-0.020497095,0.15754433,-0.046031207,0.49116588
4418022251,0.02585339,0.1770717,-0.04396199,0.4956838
4418062293,0.040198267,0.18208411,-0.041767024,0.4975355
4418103041,0.0526501,0.20130785,-0.03992294,0.50378513
4418143048,0.051804215,0.23616646,-0.03679906,0.5033552
4418187006,0.018691836,0.2336176,-0.03264177,0.50350195
4418227003,0.013288513,0.22037172,-0.029758882,0.5102969
4418271045,-0.009825948,0.22633018,-0.025678575,0.51068854
4418311043,0.0078061847,0.21072932,-0.023564363,0.51225746
4418355809,-0.04582152,0.17199728,-0.019084845,0.5093705
4418395810,-0.011670088,0.14787672,-0.01745644,0.51197684
4418439828,0.008660709,0.15630618,-0.014067824,0.5137323
4418479826,0.021205602,0.12094354,-0.011738238,0.5151575
4418523792,-0.018043332,0.090685844,-0.008342468,0.5132058
4418563799,0.0140012,0.08255589,-0.0066625625,0.5158926
4418607838,-0.060025077,0.06615767,-0.0023845278,0.51253563
4418648644,-0.017287547,0.059854228,-0.0009547474,0.51381654
4418688650,-0.07014334,0.052334975,0.002341237,0.51406723
4418728646,-0.07559733,0.065153934,0.00513472,0.5114592
4418768642,-0.09003251,0.070179686,0.0074037435,0.50949967
4418812603,-0.000999556,0.06103505,0.0077937925,0.5073076
4418856644,0.0026151137,0.057072707,0.010379526,0.5060696
4418897434,-0.03865391,0.058387294,0.013424954,0.5106947
4418937448,-0.059113957,0.048765738,0.015168266,0.5125666
4418981402,0.01638246,0.056557823,0.015970089,0.51233673
4419021433,-0.029218618,0.05530762,0.018601635,0.51456475
4419061400,-0.08097534,0.051735885,0.020426977,0.51352763
4419105455,-0.022241905,0.046855908,0.0208358,0.5071272
4419146261,-0.057305895,0.06673404,0.023845252,0.5141845
4419186268,-0.04639388,0.056568213,0.024593221,0.51467896
4419230238,-0.13654903,0.06375383,0.029091716,0.51698804
4419270238,-0.16487415,0.05231315,0.031778432,0.5189388
4419314251,-0.09747049,0.09263764,0.03268689,0.5135041
4419354245,-0.15077423,0.11727741,0.036328614,0.5152942
4419395045,-0.14443497,0.100106336,0.038090754,0.5148089
4419435051,-0.16761722,0.091521434,0.040550537,0.51315856
4419478995,-0.17945318,0.07838129,0.042132664,0.5137393
4419519001,-0.17349307,0.07331338,0.04434922,0.5208575
4419563029,-0.21691504,0.10358067,0.047986235,0.5182073
4419603845,-0.2549817,0.09600693,0.050370596,0.52140796
4419647852,-0.16363531,0.068660006,0.048677694,0.5183392
4419691890,-0.2122367,0.070235424,0.05148623,0.52180797
4419731876,-0.21297628,0.09322545,0.05332989,0.5240172
4419775843,-0.22650565,0.08663631,0.05530748,0.5236881
4419815883,-0.2326403,0.069630526,0.05656217,0.5255424
4419855804,-0.20502204,0.084747545,0.057868697,0.52235216
4419896641,-0.21805732,0.08915098,0.059359904,0.5214988
4419940685,-0.18651935,0.0647603,0.05966202,0.5222972
4419980677,-0.19147426,0.07681393,0.061973095,0.5232773
4420024605,-0.26417866,0.080048546,0.06495338,0.52330726
4420064646,-0.25468335,0.08841549,0.06637279,0.5248986
4420108639,-0.21592739,0.1020129,0.06696433,0.5215237
4420148692,-0.21880043,0.09453221,0.068331525,0.52106494
4420189437,-0.18380105,0.10029507,0.06816544,0.51952714
4420229489,-0.18050066,0.093228936,0.06827723,0.5195056
4420273406,-0.17319235,0.06702547,0.067445196,0.52401596
4420313456,-0.13861947,0.047959767,0.06571574,0.51914704
4420357448,-0.23463765,0.046617255,0.06769289,0.52419806
4420397488,-0.20240888,0.050631672,0.06577769,0.5214173
4420438248,-0.19811617,0.03191459,0.06379442,0.5217378
4420482198,-0.18569887,0.030482687,0.061901227,0.51671904
4420526256,-0.17489855,0.03293538,0.060414,0.51722956
4420566246,-0.22615413,0.03795766,0.06009883,0.5177394
4420606252,-0.23662108,0.035271186,0.05800171,0.51948166
4420647028,-0.1863585,0.029610712,0.055110432,0.5168091
4420687048,-0.15661158,0.02461251,0.05241848,0.51796293
4420730995,-0.13464582,0.008925535,0.04893439,0.519314
4420775056,-0.12975048,0.021675924,0.046921678,0.5145701
4420815237,-0.14760403,0.0153785385,0.045119092,0.5158114
4420859007,-0.120903306,-0.0013760325,0.041622203,0.51472634
4420903033,-0.098162115,-0.00027265807,0.038862836,0.5162074
4420943823,-0.13182989,0.008530013,0.038150933,0.5208515
4420987805,-0.12698558,0.0035759266,0.03574738,0.51993054
4421027800,-0.1099351,0.0024587098,0.03405173,0.5185207
4421071824,-0.08043748,-0.031026226,0.031215485,0.5206259
4421115801,-0.08565979,-0.041277893,0.030359916,0.5178608
4421159865,-0.10308369,-0.05361887,0.029911773,0.5176174
4421199838,-0.07529675,-0.053797763,0.030254826,0.5146787
4421240684,-0.018577442,-0.07219088,0.029621083,0.51423556
4421284602,-0.06943566,-0.09380485,0.030229412,0.5167798
4421324644,-0.055199627,-0.085872576,0.03069989,0.51798284
4421368595,-0.041872483,-0.08549615,0.030412756,0.5195369
4421408659,-0.051109638,-0.0853775,0.030598138,0.5189716
4421452608,-0.12946655,-0.06526088,0.03212091,0.51888084
4421493410,-0.095109545,-0.029533377,0.031617824,0.5137071
4421537400,-0.0717616,-0.0426171,0.031171829,0.5147189
4421577404,-0.09227736,-0.030143624,0.031861484,0.51543516
4421621400,-0.10763642,-0.027791917,0.032371283,0.5160978
4421661400,-0.12642479,0.0022329686,0.032470632,0.5164625
4421701392,-0.10940829,-0.010119142,0.03240272,0.5164699
4421746214,-0.111306995,0.008849971,0.032444302,0.5176893
4421786219,-0.09151063,0.01715267,0.031877898,0.517819
4421830270,-0.059768636,0.0063671065,0.030150617,0.51476866
4421870254,-0.0518967,0.017801713,0.029139405,0.5178458
4421910234,-0.061101146,0.021409122,0.027416017,0.5186796
4421951002,-0.07385448,0.042066947,0.026613332,0.5186877
4421995003,-0.13784713,0.032909952,0.026008694,0.52113837
4422035001,-0.12427799,0.054589592,0.023883132,0.5212819
4422079007,-0.11132925,0.0977723,0.023394883,0.51892185
4422119020,-0.11669131,0.075843364,0.021253256,0.5200729
4422163034,-0.16448888,0.07822047,0.0212971,0.5193182
4422203804,-0.1405021,0.090020336,0.019309064,0.51717824
4422247848,-0.11336331,0.11173925,0.018283805,0.5188945
4422287808,-0.12265481,0.12729988,0.018457932,0.5188113
4422331796,-0.11795007,0.10771459,0.016386164,0.52012527
4422371798,-0.087193415,0.11541074,0.01572807,0.5201781
4422415849,-0.10489145,0.11453639,0.015397133,0.52307034
4422455802,-0.10734721,0.10289677,0.014958981,0.52973795
4422496651,-0.08793026,0.09848221,0.013675133,0.5294974
4422540675,-0.075797305,0.07548767,0.012188397,0.53393227
4422580610,-0.08136841,0.07602992,0.011670105,0.5338232
4422624706,-0.07223101,0.08366251,0.010481796,0.5353187
4422668649,-0.098971136,0.07379478,0.0101261,0.536174
4422708655,-0.10957755,0.07295011,0.009850785,0.5338307
4422749395,-0.14182463,0.08214783,0.00949266,0.5387392
4422793447,-0.044983596,0.08256696,0.0075610094,0.5357666
4422833488,-0.06719546,0.05498948,0.006735462,0.53750014
4422877411,-0.088869825,0.051417716,0.006588239,0.53790355
4422917395,-0.05286447,0.052998167,0.005135017,0.53330964
4422961438,-0.033911392,0.043711726,0.0038869707,0.5331929
4423002260,-0.035009913,0.045657106,0.003230723,0.53306204
4423046218,-0.113177314,0.053573493,0.004263665,0.53322273
4423086205,-0.12019235,0.05398582,0.003894833,0.53281105
4423130277,-0.057438508,0.055889096,0.002476918,0.5260433
4423174221,-0.07708693,0.04455445,0.0022234377,0.5278049
4423214237,-0.0743386,0.02886568,0.001834957,0.53194964
4423259049,-0.11716691,0.037065305,0.003288605,0.5249901
4423299023,-0.0995847,0.01305373,0.002790887,0.52497894
4423342995,-0.038383063,0.0053743804,0.002131377,0.52958465
4423383008,-0.076356374,-0.006037074,0.00322497,0.53336895
4423427014,-0.0755689,-0.02461199,0.0038668576,0.5302318
4423467051,-0.048622295,-0.024350975,0.0049621877,0.52931505
4423511841,-0.056623843,-0.0291552,0.0061940076,0.5295258
4423555848,-0.1390423,-0.023035008,0.008543865,0.5309713
4423595846,-0.118458584,-0.019048821,0.008924916,0.5276839
4423635844,-0.09390915,-0.014326187,0.00888586,0.5296247
4423679863,-0.10038695,-0.04191415,0.007818153,0.53370976
4423723792,-0.08162633,-0.04507752,0.006380354,0.5350323
4423763884,-0.054317582,-0.05038781,0.0045051444,0.5386651
4423804601,-0.07418163,-0.06096904,0.0033266752,0.5399536
4423844684,-0.03505785,-0.06112562,0.0006560534,0.5403719
4423888609,-0.00896312,-0.093621545,-0.0030842943,0.5415317
4423928633,0.005620828,-0.122968085,-0.0061934493,0.5429159
4423972619,-0.019288117,-0.089176156,-0.0065307366,0.5477867
4424012668,-0.035691645,-0.08235641,-0.00736767,0.5465721
4424057403,-0.035695773,-0.09848107,-0.009705489,0.54758084
4424101408,-0.09259012,-0.05688089,-0.007892282,0.5462368
4424141425,-0.053100362,-0.04604397,-0.008498937,0.5364294
4424181401,-0.06958658,-0.043207012,-0.00870744,0.5358488
4424225417,-0.11078132,-0.04422246,-0.009267248,0.53424764
4424265397,-0.09377284,-0.008463684,-0.009439552,0.52975833
4424306205,-0.1035001,0.0105421115,-0.008889064,0.5276468
4424346211,-0.12405126,0.015080721,-0.008671545,0.5241813
4424390261,-0.09515426,0.021240976,-0.009170172,0.5272472
4424430263,-0.14651315,0.04394886,-0.0066712312,0.52870005
4424470291,-0.14306968,0.047573972,-0.0064544855,0.5240786
4424511011,-0.17005152,0.054084722,-0.0049560843,0.52247256
4424554998,-0.14205825,0.05650082,-0.004101951,0.52196664
4424595020,-0.13648862,0.060610786,-0.0037597632,0.5205728
4424639042,-0.089387655,0.07283604,-0.004094816,0.52128696
4424683007,-0.10724894,0.07313749,-0.003858979,0.51806027
4424723010,-0.09344528,0.07060644,-0.0049806577,0.5168907
4424767004,-0.091697454,0.06366166,-0.006818406,0.5182316
4424807798,-0.06951364,0.06895495,-0.007624735,0.5172582
4424851804,-0.10831353,0.097095266,-0.006827879,0.51407546
4424891807,-0.060033023,0.1133696,-0.008639377,0.51542175
4424935804,-0.07693947,0.13893574,-0.008728769,0.51623356
4424975798,-0.06075391,0.15973707,-0.009435822,0.5167637
4425016623,-0.060603987,0.20072183,-0.0095534455,0.51137567
4425060683,-0.04748788,0.20114677,-0.010547022,0.5147237
4425100620,-0.049604498,0.20278743,-0.0104898475,0.5141118
4425140606,0.019317271,0.19949861,-0.01254602,0.5108254
4425184631,0.0036677318,0.21759985,-0.011026509,0.51201266
4425228706,-0.02876662,0.22015187,-0.009243999,0.5128911
4425268602,0.01752781,0.21186179,-0.0111299865,0.51180404
4425312673,-0.05651065,0.21306531,-0.007809542,0.5157465
4425353445,-0.009154954,0.20614089,-0.008471364,0.5145047
4425397446,0.00014775927,0.18272336,-0.0075307125,0.51265687
4425437395,0.0322471,0.19223173,-0.0075451457,0.51282895
4425481410,0.002844612,0.18969306,-0.005940238,0.51523775
4425521443,0.02810127,0.1660019,-0.0069764038,0.51986206
4425566257,0.0012613041,0.15491246,-0.006429366,0.5147922
4425610255,-0.07848045,0.15406692,-0.005500002,0.5201839
4425650265,-0.046185352,0.15228373,-0.0081058275,0.51605344
4425694258,-0.033421144,0.14082927,-0.009505754,0.516765
4425734261,-0.017351102,0.112681225,-0.011512749,0.5190848
4425778214,-0.01724308,0.11897556,-0.011535711,0.5189483
4425819003,0.048458707,0.11070112,-0.012921857,0.51910454
4425863034,-0.028978616,0.10335215,-0.01157198,0.52450925
4425903038,-0.0115906065,0.05480868,-0.013146935,0.52805936
4425947003,-0.013257856,0.03167826,-0.013113507,0.5241248
4425986995,0.012421003,0.006882873,-0.013449291,0.52528834
4426031038,-0.015173912,0.0024445145,-0.012932677,0.52731633
4426071031,0.02967228,0.010322967,-0.012675094,0.5233872
4426111841,-0.0015646478,-0.0077055716,-0.012038857,0.5307678
4426151832,0.054817587,-0.03577802,-0.01328335,0.5263197
4426195804,0.009660328,-0.04076699,-0.012081174,0.53066766
4426235808,-0.009159379,-0.039520178,-0.0112624215,0.52736074
4426279829,0.020962708,-0.046280608,-0.011273082,0.5268792
4426319834,0.005403624,-0.048928604,-0.009963349,0.5252294
4426359840,-0.01455196,-0.030032987,-0.008567945,0.5286008
4426400624,-0.03644018,-0.043360613,-0.0074784616,0.5314689
4426440643,0.0012815625,-0.027208313,-0.0064081666,0.5285235
4426480625,-0.014458343,-0.017307704,-0.0051601287,0.5288425
4426524597,0.03218659,-0.012829249,-0.00454315,0.5246701
4426564611,0.02936997,-0.01732916,-0.0030279134,0.5243212
4426605410,-0.0073201805,-0.014424528,-0.0015339036,0.52546334
4426645416,0.0018248552,0.0028804387,-0.0004585579,0.52453625
4426689452,-0.009405454,0.004620503,0.0015095978,0.5258207
4426733395,0.022546,-0.019397588,0.0027121538,0.52747107
4426773430,0.046211753,-0.012129549,0.004583154,0.52517027
4426817451,-0.0032030994,0.010613512,0.009148588,0.52666265
4426858273,0.027070893,-0.004232232,0.01087798,0.5245233
4426902246,0.01927368,-0.03461215,0.014761735,0.5244211
4426942240,-0.029004097,-0.035912033,0.019071028,0.5341471
4426986299,-0.0060379924,-0.023414114,0.023417009,0.5324017
4427026298,-0.019506754,-0.046046935,0.026924191,0.5345378
4427070274,-0.03954011,-0.048964195,0.03140548,0.5342237
4427111010,-0.0030882522,-0.055803165,0.03436824,0.53793454
4427151047,0.0012047805,-0.09324476,0.03668569,0.5379208
4427195041,-0.012472612,-0.09792746,0.03973245,0.5405485
4427238999,-0.012265037,-0.10318063,0.04166426,0.54605323
4427279001,-0.013553611,-0.11986826,0.042157087,0.5422233
4427323028,-0.011655941,-0.11650616,0.04221971,0.5410548
4427363018,-0.03192528,-0.112302125,0.0413524,0.54291445
4427403855,-0.029988762,-0.14935729,0.038384154,0.5427665
4427443846,-0.058618292,-0.15362257,0.035897918,0.53732634
4427483838,-0.048518002,-0.14439873,0.0334024,0.5359539
4427523868,-0.06617964,-0.1562701,0.030315645,0.53467506
4427567796,-0.08886787,-0.16595313,0.027189972,0.5327387
4427607839,-0.15691689,-0.14249295,0.025046593,0.5323413
4427648599,-0.15451993,-0.13727924,0.02273649,0.5334852
4427688642,-0.11005595,-0.14201124,0.019737395,0.5255437
4427732630,-0.18392874,-0.12714395,0.01816136,0.52549535
4427772676,-0.20667103,-0.106438026,0.017252706,0.52745074
4427812666,-0.15116574,-0.104755,0.015359009,0.5261044
4427852602,-0.13117296,-0.108083285,0.014009959,0.5280456
4427893480,-0.106469706,-0.07917786,0.013007818,0.5249284
4427937395,-0.16610207,-0.08121052,0.011877047,0.52330047
4427977442,-0.14954016,-0.090631925,0.00967058,0.52403146
4428017457,-0.11037474,-0.07936687,0.0072672158,0.52014065
4428061447,-0.21634257,-0.058472313,0.0067662355,0.52568877
4428101448,-0.15711771,-0.059733998,0.0036511023,0.5209915
4428142251,-0.13715555,-0.040559396,0.002367272,0.5190773
4428182272,-0.13825965,-0.011828652,0.0014081473,0.5182434
4428222236,-0.19065362,0.015507798,0.0006419312,0.5143574
4428262205,-0.19102459,0.022580482,-0.0013921513,0.5123137
4428306226,-0.14599264,0.045458857,-0.0030823683,0.5133251
4428346224,-0.12093415,0.08802672,-0.003966546,0.50768113
4428390307,-0.11049137,0.10535723,-0.005190754,0.5040146
4428431069,-0.1391827,0.1027801,-0.004375153,0.5081249
4428475008,-0.16573478,0.11070048,-0.005025885,0.51009876
4428515056,-0.18751144,0.10611741,-0.0056799864,0.5063959
4428555026,-0.09635085,0.09674232,-0.0077989777,0.50622565
4428595062,-0.12659313,0.09217503,-0.0067169997,0.51095665
4428639043,-0.13474385,0.059625126,-0.008566535,0.5109014
4428679846,-0.17457925,0.06480416,-0.007513533,0.5099438
4428719837,-0.07552211,0.06730768,-0.008512261,0.5088979
