timestamp,gyro_rad[0],gyro_rad[1],gyro_rad[2],gyro_integral_dt,accelerometer_timestamp_relative,accelerometer_m_s2[0],accelerometer_m_s2[1],accelerometer_m_s2[2],accelerometer_integral_dt
4384790882,0.0022911096,-0.002507402,-0.001962488,3969,0,0.0023675007,0.096900366,-9.858457,3969
4384959681,0.13487184,0.0054872236,-0.028704634,3993,0,0.7697336,-1.7737526,-9.951834,3993
4385003682,0.07015691,0.01111141,0.029027985,4001,0,0.066933505,0.5468722,-10.194239,4001
4385043682,0.10244389,0.060740117,-0.049634628,4000,0,-3.1185288,-1.6666093,-9.633266,4000
4385088485,0.047163032,0.0030194707,-0.015038868,4000,0,-0.19589776,-0.13581881,-10.804358,4000
4385128487,0.021925636,0.02292829,0.06782961,4005,0,-0.71226656,0.9814578,-9.049549,4005
4385168484,0.004929971,-0.032561436,-0.057583604,4003,0,-1.7582607,-0.27223277,-10.166809,4003
4385212488,-0.061600238,-0.08336487,-0.070016064,4007,0,1.2439334,1.279921,-10.10772,4007
4385260481,-0.078852594,-0.015521475,-0.0145353535,4000,0,0.76958764,-0.25202405,-10.093401,4000
4385304490,-0.06780282,0.014036667,0.014000819,3966,0,0.36117306,0.13730532,-10.155792,3966
4385345294,-0.009620143,0.047223575,-0.0067340108,4012,0,-0.09784006,0.1127854,-9.646013,4012
4385389281,0.06239774,0.040874194,-0.012701384,3952,0,-0.5066623,-0.5381982,-9.608645,3952
4385429281,0.07306976,0.018070549,0.015401075,3999,0,0.5346622,-0.19029492,-9.536405,3999
4385473324,0.025341846,-0.002203644,0.009115415,4027,0,-0.45367563,1.7244842,-9.5913925,4027
4385513317,0.041326817,-0.006035127,-0.009739373,4036,0,-0.5834948,-0.2531482,-9.628121,4036
4385557281,0.031216191,-0.0071639493,-0.0037875134,3998,0,0.8203426,-0.58238214,-10.072643,3998
4385597282,0.14811781,0.15692563,0.040504146,3994,0,-0.31261066,2.6160119,-11.067047,3994
4385638083,0.55155945,0.27804726,0.022016348,3991,0,-1.0185852,-1.1606419,-9.801569,3991
4385678081,0.9463737,0.5383238,0.017472116,3993,0,-2.2624226,-0.123297684,-9.507393,3993
4385722093,0.96673405,0.280393,0.11536091,4011,0,0.38907105,-1.232067,-14.298171,4011
4385762081,0.45859438,0.3668969,-0.08115926,4000,0,1.1595721,2.3066704,-7.4438124,4000
4385806082,0.05123864,-0.19782045,-0.05886347,4000,0,-2.496086,4.5472713,-10.369305,4000
4385846124,0.12361785,-0.07313383,0.07481993,4043,0,-0.94266856,2.890579,-12.8972645,4043
4385886882,0.03450339,-0.108091995,0.06890263,4000,0,1.8407252,-0.29575557,-8.770901,4000
4385930931,0.06312294,0.050149795,-0.036547117,4050,0,3.5044432,-5.3965816,-16.08052,4050
4385970901,-0.0248652,0.17949195,-0.02462213,4020,0,-0.02047452,-4.9896674,-13.186058,4020
4386014898,-0.6286759,0.09672726,0.06544812,4017,0,-0.54210496,2.915373,-8.840362,4017
4386054888,-0.7430001,0.10614213,-0.04863928,4007,0,-1.1367263,0.98761123,-8.787213,4007
4386098894,-0.23165697,0.24126565,-0.06236015,4006,0,1.2541803,-0.2226292,-6.854382,4006
4386139691,0.02168035,0.05224244,0.050554868,4003,0,1.3035581,-1.7963145,-7.233885,4003
4386183681,-0.24255578,-0.32828245,0.048543356,4000,0,0.68994564,-1.9116951,-6.737914,4000
4386223681,-0.072576255,-0.20080866,-0.04954778,4000,0,0.32086125,1.0071127,-10.0625725,4000
4386267681,-0.16386817,-0.4363553,0.012046685,4000,0,1.601506,-1.0104305,-8.555127,4000
4386307716,-0.0660596,-0.17518222,-0.029792693,4035,0,2.0232677,-0.24719934,-8.241275,4035
4386347723,-0.027827788,-0.18645717,0.07810646,4042,0,-2.1483157,1.0816797,-11.796273,4042
4386392493,-0.1877973,-0.13970679,0.004030138,3979,0,-0.5873838,-1.3403074,-10.36084,3979
4386432484,-0.12617446,-0.09671938,-0.047226846,3983,0,-1.0107914,-0.95383906,-9.784748,3983
4386476513,-0.015160498,0.019202808,0.08941432,4014,0,-1.3333563,0.23742066,-12.132351,4014
4386516503,-0.3149535,-0.05230277,-0.09465039,4022,0,-1.156492,-1.8071451,-9.964203,4022
4386556504,-0.11194942,-0.017364133,-0.022149038,4018,0,-0.5988772,-2.573275,-10.396564,4018
4386600483,-0.18123867,-0.07846908,0.00025495037,3997,0,-0.24417928,-1.5852374,-11.008855,3997
4386641281,-0.3061899,-0.055214036,-0.061674353,4000,0,0.5667275,0.26609322,-8.670601,4000
4386681286,-0.13504064,-0.08110487,-0.016126469,4005,0,0.07657062,-3.0124323,-9.497603,4005
4386725320,-0.15491092,-0.05632509,-0.04175806,4032,0,-2.0553412,-1.0105093,-10.880785,4032
4386765292,-0.17345639,-0.22603045,-0.056890097,4011,0,-0.67783594,1.8409247,-8.14211,4011
4386809281,-0.02542738,-0.34262234,0.054743268,3963,0,0.038158108,1.1025819,-9.520394,3963
4386850082,-0.11266271,-0.20070851,0.017563697,3950,0,-0.02364102,-1.0593735,-10.186977,3950
4386894082,-0.2025655,-0.17078955,0.111251146,4000,0,-0.47197586,1.1006206,-10.156986,4000
4386934081,-0.088678576,-0.20707631,0.14921303,4000,0,-0.7721096,0.60191095,-12.45181,4000
4386978088,0.05192611,-0.088078246,-0.011749959,3978,0,0.78952926,0.37160686,-9.991994,3978
4387018082,0.13916728,-0.07484977,0.07819175,3984,0,-1.1138117,0.77333164,-12.753825,3984
4387062097,-0.20087317,0.16601603,-0.02850028,4015,0,0.57036644,-0.04644079,-10.587704,4015
4387102140,0.107452564,0.06659799,0.09705023,4059,0,-1.1984447,-0.010690416,-12.1300335,4059
4387142888,0.10348265,0.0032594346,0.18691061,4006,0,1.3218951,1.0537692,-10.687637,4006
4387182927,0.100866854,-0.11978449,0.2135104,4046,0,0.9369036,0.31895256,-12.38314,4046
4387226881,-0.3016267,-0.084947914,-0.047095027,3950,0,-2.0273774,1.4309886,-10.623488,3950
4387266881,-0.18524812,0.16992003,-0.092933215,3959,0,-2.2645514,-2.0546935,-11.793327,3959
4387310881,-0.10808512,0.15916705,-0.030738449,3993,0,0.61393756,-0.30536765,-9.09823,3993
4387350910,-0.07720023,0.03247913,0.056292444,4022,0,1.1656252,0.6482239,-9.616115,4022
4387394882,-0.23432468,-0.016764259,-0.03492574,3992,0,-1.9089005,2.674614,-9.323105,3992
4387435681,-0.3977843,0.007040174,-0.18925346,3999,0,-2.5707345,0.995057,-8.6647005,3999
4387475681,-0.08685646,0.11927446,-0.01458997,3979,0,-2.7118487,1.4042809,-12.454809,3979
4387515681,0.01576614,0.22542481,-0.068819754,3993,0,-2.8043954,0.82541394,-11.91718,3993
4387559682,0.07832419,0.23198533,0.0443125,4001,0,2.4564414,-0.13243261,-8.917331,4001
4387599707,0.1095047,0.06421222,0.091413796,4025,0,0.7814743,0.48559734,-10.6085615,4025
4387640491,-0.0914908,-0.066312104,-0.0491709,4803,0,-0.19245732,1.2960225,-10.308859,4803
4387684482,0.10122035,0.12473848,-0.0083063645,3994,0,-1.4951642,2.531889,-11.219605,3994
4387724484,0.109125495,0.16428615,-0.02473168,3976,0,-3.6205368,0.9357538,-11.56224,3976
4387768496,0.23486401,0.18658261,-0.06852751,4011,0,0.95953935,-0.76252896,-8.940571,4011
4387808501,0.26150948,0.018948292,0.12524812,4017,0,2.778265,0.4242323,-9.281061,4017
4387852481,-0.06417538,-0.12463281,-0.16560587,3984,0,0.7381517,0.7788558,-7.913945,3984
4387893282,-0.1084955,0.08204996,-0.046931937,3984,0,-0.7909314,1.380735,-12.418586,3984
4387937281,0.1701016,0.09425598,-0.07127766,3993,0,1.7609792,1.7788479,-9.140208,3993
4387977282,0.021472994,0.10632669,-0.10279805,3994,0,0.19352642,1.6793239,-7.1832333,3994
4388021294,0.29111183,0.15377921,0.15913814,4013,0,-0.17832027,-0.72521764,-11.781427,4013
4388061281,0.15444155,0.25489408,0.02192299,3958,0,0.1588818,0.64033556,-10.371162,3958
4388105281,0.07558949,-0.019496717,-0.08794053,4000,0,3.0362213,-0.46466345,-4.7899656,4000
4388145319,-0.0051952265,0.16245611,-0.031254243,4038,0,1.7434442,0.058096766,-11.086275,4038
4388186100,-0.2242769,0.056096744,-0.018818576,4017,0,-1.153398,0.61454946,-9.397035,4017
4388230100,0.22078696,0.07364489,0.011407246,4018,0,0.11327238,1.270463,-9.625399,4018
4388270081,-0.06263882,-0.04634327,0.014058886,3963,0,0.7267002,2.4166255,-8.017576,3963
4388314081,0.021360306,-0.02603,-0.035348453,4000,0,-0.2736376,0.4575377,-11.51121,4000
4388354088,-0.089991316,0.103196956,-0.046982013,4007,0,-1.9443566,2.213662,-10.272965,4007
4388398081,-0.16925143,0.055312075,-0.0578461,3975,0,0.98618364,-1.2535913,-8.6312,3975
4388438081,0.01981792,-0.16211355,-0.06826654,3993,0,-0.2757279,-1.4383788,-10.431758,3993
4388478882,0.08912446,0.05261888,0.009166761,3984,0,-1.7639666,-1.2287577,-16.250471,3984
4388518893,-0.19320232,0.105034225,-0.017859956,4010,0,0.25187534,-1.0422525,-6.53583,4010
4388562881,-0.039775394,-0.028870054,0.011778326,3993,0,-0.8754404,-1.1345584,-9.740877,3993
4388602926,-0.10286544,-0.07149271,-0.012024613,4045,0,0.6281451,0.08305719,-8.505933,4045
4388646881,0.09431845,0.0072076875,-0.08729768,3962,0,0.3223178,1.9858704,-6.886614,3962
4388687682,-0.2321975,0.24329524,-0.16017188,4000,0,1.7848665,1.7940613,-6.745925,4000
4388731681,-0.24886176,0.13478278,-0.09352849,4000,0,0.39002797,-1.3730925,-11.240966,4000
4388771683,-0.22952075,0.13391499,-0.153466,4002,0,-1.7336621,-0.26296523,-8.493545,4002
4388815688,-0.021111254,0.1075526,0.06487886,4007,0,0.61627096,1.2490184,-9.221896,4007
4388855688,0.15673226,0.26134467,0.026822632,3988,0,-0.102197185,-1.5318352,-13.018262,3988
4388899681,-0.24925426,-0.0735516,-0.063982956,4000,0,-0.4937378,-0.0868206,-12.373197,4000
4388939692,-0.047040742,-0.093146116,0.006541874,4011,0,1.9235204,-2.1972501,-8.567682,4011
4388980494,0.018997023,-0.10288094,0.0600014,4013,0,1.0922242,0.1493083,-11.711111,4013
4389024484,-0.10883086,0.033389717,-0.21232145,3984,0,1.1214676,1.8613255,-7.860399,3984
4389064481,-0.22709256,0.21320342,-0.14460038,3995,0,-0.08924399,1.0180573,-9.281369,3995
4389104481,-0.1874309,0.104888014,-0.21388726,3975,0,-1.4973979,-1.5621759,-9.936649,3975
4389148500,-0.0802203,-0.06254826,-0.08721174,4012,0,1.6273893,-0.021272535,-7.2658134,4012
4389189282,0.251941,-0.025362948,0.17091255,4000,0,2.4479902,1.6791141,-8.345252,4000
4389229284,-0.14924093,0.17045312,-0.11841299,3996,0,0.54357016,1.4822307,-9.288721,3996
4389273288,0.078893274,0.07341861,0.09869471,3986,0,-0.13995536,1.3454775,-12.65287,3986
4389313295,0.12637265,-0.1307664,0.123304814,4009,0,0.2435988,0.61544293,-9.8641205,4009
4389357281,0.033936974,-0.024228012,-0.07949432,4000,0,-1.0657775,-0.75353724,-11.469211,4000
4389397327,0.3387324,-0.09688544,0.090672895,4045,0,1.0739139,-1.8821597,-10.511354,4045
4389438081,0.103102334,-0.08450067,-0.025739301,4798,0,2.221789,0.7739869,-9.045869,4798
4389478081,-0.052834727,-0.035285767,0.06908503,4000,0,1.676178,0.7366346,-9.680283,4000
4389522081,-0.08178571,-0.012019208,-0.03962943,3977,0,0.19744214,0.19557944,-10.373533,3977
4389562081,0.30373985,-0.015526557,-0.0038099797,3974,0,-1.3725353,-1.902567,-14.313864,3974
4389606094,-0.056093503,0.06920512,-0.16851234,4011,0,-2.0696387,-0.10011571,-8.916452,4011
4389646088,0.05782461,0.018462695,-0.19128004,4007,0,0.6403597,-2.0790884,-6.2276306,4007
4389690082,0.13962361,-0.18304169,0.03445273,3961,0,0.78229636,-0.84863114,-6.542122,3961
4389730882,0.0006027423,-0.2123232,-0.13558404,4001,0,2.7494783,1.113579,-5.794174,4001
4389774881,0.12581903,-0.28878254,0.16843887,4000,0,0.5308561,2.1059616,-8.601874,4000
4389818882,0.22001512,-0.02517621,-0.04456293,3998,0,1.3693014,0.07849577,-7.690098,3998
4389862888,0.0790382,-0.17474802,0.008109303,4006,0,0.817435,-1.8374404,-8.56744,4006
4389906881,0.06543967,-0.12064117,0.13033359,3963,0,-1.6401657,0.45674583,-10.686168,3963
4389946882,-0.082147695,0.12549244,-0.023923872,4001,0,0.89014095,1.5108728,-8.4634495,4001
4389987682,-0.26648682,0.039122976,-0.050507065,4000,0,0.8432509,0.884286,-9.143358,4000
4390027681,-0.057597857,-0.053589825,0.08881554,4000,0,1.5761921,2.0028925,-9.423532,4000
4390071683,-0.16489826,-0.11161424,-0.07372277,3996,0,0.28296062,1.6697742,-8.364781,3996
4390111692,-0.026213212,0.04047136,-0.049434334,4004,0,-1.080025,0.09282279,-11.943081,4004
4390155681,-0.05257231,0.16996343,-0.027783984,4000,0,-0.18881288,-1.1806347,-10.8690815,4000
4390195682,0.28942278,0.076757185,0.049343966,4001,0,-1.01382,-1.6298802,-12.406373,4001
4390240518,-0.14410539,-0.1733466,-0.12483284,4032,0,-0.452095,0.88985294,-8.174251,4032
4390280481,-0.22435418,-0.14439794,-0.1495814,4000,0,-0.32279626,-1.5662514,-8.999529,4000
4390320485,-0.12533104,-0.03015988,-0.060571,4001,0,0.8271417,0.12742326,-8.397581,4001
4390360481,0.09332396,0.106198326,0.03353133,4000,0,1.6934471,-0.947033,-9.582785,4000
4390404481,0.080594644,0.061656106,0.08786079,4000,0,-0.15833795,0.24075806,-8.921712,4000
4390444481,0.1535331,0.25078985,0.010877365,3988,0,0.41915646,1.5242007,-10.185303,3988
4390489295,0.4071992,0.08364015,0.116089486,4013,0,2.5988796,-1.1548297,-9.971497,4013
4390533281,-0.13468936,-0.019012887,-0.15894873,3993,0,0.947032,-1.4360958,-9.521556,3993
4390573293,0.15196466,0.017314646,0.051674057,4006,0,0.54814416,-1.4196615,-9.386932,4006
4390617281,-0.24438713,-0.094583586,-0.10488837,3994,0,-1.4950254,-0.24193573,-8.048709,3994
4390657295,0.19851047,-0.001128838,-0.012751245,4007,0,-1.2959979,-0.32187647,-9.05718,4007
4390701281,0.1160208,-0.12579538,-0.10288571,4000,0,-0.27647516,-0.6104105,-7.9365897,4000
4390742108,0.07970034,-0.23226188,-0.06070297,4027,0,1.0240422,0.51861197,-6.0850606,4027
4390786087,-0.12585373,-0.14670514,-0.16745949,4006,0,-0.6880419,-2.05032,-9.22207,4006
4390826093,0.23505484,-0.078807734,0.0024867842,4010,0,0.13074808,-0.8769911,-11.728336,4010
4390870080,-0.13164668,-0.0426708,-0.12757838,3999,0,2.3642201,-0.3182861,-6.318305,3999
4390914081,-0.030330887,-0.2557009,0.07369197,4000,0,0.8033249,-0.28335783,-10.157452,4000
4390958082,-0.024970613,-0.2466127,0.11024579,4000,0,-1.5648214,1.3176216,-13.520741,4000
4391002090,-0.091424994,0.0019683412,-0.10248565,3961,0,0.25473496,1.919509,-9.067409,3961
4391042894,0.23607172,0.001828419,0.13828468,3980,0,0.8568598,0.24360093,-14.610737,3980
4391086881,-0.21462111,-0.016156549,-0.06477813,3993,0,0.29918018,0.63941085,-10.175642,3993
4391126881,-0.14295363,0.072777115,-0.06368894,3998,0,-2.116867,-1.3538136,-12.472784,3998
4391170881,-0.2818395,0.022392485,-0.04367675,4000,0,0.5615862,0.7409274,-8.712134,4000
4391210882,-0.17199998,-0.21434851,-0.09548837,3950,0,0.33836722,-0.25121596,-7.9681787,3950
4391255681,-0.009394742,-0.08954068,0.0958937,4799,0,-2.3710961,1.4337608,-12.026122,4799
4391299722,-0.03550011,0.1568717,-0.047312353,4037,0,-0.25079465,0.64790124,-9.453123,4037
4391339688,0.052660428,0.062354796,0.012237939,4007,0,0.53477407,0.9671421,-9.510314,4007
4391383682,-0.28323498,0.041495577,-0.16536391,3997,0,0.6222281,0.9872254,-7.777948,3997
4391423681,-0.3849603,-0.057567842,-0.08505194,4000,0,0.056741465,-0.011666408,-11.6345625,4000
4391467688,-0.07485313,0.22502735,0.1622947,4000,0,0.5999422,2.523693,-11.604754,4000
4391507681,0.15080237,0.10030599,0.13279669,3993,0,-0.8613828,1.5229808,-11.301859,3993
4391552481,-0.06028403,0.10535145,-0.050511856,3988,0,-1.974653,0.8230858,-9.9017515,3988
4391592481,0.14857426,-0.029640662,0.029529836,3997,0,-2.148184,0.91960955,-13.922035,3997
4391636484,-0.01532012,0.14478247,-0.10385207,4003,0,-1.6005348,2.2237577,-8.221626,4003
4391676481,-0.06959568,0.04536823,-0.0760653,4000,0,-0.56931984,1.0119535,-10.8480835,4000
4391720488,0.28609994,0.00506992,0.2673928,4001,0,0.9473804,-0.082981646,-15.077703,4001
4391761282,0.10573474,0.032706887,0.1739852,4000,0,-1.4580595,-2.0258164,-15.069121,4000
4391805329,-0.042332333,0.07228585,-0.011344404,4041,0,-2.3518002,0.3086616,-12.792962,4041
4391845281,-0.01673266,0.07192514,-0.07897095,3992,0,-0.09866079,-1.5556293,-8.300663,3992
4391889283,0.029512541,-0.2741423,0.037617087,4002,0,-1.0695696,-1.799698,-13.374149,4002
4391933298,-0.21068925,-0.2677541,-0.012279724,4017,0,1.3068087,1.5376387,-7.7977443,4017
4391973296,-0.102624394,-0.15167673,0.02213776,4015,0,0.8461273,1.5223674,-8.922021,4015
4392017288,-0.3150584,-0.29022607,-0.08770244,4006,0,-0.10932748,-0.60074794,-10.306871,4006
4392058087,0.013627331,-0.10581404,0.05636105,4806,0,-1.2066098,0.57944363,-11.13402,4806
4392102126,-0.2448482,-0.2163416,-0.058207408,4045,0,0.8514372,-1.979151,-5.7087255,4045
4392142116,0.15899424,0.07600963,0.06075993,4035,0,1.230538,-0.81019753,-11.2046585,4035
4392186081,-0.043382246,0.027101269,0.057561632,3969,0,3.540615,0.60433996,-5.981011,3969
4392226081,-0.3275917,0.26370463,-0.10135505,3994,0,3.0269766,1.0046388,-5.377669,3994
4392270095,-0.5795207,0.08890971,-0.13971634,4013,0,1.455616,0.22904907,-8.576119,4013
4392310090,-0.48033115,0.04364654,-0.10787781,4009,0,0.137166,2.0790753,-6.547244,4009
4392350896,-0.31841922,0.09000364,-0.23554115,4015,0,0.25410157,2.456872,-8.550218,4015
4392390908,-0.07797307,0.19289328,0.00969875,4019,0,0.3887332,0.17746194,-13.0652485,4019
4392430881,0.08275484,-0.11404334,0.18417233,3999,0,1.6822802,0.08321635,-8.304049,3999
4392470898,0.035786718,0.0050673424,0.0277972,4016,0,3.2144663,-0.5217915,-7.0096717,4016
4392514881,-0.08412838,-0.17048717,-0.0731603,3993,0,0.008794224,0.16404599,-9.704358,3993
4392555682,-0.0968914,0.22345474,-0.0935451,4000,0,1.1644125,0.6769041,-11.153763,4000
4392599716,-0.06974601,0.25790888,-0.0854104,4035,0,2.1562788,0.44490004,-7.5172653,4035
4392643698,0.11278043,0.022531396,0.026780305,3991,0,-0.6568896,0.47528607,-11.287813,3991
4392683687,-0.19771756,0.03721546,-0.05216307,4006,0,-0.8203343,2.0941236,-9.435133,4006
4392727715,0.2039434,0.27947053,0.09453787,4030,0,0.17630573,0.6520294,-10.923218,4030
4392767703,-0.022819629,0.09099638,0.10421506,4022,0,0.05791711,2.3263538,-8.455168,4022
4392812499,0.062277477,-0.23106652,-0.0133610135,4001,0,2.2283654,-0.32123607,-6.848685,4001
4392856481,0.11416493,-0.060301255,0.11841394,4000,0,-0.8551097,-1.1042085,-10.439367,4000
4392900493,-0.23670076,0.041214492,-0.06604552,4009,0,0.6138765,-2.375253,-9.600574,4009
4392940488,0.19761752,0.07211038,0.07325889,3994,0,2.3857386,-1.4940794,-8.212081,3994
4392984484,-0.12401944,-0.13116874,-0.057828154,3987,0,1.7387365,-1.1672591,-7.0250034,3987
4393024484,-0.16015388,-0.07712979,-0.08215877,3991,0,1.8910402,-1.8947662,-7.3857923,3991
4393065288,0.19716989,-0.037827287,0.14394456,4007,0,1.7967634,-1.3518057,-11.666055,4007
4393109282,-0.10147181,-0.01070081,-0.042892076,3994,0,-0.63976437,-0.32406563,-15.014422,3994
4393149284,-0.14580934,-0.18002741,0.07105607,3961,0,-1.277802,-1.4090827,-12.169769,3961
4393193281,-0.1706719,-0.004841366,0.0530524,4000,0,-1.8398762,2.1281044,-10.322434,4000
4393233286,-0.09612813,-0.19438781,-0.025873557,3999,0,-2.5537748,2.2339573,-9.508718,3999
4393277281,0.33686185,-0.031266507,0.01563778,4000,0,0.84349895,1.242562,-8.427501,4000
4393317284,0.037110344,-0.007474387,-0.12205366,3981,0,1.452571,4.008947,-7.4525337,3981
4393362088,0.11447853,-0.43105912,-0.07987935,4007,0,1.3587981,-1.0116024,-9.010833,4007
4393402088,0.20765941,-0.13106377,-0.058794092,4007,0,2.5277736,-1.212839,-10.898852,4007
4393446085,0.10818893,-0.21779297,-0.1146657,4004,0,3.3309586,-1.3361168,-7.379685,4004
4393486081,0.38417277,-0.15525518,-0.02831478,3998,0,2.962245,-0.02723625,-7.898307,3998
4393530120,-0.0147313615,-0.25500783,-0.13351673,4032,0,-0.8577173,-0.6330106,-7.758959,4032
4393570081,0.21326831,-0.18771605,0.050509997,4000,0,-0.76922476,0.53121483,-11.109631,4000
4393614882,0.083745584,-0.08291562,-0.005668433,4001,0,-1.3149129,-0.7497446,-8.223313,4001
4393658888,-0.02814768,0.13737914,-0.12519091,3969,0,-3.0155973,-2.1276293,-12.775062,3969
4393698882,0.29733473,-0.22820191,0.056173675,4001,0,-2.7797058,-0.15789232,-15.519072,4001
4393742882,0.1869355,-0.023696342,0.04909824,4001,0,-2.5328143,1.2787313,-14.654958,4001
4393782888,0.033649873,0.03640652,-0.08929093,4006,0,-3.0750782,0.6551307,-10.538725,4006
4393826881,0.104940586,0.0011718689,0.046951488,3993,0,-1.1174114,0.6923257,-13.62984,3993
4393867681,-0.001173349,-0.092927024,-0.038057882,3993,0,-1.7864089,-0.9758872,-13.236657,3993
4393911690,0.051545803,0.013293762,0.05672519,4009,0,-0.7806405,1.6982913,-12.041086,4009
4393951681,-0.07686653,8.049718e-05,-0.1358264,4000,0,0.29274115,0.33425087,-9.505495,4000
4393995682,-0.012399404,-0.1898095,-0.023946032,4000,0,0.38892058,0.9210376,-10.273753,4000
4394035681,-0.09085955,-0.37028086,0.024964014,3999,0,0.1761681,-1.9959844,-13.515954,3999
4394079688,0.008644619,-0.17437933,0.03602853,4006,0,-1.9613008,0.60180795,-14.128159,4006
4394120528,-0.010672557,-0.18300733,0.06524696,4043,0,2.321998,1.4858458,-6.799218,4043
4394160484,-0.0021282942,0.19533792,-0.1937819,4003,0,0.2595897,1.1203134,-9.074943,4003
4394200496,0.051834505,-0.024281364,-0.043889545,4013,0,0.11918704,3.4912212,-10.412139,4013
4394244488,0.058631152,0.15273681,-0.036083736,4004,0,-1.201797,0.80267715,-12.460712,4004
4394284484,0.0033525417,0.017519115,-0.00464968,4000,0,-2.4567392,0.4410337,-12.422939,4000
4394328485,0.11279605,0.29395267,-0.035312574,4004,0,0.10409677,-0.2676538,-10.781415,4004
4394369290,0.37237987,0.14482258,0.16700128,4008,0,0.46534875,1.8945715,-8.52972,4008
4394409336,-0.21676978,0.2621299,-0.1742657,4055,0,-0.1379136,3.2897103,-7.377184,4055
4394453281,-0.0032848716,0.3867298,-0.03210577,3994,0,-1.1622443,2.6741815,-11.036864,3994
4394497288,-0.05661179,0.31172916,-0.17462453,4000,0,-0.14234619,1.678946,-8.471807,4000
4394541289,0.11961164,0.32602674,-0.17669946,4008,0,0.6715961,0.71755433,-6.6521406,4008
4394581281,-0.21704715,0.21254627,-0.012648898,3998,0,1.8106711,1.9248462,-7.9131837,3998
4394622129,-0.07126103,0.44158477,-0.084198,4048,0,-0.5229122,2.2906237,-10.931598,4048
4394662081,0.03907981,0.039815005,0.09580503,3999,0,-1.4787052,2.6685355,-12.679564,3999
4394706113,0.098379254,0.12948504,0.13405047,4032,0,-0.109001815,2.7320416,-10.977195,4032
4394746108,-0.028976468,0.07677289,-0.08525169,4027,0,-1.241124,0.8728832,-12.241281,4027
4394790082,0.046107028,-0.008616129,-0.058429033,4001,0,-1.6109288,0.6055719,-13.785716,4001
4394830088,-0.10518349,-0.20216447,0.086906075,3996,0,1.6537566,-0.07849413,-9.638656,3996
4394874111,-0.020105978,-0.15347818,0.14039566,4023,0,-0.29514423,0.29990086,-11.972777,4023
4394914903,-0.14191398,-0.10809922,-0.066403605,4010,0,0.70195585,-2.1925032,-12.147262,4010
4394954888,-0.028388249,-0.08324692,-0.077518225,4007,0,0.94417566,0.5357364,-6.6067767,4007
4394998896,0.041974813,0.059390068,-0.08214886,4012,0,1.6281857,-0.73709047,-5.5327153,4012
4395038895,0.2091863,0.0044601257,-0.077308476,4007,0,1.0251055,0.7329754,-11.0013,4007
4395082912,0.28668785,-0.23155342,0.059565008,4031,0,0.23029362,-1.5311534,-10.358071,4031
4395122901,-0.06565534,0.0586341,-0.09637377,4020,0,0.1256562,2.0348268,-8.56662,4020
4395167688,0.045214817,0.003831706,0.0035079943,3969,0,0.8158461,0.54557264,-6.5848475,3969
4395207682,-0.14714944,0.28570637,-0.21331131,3973,0,-0.7424583,0.02986876,-7.89135,3973
4395251681,-0.09570681,0.1720332,-0.14123552,3985,0,1.0728035,-1.1493953,-8.396047,3985
4395291699,-0.016563417,-0.24287538,0.044241026,4018,0,0.42257327,1.8242232,-6.5281086,4018
4395335681,-0.042870473,0.033685643,0.06130853,3995,0,-2.096926,1.4553638,-8.715311,3995
4395375682,-0.11114566,-0.078331366,-0.11950294,4001,0,-2.7089055,-0.9612946,-13.603822,4001
4395420484,-0.0010227915,0.05749574,0.013340025,3986,0,-0.92245615,0.37628853,-12.356493,3986
4395460481,-0.07388743,0.19789636,-0.11204678,3994,0,-0.1763387,-0.05397777,-8.508423,3994
4395504481,0.16761579,0.18404013,0.06711237,3994,0,0.7572141,-1.2023733,-13.936816,3994
4395544485,0.013961376,-0.027778476,0.02076502,3974,0,-1.4937662,-1.6328756,-7.549338,3974
4395584498,0.017721899,-0.06121887,-0.0687764,3978,0,-0.5773595,0.8855126,-8.523868,3978
4395628484,0.093802206,0.0700319,0.04853749,4000,0,-2.576576,1.4043441,-9.585845,4000
4395669288,-0.12765925,0.09658739,-0.09921994,4007,0,0.19995137,0.7352348,-6.443467,4007
4395713293,0.1945549,0.05024571,0.04155438,4012,0,0.74185485,0.058362518,-8.783804,4012
4395753290,-0.04422335,0.004246046,-0.053431038,3987,0,2.6317275,1.1365154,-5.531098,3987
4395797292,0.20962062,0.10504505,0.103899814,3987,0,0.9322013,-0.040774032,-8.939388,3987
4395837287,-0.000720221,0.2956431,-0.14997554,4006,0,-0.5074017,-0.53506434,-7.9357076,4006
4395881281,0.18284298,0.14581655,-0.02397335,3992,0,-0.010919475,0.1447209,-8.747216,3992
4395921284,0.13799931,0.08695358,-0.048395287,3948,0,-0.31251758,1.5838752,-9.171454,3948
4395962081,0.11004185,0.13243726,0.019138625,3993,0,0.48155552,0.45440257,-9.864915,3993
4396006084,-0.10000046,-0.21981144,-0.102168575,3997,0,2.594849,-0.46294466,-6.7595525,3997
4396050088,-0.2887011,-0.24670857,-0.116045006,4007,0,0.3232365,-1.1485237,-7.38364,4007
4396094081,-0.12046744,-0.2806487,0.0040142415,3999,0,-2.1957822,-0.32349718,-11.047017,3999
4396138081,-0.034469865,-0.21507862,0.12629235,3961,0,-0.77330554,1.2715287,-10.095305,3961
4396178886,-0.15951714,-0.2836176,-0.061983977,4005,0,0.29713243,-0.28019157,-9.511395,4005
4396218882,-0.16812721,-0.27807373,-0.039458815,3995,0,0.6629608,-1.3826454,-8.703912,3995
4396262882,-0.1988784,-0.3359913,-0.047512274,4000,0,-2.2166917,-1.2249742,-11.579731,4000
4396302882,-0.056768917,-0.4384868,0.09849617,4001,0,0.2991038,0.033425212,-7.82274,4001
4396346882,0.048891515,0.09707763,-0.033098917,4001,0,-0.5218964,-0.33309087,-6.8286724,4001
4396386881,0.1532549,-0.16564558,0.048395395,4000,0,0.6577068,0.5301144,-8.310572,4000
4396431682,-0.08915098,-0.0030447957,-0.019509764,4000,0,-2.5841224,-2.4386067,-11.683545,4000
4396471688,-0.06813305,0.06906361,0.029465776,4007,0,-1.8118708,-0.39132455,-10.744068,4007
4396515682,-0.04878746,0.017722772,0.090021566,3994,0,0.5183919,3.1059656,-7.2716455,3994
4396555681,-0.2348294,0.08353431,0.01705364,4000,0,1.3817133,4.819003,-6.641989,4000
4396599695,0.08658871,-0.124457344,-0.009400654,4013,0,-0.6200791,0.55932176,-9.458979,4013
4396639682,-0.10779702,-0.06821228,-0.08649692,3994,0,0.31604195,-0.2335019,-9.626393,3994
4396680484,-0.26508865,0.06372968,-0.0695033,3993,0,0.3077043,2.0803,-9.508858,3993
4396724526,0.16215724,-0.18478961,0.025018115,4041,0,-0.82052505,3.4513872,-8.730656,4041
4396764481,0.10357558,-0.15953602,0.012579397,3997,0,0.5600134,3.4226437,-9.376396,3997
4396808485,0.11020315,0.050667513,-0.044175226,4004,0,-3.7352324,-1.5920908,-13.687583,4004
4396848484,0.056883182,0.11688464,-0.05775527,4003,0,-3.8706975,-0.31252313,-11.997405,4003
4396892489,0.0035506603,0.15959914,-0.038141757,3994,0,1.9550219,-1.9139285,-5.2639747,3994
4396932488,-0.112789795,-0.087989256,0.030311,4007,0,1.7933869,-0.5293826,-7.63786,4007
4396977284,0.33921117,-0.11291096,-0.018507957,3996,0,-1.6670616,-0.08402692,-10.122779,3996
4397017282,0.34140202,-0.4700666,0.034614436,3988,0,-1.4693445,-0.8745991,-9.908344,3988
4397061296,0.1804203,-0.09599205,-0.0023147077,4014,0,-4.4118967,1.3818592,-12.211727,4014
4397101305,0.35161716,-0.14278616,-0.042367443,3993,0,-4.543418,1.5772121,-10.269389,3993
4397145321,0.4074223,-0.15406498,0.033232495,4039,0,1.7296555,-3.559626,-9.868554,4039
4397185281,0.37789285,-0.22397137,0.068534926,3997,0,-0.57647526,-3.2371304,-12.666489,3997
4397230098,0.31629214,-0.1062545,0.028990256,4010,0,2.292983,2.7200937,-9.1169405,4010
4397270096,0.5949713,-0.12193204,0.070925094,4014,0,1.526218,1.8511862,-9.699724,4014
4397314081,0.32563066,-0.4581405,0.041811768,3969,0,0.77882254,-3.4063225,-11.047342,3969
4397354087,0.052161127,-0.32763776,-0.012573324,4006,0,2.6957135,-0.18078963,-7.9612346,4006
4397398095,0.07688716,-0.23462343,-0.008427135,4007,0,-2.548925,1.5221143,-9.391161,4007
4397442081,0.21611267,-0.07574286,-0.03431223,3994,0,3.5790303,-0.71677315,-4.621779,3994
4397482881,0.13038415,-0.21210805,0.04930306,3956,0,1.6601002,-3.4624345,-8.546651,3956
4397526881,-0.12627624,-0.18409762,-0.023478568,4000,0,-1.2832242,0.97886187,-11.834354,4000
4397566881,0.073021166,-0.2788211,0.040270627,3999,0,-1.5339185,-0.079959765,-14.359161,3999
4397610896,-0.15185824,0.022334384,-0.06264919,4008,0,-1.0944598,2.0230155,-10.720111,4008
4397650888,0.09412953,0.25811997,0.046454083,3994,0,0.079003535,-0.12912942,-12.315012,3994
4397694881,-0.13890043,0.048969615,0.031255748,4000,0,2.9309745,-0.18797699,-11.485673,4000
4397735684,-0.16740909,0.13201575,0.031362418,3995,0,-0.9325915,1.2621255,-13.067007,3995
4397779681,0.23438254,0.16820118,0.067313045,3998,0,2.1889713,2.7660499,-9.667538,3998
4397819682,-0.09430418,0.2264105,-0.029134965,3991,0,1.0302128,3.4278011,-9.037751,3991
4397863685,0.084727146,0.2798097,-0.07472627,4003,0,-0.26102552,0.7007397,-12.237731,4003
4397907688,0.015964055,0.16452834,-0.058720946,4007,0,2.900048,-0.31090158,-8.960239,4007
4397947681,0.23554316,0.38097087,0.04397304,4000,0,1.4207157,0.6784576,-12.04101,4000
4397992482,0.2540004,0.105373174,0.03610384,3998,0,2.360968,-1.1334139,-11.842948,3998
4398032483,0.04371504,0.119681455,0.11410946,4001,0,1.2850969,0.73039913,-10.657221,4001
4398076485,0.14970128,0.16272779,0.19733927,3997,0,0.57677835,1.4682897,-10.959335,3997
4398116522,-0.045597266,0.31270647,-0.027373334,4033,0,-0.76218784,0.2022323,-10.369885,4033
4398160484,0.18222074,0.13865593,0.0852834,4003,0,1.5545994,0.12973747,-9.531269,4003
4398200481,0.005346544,0.22888069,0.055302262,3990,0,2.400493,0.97002935,-7.052806,3990
4398245341,0.19247004,-0.04750553,0.19119161,4060,0,0.9835406,-0.40469083,-7.779222,4060
4398289281,-0.038900595,-0.04738654,0.059214357,4000,0,-1.0677567,-1.4824196,-9.844582,4000
4398329290,0.027244605,-0.13682538,0.029967124,4009,0,-0.10504437,1.4600434,-8.248639,4009
4398373290,0.061225723,-0.15022501,0.056482676,4003,0,0.5563872,1.8457625,-6.9962373,4003
4398413289,-0.17082863,0.023931928,-0.13281287,4008,0,0.7958291,1.6510041,-7.794766,4008
4398457281,0.3460149,-0.040067166,0.14639021,4000,0,0.7717992,1.6654708,-11.244693,4000
4398497298,-0.10676102,0.055009,0.05702009,4010,0,0.93135923,2.6052554,-9.845687,4010
4398542081,0.07528502,0.17272702,0.114945516,4000,0,1.2208265,0.9259012,-12.052329,4000
4398582122,0.03862974,0.12444607,0.093804784,4040,0,-3.0002038,1.5100179,-11.872074,4040
4398626088,-0.1429688,0.16604741,-0.07370606,4007,0,-1.4640392,2.0979195,-8.812798,4007
4398666081,-0.08048146,0.067380086,-0.024369009,4000,0,-1.7261548,-0.40047,-10.9459715,4000
4398710106,0.22047505,0.09341943,0.06674096,4025,0,-1.551401,-1.2715052,-13.592182,4025
4398750882,-0.011329092,-0.19019814,0.16515602,4000,0,-0.11813599,0.33813924,-9.365087,4000
4398794881,-0.0928998,0.07314615,-0.011571405,3972,0,-1.6596282,-1.6655887,-13.682976,3972
4398834881,-0.10295184,0.057038117,-0.011517895,3991,0,-0.14542641,0.11329777,-8.306758,3991
4398878882,-0.07453093,0.17257561,0.09856341,4001,0,-0.3209408,0.47551072,-9.335823,4001
4398922920,-0.05782983,-0.004559201,0.012703542,4021,0,0.06644603,-1.8954537,-13.439354,4021
4398962882,-0.015506068,-0.15742125,0.02949492,3990,0,2.2147412,-1.8699661,-6.9486656,3990
4399007682,-0.07630979,0.09510112,0.09276029,4000,0,-1.3251389,-3.0026476,-12.452153,4000
4399047688,-0.083722934,-0.07284483,0.035739347,4001,0,0.25062546,-0.5480249,-7.470108,4001
4399091682,0.13198124,0.061574493,0.16566674,3994,0,1.6620859,-0.27750432,-9.204883,3994
4399131681,0.33424222,0.015659982,0.21300484,3963,0,2.660863,0.40911996,-10.012432,3963
4399175681,0.028505089,0.06885194,0.031791594,4000,0,-0.1063679,-1.376345,-9.720646,4000
4399215681,0.17097378,0.19445354,0.10681799,3991,0,0.15856856,-0.49868235,-11.287693,3991
4399255682,-0.2915507,0.09864441,-0.029560572,3998,0,0.24229942,0.36922574,-9.312354,3998
4399300481,0.07904071,0.24070054,0.09120645,3997,0,2.054316,2.0023012,-10.9714985,3997
4399340485,-0.04896745,0.12379266,0.21644482,4004,0,1.0236785,1.3281847,-10.669212,4004
4399384481,-0.06264842,0.059910398,0.076462016,3995,0,-2.4414742,1.3584421,-13.82122,3995
4399424481,0.046099007,-0.056898016,0.20184013,3987,0,-1.4686389,-1.5494806,-13.8476305,3987
4399468488,-0.0817559,-0.034283075,-0.033853978,4006,0,-0.9836052,-0.6754293,-12.660299,4006
4399508495,-0.16949314,-0.062460043,-0.014065937,3995,0,1.3412688,0.87754554,-5.495914,3995
4399549281,0.11213661,0.058331303,-0.014422205,4000,0,2.095797,0.33328137,-8.9742365,4000
4399589284,-0.24778594,0.13881923,-0.06837856,3962,0,1.8242462,1.6242169,-5.459328,3962
4399629281,0.25846112,0.26812536,-0.0882483,3961,0,-0.7882922,-1.190129,-13.695298,3961
4399669281,-0.0066923895,0.025346426,-0.018311158,3928,0,-0.0883707,1.8078249,-6.835457,3928
4399713281,0.04162108,-0.047888163,-0.028668474,4000,0,0.55727357,-0.8664662,-9.468759,4000
4399757284,0.20383644,0.039429355,0.018461397,3987,0,-1.7372766,-0.3760536,-11.302201,3987
4399797287,0.100282945,0.146738,0.10659252,4007,0,-0.9276093,2.009107,-11.867295,4007
4399838088,0.09081011,0.1619087,0.1452121,3985,0,-1.911185,2.1521306,-13.817761,3985
4399882081,-0.060885943,0.3283657,-0.18032086,3993,0,0.93014354,1.3655362,-8.701486,3993
4399922081,-0.03883032,0.05198934,-0.05964789,4000,0,-1.0635707,-0.690078,-10.930067,4000
4399966081,0.032426175,-0.07642022,0.054303348,4000,0,-2.6494398,-0.33337405,-11.694009,4000
4400006082,0.103172876,-0.15799254,0.07925046,3961,0,1.5775976,-0.012983929,-6.6981907,3961
4400050881,-0.245553,-0.16340917,-0.18755141,4000,0,-0.9045089,-1.5023221,-5.2421947,4000
4400090882,-0.04601789,0.067521065,-0.22913976,4001,0,0.98884904,0.7694507,-8.922519,4001
4400134888,0.096622944,0.10298904,0.019442605,4007,0,1.4082191,1.4892856,-7.367971,4007
4400178882,0.085569076,-0.20999375,-0.0258366,4000,0,2.4820747,-0.24697661,-7.738431,4000
4400218881,-0.29039657,-0.071276054,-0.14456233,4000,0,1.6622194,2.5863802,-6.729881,4000
4400262914,0.13735841,0.1618257,0.07379023,4011,0,-1.9310814,2.592204,-12.438906,4011
4400303682,-0.01979052,-0.097612254,0.1594717,3990,0,-1.3153896,3.0109766,-13.251211,3990
4400347681,-0.11644104,0.008534136,-0.0011446291,3999,0,2.2992659,3.2192721,-7.7994633,3999
4400387683,-0.017316425,0.05289902,-0.045244157,4002,0,-0.38820058,-0.61538,-12.384997,4002
4400431681,0.093704455,-0.10816808,0.02529725,4000,0,-2.29297,-0.13279107,-14.838705,4000
4400471682,0.2776859,-0.19884633,0.14070544,4001,0,0.29093114,0.20080109,-9.135025,4001
4400515688,-0.16044731,-0.24592337,-0.13074249,4006,0,-1.2058976,-1.2666177,-6.502041,4006
4400556487,-0.34159636,-0.063862786,-0.31639922,4005,0,-0.06341767,1.0905797,-6.1237774,4005
4400600495,0.022919485,0.10870322,-0.032663245,4007,0,0.8568178,1.4469194,-6.2957063,4007
4400644481,-0.064094745,0.1276447,-0.12662078,4000,0,-0.39359337,-1.4355408,-9.424324,4000
4400684481,0.14021823,-0.25290096,0.09450655,4000,0,-0.5593841,0.5670377,-12.83366,4000
4400724481,-0.06650776,-0.18132538,-0.009884139,3953,0,1.6536982,-0.41169488,-9.392247,3953
4400768489,0.05687525,0.035163336,-0.05886622,4008,0,-0.92472905,0.8510212,-8.773738,4008
4400808495,-0.27976137,0.048910856,-0.048748173,4009,0,-0.82135415,1.6295046,-9.377273,4009
4400849284,0.014804889,0.11850071,0.017848108,4003,0,-2.7805429,0.21070042,-11.640493,4003
4400893281,-0.046443734,-0.1467321,-0.027107857,4000,0,-0.51756996,0.74087876,-10.421906,4000
4400933284,0.13350108,-0.20763698,0.11674803,4003,0,2.9194694,-0.5055156,-7.478994,4003
4400977288,-0.034167543,-0.20509945,0.0564594,4007,0,-0.26472136,-0.56400245,-7.7353296,4007
4401017290,-0.31080723,0.117509335,-0.17455524,4009,0,0.6195621,0.77518034,-7.520493,4009
4401061281,0.1957541,0.13927637,0.09201948,4000,0,2.1516635,1.8788989,-9.529838,4000
4401102081,-0.13548292,-0.037959877,0.027044296,4000,0,0.99740547,3.4927943,-7.944334,4000
4401146124,-0.07458267,0.21132798,0.0021834173,4043,0,-2.0322354,1.1192231,-12.569549,4043
4401186117,0.08213831,-0.107298836,0.030081727,4028,0,-1.8306769,-0.72050077,-11.518805,4028
4401226081,-0.1902529,-0.04305677,-0.0694038,4000,0,-0.52317274,-1.6134198,-10.585094,4000
4401266081,0.032995947,-0.012738842,0.0485656,4000,0,0.79015964,1.620697,-7.607729,4000
4401310882,-0.05250579,-0.07872378,0.0044408864,4000,0,1.8546535,1.11144,-3.9558413,4000
4401350881,0.06705714,0.06438479,-0.10266861,3993,0,0.9518461,-1.6777167,-8.173837,3993
4401394893,0.036407072,0.08584728,0.050233398,4012,0,-0.31033418,-1.7073638,-10.113752,4012
4401434881,0.2565894,0.14960714,0.17137346,4000,0,1.5588192,-0.48287305,-10.287115,4000
4401478887,-0.05268234,-0.20332025,0.016745698,4006,0,3.0564759,-0.75174797,-6.6998997,4006
4401518881,0.09929753,-0.041143533,-0.0017703805,4000,0,2.4159591,1.2910529,-7.1526127,4000
4401559682,-0.15539515,0.09727078,-0.24468304,4000,0,-0.7210032,0.14874686,-10.794583,4000
4401599686,-0.23507582,-0.03890261,-0.08076048,4004,0,-1.2429961,1.2261856,-8.569935,4004
4401643707,0.22593565,0.14846028,0.17882381,4026,0,2.1821444,1.2116351,-9.475578,4026
4401683681,0.058774423,0.060714535,0.15192199,4000,0,2.2602203,3.5206497,-8.645219,4000
4401727681,0.19092572,0.042000566,-0.04565305,3999,0,0.45302102,0.6466128,-8.734572,3999
4401771686,0.04203001,0.034274265,0.17090477,3998,0,1.6195598,-0.54639924,-8.987845,3998
4401812537,-0.049307004,-0.118343,-0.050447203,4055,0,2.772584,-1.5841261,-6.4770923,4055
4401856481,-0.004137437,-0.2679223,0.102019034,3995,0,-0.20224024,-0.4615809,-11.757312,3995
4401896520,0.050420634,-0.21148458,0.13109864,4036,0,-1.3167989,-0.23835663,-13.387813,4036
4401940481,-0.007848204,0.0070807617,-0.13083762,3997,0,-0.5124129,-1.3210654,-10.954391,3997
4401980507,0.04333307,-0.11488142,-0.02753852,4026,0,0.37868068,-0.6722285,-8.588396,4026
4402024488,0.01942562,-0.12750676,0.008796154,3966,0,-0.9949226,-1.0293126,-12.006493,3966
4402064488,-0.04960136,-0.32911298,0.031794768,3992,0,-1.0076586,-1.0186696,-12.566737,3992
4402108514,0.41311002,-0.0062277312,0.085404865,4033,0,-1.1533958,1.9345915,-12.754145,4033
4402153281,-0.11328619,-0.07820118,-0.09895227,4000,0,1.1025996,-0.22305366,-10.372731,4000
4402193330,0.2639848,-0.19486457,0.00092790864,4032,0,-1.8472961,-0.17412396,-15.034156,4032
4402233288,0.15572599,-0.060547046,-0.020940172,3984,0,-1.1233047,-1.3395588,-10.424229,3984
4402273281,0.10040493,-0.026597314,0.010707919,3992,0,2.437277,0.5922095,-7.745526,3992
4402313281,-0.20267484,-0.19314972,-0.1499666,4000,0,1.06854,0.8815409,-5.242192,4000
4402357283,-0.28328112,-0.04319432,-0.11258573,3997,0,-1.0393244,-0.8077727,-8.2741165,3997
4402398096,-0.035919692,-0.11485232,-0.28979614,4014,0,0.9243597,-0.96638584,-7.2372804,4014
4402438129,0.14472152,-0.14585687,0.14946789,4041,0,2.565467,1.1394405,-10.19701,4041
4402482081,0.05936166,-0.14946932,-0.070754826,3958,0,1.5845747,-0.3443699,-8.300773,3958
4402522081,-0.033078853,0.029971069,0.16038409,3999,0,-0.63181025,0.51040363,-13.1824875,3999
4402566114,0.12193534,0.10750328,0.1944057,4033,0,0.6595004,1.843431,-10.297103,4033
4402606881,-0.05080401,-0.051137548,-0.105916984,4757,0,1.4688666,-1.6443428,-7.367034,4757
4402650882,-0.4191145,-0.15762442,-0.10807999,3968,0,0.2830852,-1.0385634,-6.9030957,3968
4402690888,0.06848313,0.37679222,0.025516175,3990,0,1.0786413,2.0908604,-9.62361,3990
4402734881,-0.17779474,0.051247038,0.099389255,4000,0,0.35762402,2.6025467,-11.782425,4000
4402774898,0.056395825,0.08370459,-0.060986407,4017,0,-0.305303,-3.008132,-10.097466,4017
4402818881,-0.086246334,-0.06288747,0.101440884,3953,0,-0.6304393,-1.5146112,-11.727916,3953
4402858883,-0.0624444,0.19651026,-0.25088415,3996,0,1.6581461,-0.77967507,-6.245695,3996
4402903681,-0.055527475,0.027781185,-0.07420697,4000,0,3.5346062,0.09287783,-5.953618,4000
4402947688,0.012950599,0.2483576,0.0405809,4007,0,0.34646997,1.1255224,-11.141876,4007
4402987687,-0.3719591,-0.10934513,-0.24091591,4006,0,0.43453175,-0.3616779,-5.73725,4006
4403027690,-0.019260954,0.06145269,-0.022291414,3988,0,-1.7269182,-1.3277591,-11.354351,3988
4403071681,0.060881373,0.075247616,0.0044917874,4000,0,0.027959658,-0.4054231,-9.180279,4000
4403115681,-0.13176522,0.05773134,-0.45268464,3992,0,0.9786012,-2.5878205,-4.7929697,3992
4403156482,0.29646105,0.23515657,0.010156138,3994,0,-0.13101293,0.68413085,-11.680497,3994
4403200497,-0.40509894,-0.03112463,-0.25171363,4013,0,-0.26425457,1.2124459,-4.4990697,4013
4403240481,-0.13547683,-0.07798852,-0.05612014,4000,0,-0.0966435,2.1121755,-9.324938,4000
4403284481,-0.34364876,-0.14060612,-0.083221085,3992,0,-0.22012274,-0.4078505,-9.250649,3992
4403324481,-0.31240335,-0.04108915,-0.05779956,3999,0,-2.084944,-1.1955911,-10.999452,3999
4403368491,-0.40778574,-0.021406455,-0.21202725,3999,0,-0.12410139,-3.3578506,-10.930013,3999
4403408527,-0.094242744,-0.1787147,-0.15763651,4044,0,-0.0009768074,-1.6296,-5.267566,4044
4403453284,0.20614253,-0.00776612,0.113827705,4003,0,0.05320171,-1.1575719,-10.820887,4003
4403493284,0.052538138,-0.040760666,0.07761888,4003,0,0.8841799,1.3003141,-11.033014,4003
4403537283,-0.1170131,-0.11348411,0.031555,3995,0,0.5394831,3.0836158,-9.258897,3995
4403577281,0.16399138,0.009870387,0.11262231,3991,0,-1.1571423,1.7865908,-15.981845,3991
4403617281,-0.18764006,-0.04848573,-0.0064501395,3997,0,0.8205329,-1.8915492,-9.535788,3997
4403657281,-0.06869029,0.0005999197,-0.17458895,3999,0,1.1229444,-0.51253086,-7.267684,3999
4403698081,-0.1412019,-0.39684048,0.024127651,3961,0,-0.5714734,1.6075041,-9.427208,3961
4403742081,0.03029612,-0.19724296,0.05918006,3994,0,1.0637133,0.73885053,-12.316807,3994
4403782081,-0.2723036,-0.3182628,-0.0059702103,3988,0,1.9337224,0.5738669,-7.766164,3988
4403826081,-0.16457346,-0.16771728,-0.0169027,4000,0,0.5316703,1.2334491,-10.3594055,4000
4403866081,-0.47678247,-0.00984988,-0.13564894,4000,0,0.50266993,-0.5003617,-9.772508,4000
4403906881,-0.22249791,-0.2781333,-0.066352844,4793,0,-1.4023868,0.72318596,-9.522512,4793
4403946882,-0.32571483,-0.15533291,-0.16427201,3994,0,-0.116584264,-0.50360197,-9.374229,3994
4403990881,-0.32127488,-0.13314162,-0.15836443,4000,0,-0.63333094,0.5697235,-6.7145567,4000
4404030882,-0.23215179,-0.0053303214,-0.102615416,4001,0,-0.87992096,0.99974173,-12.238157,4001
4404074881,-0.03914457,0.09827874,-0.049618576,4000,0,-1.1836778,3.8432853,-10.568456,4000
4404114882,-0.10947047,0.014257564,0.18015872,4001,0,-0.5559192,2.804411,-11.943101,4001
4404159682,-0.22260205,-0.22402251,0.010031666,4001,0,1.6737832,2.135522,-9.399173,4001
4404199688,-0.3493649,-0.12275304,-0.25299895,4006,0,1.1466991,-0.24671933,-9.19133,4006
4404243681,-0.060358897,0.01653478,-0.008502879,3993,0,-1.4084033,0.3952989,-11.716757,3993
4404283681,0.15434533,-0.042036988,-0.012506844,3986,0,-1.6622901,-1.3900825,-8.966621,3986
4404327681,0.11087386,-0.0077025304,-0.008446611,3991,0,-0.24994713,-0.7600345,-7.412398,3991
4404367681,-0.003932585,0.08808454,-0.099727765,3991,0,-0.092222124,-0.556455,-10.295968,3991
4404408497,0.30177894,0.054187234,0.081578456,4005,0,-1.2144103,1.1708319,-12.672274,4005
4404448485,0.08938994,0.050962955,0.11488285,3999,0,-2.0020564,1.0728273,-12.851365,3999
4404492481,0.038138293,0.046516538,-0.1711008,3985,0,-1.7102752,0.24795392,-9.63402,3985
4404532484,0.15599021,0.061389886,0.06839102,3997,0,1.6814439,2.0406451,-8.31746,3997
4404576482,0.22410835,0.2770107,-0.017395165,4001,0,2.3899589,-0.967904,-8.871939,4001
4404616488,0.063803285,0.3851223,0.04737474,4006,0,0.9733765,0.2564126,-10.242195,4006
4404656499,0.0037035013,0.034534622,0.11102849,4018,0,-1.197093,0.13431108,-10.155983,4018
4404701281,0.028571682,0.14895463,0.055093993,4798,0,-1.7290417,0.69830257,-12.822664,4798
4404741284,0.101777285,-0.043386426,0.17417873,4003,0,-1.0310515,0.95959324,-11.482379,4003
4404785288,-0.10981352,-0.17551456,0.0041998005,4006,0,-0.07846006,0.9420145,-9.871797,4006
4404825292,-0.14033447,-0.052784868,-0.22372493,4011,0,1.3161323,-0.41099367,-9.392317,4011
4404865281,-0.07226566,-0.16728643,-0.10450069,4000,0,1.0848597,-0.697908,-10.026196,4000
4404909287,-0.16487323,-0.26992714,0.13909338,4006,0,1.0540025,0.10677096,-9.653854,4006
4404950082,0.028754594,-0.0027269586,-0.057970002,4000,0,1.0380113,-3.004634,-8.183033,4000
4404990087,0.16819358,-0.10148659,-0.18554257,4006,0,-0.50528705,-0.5521609,-6.790654,4006
4405034081,0.082302496,-0.14760627,0.048292536,3993,0,1.831275,-0.54921764,-7.682061,3993
4405074082,-0.39706534,-0.12296409,-0.15072478,4001,0,-0.35911986,3.579554,-5.350789,4001
4405118081,-0.016830564,-0.0732168,-0.10658018,4000,0,-0.28410122,1.8036042,-9.791347,4000
4405158081,0.07148943,-0.2657591,0.19651069,3993,0,-0.48960802,2.53576,-12.831837,3993
4405202884,-0.07563327,-0.032354195,-0.08843245,3988,0,-0.4528975,1.146386,-8.681127,3988
4405246887,0.17990628,0.14237984,0.067875974,3993,0,0.9104444,1.9625205,-11.147842,3993
4405286888,-0.20242745,-0.015977275,-0.13336653,4007,0,0.65943336,-1.2418181,-10.130082,4007
4405330929,-0.24944025,0.09650216,-0.06999263,4048,0,0.040975038,0.08983901,-10.80209,4048
4405370881,-0.009114336,0.1229677,-0.093272895,4000,0,0.25801528,-1.6182247,-10.615081,4000
4405414881,-0.023459323,0.20693906,-0.09175123,3988,0,-1.1064832,0.97536635,-10.575559,3988
4405455683,0.24482736,0.26092786,0.15702963,3998,0,-1.3380414,0.9621051,-12.890184,3998
4405499708,0.06934186,0.15185569,-0.29627654,4027,0,-1.1404479,-1.0685848,-8.848864,4027
4405539681,-0.048253324,0.06358661,-0.11712625,4000,0,-0.8424528,0.15504459,-10.637885,4000
4405583682,0.16934024,0.14252467,-0.033667605,4000,0,-0.95159054,-1.0670274,-11.683023,4000
4405623681,0.24834466,0.10193879,0.13453703,4000,0,-0.24317814,1.3139639,-12.7934675,4000
4405667688,0.012566532,0.09436537,-0.24161841,4007,0,0.32944524,0.6845608,-7.9330025,4007
4405707688,-0.10365175,-0.03058012,-0.009877489,4007,0,-0.17611094,1.3343109,-11.950013,4007
4405752487,0.23053668,0.011444524,0.11619288,4000,0,-0.6263194,0.9544957,-12.7271595,4000
4405796484,0.17265932,0.07197484,0.0686199,4003,0,-0.0383005,0.06937457,-11.827738,4003
4405836529,0.018261177,-0.084657244,0.0558467,4042,0,0.028719606,1.3299637,-8.267508,4042
4405880531,-0.026487961,-0.10601716,-0.039911475,4030,0,1.0436298,0.06322382,-7.029934,4030
4405920497,-0.12226441,0.1303465,-0.15989491,4016,0,1.390428,1.34765,-8.008919,4016
4405964530,-0.06933613,0.17356624,-0.17067006,4049,0,1.28746,1.1956098,-6.4752426,4049
4406005290,0.11647692,0.006490295,0.013906482,4005,0,1.141641,0.011877925,-11.607297,4005
4406049283,0.24801508,-0.13171282,0.18992692,3963,0,-0.7443413,-0.17663254,-14.085711,3963
4406089281,0.0845973,0.048958622,0.102884196,3988,0,0.8509514,1.6010777,-7.6190557,3988
4406133301,0.03338484,0.1493102,0.11072629,4013,0,0.9075807,0.06279876,-8.688691,4013
4406173282,0.23295839,0.21665445,0.15627299,3992,0,-1.0402743,0.7630231,-11.715389,3992
4406217282,0.08677037,0.09911189,0.06567595,3956,0,-0.06584772,1.2113354,-10.328816,3956
4406258081,-0.18361776,0.16041826,-0.06406223,3967,0,-1.7512057,0.5829992,-9.822892,3967
4406302081,-0.4601565,0.001416767,-0.20661344,4000,0,-0.12561762,-0.32257888,-7.9745026,4000
4406346081,-0.21699153,0.098489285,-0.04344724,4000,0,0.1267607,3.0531955,-8.903323,4000
4406386088,-0.0910409,0.07453243,-0.053351115,3994,0,1.0441777,-0.13080788,-10.546048,3994
4406430081,0.037395775,0.050411973,0.12910354,3993,0,0.18666154,1.4390366,-12.576194,3993
4406470882,-0.079824574,-0.010909612,-0.04212639,3993,0,-1.49816,-1.4206928,-11.786852,3993
4406514881,0.25141662,0.12905066,0.114747375,4000,0,-2.9310796,0.7379543,-15.98877,4000
4406554881,0.089263424,-0.012226344,0.06633511,3999,0,-2.1722243,-0.20487502,-9.549567,3999
4406598882,0.14777029,0.22948347,0.11597765,3999,0,-0.5450173,-1.2906457,-11.30014,3999
4406638882,0.43806186,0.08606006,0.17980857,4000,0,0.7787489,-1.6726981,-8.25918,4000
4406682888,-0.034449253,0.02428309,-0.02991844,4007,0,3.2390742,-2.6462011,-7.72712,4007
4406722881,0.24552639,0.13806276,-0.06991154,3999,0,1.0946132,-1.929743,-6.0690084,3999
4406767681,0.0069699953,-0.005072857,-0.07728556,3999,0,-1.4385065,-1.5830718,-9.252328,3999
4406807681,0.09089523,-0.21800256,-0.09165179,4000,0,-1.3247228,0.99139476,-5.60814,4000
4406847687,0.19404835,-0.06947784,-0.09069356,4006,0,0.7565191,0.5463775,-9.768345,4006
4406887688,-0.05098956,-0.0125029115,-0.037454445,4007,0,0.09840236,1.6804602,-8.116782,4007
4406931681,-0.17637773,0.109197475,-0.08642342,4000,0,0.1549071,-0.8464192,-7.810287,4000
4406972482,-0.031113628,0.17295913,0.11199309,3989,0,0.2808014,0.859228,-12.191619,3989
4407012484,0.038704008,0.13954948,0.11327127,3999,0,-1.047638,-1.6664747,-13.652206,3999
4407052488,-0.21582994,-0.17167993,-0.016098628,4004,0,-0.7173901,-1.5471826,-8.395661,4004
4407096485,0.14042833,0.101990245,0.17427243,3994,0,-2.651736,0.96726847,-14.140791,3994
4407140488,0.14271972,-0.11922471,0.0949154,4003,0,-2.2085087,1.827996,-12.052019,4003
4407180481,0.009215906,-0.1010954,0.20374839,3980,0,0.49065816,0.87149215,-11.822056,3980
4407224517,-0.054759752,-0.19166765,-0.030757574,4036,0,-1.0605907,-1.1906208,-13.260053,4036
4407264484,-0.18085681,-0.094497345,0.10589216,4001,0,-1.3747938,-1.0769457,-12.4699135,4001
4407305281,-0.10376419,-0.077577025,0.15837279,4000,0,-0.33822396,-2.7098298,-12.375648,4000
4407345284,0.17477658,-0.02510831,0.20445694,4003,0,0.046917908,-1.0255494,-11.037879,4003
4407389281,-0.45504543,-0.033446126,-0.24112281,4000,0,-0.8654469,-1.2741194,-8.747765,4000
4407429283,-0.20276436,0.08936649,-0.16442093,4002,0,0.8916363,-1.1224155,-9.092573,4002
4407473288,-0.09660938,-0.024132932,0.053598158,4007,0,-1.1408296,-0.5112128,-11.217453,4007
4407513284,0.14641261,-0.05121942,0.03588877,4003,0,-0.98064387,-1.1011411,-11.9735155,4003
4407558082,0.20444146,0.03407929,0.097900905,4001,0,0.46043262,-1.0188181,-11.3017845,4001
4407598081,0.15241797,-0.02117373,0.11484568,3999,0,-1.6137085,-0.8347426,-13.552072,3999
4407642082,-0.14048181,-0.021367365,-0.12703672,3994,0,-0.9091734,1.7115631,-11.057629,3994
4407682081,-0.05418852,0.02912057,-0.12796679,3993,0,-1.1479081,0.5671173,-10.797458,3993
4407726081,0.0019777063,-0.052990917,0.026857654,4000,0,0.67245966,0.83266985,-9.554093,4000
4407766081,0.15906245,-0.20353706,0.050129678,4000,0,-1.5283508,1.7201701,-11.272519,4000
4407806881,0.19855943,-0.13311347,0.05860035,3978,0,-1.1856346,1.2787836,-13.964265,3978
4407850881,-0.24084657,-0.16109186,-0.17537232,3995,0,-1.5134156,1.4283038,-7.911445,3995
4407890881,-0.26766905,-0.17204529,-0.18527189,4000,0,-0.4920112,-0.47034463,-8.815085,4000
4407934888,0.01311615,0.13956718,0.1982015,4007,0,-1.3190374,2.0665073,-13.960528,4007
4407974881,0.041807596,0.005696406,0.122361,3999,0,-3.1762462,1.0141121,-15.163605,3999
4408015682,-0.16633505,-0.10243158,0.046229675,4000,0,-1.7484754,0.40685382,-12.672718,4000
4408055682,-0.09110207,-0.03784911,-0.021139339,4001,0,-1.17484,-0.99577934,-12.057538,4001
4408099688,0.09363759,-0.05407978,0.11511875,4003,0,-0.3906573,1.5291501,-13.957528,4003
4408139681,-0.085278116,-0.030614015,0.015180055,4000,0,-1.9911429,-0.28424194,-12.809537,4000
4408183682,0.09556023,0.04027774,-0.07072592,3993,0,-1.4357657,-1.2681823,-13.958224,3993
4408223694,-0.09628823,-0.21703611,-0.08529785,4013,0,-1.7381775,0.07399385,-7.9955134,4013
4408267683,0.15962245,-0.052377645,0.045450155,3994,0,-2.2986164,-0.32483643,-10.566821,3994
4408307681,0.033113215,-0.24056569,0.051917866,4000,0,0.102957726,-0.6239081,-8.976819,4000
4408348484,-0.15286443,-0.20986305,-0.17451619,3989,0,0.94960445,0.5345837,-4.884057,3989
4408388493,-0.007902623,-0.00093697297,-0.17836668,4009,0,0.8516581,-1.1732963,-9.033713,4009
4408432481,0.028530307,-0.13644144,-0.02432836,3973,0,1.1998894,0.26397905,-8.540101,3973
4408472481,0.0609811,0.15299442,-0.11055081,3945,0,1.5860767,-1.6071231,-7.88172,3945
4408516483,0.09806435,0.18471317,-0.041974004,4002,0,1.3391502,-1.4504178,-8.686691,4002
4408557282,0.3585925,0.26938054,0.12481343,4000,0,-1.5502232,0.8305219,-13.030645,4000
4408601281,0.13775425,-0.027242227,-0.13196415,4000,0,0.2324663,-0.2879669,-8.551769,4000
4408641281,-0.011015703,0.016569022,-0.044021323,4000,0,1.0259545,1.477572,-9.45364,4000
4408685288,0.0749767,0.18079093,-0.20250666,4007,0,0.08335221,0.30237514,-8.266457,4007
4408725288,-0.109607674,0.02536649,-0.060145967,4007,0,-0.57126385,3.0516925,-7.6668587,4007
4408769281,0.0065098973,0.19518857,-0.0063065276,4000,0,-1.3244245,1.3700264,-8.835357,4000
4408810084,0.06730174,-0.033860035,0.13943724,4003,0,-1.7112331,1.145788,-13.751032,4003
4408850081,-0.22724167,-0.0319989,-0.16414025,4000,0,-1.1397588,-1.1972781,-8.8649235,4000
4408890088,-0.07789812,-0.060471013,-0.1669277,4007,0,0.19693285,-3.9277072,-7.3583727,4007
4408934081,0.07390634,-0.018812867,0.028369144,3994,0,-1.5349072,-2.9262543,-11.281317,3994
4408974081,0.23186935,0.072198294,-0.05279829,4000,0,-0.5484797,-0.9645969,-7.8174396,4000
4409018082,0.07215933,0.10235492,0.01052973,4001,0,-0.901613,-0.39419824,-9.222188,4001
4409058087,0.15356116,0.047125686,0.04350194,3999,0,-1.3534693,1.9300673,-11.772321,3999
4409098881,-0.044469584,0.10042473,0.06998791,3994,0,1.114247,2.101321,-11.443236,3994
4409142881,0.13376684,0.14443702,0.053591583,4000,0,0.9178348,0.5316694,-12.013504,4000
4409182882,-0.102033876,0.08408392,0.11336968,4000,0,-1.6780964,2.0455186,-10.772395,4000
4409226886,-0.11227951,0.14387394,-0.034250192,4004,0,0.9198322,2.1447148,-8.572171,4004
4409266882,-0.096751966,-0.12019252,0.020475872,4001,0,-0.21717387,0.5244187,-9.862059,4001
4409311682,-0.35681832,-0.1374428,-0.10413508,4000,0,0.9580963,0.37323275,-6.141216,4000
4409355708,-0.19484495,-0.089614116,0.10775157,4020,0,-0.20044413,0.95411307,-10.496479,4020
4409399682,-0.34820828,0.04531444,0.032177687,4000,0,0.91876596,3.0720034,-9.719815,4000
4409443694,-0.23658904,0.08617519,0.041786462,4013,0,2.1767802,3.5134802,-8.27405,4013
4409483726,-0.22882818,0.09108946,-0.076237395,4045,0,-1.2817885,0.588829,-10.311377,4045
4409527682,0.070280634,0.07703155,0.13397951,4000,0,-0.8119488,1.8599421,-11.959478,4000
4409567688,0.050169777,0.014351594,0.004002874,4007,0,-0.51711446,-0.25680876,-10.740025,4007
4409608489,-0.07510031,-0.13537805,-0.073164,4003,0,1.4154629,-1.1421773,-7.6776247,4003
4409648499,0.094819516,0.16125798,-0.14566474,4016,0,1.3735803,2.1562483,-7.9094434,4016
4409692509,0.35825017,0.042630803,0.00944934,4025,0,0.5102215,1.2670746,-9.968645,4025
4409732508,-0.08767772,0.029073346,0.08395621,4027,0,-0.34568048,3.5343113,-9.175943,4027
4409776486,0.042420972,0.17067589,0.096124135,3998,0,-1.0720608,3.5641448,-10.683891,3998
4409816482,0.049465746,0.0507059,0.0034038583,3986,0,-0.6010006,1.5838541,-11.845107,3986
4409860493,-0.06658393,0.24085452,-0.09928209,4011,0,-0.24893448,-0.2385376,-11.703811,4011
4409901286,0.18484403,0.32926944,0.008710548,4005,0,-1.5070744,-1.1370779,-13.100274,4005
4409945281,0.10219459,0.42471576,-0.12364664,3993,0,-0.66095656,-2.11449,-12.76043,3993
4409985282,0.26093653,0.09519681,0.14246766,4000,0,-0.545411,2.0918257,-8.369736,4000
4410029292,0.14402686,0.05236731,0.08469455,4011,0,-0.6219561,-0.16040362,-8.913423,4011
4410069336,0.08483875,-0.018394446,0.1106308,4043,0,0.8560377,0.43025815,-9.432226,4043
4410113281,0.34671,-0.0063007,0.17027538,3964,0,1.2088865,-0.25852835,-11.176572,3964
4410154082,-0.25254166,0.1160321,-0.18032816,3963,0,0.3687137,2.3888218,-6.4423137,3963
4410194103,-0.0058244346,0.079664595,0.0048110625,3995,0,-0.98050773,0.8258662,-12.993768,3995
4410234095,0.21415046,0.049115807,0.2034719,4014,0,-0.78276885,-1.5429207,-15.124493,4014
4410278104,0.046731688,0.051118735,-0.033347428,4023,0,-0.5631976,-0.8632962,-16.63021,4023
4410322081,-0.14432037,-0.03732899,-0.14444137,3998,0,-0.8317919,2.6799667,-11.100527,3998
4410362882,-0.30710715,-0.06447052,-0.065854944,3948,0,-1.1941315,1.3119063,-11.04782,3948
4410406882,-0.26263654,-0.17729652,-0.108043544,4001,0,-1.0726384,1.6001092,-10.617441,4001
4410446881,-0.23049423,-0.12151929,-0.11375976,3999,0,1.8444395,0.747882,-5.22437,3999
4410490888,-0.16170877,-0.04203449,0.1540272,4004,0,1.884899,-0.86250067,-8.243259,4004
4410530881,0.14067616,-0.05386464,0.059276883,3967,0,0.71784306,-2.2926865,-8.2530365,3967
4410575681,-0.24899328,-0.2744413,0.02106973,4800,0,1.2706465,-1.1513201,-8.55775,4800
4410619681,-0.24097121,-0.18565722,0.04415478,4000,0,-1.3804438,-0.2586287,-11.211468,4000
4410659695,-0.04891248,-0.3538693,0.03366167,4007,0,-1.4376025,-0.6007954,-8.874256,4007
4410703681,0.07495785,-0.12432333,0.0893529,3961,0,-1.8316131,-1.1632309,-11.58629,3961
4410743681,0.20060071,-0.19000939,0.16907397,4000,0,0.62466764,0.18674874,-9.251547,4000
4410787702,0.2609115,-0.17558712,0.04817713,4021,0,0.7620808,-1.1307486,-7.952541,4021
4410827681,-0.26969776,-0.12906213,-0.04225903,3998,0,-0.033395786,3.6023629,-6.161045,3998
4410872504,0.15691365,-0.043396786,0.10875561,4823,0,0.8211026,0.9433577,-8.972293,4823
4410912488,-0.092498094,0.053505637,0.075827844,4007,0,0.6669008,2.336651,-8.92125,4007
4410956482,-0.33951613,-0.08457834,-0.10065844,3992,0,1.0412107,2.8679912,-7.062955,3992
4410996481,-0.15943503,0.01842385,0.031181859,4000,0,-0.28689197,0.5608175,-12.678596,4000
4411040481,-0.19699383,0.12900467,-0.072951846,3997,0,-1.5710871,2.7137609,-11.2936,3997
4411080481,-0.16433844,0.0028928043,-0.06844734,3986,0,-2.0623496,0.9324477,-12.234852,3986
4411124481,-0.011665031,0.10255428,0.038977083,3996,0,-2.2433708,1.5919333,-12.305417,3996
4411165281,-0.07310304,-0.10281555,-0.012439284,3997,0,-1.0923135,-0.9111315,-10.40408,3997
4411209294,0.120162204,0.0661518,0.16892415,4011,0,0.8258765,-0.18174513,-11.724998,4011
4411249281,0.17117651,0.20115459,0.06828406,4000,0,-0.14359942,-1.8911216,-9.609484,4000
4411293285,-0.091706835,-0.15114726,-0.025828222,3994,0,-0.71814847,-1.6917661,-10.539342,3994
4411333296,0.042123567,-0.17343329,-0.089299254,4010,0,1.0673434,-2.1813834,-9.746271,4010
4411373288,0.31299198,-0.09976256,0.14406896,4007,0,2.490073,-0.5806653,-9.002806,4007
4411414088,0.15326251,0.01982251,0.060933974,4007,0,0.50084084,1.4238203,-9.765078,4007
4411454081,-0.17751166,0.06135301,0.05042566,4000,0,-0.8982603,1.9653809,-12.84699,4000
4411498081,-0.31048268,0.035948947,-0.21138394,4000,0,-1.2043177,3.2456448,-9.698725,4000
4411538088,-0.28897423,0.024394616,-0.033904184,4007,0,0.033910945,2.520276,-11.014819,4007
4411582082,-0.03172456,0.41726214,0.062447734,3994,0,-0.44871008,1.4640852,-10.507031,3994
4411622082,0.12142439,0.034933493,0.20116766,4001,0,-2.3529632,1.2372637,-12.486101,4001
4411662882,-0.03380038,0.08921683,-0.14969218,4000,0,-1.2469006,0.18278697,-8.16168,4000
4411702888,-0.042218104,0.093544275,-0.12817463,4007,0,0.82862437,-1.8882791,-9.9044895,4007
4411746881,0.21952409,0.14500631,0.0018616884,3993,0,0.86521,-2.115889,-11.774969,3993
4411786881,0.41980714,0.11597832,0.22029255,4000,0,0.19276291,1.5163852,-9.682558,4000
4411830890,0.124756806,-0.21971944,-0.12408254,3993,0,0.92850196,0.0248781,-6.6209245,3993
4411870882,-0.13667022,0.013344073,-0.06634787,3994,0,1.026932,1.1591716,-7.09564,3994
4411915682,-0.2686017,-0.10658778,0.017876001,3999,0,0.87943995,0.036109027,-8.445679,3999
4411955682,-0.27083907,-0.16918314,-0.12374661,4001,0,0.6173838,-1.3979774,-4.767197,4001
4411999688,0.2929431,-0.050560813,0.22577892,4007,0,0.11782563,-0.72039807,-9.136455,4007
4412043681,0.21615683,-0.06705022,-0.0097627975,4000,0,-0.8989423,-1.5550582,-9.463149,4000
4412087707,-0.10092762,-0.1246906,-0.07356629,4025,0,0.80377305,-0.7047251,-6.0983124,4025
4412131681,-0.08702836,-0.11705001,-0.016322577,4000,0,0.85523695,-0.82424235,-6.5594044,4000
4412172482,0.27751067,-0.30486998,-0.081208944,3950,0,1.6177382,0.2541377,-6.985778,3950
4412216481,0.41638863,-0.73617464,-0.04074623,3991,0,0.2926063,0.8596756,-8.242652,3991
4412256518,0.51036346,-0.90452766,-0.013906474,4037,0,3.3729985,0.22909492,-4.2793217,4037
4412300482,0.9919353,-0.6997101,0.19622943,3990,0,-0.37994754,-0.49716294,-9.093242,3990
4412340482,1.2927995,-1.0088284,0.19521765,3996,0,0.22785805,-0.72417533,-9.033829,3996
4412384484,0.7124267,-0.7737221,0.34472543,4003,0,0.6894271,1.3899841,-7.3264947,4003
4412428481,0.80125374,-0.59333605,0.48930132,3946,0,-1.3536149,-2.0030556,-10.804241,3946
4412469285,0.8819249,-0.35826895,0.6189074,3960,0,-2.3633115,1.4841373,-16.113253,3960
4412509281,0.4310315,-0.13276516,0.5564728,3964,0,-1.7494601,2.0059934,-14.048619,3964
4412557321,0.24652025,-0.24716944,0.57092404,4031,0,-0.2617877,2.1203434,-8.355669,4031
4412605288,0.05923337,0.07372823,0.6527542,4006,0,2.949938,0.69787604,-6.3839703,4006
4412653283,0.21423547,0.42983392,0.64581823,3998,0,-0.064042486,1.4083033,-7.564406,3998
4412694082,-0.042906173,0.35714078,0.55900085,4000,0,1.2147563,1.544549,-7.5188484,4000
4412738088,0.27103713,0.29119632,0.6665667,3972,0,1.1902813,-2.3503952,-10.221996,3972
