timestamp,noutputs,output[0],output[1],output[2],output[3],output[4],output[5],output[6],output[7],output[8],output[9],output[10],output[11],output[12],output[13],output[14],output[15]
4384781229,8,1470.0,1446.0,1431.0,1431.0,1449.0,1471.0,1487.0,1485.0,0.0,0.0,0.0,0.0,0.0,0.0,0.0,0.0
4384958025,8,1493.0,1463.0,1452.0,1448.0,1472.0,1492.0,1513.0,1507.0,0.0,0.0,0.0,0.0,0.0,0.0,0.0,0.0
4384982183,8,1491.0,1469.0,1451.0,1457.0,1473.0,1501.0,1513.0,1514.0,0.0,0.0,0.0,0.0,0.0,0.0,0.0,0.0
4385046164,8,1499.0,1479.0,1465.0,1467.0,1482.0,1504.0,1516.0,1515.0,0.0,0.0,0.0,0.0,0.0,0.0,0.0,0.0
4385086972,8,1523.0,1482.0,1475.0,1456.0,1486.0,1496.0,1533.0,1520.0,0.0,0.0,0.0,0.0,0.0,0.0,0.0,0.0
4385106981,8,1509.0,1497.0,1467.0,1475.0,1477.0,1511.0,1519.0,1534.0,0.0,0.0,0.0,0.0,0.0,0.0,0.0,0.0
4385171024,8,1516.0,1509.0,1464.0,1480.0,1476.0,1526.0,1528.0,1555.0,0.0,0.0,0.0,0.0,0.0,0.0,0.0,0.0
4385194937,8,1517.0,1482.0,1474.0,1477.0,1504.0,1534.0,1546.0,1541.0,0.0,0.0,0.0,0.0,0.0,0.0,0.0,0.0
4385258959,8,1530.0,1491.0,1479.0,1478.0,1512.0,1537.0,1562.0,1550.0,0.0,0.0,0.0,0.0,0.0,0.0,0.0,0.0
4385298962,8,1536.0,1503.0,1480.0,1484.0,1509.0,1543.0,1564.0,1563.0,0.0,0.0,0.0,0.0,0.0,0.0,0.0,0.0
4385339743,8,1539.0,1516.0,1494.0,1499.0,1514.0,1545.0,1559.0,1563.0,0.0,0.0,0.0,0.0,0.0,0.0,0.0,0.0
4385384030,8,1550.0,1519.0,1506.0,1500.0,1523.0,1544.0,1568.0,1563.0,0.0,0.0,0.0,0.0,0.0,0.0,0.0,0.0
4385423748,8,1552.0,1527.0,1511.0,1509.0,1527.0,1550.0,1568.0,1567.0,0.0,0.0,0.0,0.0,0.0,0.0,0.0,0.0
4385467622,8,1560.0,1533.0,1516.0,1513.0,1533.0,1557.0,1577.0,1576.0,0.0,0.0,0.0,0.0,0.0,0.0,0.0,0.0
4385492115,8,1567.0,1534.0,1519.0,1511.0,1535.0,1557.0,1583.0,1579.0,0.0,0.0,0.0,0.0,0.0,0.0,0.0,0.0
4385535751,8,1572.0,1538.0,1519.0,1515.0,1540.0,1568.0,1594.0,1591.0,0.0,0.0,0.0,0.0,0.0,0.0,0.0,0.0
4385579843,8,1572.0,1543.0,1526.0,1525.0,1548.0,1574.0,1594.0,1591.0,0.0,0.0,0.0,0.0,0.0,0.0,0.0,0.0
4385620599,8,1576.0,1558.0,1564.0,1552.0,1568.0,1563.0,1579.0,1568.0,0.0,0.0,0.0,0.0,0.0,0.0,0.0,0.0
4385668586,8,1577.0,1585.0,1618.0,1589.0,1583.0,1535.0,1542.0,1531.0,0.0,0.0,0.0,0.0,0.0,0.0,0.0,0.0
4385716593,8,1591.0,1612.0,1671.0,1618.0,1601.0,1512.0,1521.0,1505.0,0.0,0.0,0.0,0.0,0.0,0.0,0.0,0.0
4385764682,8,1591.0,1611.0,1664.0,1601.0,1578.0,1489.0,1505.0,1498.0,0.0,0.0,0.0,0.0,0.0,0.0,0.0,0.0
4385784659,8,1595.0,1590.0,1631.0,1562.0,1554.0,1482.0,1518.0,1510.0,0.0,0.0,0.0,0.0,0.0,0.0,0.0,0.0
4385828688,8,1591.0,1561.0,1582.0,1516.0,1527.0,1482.0,1535.0,1528.0,0.0,0.0,0.0,0.0,0.0,0.0,0.0,0.0
4385869463,8,1568.0,1538.0,1544.0,1491.0,1501.0,1477.0,1525.0,1525.0,0.0,0.0,0.0,0.0,0.0,0.0,0.0,0.0
4385913364,8,1541.0,1524.0,1547.0,1508.0,1519.0,1485.0,1514.0,1500.0,0.0,0.0,0.0,0.0,0.0,0.0,0.0,0.0
4385957378,8,1498.0,1479.0,1530.0,1497.0,1523.0,1469.0,1491.0,1451.0,0.0,0.0,0.0,0.0,0.0,0.0,0.0,0.0
4385997797,8,1498.0,1455.0,1506.0,1464.0,1510.0,1461.0,1502.0,1452.0,0.0,0.0,0.0,0.0,0.0,0.0,0.0,0.0
4386045403,8,1486.0,1444.0,1485.0,1447.0,1490.0,1451.0,1491.0,1448.0,0.0,0.0,0.0,0.0,0.0,0.0,0.0,0.0
4386085376,8,1475.0,1448.0,1473.0,1448.0,1476.0,1452.0,1479.0,1452.0,0.0,0.0,0.0,0.0,0.0,0.0,0.0,0.0
4386126192,8,1471.0,1447.0,1475.0,1449.0,1473.0,1444.0,1471.0,1445.0,0.0,0.0,0.0,0.0,0.0,0.0,0.0,0.0
4386166180,8,1474.0,1442.0,1475.0,1442.0,1474.0,1441.0,1474.0,1441.0,0.0,0.0,0.0,0.0,0.0,0.0,0.0,0.0
4386214504,8,1482.0,1441.0,1468.0,1431.0,1468.0,1441.0,1482.0,1451.0,0.0,0.0,0.0,0.0,0.0,0.0,0.0,0.0
4386258145,8,1498.0,1445.0,1464.0,1416.0,1456.0,1434.0,1490.0,1464.0,0.0,0.0,0.0,0.0,0.0,0.0,0.0,0.0
4386302230,8,1500.0,1449.0,1472.0,1423.0,1462.0,1436.0,1490.0,1462.0,0.0,0.0,0.0,0.0,0.0,0.0,0.0,0.0
4386346188,8,1504.0,1450.0,1471.0,1418.0,1458.0,1432.0,1491.0,1464.0,0.0,0.0,0.0,0.0,0.0,0.0,0.0,0.0
4386386986,8,1499.0,1444.0,1473.0,1423.0,1469.0,1438.0,1494.0,1460.0,0.0,0.0,0.0,0.0,0.0,0.0,0.0,0.0
4386427058,8,1494.0,1438.0,1472.0,1424.0,1474.0,1438.0,1493.0,1455.0,0.0,0.0,0.0,0.0,0.0,0.0,0.0,0.0
4386474962,8,1497.0,1441.0,1477.0,1425.0,1475.0,1437.0,1494.0,1453.0,0.0,0.0,0.0,0.0,0.0,0.0,0.0,0.0
4386498943,8,1498.0,1438.0,1481.0,1427.0,1482.0,1439.0,1498.0,1450.0,0.0,0.0,0.0,0.0,0.0,0.0,0.0,0.0
4386539276,8,1496.0,1437.0,1482.0,1429.0,1485.0,1441.0,1499.0,1449.0,0.0,0.0,0.0,0.0,0.0,0.0,0.0,0.0
4386582965,8,1498.0,1437.0,1483.0,1431.0,1489.0,1445.0,1503.0,1451.0,0.0,0.0,0.0,0.0,0.0,0.0,0.0,0.0
4386631804,8,1500.0,1437.0,1489.0,1432.0,1492.0,1442.0,1503.0,1447.0,0.0,0.0,0.0,0.0,0.0,0.0,0.0,0.0
4386675769,8,1506.0,1439.0,1488.0,1431.0,1494.0,1448.0,1512.0,1456.0,0.0,0.0,0.0,0.0,0.0,0.0,0.0,0.0
4386719915,8,1508.0,1438.0,1483.0,1425.0,1489.0,1448.0,1515.0,1461.0,0.0,0.0,0.0,0.0,0.0,0.0,0.0,0.0
4386763600,8,1511.0,1438.0,1483.0,1423.0,1489.0,1447.0,1517.0,1462.0,0.0,0.0,0.0,0.0,0.0,0.0,0.0,0.0
4386803873,8,1515.0,1443.0,1484.0,1422.0,1486.0,1444.0,1516.0,1465.0,0.0,0.0,0.0,0.0,0.0,0.0,0.0,0.0
4386844522,8,1523.0,1446.0,1489.0,1419.0,1484.0,1439.0,1518.0,1466.0,0.0,0.0,0.0,0.0,0.0,0.0,0.0,0.0
4386888585,8,1528.0,1444.0,1488.0,1411.0,1481.0,1433.0,1521.0,1467.0,0.0,0.0,0.0,0.0,0.0,0.0,0.0,0.0
4386932667,8,1534.0,1447.0,1495.0,1411.0,1483.0,1430.0,1523.0,1466.0,0.0,0.0,0.0,0.0,0.0,0.0,0.0,0.0
4386972876,8,1537.0,1445.0,1497.0,1407.0,1483.0,1426.0,1524.0,1464.0,0.0,0.0,0.0,0.0,0.0,0.0,0.0,0.0
4387016629,8,1536.0,1442.0,1494.0,1404.0,1482.0,1425.0,1524.0,1464.0,0.0,0.0,0.0,0.0,0.0,0.0,0.0,0.0
4387056627,8,1532.0,1441.0,1494.0,1406.0,1482.0,1425.0,1520.0,1460.0,0.0,0.0,0.0,0.0,0.0,0.0,0.0,0.0
4387100670,8,1535.0,1441.0,1496.0,1402.0,1481.0,1419.0,1520.0,1458.0,0.0,0.0,0.0,0.0,0.0,0.0,0.0,0.0
4387145362,8,1528.0,1441.0,1498.0,1410.0,1483.0,1421.0,1513.0,1452.0,0.0,0.0,0.0,0.0,0.0,0.0,0.0,0.0
4387169342,8,1525.0,1432.0,1494.0,1405.0,1487.0,1422.0,1519.0,1449.0,0.0,0.0,0.0,0.0,0.0,0.0,0.0,0.0
4387213360,8,1521.0,1431.0,1499.0,1414.0,1497.0,1428.0,1519.0,1445.0,0.0,0.0,0.0,0.0,0.0,0.0,0.0,0.0
4387257433,8,1523.0,1425.0,1493.0,1407.0,1496.0,1430.0,1526.0,1448.0,0.0,0.0,0.0,0.0,0.0,0.0,0.0,0.0
4387305340,8,1516.0,1428.0,1489.0,1413.0,1494.0,1436.0,1522.0,1451.0,0.0,0.0,0.0,0.0,0.0,0.0,0.0,0.0
4387353347,8,1522.0,1433.0,1488.0,1410.0,1490.0,1436.0,1524.0,1455.0,0.0,0.0,0.0,0.0,0.0,0.0,0.0,0.0
4387373344,8,1524.0,1431.0,1486.0,1406.0,1488.0,1435.0,1527.0,1460.0,0.0,0.0,0.0,0.0,0.0,0.0,0.0,0.0
4387418185,8,1519.0,1440.0,1489.0,1421.0,1492.0,1444.0,1522.0,1463.0,0.0,0.0,0.0,0.0,0.0,0.0,0.0,0.0
4387462521,8,1517.0,1442.0,1490.0,1425.0,1493.0,1446.0,1520.0,1463.0,0.0,0.0,0.0,0.0,0.0,0.0,0.0,0.0
4387510018,8,1517.0,1442.0,1493.0,1427.0,1496.0,1447.0,1521.0,1462.0,0.0,0.0,0.0,0.0,0.0,0.0,0.0,0.0
4387558155,8,1519.0,1444.0,1491.0,1425.0,1492.0,1445.0,1520.0,1465.0,0.0,0.0,0.0,0.0,0.0,0.0,0.0,0.0
4387602206,8,1523.0,1451.0,1497.0,1427.0,1490.0,1441.0,1516.0,1465.0,0.0,0.0,0.0,0.0,0.0,0.0,0.0,0.0
4387626202,8,1520.0,1452.0,1495.0,1429.0,1487.0,1442.0,1514.0,1467.0,0.0,0.0,0.0,0.0,0.0,0.0,0.0,0.0
4387666968,8,1521.0,1453.0,1496.0,1428.0,1486.0,1439.0,1511.0,1463.0,0.0,0.0,0.0,0.0,0.0,0.0,0.0,0.0
4387710961,8,1525.0,1454.0,1502.0,1431.0,1487.0,1436.0,1509.0,1462.0,0.0,0.0,0.0,0.0,0.0,0.0,0.0,0.0
4387750955,8,1529.0,1456.0,1507.0,1427.0,1486.0,1428.0,1508.0,1457.0,0.0,0.0,0.0,0.0,0.0,0.0,0.0,0.0
4387798931,8,1528.0,1457.0,1505.0,1425.0,1483.0,1426.0,1506.0,1458.0,0.0,0.0,0.0,0.0,0.0,0.0,0.0,0.0
4387842921,8,1532.0,1456.0,1508.0,1421.0,1482.0,1420.0,1507.0,1456.0,0.0,0.0,0.0,0.0,0.0,0.0,0.0,0.0
4387883709,8,1535.0,1451.0,1509.0,1415.0,1485.0,1417.0,1511.0,1452.0,0.0,0.0,0.0,0.0,0.0,0.0,0.0,0.0
4387931733,8,1536.0,1451.0,1511.0,1414.0,1485.0,1413.0,1510.0,1450.0,0.0,0.0,0.0,0.0,0.0,0.0,0.0,0.0
4387975842,8,1534.0,1449.0,1509.0,1413.0,1482.0,1412.0,1507.0,1448.0,0.0,0.0,0.0,0.0,0.0,0.0,0.0,0.0
4388020277,8,1538.0,1454.0,1516.0,1416.0,1485.0,1410.0,1507.0,1447.0,0.0,0.0,0.0,0.0,0.0,0.0,0.0,0.0
4388059787,8,1539.0,1442.0,1511.0,1404.0,1485.0,1405.0,1512.0,1443.0,0.0,0.0,0.0,0.0,0.0,0.0,0.0,0.0
4388083881,8,1538.0,1445.0,1515.0,1409.0,1486.0,1405.0,1509.0,1442.0,0.0,0.0,0.0,0.0,0.0,0.0,0.0,0.0
4388147833,8,1536.0,1449.0,1515.0,1409.0,1479.0,1399.0,1501.0,1440.0,0.0,0.0,0.0,0.0,0.0,0.0,0.0,0.0
4388188534,8,1538.0,1447.0,1512.0,1404.0,1477.0,1398.0,1503.0,1441.0,0.0,0.0,0.0,0.0,0.0,0.0,0.0,0.0
4388212610,8,1538.0,1447.0,1512.0,1405.0,1479.0,1400.0,1505.0,1441.0,0.0,0.0,0.0,0.0,0.0,0.0,0.0,0.0
4388256731,8,1541.0,1442.0,1509.0,1396.0,1476.0,1396.0,1508.0,1442.0,0.0,0.0,0.0,0.0,0.0,0.0,0.0,0.0
4388300538,8,1542.0,1440.0,1505.0,1391.0,1473.0,1394.0,1509.0,1443.0,0.0,0.0,0.0,0.0,0.0,0.0,0.0,0.0
4388348534,8,1539.0,1441.0,1497.0,1390.0,1465.0,1396.0,1507.0,1448.0,0.0,0.0,0.0,0.0,0.0,0.0,0.0,0.0
4388392615,8,1541.0,1439.0,1501.0,1388.0,1469.0,1393.0,1508.0,1445.0,0.0,0.0,0.0,0.0,0.0,0.0,0.0,0.0
4388416932,8,1542.0,1441.0,1502.0,1389.0,1465.0,1392.0,1506.0,1447.0,0.0,0.0,0.0,0.0,0.0,0.0,0.0,0.0
4388461355,8,1540.0,1438.0,1495.0,1384.0,1463.0,1392.0,1507.0,1446.0,0.0,0.0,0.0,0.0,0.0,0.0,0.0,0.0
4388509335,8,1540.0,1439.0,1496.0,1385.0,1464.0,1389.0,1507.0,1446.0,0.0,0.0,0.0,0.0,0.0,0.0,0.0,0.0
4388553331,8,1540.0,1442.0,1495.0,1387.0,1462.0,1395.0,1507.0,1449.0,0.0,0.0,0.0,0.0,0.0,0.0,0.0,0.0
4388597770,8,1537.0,1445.0,1495.0,1392.0,1462.0,1398.0,1504.0,1451.0,0.0,0.0,0.0,0.0,0.0,0.0,0.0,0.0
4388645336,8,1532.0,1443.0,1489.0,1393.0,1461.0,1403.0,1504.0,1453.0,0.0,0.0,0.0,0.0,0.0,0.0,0.0,0.0
4388690190,8,1529.0,1445.0,1486.0,1395.0,1457.0,1405.0,1500.0,1455.0,0.0,0.0,0.0,0.0,0.0,0.0,0.0,0.0
4388714141,8,1524.0,1441.0,1485.0,1399.0,1465.0,1413.0,1504.0,1455.0,0.0,0.0,0.0,0.0,0.0,0.0,0.0,0.0
4388762262,8,1519.0,1442.0,1476.0,1399.0,1459.0,1418.0,1502.0,1460.0,0.0,0.0,0.0,0.0,0.0,0.0,0.0,0.0
4388802322,8,1517.0,1446.0,1479.0,1404.0,1458.0,1416.0,1495.0,1458.0,0.0,0.0,0.0,0.0,0.0,0.0,0.0,0.0
4388850604,8,1515.0,1443.0,1480.0,1408.0,1466.0,1423.0,1501.0,1458.0,0.0,0.0,0.0,0.0,0.0,0.0,0.0,0.0
4388894179,8,1512.0,1445.0,1472.0,1407.0,1458.0,1425.0,1498.0,1464.0,0.0,0.0,0.0,0.0,0.0,0.0,0.0,0.0
4388938189,8,1504.0,1444.0,1467.0,1411.0,1457.0,1429.0,1493.0,1462.0,0.0,0.0,0.0,0.0,0.0,0.0,0.0,0.0
4388982944,8,1505.0,1448.0,1466.0,1412.0,1455.0,1432.0,1494.0,1468.0,0.0,0.0,0.0,0.0,0.0,0.0,0.0,0.0
4389006948,8,1502.0,1446.0,1460.0,1409.0,1450.0,1432.0,1492.0,1469.0,0.0,0.0,0.0,0.0,0.0,0.0,0.0,0.0
4389054978,8,1504.0,1454.0,1466.0,1416.0,1450.0,1432.0,1488.0,1470.0,0.0,0.0,0.0,0.0,0.0,0.0,0.0,0.0
4389094969,8,1503.0,1456.0,1465.0,1418.0,1448.0,1433.0,1487.0,1473.0,0.0,0.0,0.0,0.0,0.0,0.0,0.0,0.0
4389139111,8,1496.0,1453.0,1462.0,1422.0,1452.0,1440.0,1486.0,1471.0,0.0,0.0,0.0,0.0,0.0,0.0,0.0,0.0
4389179730,8,1501.0,1457.0,1466.0,1424.0,1454.0,1439.0,1488.0,1472.0,0.0,0.0,0.0,0.0,0.0,0.0,0.0,0.0
4389227773,8,1497.0,1458.0,1467.0,1428.0,1455.0,1440.0,1484.0,1469.0,0.0,0.0,0.0,0.0,0.0,0.0,0.0,0.0
4389271737,8,1497.0,1458.0,1471.0,1430.0,1456.0,1438.0,1482.0,1466.0,0.0,0.0,0.0,0.0,0.0,0.0,0.0,0.0
4389295806,8,1497.0,1452.0,1470.0,1426.0,1461.0,1439.0,1488.0,1464.0,0.0,0.0,0.0,0.0,0.0,0.0,0.0,0.0
4389343777,8,1501.0,1455.0,1480.0,1430.0,1465.0,1435.0,1487.0,1460.0,0.0,0.0,0.0,0.0,0.0,0.0,0.0,0.0
4389391889,8,1501.0,1454.0,1471.0,1424.0,1459.0,1437.0,1489.0,1467.0,0.0,0.0,0.0,0.0,0.0,0.0,0.0,0.0
4389431737,8,1510.0,1458.0,1474.0,1419.0,1454.0,1431.0,1490.0,1470.0,0.0,0.0,0.0,0.0,0.0,0.0,0.0,0.0
4389472541,8,1510.0,1462.0,1478.0,1424.0,1456.0,1431.0,1488.0,1470.0,0.0,0.0,0.0,0.0,0.0,0.0,0.0,0.0
4389516515,8,1507.0,1459.0,1478.0,1426.0,1460.0,1434.0,1488.0,1467.0,0.0,0.0,0.0,0.0,0.0,0.0,0.0,0.0
4389560568,8,1507.0,1461.0,1479.0,1427.0,1459.0,1432.0,1487.0,1466.0,0.0,0.0,0.0,0.0,0.0,0.0,0.0,0.0
4389604559,8,1511.0,1456.0,1488.0,1426.0,1468.0,1428.0,1492.0,1459.0,0.0,0.0,0.0,0.0,0.0,0.0,0.0,0.0
4389648590,8,1515.0,1462.0,1493.0,1428.0,1466.0,1424.0,1488.0,1458.0,0.0,0.0,0.0,0.0,0.0,0.0,0.0,0.0
4389672568,8,1519.0,1462.0,1493.0,1426.0,1468.0,1427.0,1494.0,1463.0,0.0,0.0,0.0,0.0,0.0,0.0,0.0,0.0
4389716927,8,1523.0,1456.0,1490.0,1419.0,1470.0,1428.0,1503.0,1465.0,0.0,0.0,0.0,0.0,0.0,0.0,0.0,0.0
4389777488,8,1528.0,1458.0,1488.0,1416.0,1468.0,1430.0,1508.0,1472.0,0.0,0.0,0.0,0.0,0.0,0.0,0.0,0.0
4389801332,8,1535.0,1459.0,1494.0,1413.0,1469.0,1423.0,1509.0,1470.0,0.0,0.0,0.0,0.0,0.0,0.0,0.0,0.0
4389845364,8,1526.0,1451.0,1485.0,1412.0,1471.0,1431.0,1512.0,1470.0,0.0,0.0,0.0,0.0,0.0,0.0,0.0,0.0
4389889333,8,1525.0,1444.0,1485.0,1412.0,1481.0,1438.0,1522.0,1470.0,0.0,0.0,0.0,0.0,0.0,0.0,0.0,0.0
4389937360,8,1522.0,1444.0,1480.0,1413.0,1478.0,1441.0,1520.0,1472.0,0.0,0.0,0.0,0.0,0.0,0.0,0.0,0.0
4389977414,8,1521.0,1446.0,1480.0,1414.0,1475.0,1439.0,1516.0,1471.0,0.0,0.0,0.0,0.0,0.0,0.0,0.0,0.0
4390022219,8,1523.0,1444.0,1483.0,1414.0,1480.0,1441.0,1521.0,1471.0,0.0,0.0,0.0,0.0,0.0,0.0,0.0,0.0
4390066196,8,1523.0,1449.0,1486.0,1416.0,1476.0,1438.0,1511.0,1470.0,0.0,0.0,0.0,0.0,0.0,0.0,0.0,0.0
4390110235,8,1520.0,1450.0,1486.0,1417.0,1475.0,1434.0,1510.0,1466.0,0.0,0.0,0.0,0.0,0.0,0.0,0.0,0.0
4390134027,8,1524.0,1452.0,1488.0,1416.0,1473.0,1431.0,1509.0,1467.0,0.0,0.0,0.0,0.0,0.0,0.0,0.0,0.0
4390178152,8,1526.0,1454.0,1491.0,1417.0,1474.0,1430.0,1509.0,1467.0,0.0,0.0,0.0,0.0,0.0,0.0,0.0,0.0
4390226141,8,1524.0,1454.0,1490.0,1418.0,1472.0,1428.0,1505.0,1465.0,0.0,0.0,0.0,0.0,0.0,0.0,0.0,0.0
4390270994,8,1519.0,1446.0,1487.0,1417.0,1478.0,1434.0,1510.0,1462.0,0.0,0.0,0.0,0.0,0.0,0.0,0.0,0.0
4390314973,8,1516.0,1446.0,1487.0,1420.0,1479.0,1435.0,1508.0,1461.0,0.0,0.0,0.0,0.0,0.0,0.0,0.0,0.0
4390362913,8,1511.0,1443.0,1485.0,1424.0,1484.0,1442.0,1510.0,1461.0,0.0,0.0,0.0,0.0,0.0,0.0,0.0,0.0
4390386936,8,1513.0,1443.0,1488.0,1424.0,1486.0,1439.0,1510.0,1458.0,0.0,0.0,0.0,0.0,0.0,0.0,0.0,0.0
4390430940,8,1512.0,1441.0,1486.0,1423.0,1487.0,1441.0,1513.0,1459.0,0.0,0.0,0.0,0.0,0.0,0.0,0.0,0.0
4390491740,8,1509.0,1451.0,1492.0,1436.0,1486.0,1443.0,1509.0,1459.0,0.0,0.0,0.0,0.0,0.0,0.0,0.0,0.0
4390515792,8,1512.0,1444.0,1487.0,1425.0,1485.0,1441.0,1510.0,1460.0,0.0,0.0,0.0,0.0,0.0,0.0,0.0,0.0
4390559779,8,1512.0,1451.0,1493.0,1431.0,1483.0,1437.0,1501.0,1457.0,0.0,0.0,0.0,0.0,0.0,0.0,0.0,0.0
4390603786,8,1517.0,1459.0,1500.0,1436.0,1484.0,1435.0,1500.0,1459.0,0.0,0.0,0.0,0.0,0.0,0.0,0.0,0.0
4390647827,8,1521.0,1466.0,1507.0,1438.0,1482.0,1429.0,1496.0,1457.0,0.0,0.0,0.0,0.0,0.0,0.0,0.0,0.0
4390691904,8,1520.0,1467.0,1505.0,1439.0,1481.0,1433.0,1496.0,1461.0,0.0,0.0,0.0,0.0,0.0,0.0,0.0,0.0
4390736530,8,1522.0,1466.0,1503.0,1436.0,1479.0,1431.0,1497.0,1462.0,0.0,0.0,0.0,0.0,0.0,0.0,0.0,0.0
4390780548,8,1519.0,1461.0,1499.0,1433.0,1480.0,1434.0,1500.0,1462.0,0.0,0.0,0.0,0.0,0.0,0.0,0.0,0.0
4390820548,8,1520.0,1463.0,1499.0,1435.0,1483.0,1429.0,1501.0,1460.0,0.0,0.0,0.0,0.0,0.0,0.0,0.0,0.0
4390868676,8,1524.0,1464.0,1502.0,1433.0,1480.0,1434.0,1502.0,1464.0,0.0,0.0,0.0,0.0,0.0,0.0,0.0,0.0
4390892630,8,1523.0,1463.0,1504.0,1437.0,1485.0,1438.0,1505.0,1464.0,0.0,0.0,0.0,0.0,0.0,0.0,0.0,0.0
4390956663,8,1522.0,1464.0,1501.0,1434.0,1480.0,1434.0,1501.0,1464.0,0.0,0.0,0.0,0.0,0.0,0.0,0.0,0.0
4390996680,8,1525.0,1461.0,1503.0,1429.0,1480.0,1429.0,1503.0,1460.0,0.0,0.0,0.0,0.0,0.0,0.0,0.0,0.0
4391037443,8,1531.0,1460.0,1508.0,1428.0,1487.0,1429.0,1509.0,1460.0,0.0,0.0,0.0,0.0,0.0,0.0,0.0,0.0
4391081376,8,1530.0,1462.0,1508.0,1429.0,1483.0,1427.0,1505.0,1460.0,0.0,0.0,0.0,0.0,0.0,0.0,0.0,0.0
4391129183,8,1535.0,1463.0,1512.0,1426.0,1483.0,1421.0,1505.0,1458.0,0.0,0.0,0.0,0.0,0.0,0.0,0.0,0.0
4391169334,8,1530.0,1457.0,1507.0,1425.0,1485.0,1426.0,1508.0,1458.0,0.0,0.0,0.0,0.0,0.0,0.0,0.0,0.0
4391209348,8,1532.0,1456.0,1505.0,1420.0,1481.0,1422.0,1507.0,1457.0,0.0,0.0,0.0,0.0,0.0,0.0,0.0,0.0
4391258116,8,1532.0,1458.0,1503.0,1417.0,1475.0,1418.0,1505.0,1458.0,0.0,0.0,0.0,0.0,0.0,0.0,0.0,0.0
4391278145,8,1528.0,1455.0,1501.0,1419.0,1477.0,1422.0,1504.0,1458.0,0.0,0.0,0.0,0.0,0.0,0.0,0.0,0.0
4391326169,8,1526.0,1452.0,1501.0,1422.0,1483.0,1427.0,1508.0,1457.0,0.0,0.0,0.0,0.0,0.0,0.0,0.0,0.0
4391370245,8,1527.0,1450.0,1503.0,1420.0,1485.0,1424.0,1509.0,1454.0,0.0,0.0,0.0,0.0,0.0,0.0,0.0,0.0
4391414442,8,1526.0,1453.0,1500.0,1419.0,1478.0,1422.0,1505.0,1456.0,0.0,0.0,0.0,0.0,0.0,0.0,0.0,0.0
4391458158,8,1525.0,1456.0,1500.0,1420.0,1474.0,1419.0,1498.0,1455.0,0.0,0.0,0.0,0.0,0.0,0.0,0.0,0.0
4391498139,8,1521.0,1451.0,1497.0,1419.0,1475.0,1421.0,1499.0,1453.0,0.0,0.0,0.0,0.0,0.0,0.0,0.0,0.0
4391542950,8,1522.0,1457.0,1502.0,1423.0,1474.0,1418.0,1495.0,1452.0,0.0,0.0,0.0,0.0,0.0,0.0,0.0,0.0
4391582963,8,1524.0,1453.0,1504.0,1420.0,1477.0,1415.0,1497.0,1448.0,0.0,0.0,0.0,0.0,0.0,0.0,0.0,0.0
4391626934,8,1527.0,1454.0,1506.0,1417.0,1475.0,1410.0,1496.0,1447.0,0.0,0.0,0.0,0.0,0.0,0.0,0.0,0.0
4391667368,8,1526.0,1459.0,1507.0,1420.0,1472.0,1408.0,1490.0,1446.0,0.0,0.0,0.0,0.0,0.0,0.0,0.0,0.0
4391710977,8,1536.0,1450.0,1513.0,1422.0,1476.0,1408.0,1492.0,1445.0,0.0,0.0,0.0,0.0,0.0,0.0,0.0,0.0
4391755718,8,1535.0,1451.0,1513.0,1410.0,1478.0,1402.0,1501.0,1442.0,0.0,0.0,0.0,0.0,0.0,0.0,0.0,0.0
4391799761,8,1539.0,1453.0,1514.0,1406.0,1473.0,1394.0,1498.0,1441.0,0.0,0.0,0.0,0.0,0.0,0.0,0.0,0.0
4391843795,8,1544.0,1450.0,1513.0,1400.0,1472.0,1393.0,1503.0,1443.0,0.0,0.0,0.0,0.0,0.0,0.0,0.0,0.0
4391867780,8,1544.0,1451.0,1513.0,1398.0,1469.0,1388.0,1499.0,1441.0,0.0,0.0,0.0,0.0,0.0,0.0,0.0,0.0
4391915740,8,1549.0,1451.0,1518.0,1397.0,1472.0,1385.0,1502.0,1440.0,0.0,0.0,0.0,0.0,0.0,0.0,0.0,0.0
4391963739,8,1554.0,1446.0,1521.0,1389.0,1473.0,1378.0,1505.0,1435.0,0.0,0.0,0.0,0.0,0.0,0.0,0.0,0.0
4392007747,8,1550.0,1448.0,1517.0,1391.0,1469.0,1380.0,1502.0,1437.0,0.0,0.0,0.0,0.0,0.0,0.0,0.0,0.0
4392051742,8,1548.0,1446.0,1511.0,1385.0,1461.0,1375.0,1497.0,1436.0,0.0,0.0,0.0,0.0,0.0,0.0,0.0,0.0
4392096652,8,1545.0,1449.0,1514.0,1391.0,1464.0,1378.0,1495.0,1435.0,0.0,0.0,0.0,0.0,0.0,0.0,0.0,0.0
4392120572,8,1545.0,1447.0,1515.0,1394.0,1467.0,1378.0,1493.0,1431.0,0.0,0.0,0.0,0.0,0.0,0.0,0.0,0.0
4392168599,8,1538.0,1441.0,1513.0,1393.0,1470.0,1380.0,1495.0,1428.0,0.0,0.0,0.0,0.0,0.0,0.0,0.0,0.0
4392216600,8,1529.0,1441.0,1510.0,1403.0,1475.0,1392.0,1494.0,1430.0,0.0,0.0,0.0,0.0,0.0,0.0,0.0,0.0
4392260538,8,1520.0,1442.0,1511.0,1413.0,1480.0,1398.0,1489.0,1427.0,0.0,0.0,0.0,0.0,0.0,0.0,0.0,0.0
4392300589,8,1526.0,1442.0,1506.0,1407.0,1476.0,1399.0,1496.0,1435.0,0.0,0.0,0.0,0.0,0.0,0.0,0.0,0.0
4392345334,8,1524.0,1448.0,1501.0,1409.0,1469.0,1403.0,1493.0,1442.0,0.0,0.0,0.0,0.0,0.0,0.0,0.0,0.0
4392385345,8,1526.0,1455.0,1504.0,1416.0,1471.0,1408.0,1493.0,1447.0,0.0,0.0,0.0,0.0,0.0,0.0,0.0,0.0
4392433337,8,1530.0,1467.0,1511.0,1422.0,1467.0,1405.0,1486.0,1449.0,0.0,0.0,0.0,0.0,0.0,0.0,0.0,0.0
4392457395,8,1527.0,1457.0,1506.0,1417.0,1471.0,1407.0,1492.0,1447.0,0.0,0.0,0.0,0.0,0.0,0.0,0.0,0.0
4392501340,8,1527.0,1463.0,1516.0,1429.0,1479.0,1411.0,1490.0,1445.0,0.0,0.0,0.0,0.0,0.0,0.0,0.0,0.0
4392545366,8,1522.0,1463.0,1511.0,1434.0,1480.0,1420.0,1491.0,1449.0,0.0,0.0,0.0,0.0,0.0,0.0,0.0,0.0
4392586197,8,1521.0,1462.0,1506.0,1429.0,1474.0,1416.0,1489.0,1449.0,0.0,0.0,0.0,0.0,0.0,0.0,0.0,0.0
4392626202,8,1514.0,1458.0,1502.0,1432.0,1477.0,1422.0,1489.0,1448.0,0.0,0.0,0.0,0.0,0.0,0.0,0.0,0.0
4392666259,8,1518.0,1458.0,1508.0,1432.0,1480.0,1419.0,1490.0,1446.0,0.0,0.0,0.0,0.0,0.0,0.0,0.0,0.0
4392710169,8,1513.0,1464.0,1509.0,1440.0,1480.0,1422.0,1484.0,1446.0,0.0,0.0,0.0,0.0,0.0,0.0,0.0,0.0
4392754205,8,1518.0,1459.0,1509.0,1435.0,1483.0,1422.0,1491.0,1447.0,0.0,0.0,0.0,0.0,0.0,0.0,0.0,0.0
4392794232,8,1516.0,1459.0,1507.0,1434.0,1480.0,1422.0,1490.0,1447.0,0.0,0.0,0.0,0.0,0.0,0.0,0.0,0.0
4392838937,8,1516.0,1461.0,1506.0,1437.0,1481.0,1426.0,1491.0,1451.0,0.0,0.0,0.0,0.0,0.0,0.0,0.0,0.0
4392886937,8,1517.0,1461.0,1513.0,1442.0,1490.0,1429.0,1495.0,1448.0,0.0,0.0,0.0,0.0,0.0,0.0,0.0,0.0
4392931286,8,1509.0,1459.0,1513.0,1449.0,1495.0,1434.0,1491.0,1443.0,0.0,0.0,0.0,0.0,0.0,0.0,0.0,0.0
4392975037,8,1506.0,1458.0,1519.0,1457.0,1505.0,1439.0,1492.0,1439.0,0.0,0.0,0.0,0.0,0.0,0.0,0.0,0.0
4393018989,8,1505.0,1455.0,1512.0,1453.0,1501.0,1440.0,1494.0,1443.0,0.0,0.0,0.0,0.0,0.0,0.0,0.0,0.0
4393058992,8,1509.0,1461.0,1520.0,1460.0,1508.0,1444.0,1497.0,1445.0,0.0,0.0,0.0,0.0,0.0,0.0,0.0,0.0
4393103812,8,1509.0,1457.0,1512.0,1451.0,1500.0,1441.0,1498.0,1447.0,0.0,0.0,0.0,0.0,0.0,0.0,0.0,0.0
4393143737,8,1514.0,1459.0,1513.0,1452.0,1504.0,1447.0,1505.0,1453.0,0.0,0.0,0.0,0.0,0.0,0.0,0.0,0.0
4393187805,8,1514.0,1457.0,1514.0,1453.0,1509.0,1449.0,1509.0,1453.0,0.0,0.0,0.0,0.0,0.0,0.0,0.0,0.0
4393211778,8,1515.0,1460.0,1515.0,1455.0,1508.0,1450.0,1508.0,1455.0,0.0,0.0,0.0,0.0,0.0,0.0,0.0,0.0
4393256128,8,1523.0,1473.0,1519.0,1458.0,1502.0,1449.0,1506.0,1463.0,0.0,0.0,0.0,0.0,0.0,0.0,0.0,0.0
4393303742,8,1526.0,1469.0,1516.0,1451.0,1501.0,1447.0,1511.0,1465.0,0.0,0.0,0.0,0.0,0.0,0.0,0.0,0.0
4393347734,8,1532.0,1480.0,1521.0,1455.0,1496.0,1445.0,1507.0,1470.0,0.0,0.0,0.0,0.0,0.0,0.0,0.0,0.0
4393388700,8,1537.0,1489.0,1523.0,1455.0,1489.0,1440.0,1501.0,1474.0,0.0,0.0,0.0,0.0,0.0,0.0,0.0,0.0
4393432695,8,1534.0,1494.0,1529.0,1463.0,1490.0,1439.0,1495.0,1470.0,0.0,0.0,0.0,0.0,0.0,0.0,0.0,0.0
4393476593,8,1531.0,1497.0,1529.0,1468.0,1490.0,1442.0,1493.0,1471.0,0.0,0.0,0.0,0.0,0.0,0.0,0.0,0.0
4393500587,8,1527.0,1490.0,1518.0,1460.0,1484.0,1442.0,1493.0,1473.0,0.0,0.0,0.0,0.0,0.0,0.0,0.0,0.0
4393564531,8,1525.0,1491.0,1523.0,1466.0,1489.0,1443.0,1491.0,1469.0,0.0,0.0,0.0,0.0,0.0,0.0,0.0,0.0
4393605338,8,1521.0,1488.0,1519.0,1467.0,1491.0,1448.0,1493.0,1469.0,0.0,0.0,0.0,0.0,0.0,0.0,0.0,0.0
4393645353,8,1523.0,1487.0,1522.0,1465.0,1492.0,1445.0,1494.0,1467.0,0.0,0.0,0.0,0.0,0.0,0.0,0.0,0.0
4393669482,8,1519.0,1486.0,1520.0,1468.0,1495.0,1450.0,1495.0,1468.0,0.0,0.0,0.0,0.0,0.0,0.0,0.0,0.0
4393717359,8,1521.0,1490.0,1519.0,1468.0,1489.0,1447.0,1490.0,1470.0,0.0,0.0,0.0,0.0,0.0,0.0,0.0,0.0
4393761714,8,1525.0,1489.0,1520.0,1462.0,1487.0,1442.0,1492.0,1469.0,0.0,0.0,0.0,0.0,0.0,0.0,0.0,0.0
4393805380,8,1525.0,1489.0,1517.0,1461.0,1484.0,1442.0,1492.0,1471.0,0.0,0.0,0.0,0.0,0.0,0.0,0.0,0.0
4393850235,8,1523.0,1490.0,1516.0,1461.0,1482.0,1442.0,1489.0,1471.0,0.0,0.0,0.0,0.0,0.0,0.0,0.0,0.0
4393894179,8,1527.0,1490.0,1514.0,1455.0,1478.0,1439.0,1491.0,1474.0,0.0,0.0,0.0,0.0,0.0,0.0,0.0,0.0
4393938162,8,1531.0,1495.0,1517.0,1455.0,1474.0,1434.0,1488.0,1475.0,0.0,0.0,0.0,0.0,0.0,0.0,0.0,0.0
4393982184,8,1530.0,1495.0,1520.0,1455.0,1472.0,1428.0,1482.0,1469.0,0.0,0.0,0.0,0.0,0.0,0.0,0.0,0.0
4394006184,8,1525.0,1491.0,1510.0,1451.0,1468.0,1432.0,1483.0,1472.0,0.0,0.0,0.0,0.0,0.0,0.0,0.0,0.0
4394054199,8,1529.0,1497.0,1511.0,1451.0,1463.0,1430.0,1481.0,1476.0,0.0,0.0,0.0,0.0,0.0,0.0,0.0,0.0
4394094968,8,1528.0,1494.0,1505.0,1446.0,1461.0,1431.0,1484.0,1479.0,0.0,0.0,0.0,0.0,0.0,0.0,0.0,0.0
4394142947,8,1528.0,1495.0,1506.0,1446.0,1458.0,1427.0,1480.0,1477.0,0.0,0.0,0.0,0.0,0.0,0.0,0.0,0.0
4394183030,8,1529.0,1494.0,1505.0,1443.0,1458.0,1426.0,1481.0,1477.0,0.0,0.0,0.0,0.0,0.0,0.0,0.0,0.0
4394226937,8,1527.0,1491.0,1505.0,1443.0,1459.0,1426.0,1481.0,1474.0,0.0,0.0,0.0,0.0,0.0,0.0,0.0,0.0
4394274966,8,1521.0,1489.0,1505.0,1446.0,1460.0,1426.0,1477.0,1469.0,0.0,0.0,0.0,0.0,0.0,0.0,0.0,0.0
4394322988,8,1516.0,1486.0,1503.0,1448.0,1462.0,1428.0,1475.0,1466.0,0.0,0.0,0.0,0.0,0.0,0.0,0.0,0.0
4394346975,8,1513.0,1488.0,1502.0,1452.0,1462.0,1430.0,1472.0,1467.0,0.0,0.0,0.0,0.0,0.0,0.0,0.0,0.0
4394387626,8,1514.0,1484.0,1509.0,1452.0,1469.0,1427.0,1474.0,1459.0,0.0,0.0,0.0,0.0,0.0,0.0,0.0,0.0
4394435746,8,1507.0,1488.0,1510.0,1461.0,1469.0,1429.0,1465.0,1456.0,0.0,0.0,0.0,0.0,0.0,0.0,0.0,0.0
4394479752,8,1500.0,1480.0,1511.0,1466.0,1480.0,1436.0,1469.0,1451.0,0.0,0.0,0.0,0.0,0.0,0.0,0.0,0.0
4394527731,8,1500.0,1481.0,1509.0,1467.0,1480.0,1439.0,1470.0,1454.0,0.0,0.0,0.0,0.0,0.0,0.0,0.0,0.0
4394571785,8,1499.0,1478.0,1509.0,1466.0,1481.0,1439.0,1471.0,1451.0,0.0,0.0,0.0,0.0,0.0,0.0,0.0,0.0
4394612686,8,1503.0,1479.0,1511.0,1465.0,1483.0,1440.0,1475.0,1453.0,0.0,0.0,0.0,0.0,0.0,0.0,0.0,0.0
4394656564,8,1507.0,1478.0,1505.0,1457.0,1477.0,1439.0,1479.0,1461.0,0.0,0.0,0.0,0.0,0.0,0.0,0.0,0.0
4394680561,8,1508.0,1486.0,1511.0,1463.0,1475.0,1436.0,1473.0,1459.0,0.0,0.0,0.0,0.0,0.0,0.0,0.0,0.0
4394724413,8,1511.0,1487.0,1517.0,1466.0,1480.0,1436.0,1474.0,1458.0,0.0,0.0,0.0,0.0,0.0,0.0,0.0,0.0
4394784414,8,1511.0,1487.0,1510.0,1461.0,1475.0,1438.0,1476.0,1463.0,0.0,0.0,0.0,0.0,0.0,0.0,0.0,0.0
4394804524,8,1508.0,1490.0,1509.0,1466.0,1474.0,1441.0,1474.0,1465.0,0.0,0.0,0.0,0.0,0.0,0.0,0.0,0.0
4394852535,8,1511.0,1489.0,1507.0,1461.0,1472.0,1440.0,1476.0,1467.0,0.0,0.0,0.0,0.0,0.0,0.0,0.0,0.0
4394901394,8,1510.0,1488.0,1507.0,1462.0,1473.0,1440.0,1476.0,1467.0,0.0,0.0,0.0,0.0,0.0,0.0,0.0,0.0
4394945333,8,1518.0,1492.0,1509.0,1458.0,1470.0,1437.0,1479.0,1471.0,0.0,0.0,0.0,0.0,0.0,0.0,0.0,0.0
4394969218,8,1518.0,1491.0,1508.0,1457.0,1469.0,1436.0,1479.0,1470.0,0.0,0.0,0.0,0.0,0.0,0.0,0.0,0.0
4395033391,8,1521.0,1493.0,1515.0,1458.0,1472.0,1433.0,1479.0,1468.0,0.0,0.0,0.0,0.0,0.0,0.0,0.0,0.0
4395057372,8,1520.0,1493.0,1512.0,1460.0,1472.0,1436.0,1479.0,1470.0,0.0,0.0,0.0,0.0,0.0,0.0,0.0,0.0
4395097727,8,1517.0,1488.0,1508.0,1456.0,1471.0,1436.0,1480.0,1468.0,0.0,0.0,0.0,0.0,0.0,0.0,0.0,0.0
4395142245,8,1517.0,1492.0,1511.0,1461.0,1472.0,1437.0,1478.0,1469.0,0.0,0.0,0.0,0.0,0.0,0.0,0.0,0.0
4395190267,8,1514.0,1491.0,1511.0,1462.0,1477.0,1437.0,1478.0,1463.0,0.0,0.0,0.0,0.0,0.0,0.0,0.0,0.0
4395234140,8,1510.0,1488.0,1508.0,1462.0,1474.0,1440.0,1476.0,1465.0,0.0,0.0,0.0,0.0,0.0,0.0,0.0,0.0
4395274179,8,1512.0,1488.0,1510.0,1462.0,1475.0,1437.0,1476.0,1464.0,0.0,0.0,0.0,0.0,0.0,0.0,0.0,0.0
4395322118,8,1520.0,1490.0,1513.0,1456.0,1472.0,1431.0,1479.0,1465.0,0.0,0.0,0.0,0.0,0.0,0.0,0.0,0.0
4395346141,8,1517.0,1486.0,1505.0,1453.0,1470.0,1437.0,1482.0,1470.0,0.0,0.0,0.0,0.0,0.0,0.0,0.0,0.0
4395394188,8,1522.0,1484.0,1505.0,1445.0,1467.0,1430.0,1484.0,1469.0,0.0,0.0,0.0,0.0,0.0,0.0,0.0,0.0
4395439034,8,1519.0,1484.0,1505.0,1448.0,1468.0,1431.0,1482.0,1467.0,0.0,0.0,0.0,0.0,0.0,0.0,0.0,0.0
4395479036,8,1522.0,1485.0,1510.0,1448.0,1470.0,1428.0,1482.0,1465.0,0.0,0.0,0.0,0.0,0.0,0.0,0.0,0.0
4395522974,8,1521.0,1484.0,1511.0,1451.0,1474.0,1432.0,1484.0,1465.0,0.0,0.0,0.0,0.0,0.0,0.0,0.0,0.0
4395567322,8,1519.0,1486.0,1517.0,1459.0,1480.0,1434.0,1482.0,1461.0,0.0,0.0,0.0,0.0,0.0,0.0,0.0,0.0
4395610945,8,1518.0,1486.0,1519.0,1462.0,1484.0,1437.0,1484.0,1461.0,0.0,0.0,0.0,0.0,0.0,0.0,0.0,0.0
4395650937,8,1519.0,1485.0,1518.0,1459.0,1483.0,1435.0,1483.0,1460.0,0.0,0.0,0.0,0.0,0.0,0.0,0.0,0.0
4395695741,8,1519.0,1487.0,1524.0,1465.0,1488.0,1436.0,1483.0,1458.0,0.0,0.0,0.0,0.0,0.0,0.0,0.0,0.0
4395739749,8,1513.0,1484.0,1521.0,1467.0,1485.0,1436.0,1479.0,1457.0,0.0,0.0,0.0,0.0,0.0,0.0,0.0,0.0
4395784109,8,1511.0,1487.0,1528.0,1475.0,1494.0,1439.0,1477.0,1451.0,0.0,0.0,0.0,0.0,0.0,0.0,0.0,0.0
4395823754,8,1509.0,1487.0,1527.0,1481.0,1495.0,1442.0,1472.0,1448.0,0.0,0.0,0.0,0.0,0.0,0.0,0.0,0.0
4395871865,8,1510.0,1498.0,1532.0,1482.0,1489.0,1437.0,1467.0,1452.0,0.0,0.0,0.0,0.0,0.0,0.0,0.0,0.0
4395895830,8,1511.0,1500.0,1531.0,1481.0,1484.0,1433.0,1463.0,1452.0,0.0,0.0,0.0,0.0,0.0,0.0,0.0,0.0
4395940543,8,1507.0,1498.0,1526.0,1481.0,1482.0,1436.0,1463.0,1454.0,0.0,0.0,0.0,0.0,0.0,0.0,0.0,0.0
4395984590,8,1506.0,1493.0,1517.0,1476.0,1482.0,1443.0,1471.0,1461.0,0.0,0.0,0.0,0.0,0.0,0.0,0.0,0.0
4396028540,8,1503.0,1487.0,1516.0,1474.0,1483.0,1441.0,1470.0,1455.0,0.0,0.0,0.0,0.0,0.0,0.0,0.0,0.0
4396076705,8,1503.0,1482.0,1511.0,1471.0,1487.0,1448.0,1479.0,1460.0,0.0,0.0,0.0,0.0,0.0,0.0,0.0,0.0
4396100584,8,1506.0,1481.0,1506.0,1462.0,1479.0,1442.0,1479.0,1461.0,0.0,0.0,0.0,0.0,0.0,0.0,0.0,0.0
4396164575,8,1526.0,1481.0,1504.0,1442.0,1471.0,1434.0,1493.0,1473.0,0.0,0.0,0.0,0.0,0.0,0.0,0.0,0.0
4396209403,8,1538.0,1479.0,1506.0,1432.0,1472.0,1431.0,1504.0,1477.0,0.0,0.0,0.0,0.0,0.0,0.0,0.0,0.0
4396229409,8,1542.0,1479.0,1508.0,1430.0,1473.0,1430.0,1507.0,1478.0,0.0,0.0,0.0,0.0,0.0,0.0,0.0,0.0
4396273467,8,1541.0,1477.0,1511.0,1433.0,1479.0,1431.0,1509.0,1475.0,0.0,0.0,0.0,0.0,0.0,0.0,0.0,0.0
4396321374,8,1533.0,1467.0,1507.0,1439.0,1493.0,1447.0,1519.0,1475.0,0.0,0.0,0.0,0.0,0.0,0.0,0.0,0.0
4396369380,8,1534.0,1476.0,1525.0,1456.0,1506.0,1448.0,1515.0,1468.0,0.0,0.0,0.0,0.0,0.0,0.0,0.0,0.0
4396413385,8,1535.0,1479.0,1529.0,1462.0,1511.0,1454.0,1517.0,1471.0,0.0,0.0,0.0,0.0,0.0,0.0,0.0,0.0
4396458144,8,1530.0,1481.0,1537.0,1480.0,1529.0,1469.0,1522.0,1470.0,0.0,0.0,0.0,0.0,0.0,0.0,0.0,0.0
4396502193,8,1527.0,1481.0,1534.0,1484.0,1532.0,1477.0,1524.0,1474.0,0.0,0.0,0.0,0.0,0.0,0.0,0.0,0.0
4396526139,8,1528.0,1481.0,1538.0,1486.0,1536.0,1478.0,1526.0,1472.0,0.0,0.0,0.0,0.0,0.0,0.0,0.0,0.0
4396574031,8,1523.0,1485.0,1537.0,1499.0,1543.0,1493.0,1529.0,1479.0,0.0,0.0,0.0,0.0,0.0,0.0,0.0,0.0
4396618187,8,1526.0,1488.0,1530.0,1496.0,1538.0,1498.0,1534.0,1490.0,0.0,0.0,0.0,0.0,0.0,0.0,0.0,0.0
4396663014,8,1527.0,1497.0,1531.0,1502.0,1533.0,1500.0,1529.0,1495.0,0.0,0.0,0.0,0.0,0.0,0.0,0.0,0.0
4396711011,8,1527.0,1498.0,1542.0,1511.0,1545.0,1502.0,1530.0,1490.0,0.0,0.0,0.0,0.0,0.0,0.0,0.0,0.0
4396754934,8,1522.0,1491.0,1541.0,1512.0,1551.0,1506.0,1532.0,1485.0,0.0,0.0,0.0,0.0,0.0,0.0,0.0,0.0
4396778957,8,1522.0,1492.0,1540.0,1511.0,1550.0,1505.0,1532.0,1485.0,0.0,0.0,0.0,0.0,0.0,0.0,0.0,0.0
4396822993,8,1511.0,1485.0,1533.0,1517.0,1556.0,1518.0,1534.0,1486.0,0.0,0.0,0.0,0.0,0.0,0.0,0.0,0.0
4396867323,8,1498.0,1478.0,1531.0,1523.0,1561.0,1521.0,1528.0,1476.0,0.0,0.0,0.0,0.0,0.0,0.0,0.0,0.0
4396914932,8,1509.0,1478.0,1527.0,1510.0,1554.0,1517.0,1537.0,1485.0,0.0,0.0,0.0,0.0,0.0,0.0,0.0,0.0
4396955724,8,1513.0,1478.0,1527.0,1505.0,1551.0,1512.0,1537.0,1485.0,0.0,0.0,0.0,0.0,0.0,0.0,0.0,0.0
4396999781,8,1524.0,1492.0,1535.0,1503.0,1540.0,1499.0,1528.0,1487.0,0.0,0.0,0.0,0.0,0.0,0.0,0.0,0.0
4397043769,8,1538.0,1501.0,1544.0,1500.0,1537.0,1492.0,1532.0,1493.0,0.0,0.0,0.0,0.0,0.0,0.0,0.0,0.0
4397087832,8,1547.0,1504.0,1550.0,1498.0,1538.0,1487.0,1534.0,1493.0,0.0,0.0,0.0,0.0,0.0,0.0,0.0,0.0
4397131746,8,1546.0,1500.0,1547.0,1491.0,1534.0,1481.0,1533.0,1490.0,0.0,0.0,0.0,0.0,0.0,0.0,0.0,0.0
4397175754,8,1555.0,1506.0,1553.0,1487.0,1528.0,1470.0,1530.0,1490.0,0.0,0.0,0.0,0.0,0.0,0.0,0.0,0.0
4397199726,8,1557.0,1501.0,1551.0,1481.0,1528.0,1469.0,1534.0,1489.0,0.0,0.0,0.0,0.0,0.0,0.0,0.0,0.0
4397244536,8,1564.0,1503.0,1549.0,1471.0,1519.0,1460.0,1534.0,1491.0,0.0,0.0,0.0,0.0,0.0,0.0,0.0,0.0
4397288543,8,1568.0,1503.0,1557.0,1471.0,1523.0,1455.0,1534.0,1487.0,0.0,0.0,0.0,0.0,0.0,0.0,0.0,0.0
4397332606,8,1564.0,1497.0,1549.0,1462.0,1515.0,1450.0,1531.0,1484.0,0.0,0.0,0.0,0.0,0.0,0.0,0.0,0.0
4397373005,8,1561.0,1492.0,1550.0,1462.0,1519.0,1447.0,1530.0,1478.0,0.0,0.0,0.0,0.0,0.0,0.0,0.0,0.0
4397420542,8,1553.0,1487.0,1544.0,1459.0,1514.0,1445.0,1524.0,1473.0,0.0,0.0,0.0,0.0,0.0,0.0,0.0,0.0
4397465354,8,1555.0,1489.0,1542.0,1458.0,1512.0,1446.0,1525.0,1476.0,0.0,0.0,0.0,0.0,0.0,0.0,0.0,0.0
4397505378,8,1551.0,1486.0,1539.0,1455.0,1507.0,1441.0,1519.0,1472.0,0.0,0.0,0.0,0.0,0.0,0.0,0.0,0.0
4397549344,8,1546.0,1482.0,1530.0,1450.0,1501.0,1441.0,1517.0,1472.0,0.0,0.0,0.0,0.0,0.0,0.0,0.0,0.0
4397593381,8,1543.0,1490.0,1532.0,1460.0,1499.0,1444.0,1510.0,1474.0,0.0,0.0,0.0,0.0,0.0,0.0,0.0,0.0
4397641337,8,1540.0,1485.0,1521.0,1449.0,1488.0,1438.0,1507.0,1474.0,0.0,0.0,0.0,0.0,0.0,0.0,0.0,0.0
4397681484,8,1537.0,1484.0,1521.0,1449.0,1488.0,1438.0,1505.0,1473.0,0.0,0.0,0.0,0.0,0.0,0.0,0.0,0.0
4397705340,8,1531.0,1484.0,1516.0,1453.0,1487.0,1442.0,1501.0,1473.0,0.0,0.0,0.0,0.0,0.0,0.0,0.0,0.0
4397746253,8,1526.0,1479.0,1514.0,1453.0,1489.0,1445.0,1502.0,1471.0,0.0,0.0,0.0,0.0,0.0,0.0,0.0,0.0
4397790271,8,1525.0,1481.0,1516.0,1455.0,1488.0,1442.0,1498.0,1468.0,0.0,0.0,0.0,0.0,0.0,0.0,0.0,0.0
4397830231,8,1522.0,1476.0,1508.0,1449.0,1488.0,1444.0,1499.0,1469.0,0.0,0.0,0.0,0.0,0.0,0.0,0.0,0.0
4397874280,8,1519.0,1478.0,1505.0,1449.0,1479.0,1441.0,1493.0,1470.0,0.0,0.0,0.0,0.0,0.0,0.0,0.0,0.0
4397922226,8,1519.0,1474.0,1501.0,1443.0,1475.0,1437.0,1493.0,1468.0,0.0,0.0,0.0,0.0,0.0,0.0,0.0,0.0
4397966142,8,1517.0,1475.0,1506.0,1451.0,1483.0,1442.0,1493.0,1466.0,0.0,0.0,0.0,0.0,0.0,0.0,0.0,0.0
4398006995,8,1513.0,1466.0,1503.0,1448.0,1486.0,1442.0,1495.0,1461.0,0.0,0.0,0.0,0.0,0.0,0.0,0.0,0.0
4398050983,8,1508.0,1462.0,1498.0,1443.0,1482.0,1439.0,1492.0,1458.0,0.0,0.0,0.0,0.0,0.0,0.0,0.0,0.0
4398074942,8,1509.0,1465.0,1502.0,1447.0,1483.0,1438.0,1490.0,1456.0,0.0,0.0,0.0,0.0,0.0,0.0,0.0,0.0
4398123069,8,1507.0,1457.0,1500.0,1439.0,1482.0,1431.0,1489.0,1449.0,0.0,0.0,0.0,0.0,0.0,0.0,0.0,0.0
4398167242,8,1506.0,1461.0,1504.0,1446.0,1484.0,1432.0,1485.0,1448.0,0.0,0.0,0.0,0.0,0.0,0.0,0.0,0.0
4398211004,8,1508.0,1453.0,1502.0,1437.0,1485.0,1429.0,1491.0,1445.0,0.0,0.0,0.0,0.0,0.0,0.0,0.0,0.0
4398255726,8,1510.0,1461.0,1500.0,1438.0,1481.0,1429.0,1487.0,1447.0,0.0,0.0,0.0,0.0,0.0,0.0,0.0,0.0
4398299664,8,1511.0,1458.0,1500.0,1434.0,1477.0,1425.0,1487.0,1449.0,0.0,0.0,0.0,0.0,0.0,0.0,0.0,0.0
4398323734,8,1514.0,1461.0,1499.0,1431.0,1472.0,1423.0,1487.0,1452.0,0.0,0.0,0.0,0.0,0.0,0.0,0.0,0.0
4398367614,8,1514.0,1463.0,1497.0,1431.0,1469.0,1423.0,1486.0,1455.0,0.0,0.0,0.0,0.0,0.0,0.0,0.0,0.0
4398431737,8,1513.0,1463.0,1496.0,1432.0,1469.0,1424.0,1486.0,1455.0,0.0,0.0,0.0,0.0,0.0,0.0,0.0,0.0
4398451738,8,1513.0,1466.0,1498.0,1434.0,1467.0,1423.0,1483.0,1456.0,0.0,0.0,0.0,0.0,0.0,0.0,0.0,0.0
4398495913,8,1513.0,1470.0,1499.0,1435.0,1464.0,1420.0,1478.0,1455.0,0.0,0.0,0.0,0.0,0.0,0.0,0.0,0.0
4398536535,8,1512.0,1472.0,1496.0,1436.0,1461.0,1421.0,1476.0,1457.0,0.0,0.0,0.0,0.0,0.0,0.0,0.0,0.0
4398580593,8,1512.0,1465.0,1496.0,1432.0,1466.0,1422.0,1482.0,1455.0,0.0,0.0,0.0,0.0,0.0,0.0,0.0,0.0
4398624649,8,1508.0,1461.0,1501.0,1435.0,1470.0,1418.0,1477.0,1444.0,0.0,0.0,0.0,0.0,0.0,0.0,0.0,0.0
4398668636,8,1514.0,1458.0,1505.0,1432.0,1476.0,1418.0,1485.0,1444.0,0.0,0.0,0.0,0.0,0.0,0.0,0.0,0.0
4398716561,8,1514.0,1451.0,1500.0,1423.0,1475.0,1415.0,1489.0,1443.0,0.0,0.0,0.0,0.0,0.0,0.0,0.0,0.0
4398757368,8,1517.0,1452.0,1507.0,1424.0,1478.0,1412.0,1489.0,1439.0,0.0,0.0,0.0,0.0,0.0,0.0,0.0,0.0
4398801340,8,1515.0,1447.0,1503.0,1419.0,1476.0,1408.0,1488.0,1436.0,0.0,0.0,0.0,0.0,0.0,0.0,0.0,0.0
4398821366,8,1515.0,1453.0,1506.0,1426.0,1477.0,1413.0,1486.0,1440.0,0.0,0.0,0.0,0.0,0.0,0.0,0.0,0.0
4398869375,8,1520.0,1451.0,1511.0,1418.0,1474.0,1398.0,1483.0,1431.0,0.0,0.0,0.0,0.0,0.0,0.0,0.0,0.0
4398913376,8,1522.0,1448.0,1513.0,1416.0,1477.0,1398.0,1486.0,1430.0,0.0,0.0,0.0,0.0,0.0,0.0,0.0,0.0
4398953381,8,1518.0,1450.0,1511.0,1421.0,1476.0,1402.0,1483.0,1431.0,0.0,0.0,0.0,0.0,0.0,0.0,0.0,0.0
4398993353,8,1520.0,1443.0,1509.0,1413.0,1477.0,1399.0,1488.0,1429.0,0.0,0.0,0.0,0.0,0.0,0.0,0.0,0.0
4399054179,8,1522.0,1446.0,1508.0,1412.0,1474.0,1398.0,1488.0,1432.0,0.0,0.0,0.0,0.0,0.0,0.0,0.0,0.0
4399094288,8,1520.0,1443.0,1507.0,1412.0,1475.0,1398.0,1488.0,1430.0,0.0,0.0,0.0,0.0,0.0,0.0,0.0,0.0
4399118182,8,1525.0,1444.0,1507.0,1406.0,1472.0,1394.0,1490.0,1432.0,0.0,0.0,0.0,0.0,0.0,0.0,0.0,0.0
4399182267,8,1524.0,1449.0,1513.0,1414.0,1475.0,1395.0,1487.0,1430.0,0.0,0.0,0.0,0.0,0.0,0.0,0.0,0.0
4399206167,8,1525.0,1451.0,1516.0,1417.0,1476.0,1395.0,1485.0,1429.0,0.0,0.0,0.0,0.0,0.0,0.0,0.0,0.0
4399254188,8,1525.0,1453.0,1512.0,1419.0,1470.0,1398.0,1480.0,1434.0,0.0,0.0,0.0,0.0,0.0,0.0,0.0,0.0
4399298946,8,1528.0,1453.0,1510.0,1411.0,1468.0,1394.0,1486.0,1435.0,0.0,0.0,0.0,0.0,0.0,0.0,0.0,0.0
4399342972,8,1524.0,1457.0,1505.0,1415.0,1464.0,1399.0,1482.0,1441.0,0.0,0.0,0.0,0.0,0.0,0.0,0.0,0.0
4399386982,8,1522.0,1455.0,1500.0,1412.0,1461.0,1401.0,1484.0,1444.0,0.0,0.0,0.0,0.0,0.0,0.0,0.0,0.0
4399431332,8,1518.0,1447.0,1501.0,1416.0,1461.0,1401.0,1481.0,1444.0,0.0,0.0,0.0,0.0,0.0,0.0,0.0,0.0
4399454960,8,1521.0,1459.0,1499.0,1419.0,1464.0,1410.0,1486.0,1450.0,0.0,0.0,0.0,0.0,0.0,0.0,0.0,0.0
4399503308,8,1513.0,1455.0,1484.0,1415.0,1456.0,1416.0,1485.0,1456.0,0.0,0.0,0.0,0.0,0.0,0.0,0.0,0.0
4399547736,8,1515.0,1458.0,1490.0,1417.0,1457.0,1411.0,1482.0,1452.0,0.0,0.0,0.0,0.0,0.0,0.0,0.0,0.0
4399587853,8,1509.0,1460.0,1486.0,1422.0,1460.0,1411.0,1482.0,1450.0,0.0,0.0,0.0,0.0,0.0,0.0,0.0,0.0
4399631782,8,1507.0,1459.0,1491.0,1426.0,1460.0,1415.0,1475.0,1448.0,0.0,0.0,0.0,0.0,0.0,0.0,0.0,0.0
4399675788,8,1507.0,1466.0,1492.0,1430.0,1457.0,1416.0,1472.0,1452.0,0.0,0.0,0.0,0.0,0.0,0.0,0.0,0.0
4399723731,8,1511.0,1466.0,1494.0,1425.0,1454.0,1410.0,1473.0,1451.0,0.0,0.0,0.0,0.0,0.0,0.0,0.0,0.0
4399763748,8,1513.0,1466.0,1492.0,1424.0,1453.0,1411.0,1474.0,1453.0,0.0,0.0,0.0,0.0,0.0,0.0,0.0,0.0
4399804587,8,1510.0,1464.0,1492.0,1427.0,1458.0,1416.0,1476.0,1452.0,0.0,0.0,0.0,0.0,0.0,0.0,0.0,0.0
4399852536,8,1507.0,1462.0,1491.0,1428.0,1459.0,1417.0,1476.0,1448.0,0.0,0.0,0.0,0.0,0.0,0.0,0.0,0.0
4399896630,8,1513.0,1463.0,1501.0,1428.0,1462.0,1409.0,1474.0,1445.0,0.0,0.0,0.0,0.0,0.0,0.0,0.0,0.0
4399940561,8,1511.0,1468.0,1501.0,1433.0,1463.0,1414.0,1473.0,1448.0,0.0,0.0,0.0,0.0,0.0,0.0,0.0,0.0
4399984566,8,1510.0,1467.0,1504.0,1437.0,1467.0,1415.0,1474.0,1446.0,0.0,0.0,0.0,0.0,0.0,0.0,0.0,0.0
4400004534,8,1510.0,1464.0,1503.0,1434.0,1467.0,1414.0,1475.0,1444.0,0.0,0.0,0.0,0.0,0.0,0.0,0.0,0.0
4400049373,8,1512.0,1465.0,1504.0,1433.0,1467.0,1413.0,1475.0,1445.0,0.0,0.0,0.0,0.0,0.0,0.0,0.0,0.0
4400109432,8,1509.0,1462.0,1498.0,1433.0,1469.0,1420.0,1480.0,1449.0,0.0,0.0,0.0,0.0,0.0,0.0,0.0,0.0
4400153467,8,1514.0,1463.0,1505.0,1433.0,1471.0,1416.0,1480.0,1446.0,0.0,0.0,0.0,0.0,0.0,0.0,0.0,0.0
4400193366,8,1511.0,1462.0,1501.0,1433.0,1471.0,1419.0,1481.0,1448.0,0.0,0.0,0.0,0.0,0.0,0.0,0.0,0.0
4400233384,8,1512.0,1461.0,1498.0,1430.0,1468.0,1418.0,1481.0,1449.0,0.0,0.0,0.0,0.0,0.0,0.0,0.0,0.0
4400257457,8,1511.0,1461.0,1499.0,1430.0,1467.0,1416.0,1479.0,1447.0,0.0,0.0,0.0,0.0,0.0,0.0,0.0,0.0
4400302157,8,1519.0,1474.0,1509.0,1434.0,1463.0,1409.0,1473.0,1449.0,0.0,0.0,0.0,0.0,0.0,0.0,0.0,0.0
4400346133,8,1521.0,1474.0,1500.0,1429.0,1458.0,1415.0,1479.0,1459.0,0.0,0.0,0.0,0.0,0.0,0.0,0.0,0.0
4400390183,8,1517.0,1469.0,1491.0,1424.0,1453.0,1415.0,1479.0,1460.0,0.0,0.0,0.0,0.0,0.0,0.0,0.0,0.0
4400430171,8,1516.0,1466.0,1492.0,1423.0,1456.0,1416.0,1481.0,1458.0,0.0,0.0,0.0,0.0,0.0,0.0,0.0,0.0
4400474170,8,1519.0,1470.0,1496.0,1425.0,1455.0,1412.0,1478.0,1457.0,0.0,0.0,0.0,0.0,0.0,0.0,0.0,0.0
4400518283,8,1513.0,1466.0,1488.0,1423.0,1452.0,1415.0,1477.0,1458.0,0.0,0.0,0.0,0.0,0.0,0.0,0.0,0.0
4400559015,8,1508.0,1461.0,1477.0,1420.0,1450.0,1422.0,1480.0,1457.0,0.0,0.0,0.0,0.0,0.0,0.0,0.0,0.0
4400602998,8,1513.0,1462.0,1487.0,1419.0,1452.0,1412.0,1478.0,1455.0,0.0,0.0,0.0,0.0,0.0,0.0,0.0,0.0
4400650970,8,1509.0,1460.0,1482.0,1418.0,1451.0,1415.0,1478.0,1457.0,0.0,0.0,0.0,0.0,0.0,0.0,0.0,0.0
4400695058,8,1515.0,1469.0,1491.0,1424.0,1451.0,1413.0,1476.0,1458.0,0.0,0.0,0.0,0.0,0.0,0.0,0.0,0.0
4400738815,8,1522.0,1466.0,1488.0,1414.0,1449.0,1411.0,1483.0,1462.0,0.0,0.0,0.0,0.0,0.0,0.0,0.0,0.0
4400762951,8,1520.0,1462.0,1480.0,1409.0,1445.0,1411.0,1484.0,1464.0,0.0,0.0,0.0,0.0,0.0,0.0,0.0,0.0
4400806966,8,1520.0,1460.0,1482.0,1410.0,1449.0,1414.0,1487.0,1464.0,0.0,0.0,0.0,0.0,0.0,0.0,0.0,0.0
4400851828,8,1520.0,1459.0,1492.0,1415.0,1457.0,1410.0,1485.0,1454.0,0.0,0.0,0.0,0.0,0.0,0.0,0.0,0.0
4400895926,8,1515.0,1457.0,1489.0,1416.0,1457.0,1412.0,1483.0,1453.0,0.0,0.0,0.0,0.0,0.0,0.0,0.0,0.0
4400943802,8,1519.0,1460.0,1499.0,1420.0,1462.0,1408.0,1482.0,1448.0,0.0,0.0,0.0,0.0,0.0,0.0,0.0,0.0
4400987736,8,1517.0,1453.0,1492.0,1414.0,1463.0,1411.0,1487.0,1449.0,0.0,0.0,0.0,0.0,0.0,0.0,0.0,0.0
4401011774,8,1519.0,1450.0,1490.0,1412.0,1465.0,1415.0,1495.0,1453.0,0.0,0.0,0.0,0.0,0.0,0.0,0.0,0.0
4401055959,8,1529.0,1460.0,1501.0,1416.0,1467.0,1412.0,1495.0,1455.0,0.0,0.0,0.0,0.0,0.0,0.0,0.0,0.0
4401116728,8,1524.0,1461.0,1496.0,1419.0,1465.0,1417.0,1493.0,1458.0,0.0,0.0,0.0,0.0,0.0,0.0,0.0,0.0
4401140585,8,1532.0,1460.0,1502.0,1415.0,1469.0,1413.0,1499.0,1458.0,0.0,0.0,0.0,0.0,0.0,0.0,0.0,0.0
4401180893,8,1533.0,1454.0,1502.0,1411.0,1471.0,1411.0,1502.0,1454.0,0.0,0.0,0.0,0.0,0.0,0.0,0.0,0.0
4401228410,8,1529.0,1452.0,1503.0,1417.0,1479.0,1419.0,1506.0,1454.0,0.0,0.0,0.0,0.0,0.0,0.0,0.0,0.0
4401272994,8,1529.0,1453.0,1506.0,1420.0,1482.0,1420.0,1505.0,1453.0,0.0,0.0,0.0,0.0,0.0,0.0,0.0,0.0
4401317322,8,1534.0,1446.0,1506.0,1413.0,1486.0,1418.0,1514.0,1452.0,0.0,0.0,0.0,0.0,0.0,0.0,0.0,0.0
4401365337,8,1528.0,1439.0,1497.0,1408.0,1483.0,1419.0,1513.0,1451.0,0.0,0.0,0.0,0.0,0.0,0.0,0.0,0.0
4401409367,8,1528.0,1451.0,1504.0,1416.0,1479.0,1416.0,1503.0,1451.0,0.0,0.0,0.0,0.0,0.0,0.0,0.0,0.0
4401449372,8,1530.0,1457.0,1510.0,1421.0,1479.0,1414.0,1500.0,1450.0,0.0,0.0,0.0,0.0,0.0,0.0,0.0,0.0
4401493348,8,1530.0,1452.0,1508.0,1416.0,1479.0,1411.0,1501.0,1447.0,0.0,0.0,0.0,0.0,0.0,0.0,0.0,0.0
4401517430,8,1528.0,1453.0,1511.0,1419.0,1480.0,1409.0,1497.0,1443.0,0.0,0.0,0.0,0.0,0.0,0.0,0.0,0.0
4401578139,8,1531.0,1458.0,1520.0,1427.0,1487.0,1412.0,1499.0,1443.0,0.0,0.0,0.0,0.0,0.0,0.0,0.0,0.0
4401602121,8,1528.0,1453.0,1515.0,1426.0,1490.0,1418.0,1503.0,1445.0,0.0,0.0,0.0,0.0,0.0,0.0,0.0,0.0
4401646180,8,1530.0,1441.0,1509.0,1417.0,1495.0,1422.0,1516.0,1446.0,0.0,0.0,0.0,0.0,0.0,0.0,0.0,0.0
4401690199,8,1527.0,1448.0,1512.0,1426.0,1496.0,1426.0,1511.0,1447.0,0.0,0.0,0.0,0.0,0.0,0.0,0.0,0.0
4401734135,8,1528.0,1445.0,1509.0,1423.0,1496.0,1427.0,1515.0,1449.0,0.0,0.0,0.0,0.0,0.0,0.0,0.0,0.0
4401778518,8,1532.0,1445.0,1512.0,1420.0,1496.0,1423.0,1516.0,1448.0,0.0,0.0,0.0,0.0,0.0,0.0,0.0,0.0
4401822910,8,1534.0,1433.0,1505.0,1405.0,1495.0,1418.0,1523.0,1446.0,0.0,0.0,0.0,0.0,0.0,0.0,0.0,0.0
4401846913,8,1536.0,1436.0,1503.0,1405.0,1492.0,1419.0,1524.0,1450.0,0.0,0.0,0.0,0.0,0.0,0.0,0.0,0.0
4401894940,8,1536.0,1432.0,1508.0,1407.0,1500.0,1421.0,1528.0,1446.0,0.0,0.0,0.0,0.0,0.0,0.0,0.0,0.0
4401938934,8,1538.0,1437.0,1504.0,1402.0,1489.0,1416.0,1523.0,1451.0,0.0,0.0,0.0,0.0,0.0,0.0,0.0,0.0
4401982993,8,1535.0,1433.0,1507.0,1401.0,1490.0,1410.0,1519.0,1442.0,0.0,0.0,0.0,0.0,0.0,0.0,0.0,0.0
4402027038,8,1539.0,1437.0,1512.0,1399.0,1486.0,1400.0,1513.0,1437.0,0.0,0.0,0.0,0.0,0.0,0.0,0.0,0.0
4402070948,8,1543.0,1448.0,1508.0,1398.0,1473.0,1399.0,1508.0,1448.0,0.0,0.0,0.0,0.0,0.0,0.0,0.0,0.0
4402118933,8,1546.0,1452.0,1510.0,1395.0,1466.0,1390.0,1502.0,1447.0,0.0,0.0,0.0,0.0,0.0,0.0,0.0,0.0
4402140138,8,1545.0,1449.0,1507.0,1394.0,1466.0,1392.0,1504.0,1447.0,0.0,0.0,0.0,0.0,0.0,0.0,0.0,0.0
4402183737,8,1548.0,1450.0,1505.0,1389.0,1461.0,1388.0,1504.0,1450.0,0.0,0.0,0.0,0.0,0.0,0.0,0.0,0.0
4402231833,8,1545.0,1448.0,1503.0,1388.0,1459.0,1387.0,1501.0,1447.0,0.0,0.0,0.0,0.0,0.0,0.0,0.0,0.0
4402275892,8,1541.0,1444.0,1502.0,1387.0,1460.0,1385.0,1499.0,1442.0,0.0,0.0,0.0,0.0,0.0,0.0,0.0,0.0
4402320091,8,1536.0,1447.0,1501.0,1392.0,1458.0,1386.0,1493.0,1441.0,0.0,0.0,0.0,0.0,0.0,0.0,0.0,0.0
4402363815,8,1538.0,1452.0,1495.0,1386.0,1446.0,1382.0,1490.0,1447.0,0.0,0.0,0.0,0.0,0.0,0.0,0.0,0.0
4402408531,8,1542.0,1454.0,1502.0,1387.0,1447.0,1377.0,1487.0,1444.0,0.0,0.0,0.0,0.0,0.0,0.0,0.0,0.0
4402452543,8,1542.0,1451.0,1499.0,1381.0,1443.0,1372.0,1487.0,1443.0,0.0,0.0,0.0,0.0,0.0,0.0,0.0,0.0
4402496686,8,1540.0,1446.0,1497.0,1378.0,1445.0,1372.0,1488.0,1440.0,0.0,0.0,0.0,0.0,0.0,0.0,0.0,0.0
4402520570,8,1537.0,1447.0,1492.0,1379.0,1440.0,1375.0,1485.0,1443.0,0.0,0.0,0.0,0.0,0.0,0.0,0.0,0.0
4402560532,8,1532.0,1448.0,1494.0,1385.0,1443.0,1376.0,1481.0,1439.0,0.0,0.0,0.0,0.0,0.0,0.0,0.0,0.0
4402604653,8,1532.0,1445.0,1498.0,1384.0,1445.0,1370.0,1479.0,1432.0,0.0,0.0,0.0,0.0,0.0,0.0,0.0,0.0
4402645675,8,1532.0,1442.0,1490.0,1378.0,1441.0,1373.0,1483.0,1437.0,0.0,0.0,0.0,0.0,0.0,0.0,0.0,0.0
4402693424,8,1526.0,1440.0,1489.0,1383.0,1445.0,1378.0,1482.0,1435.0,0.0,0.0,0.0,0.0,0.0,0.0,0.0,0.0
4402737336,8,1529.0,1450.0,1499.0,1393.0,1447.0,1377.0,1477.0,1434.0,0.0,0.0,0.0,0.0,0.0,0.0,0.0,0.0
4402781371,8,1526.0,1449.0,1496.0,1393.0,1446.0,1379.0,1476.0,1435.0,0.0,0.0,0.0,0.0,0.0,0.0,0.0,0.0
4402825515,8,1518.0,1443.0,1492.0,1395.0,1449.0,1384.0,1475.0,1432.0,0.0,0.0,0.0,0.0,0.0,0.0,0.0,0.0
4402870201,8,1511.0,1445.0,1488.0,1402.0,1449.0,1391.0,1473.0,1435.0,0.0,0.0,0.0,0.0,0.0,0.0,0.0,0.0
4402894139,8,1513.0,1447.0,1495.0,1406.0,1454.0,1390.0,1472.0,1431.0,0.0,0.0,0.0,0.0,0.0,0.0,0.0,0.0
4402938215,8,1513.0,1459.0,1500.0,1413.0,1449.0,1386.0,1462.0,1431.0,0.0,0.0,0.0,0.0,0.0,0.0,0.0,0.0
4402982233,8,1508.0,1461.0,1501.0,1416.0,1445.0,1382.0,1452.0,1426.0,0.0,0.0,0.0,0.0,0.0,0.0,0.0,0.0
4403026009,8,1505.0,1464.0,1508.0,1424.0,1449.0,1381.0,1446.0,1421.0,0.0,0.0,0.0,0.0,0.0,0.0,0.0,0.0
4403070212,8,1502.0,1464.0,1505.0,1428.0,1450.0,1386.0,1447.0,1423.0,0.0,0.0,0.0,0.0,0.0,0.0,0.0,0.0
4403110199,8,1504.0,1467.0,1511.0,1427.0,1447.0,1377.0,1441.0,1418.0,0.0,0.0,0.0,0.0,0.0,0.0,0.0,0.0
4403151066,8,1496.0,1457.0,1508.0,1433.0,1453.0,1386.0,1442.0,1418.0,0.0,0.0,0.0,0.0,0.0,0.0,0.0,0.0
4403191025,8,1494.0,1460.0,1508.0,1434.0,1458.0,1388.0,1443.0,1414.0,0.0,0.0,0.0,0.0,0.0,0.0,0.0,0.0
4403234957,8,1489.0,1454.0,1497.0,1431.0,1457.0,1398.0,1449.0,1420.0,0.0,0.0,0.0,0.0,0.0,0.0,0.0,0.0
4403279055,8,1500.0,1447.0,1497.0,1420.0,1462.0,1398.0,1466.0,1425.0,0.0,0.0,0.0,0.0,0.0,0.0,0.0,0.0
4403322934,8,1492.0,1448.0,1490.0,1425.0,1460.0,1406.0,1463.0,1429.0,0.0,0.0,0.0,0.0,0.0,0.0,0.0,0.0
4403367239,8,1500.0,1455.0,1502.0,1428.0,1462.0,1398.0,1460.0,1425.0,0.0,0.0,0.0,0.0,0.0,0.0,0.0,0.0
4403410944,8,1500.0,1448.0,1499.0,1424.0,1465.0,1400.0,1466.0,1425.0,0.0,0.0,0.0,0.0,0.0,0.0,0.0,0.0
4403455782,8,1505.0,1466.0,1506.0,1430.0,1454.0,1392.0,1452.0,1428.0,0.0,0.0,0.0,0.0,0.0,0.0,0.0,0.0
4403495769,8,1509.0,1461.0,1506.0,1424.0,1457.0,1391.0,1459.0,1427.0,0.0,0.0,0.0,0.0,0.0,0.0,0.0,0.0
4403543745,8,1507.0,1463.0,1504.0,1424.0,1453.0,1391.0,1456.0,1430.0,0.0,0.0,0.0,0.0,0.0,0.0,0.0,0.0
4403567762,8,1509.0,1469.0,1506.0,1427.0,1448.0,1388.0,1452.0,1431.0,0.0,0.0,0.0,0.0,0.0,0.0,0.0,0.0
4403611740,8,1508.0,1463.0,1502.0,1422.0,1450.0,1390.0,1457.0,1432.0,0.0,0.0,0.0,0.0,0.0,0.0,0.0,0.0
4403659718,8,1512.0,1463.0,1502.0,1418.0,1448.0,1386.0,1457.0,1431.0,0.0,0.0,0.0,0.0,0.0,0.0,0.0,0.0
4403700552,8,1503.0,1461.0,1492.0,1420.0,1444.0,1394.0,1456.0,1436.0,0.0,0.0,0.0,0.0,0.0,0.0,0.0,0.0
4403744564,8,1507.0,1459.0,1500.0,1423.0,1455.0,1396.0,1462.0,1433.0,0.0,0.0,0.0,0.0,0.0,0.0,0.0,0.0
4403784600,8,1507.0,1460.0,1506.0,1428.0,1461.0,1397.0,1462.0,1429.0,0.0,0.0,0.0,0.0,0.0,0.0,0.0,0.0
4403832673,8,1505.0,1461.0,1498.0,1427.0,1457.0,1403.0,1464.0,1437.0,0.0,0.0,0.0,0.0,0.0,0.0,0.0,0.0
4403880568,8,1509.0,1462.0,1497.0,1423.0,1453.0,1400.0,1465.0,1439.0,0.0,0.0,0.0,0.0,0.0,0.0,0.0,0.0
4403921343,8,1507.0,1461.0,1496.0,1427.0,1459.0,1409.0,1470.0,1443.0,0.0,0.0,0.0,0.0,0.0,0.0,0.0,0.0
4403965362,8,1507.0,1460.0,1489.0,1422.0,1453.0,1410.0,1472.0,1448.0,0.0,0.0,0.0,0.0,0.0,0.0,0.0,0.0
4404009336,8,1505.0,1461.0,1485.0,1425.0,1453.0,1416.0,1472.0,1453.0,0.0,0.0,0.0,0.0,0.0,0.0,0.0,0.0
4404049359,8,1504.0,1464.0,1491.0,1431.0,1457.0,1416.0,1470.0,1449.0,0.0,0.0,0.0,0.0,0.0,0.0,0.0,0.0
4404093413,8,1506.0,1466.0,1499.0,1434.0,1461.0,1412.0,1468.0,1444.0,0.0,0.0,0.0,0.0,0.0,0.0,0.0,0.0
4404117439,8,1508.0,1467.0,1502.0,1434.0,1462.0,1411.0,1468.0,1443.0,0.0,0.0,0.0,0.0,0.0,0.0,0.0,0.0
4404178170,8,1504.0,1470.0,1496.0,1438.0,1458.0,1416.0,1466.0,1449.0,0.0,0.0,0.0,0.0,0.0,0.0,0.0,0.0
4404202029,8,1502.0,1471.0,1494.0,1441.0,1459.0,1422.0,1467.0,1452.0,0.0,0.0,0.0,0.0,0.0,0.0,0.0,0.0
4404246020,8,1501.0,1474.0,1496.0,1442.0,1458.0,1419.0,1463.0,1450.0,0.0,0.0,0.0,0.0,0.0,0.0,0.0,0.0
4404294141,8,1503.0,1467.0,1497.0,1437.0,1461.0,1416.0,1467.0,1446.0,0.0,0.0,0.0,0.0,0.0,0.0,0.0,0.0
4404342522,8,1505.0,1473.0,1499.0,1438.0,1456.0,1412.0,1463.0,1447.0,0.0,0.0,0.0,0.0,0.0,0.0,0.0,0.0
4404382204,8,1504.0,1475.0,1497.0,1441.0,1456.0,1417.0,1463.0,1450.0,0.0,0.0,0.0,0.0,0.0,0.0,0.0,0.0
4404426913,8,1504.0,1468.0,1499.0,1437.0,1460.0,1413.0,1465.0,1444.0,0.0,0.0,0.0,0.0,0.0,0.0,0.0,0.0
4404451258,8,1504.0,1471.0,1506.0,1443.0,1466.0,1413.0,1464.0,1441.0,0.0,0.0,0.0,0.0,0.0,0.0,0.0,0.0
4404498937,8,1500.0,1469.0,1506.0,1445.0,1466.0,1413.0,1459.0,1437.0,0.0,0.0,0.0,0.0,0.0,0.0,0.0,0.0
4404542934,8,1493.0,1468.0,1506.0,1451.0,1470.0,1416.0,1457.0,1433.0,0.0,0.0,0.0,0.0,0.0,0.0,0.0,0.0
4404587017,8,1496.0,1469.0,1514.0,1454.0,1475.0,1414.0,1457.0,1429.0,0.0,0.0,0.0,0.0,0.0,0.0,0.0,0.0
4404631244,8,1494.0,1469.0,1512.0,1453.0,1471.0,1411.0,1453.0,1427.0,0.0,0.0,0.0,0.0,0.0,0.0,0.0,0.0
4404674950,8,1494.0,1463.0,1512.0,1450.0,1476.0,1412.0,1459.0,1425.0,0.0,0.0,0.0,0.0,0.0,0.0,0.0,0.0
4404715785,8,1495.0,1460.0,1512.0,1448.0,1478.0,1413.0,1461.0,1424.0,0.0,0.0,0.0,0.0,0.0,0.0,0.0,0.0
4404759740,8,1503.0,1460.0,1518.0,1442.0,1478.0,1403.0,1462.0,1421.0,0.0,0.0,0.0,0.0,0.0,0.0,0.0,0.0
4404803736,8,1506.0,1460.0,1523.0,1442.0,1481.0,1400.0,1464.0,1418.0,0.0,0.0,0.0,0.0,0.0,0.0,0.0,0.0
4404847887,8,1516.0,1461.0,1526.0,1432.0,1475.0,1401.0,1468.0,1424.0,0.0,0.0,0.0,0.0,0.0,0.0,0.0,0.0
4404891734,8,1520.0,1457.0,1522.0,1423.0,1472.0,1386.0,1470.0,1420.0,0.0,0.0,0.0,0.0,0.0,0.0,0.0,0.0
4404911736,8,1523.0,1462.0,1524.0,1426.0,1472.0,1388.0,1471.0,1424.0,0.0,0.0,0.0,0.0,0.0,0.0,0.0,0.0
4404956842,8,1527.0,1459.0,1533.0,1424.0,1477.0,1381.0,1471.0,1416.0,0.0,0.0,0.0,0.0,0.0,0.0,0.0,0.0
4405000678,8,1519.0,1452.0,1515.0,1420.0,1473.0,1393.0,1478.0,1426.0,0.0,0.0,0.0,0.0,0.0,0.0,0.0,0.0
4405048604,8,1526.0,1461.0,1515.0,1416.0,1462.0,1386.0,1473.0,1432.0,0.0,0.0,0.0,0.0,0.0,0.0,0.0,0.0
4405096648,8,1523.0,1458.0,1514.0,1416.0,1465.0,1387.0,1474.0,1429.0,0.0,0.0,0.0,0.0,0.0,0.0,0.0,0.0
4405120414,8,1524.0,1461.0,1514.0,1417.0,1462.0,1387.0,1472.0,1432.0,0.0,0.0,0.0,0.0,0.0,0.0,0.0,0.0
4405184571,8,1522.0,1469.0,1517.0,1423.0,1456.0,1393.0,1467.0,1433.0,0.0,0.0,0.0,0.0,0.0,0.0,0.0,0.0
4405205389,8,1513.0,1461.0,1505.0,1420.0,1455.0,1390.0,1463.0,1431.0,0.0,0.0,0.0,0.0,0.0,0.0,0.0,0.0
4405249428,8,1507.0,1468.0,1506.0,1430.0,1453.0,1394.0,1455.0,1432.0,0.0,0.0,0.0,0.0,0.0,0.0,0.0,0.0
4405293403,8,1502.0,1467.0,1499.0,1431.0,1452.0,1400.0,1455.0,1436.0,0.0,0.0,0.0,0.0,0.0,0.0,0.0,0.0
4405341332,8,1491.0,1463.0,1495.0,1437.0,1454.0,1405.0,1450.0,1431.0,0.0,0.0,0.0,0.0,0.0,0.0,0.0,0.0
4405381425,8,1492.0,1466.0,1500.0,1440.0,1456.0,1403.0,1448.0,1429.0,0.0,0.0,0.0,0.0,0.0,0.0,0.0,0.0
4405429207,8,1486.0,1467.0,1491.0,1443.0,1451.0,1410.0,1445.0,1435.0,0.0,0.0,0.0,0.0,0.0,0.0,0.0,0.0
4405470117,8,1489.0,1474.0,1499.0,1449.0,1453.0,1409.0,1442.0,1434.0,0.0,0.0,0.0,0.0,0.0,0.0,0.0,0.0
4405518297,8,1482.0,1473.0,1496.0,1452.0,1452.0,1410.0,1438.0,1431.0,0.0,0.0,0.0,0.0,0.0,0.0,0.0,0.0
4405562177,8,1483.0,1475.0,1490.0,1450.0,1448.0,1414.0,1441.0,1439.0,0.0,0.0,0.0,0.0,0.0,0.0,0.0,0.0
4405582280,8,1487.0,1475.0,1490.0,1448.0,1448.0,1415.0,1444.0,1442.0,0.0,0.0,0.0,0.0,0.0,0.0,0.0,0.0
4405630172,8,1481.0,1477.0,1488.0,1452.0,1447.0,1418.0,1440.0,1442.0,0.0,0.0,0.0,0.0,0.0,0.0,0.0,0.0
4405670232,8,1482.0,1469.0,1483.0,1447.0,1450.0,1423.0,1449.0,1446.0,0.0,0.0,0.0,0.0,0.0,0.0,0.0,0.0
4405718157,8,1485.0,1469.0,1483.0,1444.0,1450.0,1423.0,1452.0,1448.0,0.0,0.0,0.0,0.0,0.0,0.0,0.0,0.0
4405762945,8,1484.0,1469.0,1482.0,1446.0,1452.0,1428.0,1455.0,1450.0,0.0,0.0,0.0,0.0,0.0,0.0,0.0,0.0
4405806946,8,1494.0,1472.0,1489.0,1444.0,1454.0,1423.0,1459.0,1451.0,0.0,0.0,0.0,0.0,0.0,0.0,0.0,0.0
4405850955,8,1499.0,1475.0,1488.0,1441.0,1451.0,1422.0,1461.0,1456.0,0.0,0.0,0.0,0.0,0.0,0.0,0.0,0.0
4405898820,8,1498.0,1476.0,1490.0,1444.0,1453.0,1423.0,1461.0,1455.0,0.0,0.0,0.0,0.0,0.0,0.0,0.0,0.0
4405922987,8,1501.0,1478.0,1493.0,1442.0,1450.0,1418.0,1458.0,1454.0,0.0,0.0,0.0,0.0,0.0,0.0,0.0,0.0
4405967359,8,1498.0,1471.0,1490.0,1441.0,1456.0,1422.0,1464.0,1452.0,0.0,0.0,0.0,0.0,0.0,0.0,0.0,0.0
4406011788,8,1500.0,1472.0,1492.0,1443.0,1459.0,1426.0,1467.0,1455.0,0.0,0.0,0.0,0.0,0.0,0.0,0.0,0.0
4406055865,8,1502.0,1477.0,1495.0,1446.0,1459.0,1425.0,1466.0,1456.0,0.0,0.0,0.0,0.0,0.0,0.0,0.0,0.0
4406099787,8,1495.0,1471.0,1489.0,1448.0,1463.0,1434.0,1469.0,1457.0,0.0,0.0,0.0,0.0,0.0,0.0,0.0,0.0
4406143824,8,1496.0,1471.0,1492.0,1447.0,1462.0,1428.0,1466.0,1452.0,0.0,0.0,0.0,0.0,0.0,0.0,0.0,0.0
4406187879,8,1497.0,1471.0,1493.0,1447.0,1464.0,1430.0,1469.0,1454.0,0.0,0.0,0.0,0.0,0.0,0.0,0.0,0.0
4406232516,8,1497.0,1470.0,1492.0,1445.0,1461.0,1427.0,1467.0,1453.0,0.0,0.0,0.0,0.0,0.0,0.0,0.0,0.0
4406280599,8,1499.0,1473.0,1491.0,1447.0,1462.0,1432.0,1470.0,1458.0,0.0,0.0,0.0,0.0,0.0,0.0,0.0,0.0
4406304541,8,1503.0,1481.0,1498.0,1452.0,1462.0,1430.0,1467.0,1459.0,0.0,0.0,0.0,0.0,0.0,0.0,0.0,0.0
4406348562,8,1504.0,1478.0,1500.0,1452.0,1467.0,1432.0,1472.0,1458.0,0.0,0.0,0.0,0.0,0.0,0.0,0.0,0.0
4406396553,8,1505.0,1474.0,1498.0,1449.0,1470.0,1434.0,1477.0,1459.0,0.0,0.0,0.0,0.0,0.0,0.0,0.0,0.0
4406440543,8,1505.0,1472.0,1498.0,1448.0,1471.0,1434.0,1478.0,1458.0,0.0,0.0,0.0,0.0,0.0,0.0,0.0,0.0
4406485374,8,1506.0,1476.0,1506.0,1453.0,1474.0,1431.0,1474.0,1453.0,0.0,0.0,0.0,0.0,0.0,0.0,0.0,0.0
4406525339,8,1510.0,1478.0,1512.0,1455.0,1477.0,1429.0,1475.0,1452.0,0.0,0.0,0.0,0.0,0.0,0.0,0.0,0.0
4406573332,8,1510.0,1478.0,1518.0,1456.0,1478.0,1423.0,1471.0,1445.0,0.0,0.0,0.0,0.0,0.0,0.0,0.0,0.0
4406617743,8,1509.0,1478.0,1521.0,1459.0,1482.0,1423.0,1470.0,1443.0,0.0,0.0,0.0,0.0,0.0,0.0,0.0,0.0
4406641334,8,1511.0,1484.0,1525.0,1462.0,1480.0,1421.0,1467.0,1443.0,0.0,0.0,0.0,0.0,0.0,0.0,0.0,0.0
4406685385,8,1508.0,1478.0,1524.0,1458.0,1481.0,1417.0,1465.0,1436.0,0.0,0.0,0.0,0.0,0.0,0.0,0.0,0.0
4406729385,8,1508.0,1482.0,1533.0,1465.0,1485.0,1414.0,1460.0,1430.0,0.0,0.0,0.0,0.0,0.0,0.0,0.0,0.0
4406774173,8,1506.0,1478.0,1527.0,1460.0,1480.0,1411.0,1458.0,1429.0,0.0,0.0,0.0,0.0,0.0,0.0,0.0,0.0
4406822190,8,1508.0,1468.0,1525.0,1452.0,1485.0,1411.0,1467.0,1427.0,0.0,0.0,0.0,0.0,0.0,0.0,0.0,0.0
4406846189,8,1506.0,1462.0,1516.0,1443.0,1479.0,1410.0,1470.0,1430.0,0.0,0.0,0.0,0.0,0.0,0.0,0.0,0.0
4406894142,8,1508.0,1462.0,1515.0,1441.0,1478.0,1410.0,1471.0,1431.0,0.0,0.0,0.0,0.0,0.0,0.0,0.0,0.0
4406934141,8,1505.0,1460.0,1512.0,1437.0,1473.0,1405.0,1466.0,1428.0,0.0,0.0,0.0,0.0,0.0,0.0,0.0,0.0
4406994991,8,1508.0,1457.0,1520.0,1438.0,1481.0,1402.0,1469.0,1420.0,0.0,0.0,0.0,0.0,0.0,0.0,0.0,0.0
4407018908,8,1506.0,1453.0,1519.0,1437.0,1484.0,1403.0,1471.0,1419.0,0.0,0.0,0.0,0.0,0.0,0.0,0.0,0.0
4407066975,8,1507.0,1458.0,1522.0,1440.0,1481.0,1399.0,1465.0,1417.0,0.0,0.0,0.0,0.0,0.0,0.0,0.0,0.0
4407110961,8,1513.0,1456.0,1528.0,1435.0,1483.0,1392.0,1468.0,1413.0,0.0,0.0,0.0,0.0,0.0,0.0,0.0,0.0
4407154982,8,1512.0,1455.0,1530.0,1437.0,1485.0,1393.0,1467.0,1411.0,0.0,0.0,0.0,0.0,0.0,0.0,0.0,0.0
4407195379,8,1507.0,1449.0,1519.0,1434.0,1485.0,1401.0,1473.0,1416.0,0.0,0.0,0.0,0.0,0.0,0.0,0.0,0.0
4407238975,8,1506.0,1446.0,1516.0,1433.0,1487.0,1404.0,1476.0,1418.0,0.0,0.0,0.0,0.0,0.0,0.0,0.0,0.0
4407279615,8,1503.0,1440.0,1511.0,1431.0,1490.0,1410.0,1482.0,1419.0,0.0,0.0,0.0,0.0,0.0,0.0,0.0,0.0
4407319784,8,1496.0,1435.0,1504.0,1431.0,1489.0,1415.0,1481.0,1419.0,0.0,0.0,0.0,0.0,0.0,0.0,0.0,0.0
4407367730,8,1491.0,1435.0,1503.0,1439.0,1496.0,1425.0,1483.0,1421.0,0.0,0.0,0.0,0.0,0.0,0.0,0.0,0.0
4407391613,8,1495.0,1446.0,1517.0,1449.0,1499.0,1420.0,1477.0,1418.0,0.0,0.0,0.0,0.0,0.0,0.0,0.0,0.0
4407451780,8,1490.0,1445.0,1511.0,1450.0,1497.0,1425.0,1476.0,1420.0,0.0,0.0,0.0,0.0,0.0,0.0,0.0,0.0
4407475725,8,1496.0,1451.0,1519.0,1451.0,1495.0,1417.0,1471.0,1417.0,0.0,0.0,0.0,0.0,0.0,0.0,0.0,0.0
4407523807,8,1499.0,1453.0,1521.0,1450.0,1494.0,1415.0,1472.0,1419.0,0.0,0.0,0.0,0.0,0.0,0.0,0.0,0.0
4407568558,8,1502.0,1451.0,1519.0,1445.0,1493.0,1415.0,1476.0,1421.0,0.0,0.0,0.0,0.0,0.0,0.0,0.0,0.0
4407616595,8,1504.0,1448.0,1514.0,1438.0,1490.0,1415.0,1481.0,1425.0,0.0,0.0,0.0,0.0,0.0,0.0,0.0,0.0
4407636568,8,1504.0,1450.0,1514.0,1442.0,1492.0,1419.0,1482.0,1427.0,0.0,0.0,0.0,0.0,0.0,0.0,0.0,0.0
4407704548,8,1506.0,1458.0,1518.0,1446.0,1489.0,1417.0,1477.0,1429.0,0.0,0.0,0.0,0.0,0.0,0.0,0.0,0.0
4407728532,8,1504.0,1456.0,1516.0,1443.0,1486.0,1414.0,1474.0,1427.0,0.0,0.0,0.0,0.0,0.0,0.0,0.0,0.0
4407789313,8,1504.0,1459.0,1522.0,1449.0,1489.0,1412.0,1471.0,1423.0,0.0,0.0,0.0,0.0,0.0,0.0,0.0,0.0
4407809785,8,1507.0,1460.0,1525.0,1450.0,1492.0,1414.0,1474.0,1424.0,0.0,0.0,0.0,0.0,0.0,0.0,0.0,0.0
4407853608,8,1503.0,1452.0,1519.0,1444.0,1492.0,1413.0,1475.0,1421.0,0.0,0.0,0.0,0.0,0.0,0.0,0.0,0.0
4407901351,8,1496.0,1457.0,1517.0,1451.0,1488.0,1416.0,1467.0,1422.0,0.0,0.0,0.0,0.0,0.0,0.0,0.0,0.0
4407941381,8,1492.0,1449.0,1511.0,1450.0,1494.0,1425.0,1475.0,1424.0,0.0,0.0,0.0,0.0,0.0,0.0,0.0,0.0
4407989720,8,1492.0,1455.0,1510.0,1453.0,1488.0,1425.0,1470.0,1427.0,0.0,0.0,0.0,0.0,0.0,0.0,0.0,0.0
4408034132,8,1493.0,1457.0,1511.0,1455.0,1489.0,1426.0,1471.0,1429.0,0.0,0.0,0.0,0.0,0.0,0.0,0.0,0.0
4408082254,8,1495.0,1458.0,1512.0,1452.0,1487.0,1423.0,1470.0,1429.0,0.0,0.0,0.0,0.0,0.0,0.0,0.0,0.0
4408102312,8,1495.0,1462.0,1510.0,1453.0,1483.0,1423.0,1468.0,1431.0,0.0,0.0,0.0,0.0,0.0,0.0,0.0,0.0
4408170515,8,1498.0,1458.0,1503.0,1444.0,1478.0,1423.0,1473.0,1437.0,0.0,0.0,0.0,0.0,0.0,0.0,0.0,0.0
4408190245,8,1497.0,1460.0,1504.0,1447.0,1479.0,1424.0,1472.0,1437.0,0.0,0.0,0.0,0.0,0.0,0.0,0.0,0.0
4408238188,8,1497.0,1459.0,1508.0,1450.0,1485.0,1426.0,1474.0,1435.0,0.0,0.0,0.0,0.0,0.0,0.0,0.0,0.0
4408286172,8,1499.0,1462.0,1507.0,1448.0,1478.0,1422.0,1470.0,1436.0,0.0,0.0,0.0,0.0,0.0,0.0,0.0,0.0
4408330937,8,1496.0,1465.0,1504.0,1450.0,1475.0,1424.0,1467.0,1439.0,0.0,0.0,0.0,0.0,0.0,0.0,0.0,0.0
4408374975,8,1497.0,1461.0,1502.0,1447.0,1477.0,1425.0,1471.0,1439.0,0.0,0.0,0.0,0.0,0.0,0.0,0.0,0.0
4408414954,8,1497.0,1466.0,1503.0,1449.0,1473.0,1423.0,1467.0,1440.0,0.0,0.0,0.0,0.0,0.0,0.0,0.0,0.0
4408459351,8,1497.0,1461.0,1505.0,1447.0,1476.0,1420.0,1468.0,1435.0,0.0,0.0,0.0,0.0,0.0,0.0,0.0,0.0
4408503042,8,1498.0,1463.0,1506.0,1447.0,1476.0,1420.0,1468.0,1436.0,0.0,0.0,0.0,0.0,0.0,0.0,0.0,0.0
4408543773,8,1499.0,1464.0,1506.0,1449.0,1478.0,1424.0,1470.0,1439.0,0.0,0.0,0.0,0.0,0.0,0.0,0.0,0.0
4408587754,8,1500.0,1467.0,1512.0,1453.0,1480.0,1421.0,1467.0,1435.0,0.0,0.0,0.0,0.0,0.0,0.0,0.0,0.0
4408631737,8,1497.0,1463.0,1509.0,1451.0,1481.0,1423.0,1469.0,1435.0,0.0,0.0,0.0,0.0,0.0,0.0,0.0,0.0
4408679749,8,1497.0,1464.0,1506.0,1454.0,1474.0,1423.0,1463.0,1439.0,0.0,0.0,0.0,0.0,0.0,0.0,0.0,0.0
4408719733,8,1496.0,1465.0,1504.0,1450.0,1474.0,1423.0,1467.0,1439.0,0.0,0.0,0.0,0.0,0.0,0.0,0.0,0.0
4408743732,8,1497.0,1465.0,1503.0,1449.0,1474.0,1424.0,1468.0,1440.0,0.0,0.0,0.0,0.0,0.0,0.0,0.0,0.0
4408787742,8,1497.0,1463.0,1503.0,1448.0,1475.0,1423.0,1468.0,1439.0,0.0,0.0,0.0,0.0,0.0,0.0,0.0,0.0
4408832540,8,1497.0,1463.0,1508.0,1450.0,1479.0,1421.0,1468.0,1434.0,0.0,0.0,0.0,0.0,0.0,0.0,0.0,0.0
4408872704,8,1492.0,1468.0,1506.0,1455.0,1475.0,1424.0,1461.0,1436.0,0.0,0.0,0.0,0.0,0.0,0.0,0.0,0.0
4408916534,8,1495.0,1468.0,1507.0,1453.0,1475.0,1422.0,1463.0,1436.0,0.0,0.0,0.0,0.0,0.0,0.0,0.0,0.0
4408960534,8,1490.0,1468.0,1504.0,1456.0,1474.0,1426.0,1461.0,1437.0,0.0,0.0,0.0,0.0,0.0,0.0,0.0,0.0
4409000891,8,1490.0,1465.0,1506.0,1457.0,1479.0,1427.0,1463.0,1435.0,0.0,0.0,0.0,0.0,0.0,0.0,0.0,0.0
4409044539,8,1492.0,1468.0,1507.0,1458.0,1479.0,1428.0,1463.0,1437.0,0.0,0.0,0.0,0.0,0.0,0.0,0.0,0.0
4409089364,8,1496.0,1470.0,1505.0,1455.0,1475.0,1427.0,1466.0,1442.0,0.0,0.0,0.0,0.0,0.0,0.0,0.0,0.0
4409133443,8,1494.0,1467.0,1495.0,1449.0,1468.0,1429.0,1468.0,1448.0,0.0,0.0,0.0,0.0,0.0,0.0,0.0,0.0
4409177467,8,1505.0,1473.0,1505.0,1448.0,1470.0,1423.0,1469.0,1447.0,0.0,0.0,0.0,0.0,0.0,0.0,0.0,0.0
4409201395,8,1507.0,1468.0,1499.0,1440.0,1467.0,1423.0,1475.0,1451.0,0.0,0.0,0.0,0.0,0.0,0.0,0.0,0.0
4409249356,8,1510.0,1473.0,1503.0,1442.0,1467.0,1421.0,1473.0,1452.0,0.0,0.0,0.0,0.0,0.0,0.0,0.0,0.0
4409293452,8,1506.0,1470.0,1500.0,1440.0,1465.0,1419.0,1470.0,1448.0,0.0,0.0,0.0,0.0,0.0,0.0,0.0,0.0
4409334112,8,1508.0,1473.0,1506.0,1443.0,1466.0,1417.0,1469.0,1447.0,0.0,0.0,0.0,0.0,0.0,0.0,0.0,0.0
4409378154,8,1504.0,1466.0,1501.0,1443.0,1471.0,1424.0,1474.0,1447.0,0.0,0.0,0.0,0.0,0.0,0.0,0.0,0.0
4409422270,8,1501.0,1460.0,1498.0,1442.0,1475.0,1428.0,1478.0,1446.0,0.0,0.0,0.0,0.0,0.0,0.0,0.0,0.0
4409466151,8,1503.0,1462.0,1501.0,1443.0,1476.0,1426.0,1477.0,1445.0,0.0,0.0,0.0,0.0,0.0,0.0,0.0,0.0
4409510197,8,1501.0,1468.0,1499.0,1447.0,1470.0,1428.0,1472.0,1449.0,0.0,0.0,0.0,0.0,0.0,0.0,0.0,0.0
4409550201,8,1502.0,1466.0,1497.0,1443.0,1470.0,1428.0,1475.0,1451.0,0.0,0.0,0.0,0.0,0.0,0.0,0.0,0.0
4409590974,8,1503.0,1471.0,1496.0,1443.0,1463.0,1424.0,1469.0,1452.0,0.0,0.0,0.0,0.0,0.0,0.0,0.0,0.0
4409634981,8,1500.0,1474.0,1496.0,1445.0,1459.0,1422.0,1463.0,1451.0,0.0,0.0,0.0,0.0,0.0,0.0,0.0,0.0
4409674954,8,1499.0,1477.0,1496.0,1449.0,1460.0,1426.0,1463.0,1454.0,0.0,0.0,0.0,0.0,0.0,0.0,0.0,0.0
4409714998,8,1498.0,1479.0,1501.0,1455.0,1464.0,1427.0,1460.0,1451.0,0.0,0.0,0.0,0.0,0.0,0.0,0.0,0.0
