timestamp,lat,lon,alt,delta_alt,vel_n,vel_e,vel_d,yaw,eph,epv,terrain_alt,lat_lon_reset_counter,alt_reset_counter,terrain_alt_valid,dead_reckoning
1184732700,37.10253309496879,-76.38844802519569,-2.4510639,-0.0,0.06531673,0.092682615,-0.004848701,-0.13126583,1.0550175,1.5549338,0.0,2,0,0,0
1184934355,37.1025332055985,-76.3884478006072,-2.4444048,-0.0,0.067799576,0.09444658,-0.0050819395,-0.13119145,1.0494617,1.554811,0.0,2,0,0,0
1185138379,37.10253329953386,-76.3884475635983,-2.428473,-0.0,0.07414848,0.10240724,-0.0052335532,-0.13120803,1.049615,1.5546683,0.0,2,0,0,0
1185338327,37.10253340449442,-76.38844734527378,-2.4177623,-0.0,0.07672784,0.08847862,-0.0146310385,-0.13173258,1.0495977,1.5547037,0.0,2,0,0,0
1185542314,37.10253354625722,-76.3884470956187,-2.4166408,-0.0,0.065117195,0.11566526,-0.0116673615,-0.1303867,1.055153,1.5549023,0.0,2,0,0,0
1185747815,37.1025336459732,-76.38844685312012,-2.4162004,-0.0,0.07652909,0.102050796,-0.018440215,-0.12999713,1.0497186,1.5548601,0.0,2,0,0,0
1185952053,37.10253375143974,-76.38844670348948,-2.4047306,-0.0,0.020699685,-0.15744545,-0.2434149,-0.128803,1.049776,1.5549091,0.0,2,0,0,0
1186151785,37.102533740203896,-76.38844742850688,-2.2961545,-0.0,-0.028181218,-0.34510922,-0.7651533,-0.1265406,1.0497926,1.5549413,0.0,2,0,0,0
1186355921,37.10253362561121,-76.38844851687165,-2.0703244,-0.0,-0.11776491,-0.5359771,-0.94372356,-0.114091314,1.0500451,1.5548116,0.0,2,0,0,0
1186559796,37.10253333401881,-76.38844980086542,-1.835213,-0.0,-0.21051696,-0.5568398,-0.96170354,-0.10552186,1.0501082,1.5548472,0.0,2,0,0,0
1186759938,37.10253294512068,-76.3884509478369,-1.567108,-0.0,-0.25264993,-0.4660478,-0.9284188,-0.10280739,1.0501337,1.554887,0.0,2,0,0,0
1186959944,37.10253256330268,-76.38845189396369,-1.3026435,-0.0,-0.23680493,-0.32190922,-0.9044953,-0.10220604,1.0501785,1.5546795,0.0,2,0,0,0
1187163984,37.10253225829683,-76.38845262115296,-1.0706892,-0.0,-0.2017101,-0.19511652,-0.8805721,-0.10278058,1.0504211,1.554807,0.0,2,0,0,0
1187367973,37.10253205043404,-76.38845306810933,-0.8873814,-0.0,-0.15045528,-0.10544584,-0.8632362,-0.10324964,1.0504392,1.5546108,0.0,2,0,0,0
1187571916,37.102531885347254,-76.38845325078026,-0.72314614,-0.0,-0.110475466,-0.01363796,-0.8529353,-0.10277897,1.0506605,1.5547416,0.0,2,0,0,0
1187771955,37.10253175839644,-76.38845323091287,-0.5693135,-0.0,-0.09520502,0.07135705,-0.84704006,-0.103336215,1.0506045,1.5547862,0.0,2,0,0,0
1187971806,37.1025316675789,-76.38845313206582,-0.42372584,-0.0,-0.07357034,0.123656526,-0.8439062,-0.106390096,1.0506101,1.5545945,0.0,2,0,0,0
1188175730,37.102531671927395,-76.38845292125256,-0.28814918,-0.0,-0.06060339,0.15314074,-0.835443,-0.10964018,1.0506122,1.554648,0.0,2,0,0,0
1188379904,37.10253161570374,-76.38845259212832,-0.15084669,-0.0,-0.043003187,0.17175493,-0.8298202,-0.11186113,1.0508206,1.554789,0.0,2,0,0,0
1188579940,37.10253147397143,-76.38845220142893,-0.012175918,-0.0,-0.056734867,0.19371177,-0.81030744,-0.11374073,1.0507861,1.5545986,0.0,2,0,0,0
1188779808,37.102531358157556,-76.38845188735962,0.1312595,-0.0,-0.039317813,0.1688655,-0.82874554,-0.11563838,1.0507532,1.5546527,0.0,2,0,0,0
1188983931,37.102531276765795,-76.38845165368953,0.2868839,-0.0,-0.03378936,0.1380672,-0.8247259,-0.11739384,1.0507227,1.5547056,0.0,2,0,0,0
1189187926,37.102531197839774,-76.38845146438872,0.43813246,-0.0,-0.0055723893,0.104534395,-0.83440924,-0.11899834,1.0509355,1.5548415,0.0,2,0,0,0
1189387811,37.10253115517991,-76.38845127769571,0.58748573,-0.0,0.019517526,0.08553202,-0.848125,-0.11993651,1.0509374,1.5546461,0.0,2,0,0,0
1189591805,37.1025311494294,-76.38845113540965,0.73537195,-0.0,0.049523212,0.05790378,-0.8643717,-0.12142907,1.0509368,1.5546962,0.0,2,0,0,0
1189791925,37.102531206935545,-76.38845106422099,0.8823395,-0.0,0.06649593,0.040733326,-0.86290866,-0.123293616,1.0509664,1.5547425,0.0,2,0,0,0
1189995747,37.10253128543287,-76.3884510809644,1.0344791,-0.0,0.07571029,0.02701044,-0.87883234,-0.1258085,1.0511762,1.5546352,0.0,2,0,0,0
1190197587,37.10253134269449,-76.38845113672718,1.1929114,-0.0,0.07759053,0.011188104,-0.8813808,-0.12811014,1.0511638,1.5546932,0.0,2,0,0,0
1190397510,37.10253136798253,-76.38845121866952,1.3625574,-0.0,0.07943778,0.012981165,-0.87788486,-0.12962486,1.0510576,1.5547085,0.0,2,0,0,0
1190601538,37.102531308649574,-76.38845127393212,1.5284408,-0.0,0.07642632,0.00919075,-0.8927388,-0.13066259,1.0512837,1.5548434,0.0,2,0,0,0
1190801365,37.10253125324476,-76.38845125442506,1.6905591,-0.0,0.08172811,0.010588058,-0.893275,-0.13068026,1.0512325,1.554648,0.0,2,0,0,0
1191001419,37.102531185554014,-76.38845117378924,1.8521564,-0.0,0.09465282,0.028363377,-0.8910644,-0.13003032,1.0512477,1.5546983,0.0,2,0,0,0
1191205593,37.10253116908272,-76.38845107632949,2.022194,-0.0,0.09498942,0.038884126,-0.8902542,-0.12960595,1.0512316,1.5547379,0.0,2,0,0,0
1191405553,37.102531221472944,-76.38845098011186,2.1945426,-0.0,0.12989418,0.024310553,-0.91482383,-0.12848261,1.0512482,1.5547787,0.0,2,0,0,0
1191609416,37.102531346412626,-76.38845088894848,2.366283,-0.0,0.13139062,0.023357654,-0.9119823,-0.12738235,1.0514181,1.5549014,0.0,2,0,0,0
1191813389,37.10253150210367,-76.3884508214968,2.5333712,-0.0,0.13041064,0.027935242,-0.9072952,-0.12709099,1.0513777,1.5549355,0.0,2,0,0,0
1192013597,37.10253166587815,-76.38845077900957,2.6981037,-0.0,0.13029845,0.013484919,-0.9322102,-0.12700276,1.0514034,1.5547267,0.0,2,0,0,0
1192213628,37.102531874666916,-76.3884507251935,2.8713007,-0.0,0.11747858,0.03391207,-0.91238356,-0.12873393,1.0514271,1.5547676,0.0,2,0,0,0
1192417554,37.1025320814102,-76.3884506275243,3.0573285,-0.0,0.10215269,0.030768046,-0.93057895,-0.13087805,1.0516665,1.55489,0.0,2,0,0,0
1192621516,37.10253225678462,-76.38845046519914,3.2418594,-0.0,0.085086614,0.047649626,-0.93173337,-0.13307369,1.0516876,1.5549268,0.0,2,0,0,0
1192825553,37.10253236869226,-76.38845022256615,3.4237256,-0.0,0.059584953,0.047411278,-0.94639874,-0.1339442,1.0518624,1.5548041,0.0,2,0,0,0
1193025416,37.10253234925362,-76.38844990337824,3.599093,-0.0,0.032449868,0.057611547,-0.9553865,-0.13315743,1.0518537,1.5548449,0.0,2,0,0,0
1193229544,37.102532259782805,-76.38844952506169,3.776702,-0.0,0.017460786,0.05634097,-0.9592374,-0.1316094,1.0518786,1.554885,0.0,2,0,0,0
1193433410,37.102532153892085,-76.38844914088978,3.9553452,-0.0,0.009959641,0.056593813,-0.97510016,-0.13004337,1.0521218,1.5547663,0.0,2,0,0,0
1193637349,37.10253204706648,-76.38844882031994,4.142802,-0.0,0.007159883,0.038930863,-0.9879297,-0.12893817,1.0521115,1.554803,0.0,2,0,0,0
1193837483,37.10253197583372,-76.3884485757027,4.326784,-0.0,0.01990687,0.009804643,-1.0001624,-0.12873504,1.0520724,1.55484,0.0,2,0,0,0
1194037541,37.10253194715795,-76.38844842962598,4.518407,-0.0,0.017376106,-0.003201113,-0.98205674,-0.12961446,1.0520678,1.5548719,0.0,2,0,0,0
1194241512,37.102531961137856,-76.38844835733502,4.720836,-0.0,0.026211059,-0.041575875,-1.0169916,-0.13061857,1.0522865,1.5547465,0.0,2,0,0,0
1194443392,37.102532025809694,-76.38844836881455,4.924908,-0.0,0.0390083,-0.063689604,-1.0163915,-0.13160013,1.0522848,1.5547773,0.0,2,0,0,0
1194643044,37.10253210710294,-76.3884484359654,5.130512,-0.0,0.048345108,-0.08308833,-1.0417489,-0.13188912,1.0523291,1.5548295,0.0,2,0,0,0
1194846982,37.10253218015836,-76.38844852779572,5.3370223,-0.0,0.05345269,-0.08319964,-1.0502789,-0.13257158,1.0522875,1.5548605,0.0,2,0,0,0
1195047152,37.10253226537965,-76.38844863736406,5.544497,-0.0,0.03734557,-0.088758945,-1.0628221,-0.13315025,1.0523185,1.5548953,0.0,2,0,0,0
1195251011,37.10253231900906,-76.38844875030364,5.764314,-0.0,0.0205848,-0.07590598,-1.0924851,-0.13387907,1.0525688,1.5547698,0.0,2,0,0,0
1195451140,37.102532325908854,-76.38844884865055,5.9836264,-0.0,-0.0070042913,-0.08032109,-1.1033317,-0.13383195,1.0525943,1.554806,0.0,2,0,0,0
1195655151,37.10253230856689,-76.388448968182,6.213719,-0.0,-0.023435999,-0.068299845,-1.1151096,-0.13360366,1.0526161,1.554847,0.0,2,0,0,0
1195859009,37.10253228671788,-76.38844914076087,6.4469643,-0.0,-0.0339958,-0.06262329,-1.1235273,-0.13381223,1.0527954,1.5549697,0.0,2,0,0,0
1196059211,37.102532269598825,-76.38844937365123,6.667876,-0.0,-0.030169446,-0.07790968,-1.1370747,-0.13372287,1.0528194,1.5547568,0.0,2,0,0,0
1196263247,37.102532211612285,-76.38844958593228,6.8928657,-0.0,-0.021700917,-0.06769918,-1.1511325,-0.13351628,1.0528408,1.5547953,0.0,2,0,0,0
1196463010,37.10253220239662,-76.38844975513992,7.11789,-0.0,-0.014288742,-0.060293656,-1.1668155,-0.1335891,1.0528277,1.5548387,0.0,2,0,0,0
1196667132,37.102532264306696,-76.38844989211914,7.348513,-0.0,0.002808241,-0.057314802,-1.1842033,-0.13405329,1.0530745,1.5547292,0.0,2,0,0,0
1196867166,37.10253239421633,-76.38845005155731,7.5805864,-0.0,0.013988025,-0.052591685,-1.2076105,-0.13447472,1.0530268,1.5547808,0.0,2,0,0,0
1197067155,37.102532579230605,-76.38845024011624,7.8188295,-0.0,0.030602967,-0.053876024,-1.2066835,-0.13385673,1.053017,1.5545952,0.0,2,0,0,0
1197271201,37.102532768134395,-76.38845037168655,8.062516,-0.0,0.025076328,-0.045104582,-1.2041988,-0.13316931,1.0530416,1.5546529,0.0,2,0,0,0
1197471083,37.10253293022776,-76.38845045577439,8.306885,-0.0,0.014857869,-0.036526848,-1.2015363,-0.1333879,1.0530634,1.5547063,0.0,2,0,0,0
1197675099,37.10253305857655,-76.38845050216011,8.55833,-0.0,-0.0198313,-0.02868065,-1.2047967,-0.13336594,1.0533088,1.5548453,0.0,2,0,0,0
1197875017,37.102533142502814,-76.38845055843909,8.805222,-0.0,-0.031144183,-0.019408904,-1.2199588,-0.13265508,1.053257,1.554653,0.0,2,0,0,0
1198075121,37.10253322751402,-76.38845061261036,9.042345,-0.0,-0.049420305,-0.008607327,-1.2247201,-0.13090336,1.0532777,1.5546988,0.0,2,0,0,0
1198279094,37.102533273514624,-76.38845060386237,9.28459,-0.0,-0.059393346,-0.0011463559,-1.2055697,-0.12840621,1.0532604,1.5547386,0.0,2,0,0,0
1198479148,37.10253320706748,-76.38845053079169,9.527943,-0.0,-0.0885708,0.03789117,-1.1908247,-0.12514383,1.0532787,1.5547789,0.0,2,0,0,0
1198683083,37.102533114881986,-76.3884503937049,9.772632,-0.0,-0.10665271,0.046327204,-1.1927388,-0.12215518,1.0534897,1.554905,0.0,2,0,0,0
1198884732,37.10253301230601,-76.38845019437098,10.022312,-0.0,-0.12194717,0.0668378,-1.2025309,-0.121773474,1.0534394,1.5547051,0.0,2,0,0,0
1199088762,37.102532914164115,-76.38845000861345,10.27474,-0.0,-0.12473925,0.058300234,-1.207599,-0.122691095,1.0535067,1.5547701,0.0,2,0,0,0
1199292560,37.102532813569276,-76.38844987581733,10.5231285,-0.0,-0.12401456,0.04083455,-1.2389902,-0.12394184,1.053717,1.5548987,0.0,2,0,0,0
1199496745,37.102532660086794,-76.38844981508629,10.7777815,-0.0,-0.13467601,0.021909995,-1.225602,-0.12471965,1.0537331,1.5549368,0.0,2,0,0,0
1199696561,37.10253243693229,-76.38844976446892,11.025424,-0.0,-0.14035398,0.007867713,-1.2210743,-0.12570381,1.0537466,1.5547332,0.0,2,0,0,0
1199900741,37.10253223158705,-76.38844979728863,11.276923,-0.0,-0.14565708,0.0001606564,-1.2196978,-0.12699535,1.0539236,1.5548558,0.0,2,0,0,0
1200104558,37.10253201506643,-76.38844991493261,11.521753,-0.0,-0.15374722,-0.021854099,-1.2364858,-0.12761435,1.0539426,1.5548887,0.0,2,0,0,0
1200308841,37.102531718607594,-76.38845004854555,11.764857,-0.0,-0.14447233,-0.034024168,-1.2355523,-0.12814258,1.0541929,1.5550122,0.0,2,0,0,0
1200508774,37.10253141780903,-76.38845016545281,12.006662,-0.0,-0.1506256,-0.039520066,-1.2283988,-0.12776776,1.0542421,1.5550464,0.0,2,0,0,0
1200713019,37.10253113969131,-76.38845024128139,12.24654,-0.0,-0.11982702,-0.027225142,-1.2500349,-0.12712048,1.0542512,1.5548285,0.0,2,0,0,0
1200916750,37.10253093462479,-76.38845028560743,12.4810505,-0.0,-0.10006598,-0.012163486,-1.2397606,-0.1274246,1.0544279,1.5549468,0.0,2,0,0,0
1201116765,37.1025307951178,-76.38845032873454,12.720754,-0.0,-0.06770345,-0.023850113,-1.2570993,-0.12827584,1.0544449,1.5549754,0.0,2,0,0,0
1201316711,37.10253073441691,-76.38845034074622,12.962118,-0.0,-0.03683326,-0.022922425,-1.2386235,-0.1301045,1.0544591,1.5550036,0.0,2,0,0,0
1201516728,37.10253077720123,-76.38845040481074,13.198588,-0.0,0.0033926575,-0.046108387,-1.2401855,-0.1339097,1.0544722,1.5547913,0.0,2,0,0,0
1201720777,37.10253090232087,-76.38845051959463,13.434152,-0.0,0.044632763,-0.061665155,-1.2565849,-0.13786298,1.0544494,1.5548263,0.0,2,0,0,0
1201924712,37.10253109697959,-76.38845060624186,13.674086,-0.0,0.059510395,-0.04280916,-1.234959,-0.13840248,1.0546682,1.5549453,0.0,2,0,0,0
1202124771,37.10253129679719,-76.38845060294611,13.916447,-0.0,0.052711256,-0.009199851,-1.2110322,-0.13574474,1.0546848,1.5549774,0.0,2,0,0,0
1202324617,37.10253147945738,-76.38845050785774,14.158241,-0.0,0.042559482,0.026004888,-1.2058667,-0.13261694,1.0546978,1.5550154,0.0,2,0,0,0
1202528774,37.102531587818554,-76.38845033145068,14.416566,-0.0,0.0202898,0.05409454,-1.2119492,-0.13113074,1.0546734,1.5548022,0.0,2,0,0,0
1202732728,37.10253167046279,-76.38845015269933,14.679442,-0.0,0.019927824,0.056463517,-1.224449,-0.13282101,1.0548906,1.5549244,0.0,2,0,0,0
1202936683,37.10253173134388,-76.38844999883712,14.941752,-0.0,0.018246513,0.04265023,-1.2113676,-0.13766764,1.0548716,1.5549599,0.0,2,0,0,0
1203136781,37.10253178210454,-76.38844992048656,15.193386,-0.0,0.036559425,0.018785283,-1.2086192,-0.14325553,1.0493438,1.554597,0.0,2,0,0,0
1203338416,37.10253184781844,-76.38844992750334,15.449061,-0.0,0.04628034,-0.028049326,-1.2174716,-0.14923507,1.049534,1.5547248,0.0,2,0,0,0
1203542357,37.102531937992715,-76.3884500627459,15.708254,-0.0,0.06250436,-0.10138941,-1.2448764,-0.15280731,1.054998,1.5548965,0.0,2,0,0,0
1203742349,37.1025320274379,-76.38845029017355,15.963379,-0.0,0.07420044,-0.15916179,-1.2547175,-0.15256868,1.054964,1.5549366,0.0,2,0,0,0
1203946361,37.10253216890863,-76.38845067675969,16.230402,-0.0,0.077435665,-0.21539834,-1.2604675,-0.14883518,1.0496294,1.5546638,0.0,2,0,0,0
1204146346,37.10253227597431,-76.388451095499,16.49533,-0.0,0.09326401,-0.22960007,-1.2794441,-0.14349908,1.0496088,1.5547112,0.0,2,0,0,0
1204350308,37.10253244005719,-76.38845155819365,16.76111,-0.0,0.11063185,-0.22092783,-1.2734462,-0.13887753,1.0495924,1.5547549,0.0,2,0,0,0
1204554359,37.10253266469086,-76.38845199908546,17.028654,-0.0,0.1072933,-0.18373564,-1.2767292,-0.13426377,1.04981,1.5546477,0.0,2,0,0,0
1204754365,37.102532879281405,-76.38845236122341,17.286472,-0.0,0.095207214,-0.12514883,-1.263631,-0.13098663,1.0497942,1.5546951,0.0,2,0,0,0
1204958459,37.10253303213771,-76.3884525292591,17.54461,-0.0,0.058872364,-0.055106174,-1.2617472,-0.12979569,1.0498075,1.55474,0.0,2,0,0,0
1205162333,37.10253312379152,-76.38845255931547,17.802628,-0.0,0.0034665845,0.015055452,-1.249804,-0.13224925,1.0500239,1.5546262,0.0,2,0,0,0
1205366322,37.102533073476955,-76.38845248377686,18.064978,-0.0,-0.066157624,0.06176921,-1.2297823,-0.13606086,1.0500333,1.5546695,0.0,2,0,0,0
1205566180,37.10253292040194,-76.38845230899331,18.321754,-0.0,-0.11691761,0.091138504,-1.2195336,-0.1383317,1.0500412,1.5547113,0.0,2,0,0,0
1205770306,37.10253270431898,-76.38845207550048,18.57,-0.0,-0.14403048,0.12813921,-1.2023793,-0.13659067,1.0502254,1.5546019,0.0,2,0,0,0
1205970345,37.10253241860695,-76.388451776857,18.809322,-0.0,-0.15108418,0.16864327,-1.2111977,-0.13488548,1.0502347,1.5546482,0.0,2,0,0,0
1206174210,37.102532097306394,-76.3884513747156,19.05632,-0.0,-0.13662168,0.18263158,-1.2182628,-0.1337154,1.0502405,1.554693,0.0,2,0,0,0
1206374311,37.102531854074336,-76.38845096440694,19.289846,-0.0,-0.08710362,0.1926976,-1.2091336,-0.13293675,1.0502479,1.5547401,0.0,2,0,0,0
1206574231,37.102531727033735,-76.38845058556879,19.532053,-0.0,-0.04359838,0.19721848,-1.2241348,-0.13215187,1.0502259,1.5547819,0.0,2,0,0,0
1206778349,37.10253163174372,-76.38845017712606,19.777056,-0.0,-0.007438015,0.1794431,-1.2419504,-0.13263844,1.0504739,1.5546651,0.0,2,0,0,0
1206978388,37.102531537688726,-76.38844976064503,20.021368,-0.0,0.020222709,0.16235593,-1.2601737,-0.13336127,1.0504823,1.554704,0.0,2,0,0,0
1207178324,37.10253149366959,-76.38844940613694,20.265308,-0.0,0.04205642,0.13506368,-1.2701025,-0.13357013,1.0504882,1.5547433,0.0,2,0,0,0
1207382366,37.10253153690445,-76.38844908608345,20.517254,-0.0,0.06963295,0.11520374,-1.2603247,-0.13278832,1.0504658,1.5547794,0.0,2,0,0,0
1207582275,37.102531635556964,-76.3884488270835,20.776049,-0.0,0.10169491,0.06810544,-1.2784594,-0.13154341,1.0505046,1.5548162,0.0,2,0,0,0
1207787814,37.10253181801563,-76.38844868736237,21.043842,-0.0,0.11926696,0.04723011,-1.2770376,-0.12970549,1.0506904,1.5546943,0.0,2,0,0,0
1207987961,37.10253204767983,-76.3884486521769,21.298906,-0.0,0.12839752,0.007938181,-1.2773559,-0.12727559,1.0507356,1.5549859,0.0,2,0,0,0
1208191814,37.10253227902928,-76.38844867458224,21.569809,-0.0,0.12964435,-0.021151863,-1.2851615,-0.1255273,1.0507367,1.5547653,0.0,2,0,0,0
1208395820,37.10253244645733,-76.38844871642462,21.832666,-0.0,0.10656771,-0.044672076,-1.2856659,-0.12486534,1.0509504,1.5548768,0.0,2,0,0,0
1208596111,37.10253257508484,-76.38844878753821,22.0876,-0.0,0.08324453,-0.053004246,-1.265976,-0.12495336,1.050952,1.5549059,0.0,2,0,0,0
1208799906,37.10253270262737,-76.38844888456256,22.346636,-0.0,0.06570887,-0.07736125,-1.2950159,-0.12534083,1.051013,1.5549402,0.0,2,0,0,0
1208999775,37.102532812193346,-76.38844900534157,22.594778,-0.0,0.04094489,-0.0786419,-1.2781479,-0.12617852,1.051007,1.5547265,0.0,2,0,0,0
1209203999,37.10253290897585,-76.38844918487813,22.863583,-0.0,0.028115554,-0.08892339,-1.3042306,-0.12681639,1.0512161,1.5548495,0.0,2,0,0,0
1209403977,37.102533004939275,-76.38844939241166,23.130804,-0.0,0.01503538,-0.093108684,-1.3004518,-0.12697563,1.0512114,1.5546489,0.0,2,0,0,0
1209604057,37.102533104269014,-76.38844959482111,23.40059,-0.0,0.01863078,-0.09150152,-1.3150389,-0.12696712,1.0511459,1.5546951,0.0,2,0,0,0
1209807936,37.10253322103069,-76.38844980427955,23.673895,-0.0,0.01491381,-0.094767235,-1.3088381,-0.12873654,1.0512089,1.5547467,0.0,2,0,0,0
1210007957,37.10253335288289,-76.38845001586722,23.944769,-0.0,0.0119377095,-0.080322504,-1.2956617,-0.13130629,1.0512035,1.5547948,0.0,2,0,0,0
1210211917,37.102533488650316,-76.38845020206568,24.222479,-0.0,0.009986149,-0.07319144,-1.2948623,-0.13356943,1.0514132,1.5546831,0.0,2,0,0,0
1210415973,37.10253358689087,-76.38845035347627,24.493776,-0.0,-0.0004661621,-0.04915702,-1.2788419,-0.13449177,1.0514075,1.5547283,0.0,2,0,0,0
1210615942,37.1025336351942,-76.38845045970022,24.750494,-0.0,-0.01982049,-0.020545823,-1.2806215,-0.13384569,1.0514026,1.554777,0.0,2,0,0,0
1210815929,37.10253364377935,-76.38845049465476,25.010733,-0.0,-0.038152177,0.008539012,-1.2821578,-0.13298592,1.0514569,1.5548192,0.0,2,0,0,0
1211019794,37.102533646459555,-76.38845046731915,25.28126,-0.0,-0.049415626,0.04480011,-1.2718122,-0.13337396,1.0516928,1.554702,0.0,2,0,0,0
1211223950,37.10253365648996,-76.38845037354791,25.540798,-0.0,-0.04198395,0.060920093,-1.2654209,-0.13202058,1.0516764,1.5547404,0.0,2,0,0,0
1211427809,37.10253366163601,-76.38845024418767,25.795485,-0.0,-0.051193703,0.05258133,-1.2728506,-0.12748952,1.0519115,1.554867,0.0,2,0,0,0
1211627765,37.10253360876995,-76.38845010496097,26.048431,-0.0,-0.09002784,0.0495979,-1.2647774,-0.1228525,1.0518945,1.5549072,0.0,2,0,0,0
1211827805,37.10253347070394,-76.38844998207959,26.30496,-0.0,-0.1069587,0.03840131,-1.272442,-0.11995473,1.0518492,1.5547031,0.0,2,0,0,0
1212031930,37.10253329228502,-76.38844989920153,26.562069,-0.0,-0.12826349,0.02254296,-1.2789066,-0.1191535,1.0518715,1.554743,0.0,2,0,0,0
1212233647,37.10253312871213,-76.38844986461781,26.82523,-0.0,-0.1276121,-0.0011568863,-1.2794051,-0.1214989,1.0521319,1.5548711,0.0,2,0,0,0
1212433563,37.10253297055107,-76.38844987000518,27.082108,-0.0,-0.11300915,-0.017982554,-1.1963826,-0.12702388,1.0520402,1.5548706,0.0,2,0,0,0
1212637552,37.10253278722626,-76.3884498738924,27.301357,-0.0,-0.115319476,-0.016346728,-0.97296476,-0.13312042,1.0520333,1.5549065,0.0,2,0,0,0
1212841575,37.10253255763501,-76.38844984479833,27.481773,-0.0,-0.17891397,0.03661148,-0.7802144,-0.13714725,1.0522037,1.5547796,0.0,2,0,0,0
1213045559,37.10253208251302,-76.38844961446141,27.620296,-0.0,-0.39911655,0.17352112,-0.63955957,-0.108987965,1.0521804,1.5548171,0.0,2,0,0,0
1213245638,37.10253102217999,-76.38844889169035,27.729593,-0.0,-0.7952874,0.46380684,-0.47134486,0.00501739,1.0521203,1.5548587,0.0,2,0,0,0
1213453658,37.10252913239601,-76.38844739115471,27.809511,-0.0,-1.212532,0.8098639,-0.27709058,0.14284733,1.0522771,1.5547395,0.0,2,0,0,0
1213657727,37.10252654995774,-76.38844520303968,27.856993,-0.0,-1.5613368,1.095367,-0.18469085,0.2865422,1.0524355,1.5548595,0.0,2,0,0,0
1213861643,37.102523413385676,-76.38844253798133,27.906204,-0.0,-1.7875826,1.2557379,-0.1635881,0.4381799,1.0523516,1.5551262,0.0,2,0,0,0
1214061587,37.10251995334294,-76.38843969538662,27.960884,-0.0,-1.9121155,1.3401614,-0.17056778,0.59077907,1.052323,1.5551261,0.0,2,0,0,0
1214265396,37.10251616750952,-76.38843668756307,28.009674,-0.0,-1.9695302,1.372373,-0.12155463,0.7277734,1.0525634,1.5552118,0.0,2,0,0,0
1214470101,37.10251224242209,-76.38843366997007,28.056587,-0.0,-1.9869586,1.3852443,-0.1181909,0.830977,1.0525603,1.555207,0.0,2,0,0,0
1214669599,37.10250842145876,-76.38843071255451,28.107502,-0.0,-1.9023591,1.4026412,-0.12971883,0.8997428,1.0525683,1.5552026,0.0,2,0,0,0
1214873517,37.10250475575544,-76.38842763142482,28.149511,-0.0,-1.6693695,1.4481544,-0.11585041,0.9467378,1.0528733,1.5552796,0.0,2,0,0,0
1215077551,37.102501624444976,-76.38842444988964,28.17985,-0.0,-1.2829103,1.4771407,-0.09924485,0.9718569,1.0529258,1.5552657,0.0,2,0,0,0
1215285483,37.10249922836776,-76.38842108823283,28.197304,-0.0,-0.7979378,1.5235788,-0.06964736,0.97914,1.0532151,1.5553277,0.0,2,0,0,0
1215485527,37.102497818331344,-76.38841770124685,28.212858,-0.0,-0.31162894,1.5668555,0.007787505,0.970771,1.0532525,1.5552909,0.0,2,0,0,0
1215689502,37.10249725510975,-76.38841407018218,28.214151,-0.0,0.2167665,1.604373,0.037364893,0.9597618,1.0535069,1.5553384,0.0,2,0,0,0
1215894317,37.10249755484839,-76.38841022141723,28.193,-0.0,0.63085115,1.6447592,0.11375548,0.9477749,1.053586,1.5553004,0.0,2,0,0,0
1216101518,37.102498605421076,-76.38840609738523,28.179125,-0.0,0.968885,1.6779984,0.11404446,0.9391329,1.0539322,1.5553511,0.0,2,0,0,0
1216301363,37.10250019739357,-76.38840203281258,28.171017,-0.0,1.2299051,1.6810799,0.078362875,0.9374492,1.0540648,1.5553112,0.0,2,0,0,0
1216502987,37.102502216647835,-76.3883978551338,28.152868,-0.0,1.403266,1.6717051,0.08092801,0.9412444,1.0542552,1.555279,0.0,2,0,0,0
1216703191,37.1025044908328,-76.38839365696933,28.127619,-0.0,1.4899737,1.6830717,0.08045198,0.94628435,1.0544653,1.5552676,0.0,2,0,0,0
1216902989,37.10250691943287,-76.38838930609036,28.097752,-0.0,1.5616537,1.7219436,0.07139526,0.9549857,1.0546932,1.5552408,0.0,2,0,0,0
1217107182,37.10250952693854,-76.38838472414359,28.075256,-0.0,1.5940651,1.7821566,0.030885585,0.960417,1.055125,1.5552986,0.0,2,0,0,0
1217311005,37.102512253843166,-76.38838006842023,28.071815,-0.0,1.6038153,1.8125752,0.0406107,0.96098363,1.055243,1.5552598,0.0,2,0,0,0
1217511120,37.102514957753755,-76.38837535582287,28.057991,-0.0,1.6023613,1.8483222,0.029906984,0.9592407,1.0554613,1.5552258,0.0,2,0,0,0
1217711177,37.102517662260226,-76.38837061964256,28.059246,-0.0,1.6193806,1.8736111,-0.030542888,0.9562898,1.0555229,1.5551938,0.0,2,0,0,0
1217915015,37.10252040726951,-76.38836571161379,28.07808,-0.0,1.5946512,1.889638,-0.013347831,0.9507214,1.0559064,1.555253,0.0,2,0,0,0
1218115188,37.102523155095994,-76.38836096028082,28.086473,-0.0,1.6262281,1.8891566,-0.019483685,0.9455701,1.0559529,1.5552257,0.0,2,0,0,0
1218319196,37.10252603063644,-76.3883561728116,28.088305,-0.0,1.6583607,1.9020231,0.024229288,0.9417256,1.0559306,1.5551935,0.0,2,0,0,0
1218523224,37.10252894090763,-76.38835139809373,28.084608,-0.0,1.6988833,1.9161179,-0.007087853,0.9399394,1.0561919,1.5552537,0.0,2,0,0,0
1218723192,37.10253191422093,-76.38834674744629,28.081703,-0.0,1.7232616,1.9246591,0.0046254136,0.9381703,1.0561671,1.5552341,0.0,2,0,0,0
1218927153,37.10253502439943,-76.38834202342137,28.075615,-0.0,1.7581726,1.9352374,-0.001883192,0.936225,1.0561674,1.5552188,0.0,2,0,0,0
1219135118,37.10253824389931,-76.38833720395931,28.072464,-0.0,1.7802057,1.9496986,0.013024844,0.9348298,1.0563253,1.5552922,0.0,2,0,0,0
1219335194,37.10254145113881,-76.3883325377677,28.073856,-0.0,1.8411225,1.9545798,-0.0078003295,0.9348657,1.0562567,1.5552691,0.0,2,0,0,0
1219535147,37.10254477876355,-76.3883279073286,28.06477,-0.0,1.848727,1.9645091,0.0054714265,0.9350725,1.0561821,1.555245,0.0,2,0,0,0
1219738970,37.102548233647674,-76.38832316229613,28.04866,-0.0,1.8449349,2.0000677,0.004904189,0.94001055,1.0504383,1.5551412,0.0,2,0,0,0
1219943480,37.1025516679306,-76.3883184042003,28.030394,-0.0,1.8299824,2.0430162,-0.0005763434,0.9449401,1.0563092,1.5552849,0.0,2,0,0,0
1220147270,37.10255502613886,-76.38831355007727,28.01205,-0.0,1.7881186,2.0917532,-0.012410799,0.9477004,1.0504724,1.5551815,0.0,2,0,0,0
1220351133,37.10255827276533,-76.38830861262971,28.00126,-0.0,1.7504538,2.1583993,-0.029206092,0.94836026,1.0504174,1.5551585,0.0,2,0,0,0
1220555149,37.10256151893698,-76.3883035905456,27.996613,-0.0,1.7289981,2.1969867,-0.022289068,0.9476069,1.0505754,1.5552254,0.0,2,0,0,0
1220755102,37.10256468122927,-76.38829853439378,27.98028,-0.0,1.707537,2.241798,-0.019030401,0.9441192,1.050494,1.5549611,0.0,2,0,0,0
1220956759,37.102567859542376,-76.38829338800814,27.956823,-0.0,1.7014744,2.2732468,-0.019250039,0.94184935,1.0504485,1.5549616,0.0,2,0,0,0
1221160732,37.102571141820725,-76.38828814863568,27.934877,-0.0,1.7103416,2.2593215,-0.05202259,0.94220024,1.0505639,1.555028,0.0,2,0,0,0
1221360731,37.10257437081254,-76.3882830499897,27.914661,-0.0,1.7119683,2.2517836,-0.07620776,0.9427636,1.0505365,1.5550232,0.0,2,0,0,0
1221560763,37.102577592882895,-76.38827804557698,27.908817,-0.0,1.7017088,2.227623,-0.14523536,0.9433866,1.0504543,1.5550157,0.0,2,0,0,0
1221760597,37.10258079177918,-76.38827317950344,27.910261,-0.0,1.6911465,2.2054477,-0.1442383,0.94524777,1.0504116,1.5550128,0.0,2,0,0,0
1221964755,37.10258402854947,-76.38826826680726,27.920898,-0.0,1.6680896,2.196233,-0.14045118,0.9466316,1.0504073,1.5550193,0.0,2,0,0,0
1222168801,37.10258722120152,-76.38826332799023,27.92735,-0.0,1.6198729,2.222655,-0.08935714,0.94666433,1.0506163,1.5551126,0.0,2,0,0,0
1222368834,37.102590294038286,-76.38825839002249,27.93519,-0.0,1.6236045,2.2744133,-0.11585965,0.9452822,1.050644,1.5548718,0.0,2,0,0,0
1222568851,37.10259331596406,-76.38825337168207,27.93918,-0.0,1.5779003,2.2985907,-0.088413246,0.9430288,1.0506365,1.5548816,0.0,2,0,0,0
1222768831,37.10259629112144,-76.3882483519326,27.94608,-0.0,1.566662,2.3056238,-0.094499536,0.94058275,1.0506012,1.5548978,0.0,2,0,0,0
1222972610,37.10259932033681,-76.38824324455162,27.959341,-0.0,1.5585018,2.2964811,-0.113716096,0.93951213,1.0506008,1.5549175,0.0,2,0,0,0
1223176767,37.10260237088202,-76.38823818081903,27.970385,-0.0,1.5417087,2.2719853,-0.075753056,0.9402681,1.0508137,1.5550233,0.0,2,0,0,0
1223380603,37.102605410071625,-76.38823315555167,27.98674,-0.0,1.5583661,2.2475538,-0.11775821,0.94273365,1.0508145,1.5550443,0.0,2,0,0,0
1223580747,37.102608360562016,-76.38822827704912,28.007055,-0.0,1.5181296,2.226609,-0.06662801,0.9465809,1.0508156,1.554816,0.0,2,0,0,0
1223780576,37.10261122912854,-76.38822341163348,28.032274,-0.0,1.4606177,2.2356396,-0.071915686,0.95189047,1.0508479,1.5548421,0.0,2,0,0,0
1223984717,37.102614026483195,-76.3882184131311,28.053247,-0.0,1.3939865,2.2712045,-0.096931025,0.95223117,1.0510602,1.5549494,0.0,2,0,0,0
1224188594,37.10261664709101,-76.38821335091366,28.075617,-0.0,1.284872,2.294029,-0.023816815,0.9453082,1.0510582,1.5549693,0.0,2,0,0,0
1224388732,37.1026190699394,-76.3882083012242,28.0826,-0.0,1.2424538,2.3368177,0.00247994,0.9389869,1.0510546,1.5549881,0.0,2,0,0,0
1224588805,37.10262137477341,-76.3882031244917,28.085014,-0.0,1.1865658,2.3994913,0.018745514,0.9359676,1.0509866,1.5550041,0.0,2,0,0,0
1224792593,37.10262366643325,-76.3881977661629,28.082165,-0.0,1.1797637,2.4502585,-0.02208624,0.93432266,1.0511721,1.5551033,0.0,2,0,0,0
1224992718,37.102625844435785,-76.38819240559731,28.079287,-0.0,1.1480469,2.4816363,-0.033328176,0.93186283,1.0511767,1.5548689,0.0,2,0,0,0
1225193629,37.10262802506241,-76.38818697353071,28.08177,-0.0,1.1805404,2.4670691,-0.058076307,0.9272978,1.0511817,1.5548911,0.0,2,0,0,0
1225394321,37.102630301815445,-76.38818164635417,28.084673,-0.0,1.2573735,2.3652894,-0.046257433,0.9245042,1.0512311,1.55493,0.0,2,0,0,0
1225598353,37.102632757390566,-76.38817644655325,28.075283,-0.0,1.3479872,2.2781508,-0.067299426,0.92965233,1.0511976,1.554954,0.0,2,0,0,0
1225802199,37.10263533182033,-76.38817147864228,28.062265,-0.0,1.408091,2.1997044,-0.028164478,0.9345793,1.0513495,1.554819,0.0,2,0,0,0
1226002217,37.102638008054534,-76.38816674937456,28.06315,-0.0,1.5063965,2.1293674,-0.030831337,0.9344612,1.0513529,1.5548437,0.0,2,0,0,0
1226202163,37.10264090026466,-76.38816213751375,28.078205,-0.0,1.6157409,2.0532603,-0.04755818,0.93106234,1.0513552,1.5548666,0.0,2,0,0,0
1226406324,37.102644070630916,-76.38815754606215,28.095428,-0.0,1.712104,2.0151703,-0.0075035263,0.9265699,1.0513579,1.5548866,0.0,2,0,0,0
1226610332,37.10264739429515,-76.3881529688905,28.099178,-0.0,1.7630198,2.02758,0.007342441,0.92489326,1.0515779,1.5549902,0.0,2,0,0,0
1226810353,37.10265067888417,-76.38814836210315,28.090042,-0.0,1.747522,2.0884187,0.063494235,0.92606366,1.0515465,1.555004,0.0,2,0,0,0
1227010398,37.102653932202465,-76.38814361721775,28.083538,-0.0,1.7346665,2.1478424,0.078906015,0.93100494,1.0515478,1.5550197,0.0,2,0,0,0
1227214354,37.10265715555351,-76.38813864667844,28.080053,-0.0,1.6778595,2.168966,0.04241054,0.9355406,1.0515482,1.5550393,0.0,2,0,0,0
1227418332,37.102660305797315,-76.38813362400548,28.063356,-0.0,1.6664323,2.1952984,0.040416066,0.93896306,1.0517703,1.5548991,0.0,2,0,0,0
1227622346,37.10266346873434,-76.38812863492632,28.0524,-0.0,1.7097104,2.16682,0.08307085,0.94084156,1.0517409,1.5549271,0.0,2,0,0,0
1227822212,37.10266667946033,-76.38812382166799,28.044256,-0.0,1.8106267,2.1303165,-0.004585281,0.93978083,1.0517795,1.5549595,0.0,2,0,0,0
1228026391,37.102670082593505,-76.38811898847146,28.037136,-0.0,1.8618059,2.0813394,-0.047141925,0.9397096,1.0520065,1.5548311,0.0,2,0,0,0
1228230366,37.10267352104516,-76.38811427300482,28.045683,-0.0,1.8305552,2.0126154,-0.082306035,0.94613516,1.0520765,1.5548692,0.0,2,0,0,0
1228434202,37.102676866989704,-76.38810968215084,28.051876,-0.0,1.72063,1.9653019,-0.05118213,0.9561179,1.0523039,1.5547544,0.0,2,0,0,0
1228634318,37.10267994922115,-76.38810524554707,28.04658,-0.0,1.6470016,1.9514532,-0.08930707,0.96332836,1.0523062,1.5547929,0.0,2,0,0,0
1228834153,37.10268282859863,-76.38810077777971,28.026257,-0.0,1.5587972,1.9787936,-0.03528493,0.96790844,1.052273,1.5548363,0.0,2,0,0,0
1229038318,37.10268564672163,-76.38809620682062,28.02045,-0.0,1.5192677,1.9743521,-0.0824784,0.9692638,1.0522743,1.5548774,0.0,2,0,0,0
1229242284,37.1026883910857,-76.38809163504418,28.028738,-0.0,1.529234,1.9964556,-0.067019865,0.96709067,1.0525004,1.5547634,0.0,2,0,0,0
1229446285,37.10269114054407,-76.38808704578203,28.04899,-0.0,1.5634621,2.031844,-0.08952743,0.96550983,1.0524967,1.5548061,0.0,2,0,0,0
1229647804,37.102693930689746,-76.38808250658819,28.084517,-0.0,1.6349132,2.0089478,-0.11882598,0.9587194,1.0526878,1.5549308,0.0,2,0,0,0
1229847905,37.10269683193679,-76.38807807794068,28.100634,-0.0,1.7249577,1.9772704,-0.118477,0.9506244,1.0525975,1.5549409,0.0,2,0,0,0
1230052016,37.102699922640674,-76.38807361802061,28.096306,-0.0,1.8020024,1.9883925,-0.0470206,0.9375348,1.0525768,1.554976,0.0,2,0,0,0
1230251768,37.10270299819815,-76.38806917388652,28.087458,-0.0,1.8031693,2.0340228,0.0071436157,0.92789996,1.0525875,1.554765,0.0,2,0,0,0
1230455983,37.102706051850234,-76.38806449730217,28.098364,-0.0,1.7154996,2.0937989,0.002736562,0.926308,1.0528181,1.55489,0.0,2,0,0,0
1230655931,37.1027088982228,-76.38805978443558,28.112911,-0.0,1.6330789,2.1512046,0.0023362078,0.9291362,1.0528212,1.5549258,0.0,2,0,0,0
1230855952,37.10271157510414,-76.38805496022648,28.123194,-0.0,1.5272647,2.2036705,0.022828707,0.93547064,1.0527912,1.5549569,0.0,2,0,0,0
1231060126,37.102714124004684,-76.38804991836447,28.135149,-0.0,1.4238867,2.253742,0.031536624,0.94398135,1.0527655,1.5549867,0.0,2,0,0,0
1231259998,37.10271644864424,-76.38804492450723,28.141373,-0.0,1.3460277,2.266309,0.05381492,0.9509684,1.0527402,1.5550122,0.0,2,0,0,0
1233892070,37.102749179739135,-76.38797486652457,27.967424,-0.0,1.707115,2.195406,0.09152096,0.9457226,1.0536842,1.5548769,0.0,2,0,0,0
1234093594,37.1027521336061,-76.38796980848184,27.944748,-0.0,1.7129347,2.1506975,0.06685495,0.9384131,1.0536939,1.5549027,0.0,2,0,0,0
1234297365,37.10275511651324,-76.38796475779402,27.917234,-0.0,1.7087928,2.1267676,0.067400135,0.93343616,1.0539786,1.555029,0.0,2,0,0,0
1234497533,37.10275806262691,-76.38795981421202,27.890993,-0.0,1.7164371,2.1374102,0.05074549,0.93020064,1.0539821,1.5550498,0.0,2,0,0,0
1234701416,37.10276111042397,-76.38795470166826,27.866701,-0.0,1.7234408,2.168742,0.0837045,0.92590594,1.0539865,1.5548285,0.0,2,0,0,0
1234905529,37.102764195614476,-76.38794950391224,27.84549,-0.0,1.76631,2.216226,0.044452682,0.9194615,1.0541936,1.5549394,0.0,2,0,0,0
1235105620,37.102767298575564,-76.38794433157723,27.833958,-0.0,1.814297,2.2239077,0.027453203,0.9161249,1.0542005,1.5549608,0.0,2,0,0,0
1235305562,37.10277056366843,-76.3879391524446,27.826448,-0.0,1.8892747,2.2078831,-0.0058499994,0.9215499,1.0542102,1.5549824,0.0,2,0,0,0
1235509420,37.102774027291964,-76.38793391214381,27.821283,-0.0,1.9591731,2.1789536,-0.05634339,0.9303413,1.0542219,1.5550004,0.0,2,0,0,0
1235713646,37.10277755698972,-76.38792876638797,27.815441,-0.0,1.9760861,2.116535,-0.08846869,0.93573815,1.054474,1.555105,0.0,2,0,0,0
1235917391,37.10278113468259,-76.38792379879735,27.818394,-0.0,1.9722421,2.0506668,-0.11360777,0.9394311,1.054452,1.5551269,0.0,2,0,0,0
1236117538,37.10278461642094,-76.38791901431946,27.823034,-0.0,1.927979,2.0006073,-0.11500955,0.9419573,1.0544684,1.5548971,0.0,2,0,0,0
1236317577,37.102788044778634,-76.38791430748259,27.831837,-0.0,1.8621341,1.9783745,-0.10613572,0.9425969,1.0545176,1.5549166,0.0,2,0,0,0
1236521632,37.1027914004407,-76.38790954950153,27.84539,-0.0,1.7921066,1.99139,-0.07272746,0.9425194,1.0547627,1.555023,0.0,2,0,0,0
1236721414,37.10279458474234,-76.38790485057996,27.847063,-0.0,1.690711,2.0360835,-0.02251897,0.9426062,1.0547599,1.5550423,0.0,2,0,0,0
1236925584,37.10279767871463,-76.38790003939073,27.853336,-0.0,1.6029818,2.0795534,-0.031692866,0.94102997,1.0546803,1.5550623,0.0,2,0,0,0
1237125574,37.10280054448076,-76.38789527831442,27.860247,-0.0,1.5290658,2.0796723,-0.08859362,0.9416873,1.0546774,1.555084,0.0,2,0,0,0
1237329403,37.102803334738105,-76.3878904623087,27.879206,-0.0,1.4590245,2.0598466,-0.07200976,0.94030744,1.054882,1.5549469,0.0,2,0,0,0
1237529564,37.10280599634679,-76.38788577676641,27.907612,-0.0,1.4295425,2.048035,-0.09874883,0.9397965,1.0548862,1.5549699,0.0,2,0,0,0
1237733544,37.102808652980706,-76.3878810519516,27.931501,-0.0,1.3888776,2.028992,-0.05365478,0.9410325,1.0548878,1.5549997,0.0,2,0,0,0
1237937494,37.10281123424355,-76.38787639264801,27.955376,-0.0,1.3731996,2.0130525,-0.0469794,0.94323874,1.0495363,1.5547075,0.0,2,0,0,0
1238137502,37.1028136959489,-76.38787184952703,27.965858,-0.0,1.361509,1.9892205,-0.056408167,0.94689476,1.0495385,1.5547371,0.0,2,0,0,0
1238339249,37.10281615075865,-76.38786734314019,27.982332,-0.0,1.3534374,1.9598265,-0.0849691,0.95169747,1.0495394,1.5547637,0.0,2,0,0,0
1238539214,37.102818531706966,-76.38786293431043,28.002499,-0.0,1.342034,1.9356766,-0.053355522,0.9534627,1.055024,1.5549251,0.0,2,0,0,0
1238739179,37.10282095320548,-76.387858572581,28.02363,-0.0,1.3446438,1.9375923,-0.008301068,0.95277137,1.0494974,1.5547915,0.0,2,0,0,0
1238942998,37.102823394052024,-76.38785406649448,28.04822,-0.0,1.3556025,1.9626956,-0.0054974197,0.9509649,1.0497057,1.5549034,0.0,2,0,0,0
1239147119,37.10282580412525,-76.38784949020823,28.0676,-0.0,1.3556187,1.9982934,0.027419392,0.9479987,1.0496786,1.5549268,0.0,2,0,0,0
1239347223,37.10282815591194,-76.38784496123805,28.08752,-0.0,1.338392,2.012244,0.023649212,0.9462055,1.0496525,1.5549457,0.0,2,0,0,0
1239551131,37.10283058776929,-76.38784036309968,28.106445,-0.0,1.3713312,1.9858823,-0.006331574,0.9460616,1.0554615,1.5549687,0.0,2,0,0,0
1239755111,37.102833003983214,-76.38783587056176,28.124105,-0.0,1.3977977,1.9493548,0.012432789,0.9464331,1.0497937,1.5548242,0.0,2,0,0,0
1239958872,37.10283548832971,-76.38783143359781,28.112469,-0.0,1.4141543,1.911486,0.06131265,0.9451076,1.0499834,1.5549242,0.0,2,0,0,0
1240159121,37.102837932297795,-76.38782707978089,28.097986,-0.0,1.3999631,1.9185742,0.07584898,0.9424903,1.0499947,1.5549388,0.0,2,0,0,0
1240363155,37.10284044323127,-76.387822609652,28.094728,-0.0,1.3832636,1.9298031,0.08129658,0.9401069,1.0500045,1.5549561,0.0,2,0,0,0
1240563199,37.102842936703006,-76.3878182200891,28.094366,-0.0,1.402964,1.9264874,0.052663475,0.94137484,1.050017,1.5549716,0.0,2,0,0,0
1240767160,37.102845489627136,-76.38781373722702,28.09726,-0.0,1.4308765,1.9359616,0.019695338,0.9438925,1.0502634,1.5548246,0.0,2,0,0,0
1240967224,37.10284800464284,-76.38780932413444,28.099607,-0.0,1.409087,1.9595436,0.012783106,0.94510704,1.0502406,1.5548396,0.0,2,0,0,0
1241171192,37.102850526896574,-76.38780481490406,28.087873,-0.0,1.3798827,1.9627819,0.040963907,0.9443573,1.0502512,1.554859,0.0,2,0,0,0
1241370962,37.10285292516707,-76.38780035449581,28.079708,-0.0,1.3580295,1.9914417,0.060907714,0.94304425,1.0502331,1.5548853,0.0,2,0,0,0
1241575011,37.10285534268267,-76.38779576758141,28.077225,-0.0,1.3590298,2.0186934,0.046761148,0.9421765,1.0504545,1.5547578,0.0,2,0,0,0
1241779013,37.10285772472509,-76.38779114044841,28.08075,-0.0,1.345816,2.0353062,0.040877383,0.9406981,1.0504951,1.5547882,0.0,2,0,0,0
1241983193,37.10286006144839,-76.38778647546269,28.077961,-0.0,1.3698931,2.055072,0.022095311,0.93893933,1.0507137,1.5549035,0.0,2,0,0,0
1242183032,37.102862323212356,-76.38778187706376,28.071802,-0.0,1.3693458,2.0635865,0.041461542,0.9375195,1.0507213,1.5546932,0.0,2,0,0,0
1242386979,37.10286467170219,-76.38777716923491,28.065588,-0.0,1.3961073,2.0723426,0.041588183,0.93704575,1.0507263,1.5547262,0.0,2,0,0,0
1242591108,37.10286707758652,-76.38777247964347,28.063452,-0.0,1.4554983,2.058786,0.034524888,0.93759304,1.0509137,1.5548475,0.0,2,0,0,0
1242792637,37.10286955671517,-76.38776785904646,28.048725,-0.0,1.5106778,2.0424843,0.028032385,0.9387227,1.0509521,1.5546463,0.0,2,0,0,0
1242996584,37.102872214202435,-76.38776320760634,28.043766,-0.0,1.562468,2.030521,0.027736865,0.94059974,1.0509644,1.5547007,0.0,2,0,0,0
1243200580,37.10287493302937,-76.38775855943447,28.031837,-0.0,1.603815,2.039816,0.043872423,0.9408297,1.0511819,1.5548196,0.0,2,0,0,0
1243404751,37.10287770561398,-76.38775385865507,28.022175,-0.0,1.622238,2.0483348,0.0416999,0.9394087,1.051185,1.5548561,0.0,2,0,0,0
1243604582,37.10288046883308,-76.38774921710643,28.020906,-0.0,1.621063,2.0425518,0.020548522,0.93643236,1.0511886,1.5548887,0.0,2,0,0,0
1243808773,37.10288333229479,-76.3877444823011,28.013762,-0.0,1.6430787,2.0338414,-0.036403216,0.93529314,1.051378,1.5547688,0.0,2,0,0,0
1244008811,37.102886162891416,-76.38773986987205,28.00306,-0.0,1.6052713,2.0051315,-0.0020932145,0.9361951,1.0513855,1.5548121,0.0,2,0,0,0
1244208746,37.10288899798221,-76.38773529297264,27.99261,-0.0,1.62902,1.9704677,-0.03958684,0.93904054,1.051364,1.5546179,0.0,2,0,0,0
1244408781,37.10289180048208,-76.38773077943355,27.98423,-0.0,1.5958378,1.9494523,-0.037455454,0.940644,1.0513431,1.5546672,0.0,2,0,0,0
1244612595,37.10289465492139,-76.38772621431927,27.995651,-0.0,1.5669734,1.9212875,-0.0428645,0.937702,1.0513552,1.5547117,0.0,2,0,0,0
1244816764,37.102897501916416,-76.3877217207809,28.015072,-0.0,1.5688318,1.8759524,-0.056076374,0.9329769,1.0515546,1.5548396,0.0,2,0,0,0
1245016769,37.102900306166525,-76.38771741444187,28.032593,-0.0,1.5697004,1.8304851,-0.058052868,0.92972124,1.05157,1.5546439,0.0,2,0,0,0
1245220568,37.10290318221983,-76.38771311919965,28.052774,-0.0,1.5721878,1.8115898,-0.069943264,0.93033916,1.0515828,1.5549304,0.0,2,0,0,0
1245420745,37.10290599158215,-76.38770896848656,28.061361,-0.0,1.5600727,1.7996025,-0.1064716,0.9309298,1.0515953,1.554723,0.0,2,0,0,0
1245624725,37.10290881288267,-76.38770476757509,28.058397,-0.0,1.5117302,1.7936164,-0.024180971,0.9316304,1.0517588,1.55485,0.0,2,0,0,0
1245828814,37.102911594421975,-76.38770057651398,28.056784,-0.0,1.511765,1.7910746,-0.042645518,0.93648297,1.0517405,1.5548881,0.0,2,0,0,0
1246032720,37.102914355754685,-76.38769638872185,28.052422,-0.0,1.4875394,1.805183,-0.05145322,0.9420842,1.0519743,1.5547632,0.0,2,0,0,0
1246232727,37.102917022093195,-76.38769226330137,28.041216,-0.0,1.4426216,1.8308922,-0.036402117,0.946191,1.0519569,1.5548016,0.0,2,0,0,0
1246436680,37.10291966692063,-76.38768799567467,28.022532,-0.0,1.4137653,1.8605461,-0.053075317,0.9498931,1.051939,1.554844,0.0,2,0,0,0
1246640742,37.10292225280908,-76.38768364958963,28.021152,-0.0,1.4219182,1.9024373,-0.085231625,0.95208937,1.0521756,1.5547276,0.0,2,0,0,0
1246840569,37.102924797529816,-76.38767932380756,28.033878,-0.0,1.4226968,1.9275163,-0.0910889,0.9531881,1.052159,1.5547621,0.0,2,0,0,0
1247040702,37.102927363622925,-76.38767493617004,28.060736,-0.0,1.4138619,1.9381943,-0.05640122,0.9534918,1.0521786,1.5547955,0.0,2,0,0,0
1247242349,37.102929957537945,-76.38767048130023,28.076614,-0.0,1.4250056,1.953164,-0.01870408,0.95416415,1.0521958,1.5548246,0.0,2,0,0,0
1247442309,37.102932561847645,-76.38766602406422,28.09011,-0.0,1.434774,1.9721892,-0.034916718,0.9546514,1.0523094,1.5548716,0.0,2,0,0,0
1247646327,37.10293520770146,-76.38766143911725,28.09156,-0.0,1.4384545,1.9826922,-0.030473694,0.9524008,1.0523071,1.5549003,0.0,2,0,0,0
1247846214,37.10293776998501,-76.38765690393862,28.08062,-0.0,1.4328614,2.0105867,-0.029046983,0.9484307,1.052271,1.5549254,0.0,2,0,0,0
1248050165,37.102940388633,-76.38765223674743,28.064672,-0.0,1.4160472,2.0409822,0.014788426,0.94610614,1.0524598,1.5550344,0.0,2,0,0,0
1248250384,37.10294295355738,-76.3876476308952,28.051666,-0.0,1.4229547,2.0367312,-0.047957756,0.9472929,1.0524316,1.5550559,0.0,2,0,0,0
1248454386,37.10294553779545,-76.3876429220656,28.040108,-0.0,1.4168987,2.0467145,-0.028591868,0.9484564,1.0524076,1.5550747,0.0,2,0,0,0
1248658460,37.10294813932359,-76.38763818656648,28.020811,-0.0,1.4443489,2.0425637,-0.037918814,0.9502906,1.0526072,1.5551672,0.0,2,0,0,0
1248858372,37.10295078184803,-76.38763350603925,28.010921,-0.0,1.4935118,2.0416608,-0.052483648,0.94990456,1.0526521,1.5551707,0.0,2,0,0,0
1249062433,37.1029535686987,-76.38762873062014,28.018478,-0.0,1.5299385,2.0490963,-0.08006977,0.9464529,1.0526621,1.5551732,0.0,2,0,0,0
1249266452,37.10295645126417,-76.38762397722321,28.040207,-0.0,1.5689111,2.0359674,-0.03469582,0.9439342,1.0528948,1.5550094,0.0,2,0,0,0
1249466455,37.10295935938857,-76.38761936104216,28.069834,-0.0,1.6035067,2.0203555,-0.08032629,0.9437207,1.0528698,1.5550092,0.0,2,0,0,0
1249670369,37.10296232658805,-76.38761468644638,28.091099,-0.0,1.5965726,2.0151486,-0.080046795,0.9436657,1.0528479,1.5550157,0.0,2,0,0,0
1249874416,37.1029652677141,-76.38760995197421,28.112862,-0.0,1.5574368,2.014659,-0.022285115,0.9443705,1.0531526,1.5551167,0.0,2,0,0,0
1250078519,37.10296814050151,-76.38760520270532,28.118172,-0.0,1.521756,2.042583,0.008390174,0.9450323,1.0531538,1.5551243,0.0,2,0,0,0
1250278379,37.102970937231696,-76.38760048862277,28.12239,-0.0,1.527718,2.066991,-0.013386834,0.94847834,1.0531514,1.55513,0.0,2,0,0,0
1250482388,37.10297374874711,-76.38759567638044,28.130665,-0.0,1.5060222,2.0557415,0.038818903,0.94974256,1.0533781,1.5549793,0.0,2,0,0,0
1250682283,37.102976499712334,-76.38759098664391,28.125868,-0.0,1.5162737,2.092807,0.032037146,0.9594951,1.0533743,1.5549963,0.0,2,0,0,0
1250886354,37.102979455312656,-76.38758593308755,28.153551,-0.0,1.6803586,2.363962,-0.37429523,1.010365,1.0533357,1.5550154,0.0,2,0,0,0
1251086378,37.102982820456944,-76.38758003420376,28.280945,-0.0,2.0690026,2.9614067,-0.8951249,1.0755112,1.0533018,1.5550327,0.0,2,0,0,0
1251286429,37.102986932510056,-76.38757266946031,28.483818,-0.0,2.481435,3.6337535,-1.0450535,1.1275504,1.0533146,1.5550522,0.0,2,0,0,0
1251488347,37.102991753287455,-76.38756365406638,28.696075,-0.0,2.8093567,4.285815,-0.9868838,1.1650963,1.0536262,1.5549029,0.0,2,0,0,0
1251692285,37.102997071702376,-76.38755311560503,28.89066,-0.0,3.0425704,4.816562,-0.8952999,1.1866956,1.0536352,1.5551385,0.0,2,0,0,0
1251891964,37.10300251563796,-76.38754177887581,29.075102,-0.0,3.1090884,5.1246805,-0.9275823,1.1997021,1.0537224,1.5551423,0.0,2,0,0,0
1252095952,37.103008094425405,-76.38752965910558,29.289133,-0.0,3.0802279,5.24439,-1.1431627,1.2095354,1.0540483,1.5552293,0.0,2,0,0,0
1252295944,37.10301338949822,-76.38751760970862,29.533651,-0.0,2.986029,5.255744,-1.2356093,1.2135887,1.0541358,1.5552267,0.0,2,0,0,0
1252499923,37.103018537804665,-76.38750522987343,29.807968,-0.0,2.8891394,5.345088,-1.2578608,1.2146508,1.0542108,1.5552241,0.0,2,0,0,0
1252707819,37.10302357292798,-76.38749216249221,30.072304,-0.0,2.8050122,5.55072,-1.213837,1.2135077,1.0545741,1.5550548,0.0,2,0,0,0
1252907921,37.10302822031939,-76.3874791518931,30.31668,-0.0,2.722171,5.8159404,-1.1331521,1.2144107,1.0545602,1.5550498,0.0,2,0,0,0
1253116234,37.103032940224686,-76.38746502919153,30.577518,-0.0,2.6703026,6.0944257,-1.1160887,1.2130525,1.0548141,1.5551304,0.0,2,0,0,0
1253316025,37.10303736818133,-76.38745096774454,30.81102,-0.0,2.630369,6.3136067,-1.1512402,1.2164813,1.0547787,1.5551205,0.0,2,0,0,0
1253516410,37.10304174470801,-76.38743651623992,31.046404,-0.0,2.5855737,6.463113,-1.1977924,1.2239486,1.0547774,1.5551134,0.0,2,0,0,0
1253715936,37.1030460830138,-76.38742183821908,31.297615,-0.0,2.5472374,6.5604677,-1.2640673,1.2297338,1.0547324,1.5551052,0.0,2,0,0,0
1253919780,37.10305047706149,-76.38740663928866,31.548885,-0.0,2.5232701,6.612325,-1.136738,1.2278055,1.0550013,1.5551885,0.0,2,0,0,0
1254124043,37.103054883526006,-76.38739142358062,31.798763,-0.0,2.5753314,6.6491537,-1.1850777,1.2261254,1.0549303,1.5551864,0.0,2,0,0,0
1254323983,37.103059296028654,-76.38737646681884,32.050133,-0.0,2.6291416,6.6357384,-1.1981403,1.2277489,1.0548944,1.5551827,0.0,2,0,0,0
1254523922,37.103063833885464,-76.38736156364989,32.30553,-0.0,2.6525898,6.615125,-1.254111,1.2335981,1.0548532,1.555188,0.0,2,0,0,0
1254723954,37.103068404607356,-76.3873468264292,32.56489,-0.0,2.6831186,6.5739746,-1.2722749,1.2349259,1.0547394,1.5551922,0.0,2,0,0,0
1254927878,37.103073087438496,-76.38733183326806,32.83872,-0.0,2.701881,6.5351553,-1.3600018,1.2338337,1.0549421,1.5552796,0.0,2,0,0,0
1255131913,37.103077875520604,-76.38731693456378,33.11284,-0.0,2.6676617,6.4814944,-1.292137,1.2295272,1.0549082,1.5552729,0.0,2,0,0,0
1255335887,37.10308273207697,-76.38730209702348,33.381325,-0.0,2.652108,6.4873757,-1.279253,1.2253513,1.0495602,1.5549362,0.0,2,0,0,0
1255539885,37.10308758863172,-76.38728728442979,33.640705,-0.0,2.642003,6.4805374,-1.2232698,1.2230098,1.0495374,1.5549284,0.0,2,0,0,0
1255743924,37.10309240525208,-76.38727248301858,33.89283,-0.0,2.6210024,6.514364,-1.2445695,1.2204167,1.0497167,1.5550051,0.0,2,0,0,0
1255945523,37.10309722749858,-76.3872578679449,34.141876,-0.0,2.6104915,6.4988337,-1.2109336,1.2192552,1.0496968,1.554993,0.0,2,0,0,0
1256149543,37.10310210669034,-76.38724308743413,34.392967,-0.0,2.5772886,6.5418963,-1.2872416,1.2220924,1.0497159,1.5549994,0.0,2,0,0,0
1256353583,37.10310691321889,-76.38722826141303,34.65344,-0.0,2.5179667,6.570293,-1.348414,1.2252134,1.0499048,1.5550747,0.0,2,0,0,0
1256557702,37.103111595212695,-76.38721336493394,34.924393,-0.0,2.4213843,6.610835,-1.3292096,1.2273589,1.0498965,1.5550649,0.0,2,0,0,0
1256757528,37.103116073769904,-76.3871986944552,35.214153,-0.0,2.3529587,6.667012,-1.4079767,1.2318671,1.0498688,1.5550604,0.0,2,0,0,0
1256961368,37.10312045331369,-76.38718368493463,35.502777,-0.0,2.2208664,6.708266,-1.2706153,1.2319338,1.0500832,1.5548928,0.0,2,0,0,0
1257165398,37.103124661802894,-76.38716857519084,35.775597,-0.0,2.112509,6.7322063,-1.2951307,1.2344886,1.0500894,1.5548931,0.0,2,0,0,0
1257369414,37.103128814026945,-76.38715339447205,36.0397,-0.0,2.101483,6.728203,-1.3080057,1.2311301,1.0503013,1.554982,0.0,2,0,0,0
1257569614,37.10313284597408,-76.38713852767468,36.27843,-0.0,2.1115093,6.734277,-1.2634091,1.2334679,1.0502528,1.5549862,0.0,2,0,0,0
1257773597,37.10313700834977,-76.38712342059358,36.528763,-0.0,2.132984,6.7363205,-1.285629,1.2333956,1.0502956,1.5547523,0.0,2,0,0,0
1257977415,37.10314126328119,-76.38710821612405,36.797127,-0.0,2.187341,6.732284,-1.3300325,1.2317489,1.0505189,1.5548524,0.0,2,0,0,0
1258177576,37.10314548150544,-76.38709325890181,37.07259,-0.0,2.2134666,6.759293,-1.3768381,1.2291626,1.0505353,1.5548661,0.0,2,0,0,0
1258377520,37.103149732798734,-76.38707825883473,37.34552,-0.0,2.2487996,6.7614512,-1.3396325,1.2262492,1.0505491,1.5548778,0.0,2,0,0,0
1258577402,37.103154022444016,-76.38706319699622,37.61455,-0.0,2.2694623,6.804049,-1.3167796,1.224022,1.0505308,1.5548939,0.0,2,0,0,0
1258781554,37.10315839284074,-76.38704778303634,37.88279,-0.0,2.273698,6.825651,-1.2859946,1.2200809,1.0505131,1.5549095,0.0,2,0,0,0
1258985503,37.10316278066289,-76.38703234756701,38.158302,-0.0,2.3291793,6.8155007,-1.3318242,1.2195612,1.0507375,1.5547662,0.0,2,0,0,0
1259189322,37.10316725040649,-76.38701689282385,38.436726,-0.0,2.4154017,6.775755,-1.3114352,1.2227976,1.0507483,1.5547808,0.0,2,0,0,0
1259389390,37.10317176584865,-76.38700182641475,38.68029,-0.0,2.481141,6.7466106,-1.1860108,1.2216101,1.0507575,1.5547998,0.0,2,0,0,0
1259593420,37.10317651587308,-76.38698650311578,38.899925,-0.0,2.560672,6.746173,-1.1297685,1.2204324,1.0509125,1.5549066,0.0,2,0,0,0
1259793388,37.10318130048105,-76.38697157899072,39.103436,-0.0,2.6499584,6.712041,-1.1564201,1.2237295,1.0508573,1.5549253,0.0,2,0,0,0
1259997509,37.10318626093836,-76.38695636838254,39.31433,-0.0,2.649972,6.698543,-1.2106653,1.2306122,1.0508701,1.5549446,0.0,2,0,0,0
1260197419,37.10319106736133,-76.38694143651061,39.539547,-0.0,2.5702324,6.658469,-1.3110887,1.2355673,1.0508567,1.5549618,0.0,2,0,0,0
1260399110,37.10319577154877,-76.386926455774,39.7952,-0.0,2.4654663,6.6153607,-1.3676592,1.2348473,1.0508814,1.5547338,0.0,2,0,0,0
1260602999,37.10320034969077,-76.38691132207761,40.05586,-0.0,2.4002345,6.6188817,-1.3510764,1.2314057,1.0511314,1.5548533,0.0,2,0,0,0
1260803166,37.103204697362855,-76.3868963819501,40.314262,-0.0,2.3252895,6.639654,-1.2838836,1.2300317,1.0512172,1.5548713,0.0,2,0,0,0
1261007013,37.10320900852546,-76.38688099223174,40.564934,-0.0,2.268558,6.6989856,-1.282319,1.2295227,1.0512297,1.554884,0.0,2,0,0,0
1261210992,37.10321328359515,-76.38686555588437,40.823696,-0.0,2.2503483,6.7230735,-1.2485914,1.2286706,1.0514544,1.5549772,0.0,2,0,0,0
1261410990,37.103217477085956,-76.38685041169292,41.087547,-0.0,2.299698,6.7336383,-1.3352458,1.2306691,1.0514609,1.5549817,0.0,2,0,0,0
1261610979,37.1032216939716,-76.38683525166988,41.34881,-0.0,2.2880924,6.7592607,-1.3560649,1.2317243,1.0514648,1.5549867,0.0,2,0,0,0
1261811113,37.10322590502281,-76.38682006101881,41.60865,-0.0,2.2859313,6.746037,-1.3249635,1.2322233,1.0514381,1.5549918,0.0,2,0,0,0
1262015126,37.10323019106215,-76.38680458646724,41.88589,-0.0,2.315951,6.7649612,-1.4356763,1.2314061,1.0514133,1.555,0.0,2,0,0,0
1262218997,37.103234523138596,-76.38678910571886,42.177917,-0.0,2.3311536,6.7880936,-1.4729785,1.2332541,1.0516094,1.5548474,0.0,2,0,0,0
1262419109,37.10323880032638,-76.386773893898,42.46523,-0.0,2.2769837,6.7709293,-1.3503525,1.2364392,1.0516233,1.5548579,0.0,2,0,0,0
1262619110,37.103243034971776,-76.38675864422335,42.7279,-0.0,2.2360501,6.777195,-1.319997,1.2397871,1.0516328,1.5548759,0.0,2,0,0,0
1262823168,37.103247277637664,-76.38674300913472,42.979973,-0.0,2.1899614,6.7767625,-1.255411,1.2360713,1.0516691,1.5548946,0.0,2,0,0,0
1263023153,37.10325137992378,-76.38672766912853,43.201523,-0.0,2.2154424,6.775934,-1.233158,1.230748,1.0516355,1.5549104,0.0,2,0,0,0
1263227088,37.10325554978701,-76.38671200289537,43.421253,-0.0,2.2185807,6.765652,-1.229987,1.2251701,1.0518516,1.554773,0.0,2,0,0,0
1263427002,37.103259708056996,-76.38669664998017,43.66375,-0.0,2.2928352,6.75077,-1.2747992,1.2227603,1.0518496,1.5548012,0.0,2,0,0,0
1263627020,37.103263954287456,-76.38668135797022,43.90733,-0.0,2.3367107,6.7831078,-1.2020267,1.2226098,1.0517561,1.554594,0.0,2,0,0,0
1263827141,37.103268246143806,-76.38666608866933,44.125237,-0.0,2.3518822,6.797115,-1.2605554,1.2222941,1.0517316,1.5546321,0.0,2,0,0,0
1264031012,37.103272664309124,-76.3866504575237,44.347965,-0.0,2.3460631,6.774932,-1.2862025,1.2187592,1.0517392,1.5546684,0.0,2,0,0,0
1264234959,37.10327717105094,-76.38663478748889,44.585236,-0.0,2.3835695,6.7700505,-1.2444537,1.2146331,1.0519704,1.5547929,0.0,2,0,0,0
1264435114,37.10328166503203,-76.38661934302192,44.821556,-0.0,2.4013758,6.7949123,-1.1860559,1.2109771,1.0519818,1.5548251,0.0,2,0,0,0
1264638963,37.10328623804728,-76.38660350849338,45.06125,-0.0,2.400033,6.839684,-1.2398915,1.2131864,1.0519911,1.5546178,0.0,2,0,0,0
1264840620,37.10329069016657,-76.38658779991302,45.29458,-0.0,2.3683147,6.877671,-1.3171924,1.2219629,1.0521886,1.5547343,0.0,2,0,0,0
1265040734,37.103295010685045,-76.38657213107956,45.558678,-0.0,2.322821,6.9004674,-1.3613656,1.2306645,1.0521455,1.5547411,0.0,2,0,0,0
1265240612,37.10329926087211,-76.38655638189442,45.8466,-0.0,2.287662,6.9368167,-1.4402553,1.2375202,1.0521733,1.5547681,0.0,2,0,0,0
1265444601,37.103303588104176,-76.38654029942717,46.153282,-0.0,2.3126042,6.9374895,-1.3135102,1.2371252,1.0522,1.5547941,0.0,2,0,0,0
1265648731,37.103307898181086,-76.38652423192764,46.44797,-0.0,2.2664738,6.9284253,-1.255271,1.2346638,1.0524422,1.5549027,0.0,2,0,0,0
1265848741,37.10331208798231,-76.38650846604887,46.71348,-0.0,2.241992,6.934863,-1.2799226,1.2291574,1.0524826,1.5549225,0.0,2,0,0,0
1266052574,37.10331631537775,-76.38649247735086,46.976665,-0.0,2.2309382,6.9166136,-1.2833571,1.2256052,1.0524865,1.5549386,0.0,2,0,0,0
1266252743,37.10332044960143,-76.38647690262766,47.234764,-0.0,2.2198796,6.8706384,-1.262678,1.220865,1.0524901,1.5549589,0.0,2,0,0,0
1266456761,37.1033247288669,-76.38646110009282,47.492702,-0.0,2.2896295,6.8434916,-1.2100699,1.2169468,1.0527183,1.5548182,0.0,2,0,0,0
1266660758,37.103329113314416,-76.3864453434933,47.745766,-0.0,2.369797,6.8697634,-1.3068757,1.2175345,1.0527173,1.5548375,0.0,2,0,0,0
1266860783,37.103333482601556,-76.38642990330918,48.01426,-0.0,2.3438323,6.8314505,-1.2575034,1.2219416,1.05275,1.5548538,0.0,2,0,0,0
1267060608,37.10333784694775,-76.38641453521618,48.28934,-0.0,2.3568416,6.803414,-1.2847221,1.224503,1.0527469,1.5548749,0.0,2,0,0,0
1267264749,37.10334227269721,-76.38639897338118,48.55586,-0.0,2.3601108,6.75998,-1.247539,1.2244796,1.052941,1.5547432,0.0,2,0,0,0
1267468852,37.10334670091544,-76.38638345455908,48.810757,-0.0,2.376253,6.7594876,-1.251285,1.2243314,1.0529454,1.5547684,0.0,2,0,0,0
1267672675,37.10335110470509,-76.38636791302402,49.04417,-0.0,2.3480237,6.784038,-1.2405882,1.2249599,1.0531723,1.5548774,0.0,2,0,0,0
1267872790,37.10335537813135,-76.38635254561453,49.291817,-0.0,2.320316,6.7948565,-1.2514888,1.2255148,1.0532036,1.5546633,0.0,2,0,0,0
1268072726,37.1033596118965,-76.38633712417776,49.561966,-0.0,2.3309262,6.826689,-1.3260177,1.2270616,1.0532025,1.5546986,0.0,2,0,0,0
1268276716,37.10336393087198,-76.38632142348484,49.843555,-0.0,2.349976,6.786387,-1.2617055,1.2243608,1.053201,1.5547382,0.0,2,0,0,0
1268480702,37.10336829780676,-76.38630578335368,50.10756,-0.0,2.3877816,6.7704744,-1.2458177,1.2213535,1.0534285,1.5546277,0.0,2,0,0,0
1268680711,37.10337266412854,-76.38629052020256,50.337055,-0.0,2.4151673,6.737337,-1.198502,1.2194659,1.0534238,1.5546695,0.0,2,0,0,0
1268884691,37.10337715401611,-76.38627503491776,50.55988,-0.0,2.4269233,6.734297,-1.2317057,1.2173791,1.0534179,1.5547085,0.0,2,0,0,0
1269084621,37.10338161996208,-76.38625990424596,50.788692,-0.0,2.4528763,6.7179656,-1.2334727,1.2165719,1.0534152,1.5547484,0.0,2,0,0,0
1269286444,37.103386147243754,-76.3862446503762,51.029526,-0.0,2.4400642,6.729168,-1.2368108,1.2170159,1.053411,1.5547843,0.0,2,0,0,0
1269486376,37.103390658675536,-76.38622948614795,51.306934,-0.0,2.434843,6.729528,-1.3131831,1.2205458,1.053483,1.5548353,0.0,2,0,0,0
1269690332,37.103395255454885,-76.38621405505151,51.637646,-0.0,2.4532242,6.751225,-1.4783027,1.2236261,1.0536764,1.5547066,0.0,2,0,0,0
1269894354,37.10339996242331,-76.38619856544986,51.97242,-0.0,2.518478,6.7751164,-1.5676727,1.2265627,1.053718,1.5547299,0.0,2,0,0,0
1270098479,37.10340477374793,-76.38618297518858,52.30146,-0.0,2.5369563,6.8177824,-1.5511309,1.2292145,1.0539925,1.5548426,0.0,2,0,0,0
1270298441,37.10340950033777,-76.38616760430344,52.604397,-0.0,2.5513253,6.859268,-1.4733889,1.230264,1.0539925,1.5548666,0.0,2,0,0,0
1270498415,37.10341420633895,-76.38615208062826,52.908512,-0.0,2.5466728,6.9356256,-1.4273726,1.2341185,1.05399,1.5548874,0.0,2,0,0,0
1270702331,37.103418959947476,-76.38613613523226,53.19637,-0.0,2.4896843,6.987001,-1.3761094,1.2336845,1.0539836,1.554906,0.0,2,0,0,0
1270906431,37.103423594442006,-76.38612018708487,53.47086,-0.0,2.43163,6.9972873,-1.3490251,1.2366401,1.054173,1.5550052,0.0,2,0,0,0
1271110319,37.10342806618486,-76.38610423928448,53.75523,-0.0,2.3402693,6.945573,-1.3789624,1.2312701,1.0541611,1.5550215,0.0,2,0,0,0
1271310352,37.103432340192306,-76.38608875054261,54.040462,-0.0,2.3231099,6.8681707,-1.4608552,1.2264191,1.0541518,1.5550355,0.0,2,0,0,0
1271514351,37.10343669248176,-76.38607309782401,54.322216,-0.0,2.3583422,6.8207,-1.5107323,1.2248137,1.0543859,1.554886,0.0,2,0,0,0
1271718379,37.10344109108656,-76.38605763935729,54.596928,-0.0,2.364961,6.745704,-1.4111643,1.2242256,1.0543514,1.5549023,0.0,2,0,0,0
1271918426,37.10344543178823,-76.38604259503757,54.869728,-0.0,2.4238768,6.7148385,-1.4378266,1.2245803,1.0543153,1.5549161,0.0,2,0,0,0
1272118683,37.10344986731205,-76.38602760955752,55.148033,-0.0,2.4723213,6.6835604,-1.359189,1.2246656,1.0543175,1.554925,0.0,2,0,0,0
1272318340,37.10345441343838,-76.38601265332238,55.42442,-0.0,2.5613785,6.683162,-1.3604733,1.2264376,1.0543187,1.5549294,0.0,2,0,0,0
1272522366,37.10345913808681,-76.38599736965074,55.696705,-0.0,2.5465517,6.7067075,-1.2289298,1.2287455,1.054515,1.5550187,0.0,2,0,0,0
1272726344,37.10346381401634,-76.38598199323866,55.95341,-0.0,2.5352783,6.770191,-1.2728415,1.2267392,1.0544751,1.5550228,0.0,2,0,0,0
1272930349,37.10346845570277,-76.38596645216487,56.208954,-0.0,2.5363166,6.7766004,-1.283606,1.2211463,1.0547451,1.5548642,0.0,2,0,0,0
1273134322,37.103473084350945,-76.38595092055283,56.489723,-0.0,2.5573409,6.7749033,-1.324738,1.2200112,1.0547398,1.5548735,0.0,2,0,0,0
1273338293,37.103477702432706,-76.38593548598082,56.74895,-0.0,2.5696266,6.7812138,-1.3281575,1.2199157,1.0549449,1.5549669,0.0,2,0,0,0
1273538388,37.10348219934857,-76.38592035888117,56.98628,-0.0,2.515074,6.7689815,-1.1906952,1.2232326,1.0494112,1.5548183,0.0,2,0,0,0
1273739939,37.10348670010197,-76.38590509258344,57.225704,-0.0,2.470552,6.774563,-1.1925752,1.2283435,1.0549113,1.5549843,0.0,2,0,0,0
1273939923,37.103491101780264,-76.38589000522904,57.46626,-0.0,2.43182,6.753395,-1.1901016,1.2286639,1.0494227,1.5548478,0.0,2,0,0,0
1274143944,37.103495549077,-76.38587457667732,57.71484,-0.0,2.3987958,6.7794514,-1.1663123,1.2238008,1.0494256,1.554861,0.0,2,0,0,0
1274347913,37.10349994003835,-76.3858590386958,57.96432,-0.0,2.412132,6.798539,-1.1665251,1.2216797,1.0496011,1.5547144,0.0,2,0,0,0
1274547934,37.103504223350484,-76.38584379837909,58.212677,-0.0,2.4331725,6.799838,-1.2081057,1.223141,1.049604,1.5547291,0.0,2,0,0,0
1274747815,37.10350854377942,-76.38582852141072,58.458263,-0.0,2.4275527,6.8205714,-1.2435989,1.2269261,1.0495832,1.5547476,0.0,2,0,0,0
