timestamp,magnetometer_ga[0],magnetometer_ga[1],magnetometer_ga[2]
1184860409,0.2286309,-0.03443236,0.34805393
1184885101,0.22268803,-0.037491996,0.35844123
1184896715,0.2197166,-0.016074559,0.34211835
1184908853,0.20783085,-0.029842911,0.3554734
1184935167,0.2197166,-0.055849794,0.34657004
1184947959,0.2286309,-0.028313093,0.33321497
1184960490,0.2197166,-0.039021812,0.34657004
1184972887,0.21525945,-0.03443236,0.34805393
1184984725,0.21377371,-0.022193827,0.35250562
1184996717,0.212288,-0.025253462,0.3510217
1185008609,0.20040226,-0.026783278,0.34953785
1185021972,0.23903093,-0.031372722,0.34508616
1185035942,0.21823087,-0.03443236,0.35844123
1185048327,0.21823087,-0.03443236,0.34805393
1185072780,0.20783085,-0.016074559,0.33618277
1185087449,0.21823087,-0.026783276,0.34953785
1185100845,0.23903093,-0.028313093,0.34508616
1185124711,0.2197166,-0.032902543,0.35250562
1185136575,0.23011662,-0.02984291,0.34953785
1185149232,0.23011662,-0.02984291,0.3554734
1185160612,0.21823087,-0.039021812,0.3554734
1185172879,0.22268803,-0.028313095,0.35844123
1185196840,0.20931657,-0.028313095,0.34805393
1185208705,0.22417374,-0.037491996,0.34657004
1185221385,0.21823087,-0.02066401,0.33915055
1185245383,0.21823087,-0.032902543,0.3599251
1185256590,0.22268803,-0.02066401,0.34805393
1185268921,0.21377371,-0.032902543,0.361409
1185280813,0.212288,-0.028313095,0.3510217
1185293272,0.19594511,-0.031372726,0.35844123
1185317279,0.2197166,-0.037491996,0.34953785
1185328771,0.24497381,-0.037491992,0.34211835
1185356802,0.22565947,-0.02525346,0.3510217
1185368585,0.20931657,-0.032902543,0.3554734
1185392606,0.22268803,-0.025253462,0.35844123
1185416723,0.22268803,-0.025253462,0.35398954
1185440364,0.20931657,-0.029842911,0.361409
1185452924,0.2286309,-0.020664008,0.35398954
1185464587,0.23457377,-0.049730524,0.34953785
1185476800,0.20783085,-0.043611262,0.34953785
1185488322,0.23011662,-0.02984291,0.361409
1185501059,0.21525945,-0.025253462,0.3510217
1185512472,0.21823087,-0.032902543,0.3599251
1185524630,0.2197166,-0.022193827,0.34211835
1185536599,0.21377371,-0.022193827,0.3272794
1185565371,0.2197166,-0.037491996,0.33321497
1185576732,0.22417374,-0.037491996,0.35250562
1185589365,0.212288,-0.028313095,0.34508616
1185613994,0.21823087,-0.019134194,0.3554734
1185640866,0.20634513,-0.028313095,0.34508616
1185654325,0.22417374,-0.032902543,0.34657004
1185665945,0.2197166,-0.032902543,0.34211835
1185678255,0.20783085,-0.032902543,0.3599251
1185689968,0.21823087,-0.039021812,0.34953785
1185713828,0.21377371,-0.022193827,0.34657004
1185737982,0.21823087,-0.022193827,0.3554734
1185753020,0.2286309,-0.037491996,0.3257955
1185778709,0.2197166,-0.043611262,0.34063447
1185801939,0.22268803,-0.03443236,0.34211835
1185814378,0.20188798,-0.03443236,0.35398954
1185825966,0.19891654,-0.04514108,0.35398954
1185838874,0.2197166,-0.06502869,0.34063447
1185862746,0.22714518,-0.039021812,0.34657004
1185874743,0.22565947,-0.051260345,0.34508616
1185886833,0.22268803,-0.05737961,0.34508616
1185898744,0.23011662,-0.07573741,0.34953785
1185910833,0.21525945,-0.060439248,0.34805393
1185937120,0.22268803,-0.06655851,0.3257955
1185949402,0.23011662,-0.06961814,0.33618277
1185986147,0.23011662,-0.08491631,0.3272794
1185998778,0.22565947,-0.071147956,0.33915055
1186009954,0.20783085,-0.06961815,0.33618277
1186022324,0.21823089,-0.08797594,0.33915055
1186034066,0.22565947,-0.071147956,0.34508616
1186046213,0.20337369,-0.06961815,0.34063447
1186070747,0.21823089,-0.08950576,0.3243116
1186094728,0.20783085,-0.07573742,0.3599251
1186118502,0.20337369,-0.07267778,0.34211835
1186130711,0.20783085,-0.0650287,0.3554734
1186142636,0.19743082,-0.07267778,0.3599251
1186154039,0.20931657,-0.08185668,0.3346989
1186178723,0.20931657,-0.074207604,0.34508616
1186190632,0.19891654,-0.060439248,0.34805393
1186202639,0.212288,-0.074207604,0.34508616
1186214748,0.20931657,-0.06655852,0.3599251
1186226751,0.20337369,-0.055849794,0.3554734
1186238742,0.20634513,-0.055849794,0.34805393
1186250357,0.20634513,-0.07114796,0.34805393
1186262516,0.19891654,-0.060439248,0.3510217
1186302459,0.21377371,-0.04973053,0.34063447
1186314647,0.20337369,-0.05279016,0.3599251
1186326711,0.19891654,-0.037491996,0.3510217
1186338038,0.19594511,-0.054319978,0.3510217
1186350771,0.20931657,-0.043611262,0.34953785
1186362658,0.212288,-0.040551625,0.34805393
1186374846,0.20188798,-0.040551625,0.35844123
1186386711,0.212288,-0.037491996,0.3599251
1186398753,0.21377371,-0.055849794,0.361409
1186422775,0.19743082,-0.039021812,0.37773186
1186434715,0.19891654,-0.031372726,0.3599251
1186446634,0.20783085,-0.032902543,0.3599251
1186458750,0.20040226,-0.01607456,0.36882848
1186494863,0.20634513,-0.031372726,0.35398954
1186505952,0.20931657,-0.03443236,0.3628929
1186518872,0.20783085,-0.029842911,0.3554734
1186542833,0.19743082,-0.0068956614,0.35250562
1186554739,0.21525945,-0.019134194,0.35844123
1186566866,0.21823087,-0.02066401,0.33915055
1186578700,0.19148795,-0.019134196,0.36882848
1186593079,0.20634513,-0.025253462,0.3599251
1186617955,0.19743082,-0.026783278,0.3658607
1186630350,0.20634513,-0.014544744,0.36882848
1186641912,0.21377371,-0.0099552935,0.361409
1186654589,0.22268803,-0.025253462,0.35844123
1186666076,0.20634513,-0.02066401,0.3510217
1186678640,0.2286309,-0.019134192,0.34805393
1186690668,0.20783085,-0.016074559,0.35250562
1186702757,0.212288,-0.019134194,0.3599251
1186713980,0.20040226,-0.019134196,0.3554734
1186738819,0.23011662,-0.0023062087,0.361409
1186750743,0.21823087,-0.0068956595,0.3599251
1186774661,0.21525945,0.0007534236,0.3510217
1186809953,0.20188798,-0.008425478,0.34805393
1186822341,0.22417374,-0.006895659,0.3599251
1186833947,0.22417374,-0.0007763923,0.36882848
1186857955,0.21525945,-0.008425477,0.35844123
1186870421,0.2286309,-0.00077639194,0.35844123
1186882694,0.21823087,-0.019134194,0.3554734
1186894690,0.21525945,-0.0053658434,0.3599251
1186906730,0.22417374,-0.009955293,0.35250562
1186930691,0.21377371,-0.0007763932,0.34953785
1186942757,0.23457377,-0.006895658,0.34953785
1186954642,0.2286309,-0.014544742,0.36734456
1187002053,0.21377371,0.0038130567,0.3599251
1187014411,0.23457377,-0.006895658,0.34657004
1187025969,0.23011662,-0.00077639177,0.3554734
1187049980,0.21377371,-0.0099552935,0.34953785
1187062744,0.2360595,-0.00077639124,0.3510217
1187074733,0.22268803,-0.0053658425,0.36734456
1187098709,0.2197166,-0.0068956595,0.3599251
1187122139,0.22268803,-0.011485109,0.35844123
1187136774,0.22714518,-0.009955293,0.3554734
1187149614,0.20931657,-0.0023062103,0.34657004
1187174670,0.22417374,-0.0007763923,0.3554734
1187185959,0.21823087,-0.0130149275,0.35250562
1187198521,0.2286309,-0.00077639194,0.3510217
1187222469,0.23160234,-0.00077639165,0.36734456
1187246716,0.2286309,-0.02525346,0.34508616
1187258162,0.21525945,-0.0007763931,0.34805393
1187270739,0.22417374,-0.006895659,0.34953785
1187296899,0.23457377,-0.016074557,0.37179625
1187309360,0.2197166,-0.016074559,0.34953785
1187320926,0.22565947,0.00075342454,0.35844123
1187336855,0.2286309,-0.011485109,0.35844123
1187350330,0.23457377,-0.0023062082,0.34657004
1187362110,0.21377371,-0.016074559,0.34211835
1187374324,0.22268803,-0.02066401,0.35398954
1187385978,0.2197166,-0.0023062096,0.361409
1187398154,0.2360595,-0.008425475,0.33915055
1187410069,0.21377371,-0.008425477,0.35250562
1187422213,0.21377371,-0.0099552935,0.35250562
1187433932,0.20634513,-0.014544744,0.35398954
1187446660,0.21525945,-0.02066401,0.3510217
1187457985,0.212288,-0.02066401,0.3628929
1187470491,0.22714518,-0.013014927,0.3554734
1187482236,0.22714518,-0.0068956586,0.3554734
1187494617,0.22714518,-0.022193825,0.35250562
1187506742,0.22417374,-0.022193825,0.34953785
1187518744,0.2197166,-0.009955293,0.361409
1187542490,0.212288,-0.008425477,0.3599251
1187553911,0.2360595,-0.013014926,0.35250562
1187578136,0.22268803,-0.008425476,0.34805393
1187590493,0.22565947,-0.0053658425,0.34211835
1187614630,0.21525945,-0.0053658434,0.35398954
1187626790,0.23011662,-0.0068956586,0.34953785
1187638641,0.22417374,-0.0023062092,0.34953785
1187662485,0.2360595,-0.008425475,0.35844123
1187674772,0.23160234,-0.028313093,0.37328017
1187686864,0.21525945,-0.02066401,0.3510217
1187697965,0.23160234,-0.008425475,0.3510217
1187710847,0.22417374,-0.009955293,0.3599251
1187734732,0.21823087,-0.02066401,0.35844123
1187746764,0.21823087,-0.01148511,0.34805393
1187806467,0.2286309,-0.019134192,0.35398954
1187818722,0.23160234,-0.011485108,0.34805393
1187830478,0.22714518,-0.013014927,0.34953785
1187854807,0.212288,-0.02066401,0.3599251
1187866771,0.21525945,-0.014544743,0.3628929
1187878742,0.21377371,-0.019134194,0.3599251
1187890792,0.22417374,-0.019134192,0.3599251
1187902836,0.22714518,-0.022193825,0.361409
1187926734,0.2360595,-0.020664008,0.35398954
1187938630,0.22268803,-0.025253462,0.35398954
1187950866,0.22268803,-0.019134194,0.35398954
1188010067,0.20931657,-0.0099552935,0.34953785
1188022405,0.2197166,-0.019134194,0.3599251
1188046435,0.21823087,-0.0068956595,0.35250562
1188057960,0.2197166,-0.019134194,0.3554734
1188070621,0.2197166,-0.032902543,0.35250562
1188082189,0.22565947,-0.020664008,0.3599251
1188094841,0.21377371,-0.029842911,0.361409
1188118790,0.23011662,-0.019134192,0.34953785
1188130637,0.21823087,-0.039021812,0.35250562
1188142856,0.22417374,-0.019134192,0.37179625
1188178729,0.20783085,-0.022193827,0.34953785
1188205260,0.23160234,-0.020664008,0.3628929
1188217927,0.21377371,-0.022193827,0.34953785
1188241828,0.2360595,-0.031372722,0.34805393
1188254637,0.22417374,-0.026783274,0.361409
1188266054,0.21377371,-0.0130149275,0.361409
1188290040,0.2360595,-0.026783274,0.34657004
1188302522,0.22417374,-0.019134192,0.3554734
1188313915,0.23011662,-0.022193825,0.35250562
1188326633,0.20931657,-0.019134194,0.35250562
1188338639,0.2197166,-0.013014927,0.3554734
1188362003,0.22268803,-0.025253462,0.35844123
1188374754,0.2197166,-0.029842911,0.35250562
1188386753,0.22268803,-0.014544742,0.35398954
1188398635,0.22268803,-0.031372726,0.34805393
1188409970,0.22714518,-0.022193825,0.34211835
1188422437,0.21525945,-0.037491996,0.3510217
1188433985,0.20337369,-0.037491996,0.3599251
1188457942,0.22268803,-0.028313095,0.35844123
1188482733,0.2286309,-0.028313093,0.3510217
1188494749,0.2286309,-0.020664008,0.3628929
1188505987,0.21377371,-0.022193827,0.3554734
1188518445,0.23457377,-0.03290254,0.35250562
1188530729,0.21823087,-0.019134194,0.35250562
1188557831,0.23011662,-0.019134192,0.33618277
1188570144,0.21823087,-0.019134194,0.34953785
1188582783,0.21525945,-0.025253462,0.36734456
1188606889,0.21377371,-0.016074559,0.3658607
1188618721,0.21823087,-0.022193827,0.37476408
1188630791,0.23457377,-0.037491992,0.3599251
1188678798,0.22417374,-0.032902543,0.3599251
1188690044,0.212288,-0.025253462,0.3628929
1188702785,0.212288,-0.02066401,0.3628929
1188714738,0.22714518,-0.022193825,0.35250562
1188728847,0.21823087,-0.037491996,0.3628929
1188742349,0.2197166,-0.022193827,0.361409
1188753861,0.2286309,-0.028313093,0.36882848
1188766317,0.2286309,-0.02525346,0.35844123
1188777837,0.22268803,-0.014544742,0.35398954
1188801826,0.22268803,-0.014544742,0.3599251
1188814211,0.2286309,-0.02525346,0.34805393
1188825850,0.2197166,-0.029842911,0.361409
1188863027,0.22268803,-0.046670895,0.3628929
1188874752,0.22268803,-0.040551625,0.3510217
1188889076,0.23160234,-0.03443236,0.36882848
1188902438,0.22268803,-0.019134194,0.35398954
1188926442,0.24200237,-0.045141075,0.3628929
1188938755,0.212288,-0.031372726,0.3599251
1188950745,0.22417374,-0.022193825,0.3554734
1188976781,0.21377371,-0.026783276,0.34953785
1188989260,0.21823087,-0.031372726,0.36734456
1189000786,0.21823087,-0.029842911,0.36882848
1189013550,0.22565947,-0.051260345,0.34508616
1189025866,0.22714518,-0.026783274,0.35250562
1189049833,0.22417374,-0.032902543,0.361409
1189062532,0.22565947,-0.028313093,0.34805393
1189074044,0.22714518,-0.026783274,0.34953785
1189097950,0.21377371,-0.026783276,0.34657004
1189110435,0.2286309,-0.026783274,0.34211835
1189121855,0.2286309,-0.02525346,0.34211835
1189136811,0.22714518,-0.032902543,0.3554734
1189161954,0.21823087,-0.026783276,0.3599251
1189174891,0.2286309,-0.02525346,0.34805393
1189186741,0.21525945,-0.031372726,0.3510217
1189198634,0.22714518,-0.02984291,0.34211835
1189222760,0.22714518,-0.02984291,0.3554734
1189234774,0.22417374,-0.037491996,0.34211835
1189246829,0.22417374,-0.022193825,0.3554734
1189258749,0.2286309,-0.019134192,0.37328017
1189270775,0.2286309,-0.02525346,0.35844123
1189294786,0.2197166,-0.022193827,0.361409
1189306744,0.22417374,-0.022193825,0.361409
1189318450,0.22565947,-0.028313093,0.3599251
1189342852,0.2197166,-0.022193827,0.35250562
1189354871,0.22565947,-0.014544742,0.36882848
1189366732,0.212288,-0.028313095,0.3599251
1189378763,0.22714518,-0.019134192,0.35250562
1189390739,0.2286309,-0.014544742,0.35398954
1189414448,0.23011662,-0.02984291,0.361409
1189426760,0.2360595,-0.02525346,0.3599251
1189465136,0.22417374,-0.019134192,0.3599251
1189489271,0.22714518,-0.022193825,0.361409
1189502214,0.23903093,-0.031372722,0.34805393
1189513985,0.21823087,-0.03443236,0.35844123
1189538759,0.21823087,-0.02066401,0.3658607
1189550735,0.21525945,-0.031372726,0.3599251
1189562746,0.23457377,-0.022193825,0.35250562
1189585947,0.20931657,-0.022193827,0.3599251
1189610740,0.23457377,-0.04361126,0.3599251
1189622441,0.2360595,-0.026783274,0.361409
1189633998,0.212288,-0.031372726,0.3599251
1189670607,0.212288,-0.031372726,0.35250562
1189681909,0.21823087,-0.02066401,0.36882848
1189694402,0.2286309,-0.02525346,0.3510217
1189705952,0.22417374,-0.019134192,0.3554734
1189730806,0.23903093,-0.008425475,0.3510217
1189742724,0.22417374,-0.026783274,0.3554734
1189754175,0.22417374,-0.016074557,0.3554734
1189778065,0.22268803,-0.019134194,0.3628929
1189801942,0.2197166,-0.039021812,0.36882848
1189814529,0.20931657,-0.019134194,0.35250562
1189862686,0.21377371,-0.019134194,0.3554734
1189874738,0.21823087,-0.019134194,0.3658607
1189897939,0.23457377,-0.026783274,0.36882848
1189922033,0.22714518,-0.02984291,0.361409
1189937014,0.24200237,-0.028313093,0.35844123
1189949918,0.22714518,-0.037491996,0.3554734
1189976786,0.22714518,-0.022193825,0.3554734
1189989235,0.21823087,-0.014544743,0.35398954
1190001954,0.21823087,-0.025253462,0.3599251
1190025822,0.2197166,-0.032902543,0.37179625
1190051765,0.2286309,-0.020664008,0.37624794
1190063645,0.21377371,-0.026783276,0.3599251
1190075930,0.212288,-0.02066401,0.35398954
1190100077,0.21525945,-0.03443236,0.3599251
1190111671,0.21823087,-0.028313095,0.3599251
1190124285,0.22268803,-0.011485109,0.35844123
1190135672,0.21823087,-0.019134194,0.37328017
1190148537,0.21823087,-0.02066401,0.36734456
1190159728,0.20931657,-0.022193827,0.3658607
1190172386,0.21823087,-0.02066401,0.35844123
1190183658,0.22417374,-0.022193825,0.36882848
1190196037,0.22417374,-0.026783274,0.3554734
1190244004,0.212288,-0.019134194,0.35844123
1190255630,0.21823087,-0.019134194,0.3510217
1190268067,0.22714518,-0.016074557,0.3554734
1190292044,0.20931657,-0.0130149275,0.361409
1190303678,0.21525945,-0.019134194,0.36734456
1190315967,0.20931657,-0.029842911,0.3599251
1190342679,0.22714518,-0.022193825,0.361409
1190356358,0.212288,-0.03443236,0.35844123
1190367722,0.22417374,-0.009955293,0.3554734
1190379951,0.21525945,-0.01148511,0.36734456
1190391783,0.20931657,-0.019134194,0.36882848
1190404003,0.2197166,-0.032902543,0.37179625
1190415800,0.22417374,-0.032902543,0.34953785
1190439643,0.2197166,-0.013014927,0.36882848
1190463665,0.21823087,-0.022193827,0.361409
1190476256,0.21377371,-0.029842911,0.361409
1190487650,0.21377371,-0.022193827,0.36882848
1190500445,0.2197166,-0.022193827,0.3658607
1190511642,0.22417374,-0.019134192,0.37179625
1190535720,0.212288,-0.01148511,0.3599251
1190550163,0.22268803,-0.014544742,0.35844123
1190563073,0.20783085,-0.019134194,0.3658607
1190587531,0.2286309,-0.028313093,0.35844123
1190599728,0.2197166,-0.013014927,0.36882848
1190612049,0.2197166,-0.016074559,0.3599251
1190623405,0.22268803,-0.008425476,0.36734456
1190636366,0.22714518,-0.026783274,0.36882848
1190660593,0.2197166,-0.013014927,0.3658607
1190671642,0.20337369,-0.013014928,0.37179625
1190684385,0.22565947,-0.028313093,0.35844123
1190708368,0.2286309,-0.037491996,0.36734456
1190719692,0.20040226,-0.01607456,0.37179625
1190732099,0.2286309,-0.02525346,0.36734456
1190756484,0.22268803,-0.025253462,0.3599251
1190780581,0.22714518,-0.022193825,0.37179625
1190792574,0.20188798,-0.014544744,0.3628929
1190806465,0.20931657,-0.019134194,0.34657004
1190818823,0.2197166,-0.016074559,0.37179625
1190831614,0.22417374,-0.016074557,0.361409
1190843780,0.20783085,-0.019134194,0.361409
1190855660,0.21823087,-0.019134194,0.35844123
1190867942,0.21823087,-0.014544743,0.35398954
1190879601,0.21377371,-0.0130149275,0.361409
1190894466,0.21525945,-0.028313095,0.35844123
1190906819,0.212288,-0.01148511,0.36734456
1190919564,0.2197166,-0.019134194,0.36882848
1190934722,0.22268803,-0.014544742,0.34805393
1190947327,0.22714518,-0.0068956586,0.37773186
1190972444,0.2286309,-0.019134192,0.3628929
1190983636,0.212288,-0.031372726,0.3599251
1190996042,0.22714518,-0.00077639206,0.37179625
1191043922,0.22268803,-0.031372726,0.37328017
1191055657,0.2197166,-0.022193827,0.3554734
1191068343,0.20040226,-0.029842913,0.3658607
1191092002,0.22268803,-0.02066401,0.3628929
1191103685,0.22565947,-0.014544742,0.35398954
1191116230,0.21823087,-0.02066401,0.3510217
1191127704,0.2197166,-0.0068956595,0.37773186
1191142698,0.212288,-0.025253462,0.36734456
1191167712,0.2197166,-0.022193827,0.37773186
1191180367,0.21823087,-0.026783276,0.36882848
1191191801,0.22565947,-0.011485109,0.35844123
1191215668,0.212288,-0.01148511,0.3599251
1191228418,0.21823087,-0.019134194,0.36882848
1191239631,0.2197166,-0.029842911,0.3599251
1191263644,0.20931657,-0.022193827,0.3554734
1191292029,0.2197166,-0.026783276,0.3658607
1191303677,0.22417374,-0.026783274,0.3599251
1191316001,0.21525945,-0.031372726,0.3510217
1191340228,0.21823087,-0.028313095,0.3599251
1191351649,0.20188798,-0.011485111,0.36882848
1191364351,0.22417374,-0.022193825,0.361409
1191387919,0.2286309,-0.03443236,0.3599251
1191411953,0.21525945,-0.02066401,0.36882848
1191423693,0.22417374,-0.022193825,0.361409
1191435933,0.21525945,-0.014544743,0.3628929
1191462382,0.21823087,-0.02066401,0.3599251
1191475288,0.21525945,-0.02066401,0.3510217
1191486665,0.2197166,-0.019134194,0.3658607
1191500123,0.2286309,-0.020664008,0.36882848
1191511699,0.22417374,-0.026783274,0.36882848
1191540038,0.2360595,-0.04055162,0.36734456
1191551673,0.20931657,-0.016074559,0.37179625
1191563914,0.21377371,-0.016074559,0.36882848
1191575651,0.22565947,-0.028313093,0.3599251
1191599650,0.22714518,-0.032902543,0.36882848
1191612129,0.21377371,-0.0130149275,0.3554734
1191623657,0.21377371,-0.019134194,0.3554734
1191635909,0.212288,-0.025253462,0.36882848
1191647600,0.22417374,-0.026783274,0.35250562
1191660428,0.21823087,-0.029842911,0.3599251
1191671637,0.21823087,-0.026783276,0.3599251
1191684260,0.21525945,-0.01148511,0.36734456
1191708149,0.212288,-0.019134194,0.37328017
1191719676,0.22417374,-0.016074557,0.37773186
1191732124,0.20634513,-0.031372726,0.37624794
1191743685,0.2197166,-0.026783276,0.3658607
1191755971,0.21823087,-0.0068956595,0.37476408
1191780039,0.212288,-0.019134194,0.37624794
1191791807,0.21823087,-0.031372726,0.3599251
1191804019,0.22417374,-0.022193825,0.361409
1191852028,0.20931657,-0.016074559,0.37476408
1191863638,0.21377371,-0.00689566,0.36882848
1191876477,0.20634513,-0.019134194,0.34805393
1191901149,0.20931657,-0.028313095,0.38218355
1191911645,0.21525945,-0.028313095,0.35844123
1191926366,0.2197166,-0.029842911,0.37476408
1191939220,0.20931657,-0.039021812,0.36882848
1191951579,0.20931657,-0.029842911,0.36882848
1191964132,0.2197166,-0.037491996,0.35250562
1191975676,0.20783085,-0.022193827,0.3658607
1191988403,0.20931657,-0.019134194,0.36734456
1191999651,0.21823087,-0.032902543,0.3599251
1192012239,0.20634513,-0.032902543,0.35398954
1192023641,0.20634513,-0.011485111,0.35398954
1192047663,0.21377371,-0.019134194,0.3599251
1192075221,0.20931657,-0.01148511,0.36734456
1192086607,0.20931657,-0.019134194,0.3658607
1192111690,0.20337369,-0.029842911,0.3599251
1192126418,0.2286309,-0.031372726,0.36882848
1192139900,0.21823087,-0.037491996,0.36882848
1192163759,0.212288,-0.014544743,0.37624794
1192175643,0.21525945,-0.026783276,0.37328017
1192187815,0.20040226,-0.013014928,0.3554734
1192211794,0.2197166,-0.019134194,0.3554734
1192223632,0.19891654,-0.020664012,0.3628929
1192236044,0.22565947,-0.020664008,0.37921575
1192247635,0.212288,-0.025253462,0.37328017
1192260238,0.21823087,-0.02066401,0.36882848
1192284351,0.21525945,-0.025253462,0.3599251
1192295608,0.20337369,-0.016074559,0.37179625
1192308043,0.22268803,-0.02066401,0.36882848
1192334723,0.21377371,-0.029842911,0.361409
1192359679,0.20634513,-0.025253462,0.36882848
1192372325,0.22417374,-0.022193825,0.36882848
1192383808,0.19594511,-0.019134196,0.3628929
1192407701,0.21823087,-0.019134194,0.37328017
1192420264,0.21823087,-0.01148511,0.36734456
1192431611,0.19148795,-0.014544745,0.36882848
1192455700,0.19891654,-0.028313097,0.37328017
1192479650,0.212288,-0.031372726,0.36882848
1192492001,0.22417374,-0.019134192,0.361409
1192503615,0.20337369,-0.026783276,0.37773186
1192527673,0.19594511,-0.011485112,0.36882848
1192540004,0.20931657,-0.019134194,0.36882848
1192551658,0.22565947,-0.014544742,0.36734456
1192563917,0.20931657,-0.0068956604,0.3554734
1192575663,0.21823087,-0.014544743,0.3628929
1192599659,0.20931657,-0.0023062103,0.37476408
1192624572,0.21823087,-0.016074559,0.3658607
1192647665,0.19148795,-0.019134196,0.35250562
1192671683,0.20337369,-0.022193827,0.37476408
1192684071,0.20188798,-0.014544744,0.37328017
1192696045,0.19891654,-0.025253464,0.3628929
1192719682,0.20783085,-0.0099552935,0.3658607
1192732283,0.212288,-0.028313095,0.36882848
1192743662,0.2197166,-0.016074559,0.3599251
1192755796,0.18703079,-0.022193829,0.361409
1192767696,0.21823087,-0.019134194,0.3554734
1192791704,0.19148795,-0.0053658453,0.3599251
1192804018,0.21823087,-0.0099552935,0.37773186
1192815669,0.20188798,-0.025253464,0.3628929
1192839633,0.21377371,0.0038130567,0.37476408
1192851817,0.20188798,-0.025253464,0.36734456
1192863728,0.2197166,-0.022193827,0.35250562
1192876103,0.212288,-0.014544743,0.36882848
1192902167,0.2286309,-0.020664008,0.3628929
1192915164,0.212288,-0.028313095,0.37624794
1192927432,0.19891654,-0.014544744,0.36734456
1192942746,0.212288,-0.02066401,0.36734456
1192967662,0.20931657,-0.028313095,0.3628929
1192979961,0.20188798,-0.028313097,0.3628929
1192991609,0.21525945,-0.019134194,0.37921575
1193003905,0.20337369,-0.013014928,0.36882848
1193015662,0.22417374,-0.019134192,0.38366744
1193039641,0.19891654,-0.008425478,0.3510217
1193052151,0.21377371,-0.00689566,0.38069963
1193063677,0.22268803,-0.011485109,0.36734456
1193087656,0.21823087,-0.037491996,0.38366744
1193111658,0.20337369,-0.019134194,0.37179625
1193124233,0.20783085,-0.016074559,0.3554734
1193175560,0.2197166,-0.026783276,0.36882848
1193188148,0.20931657,-0.02066401,0.36734456
1193214461,0.20931657,-0.03443236,0.36882848
1193226956,0.20931657,-0.028313095,0.3599251
1193239515,0.2286309,-0.019134192,0.3599251
1193252001,0.21823087,-0.019134194,0.37773186
1193263640,0.22268803,-0.014544742,0.36734456
1193276252,0.20634513,-0.031372726,0.37921575
1193287706,0.21377371,-0.022193827,0.361409
1193300299,0.22417374,-0.039021812,0.36882848
1193311667,0.21823087,-0.016074559,0.37476408
1193335686,0.21823087,-0.019134194,0.38218355
1193359677,0.21377371,-0.0130149275,0.36882848
1193383665,0.22417374,-0.019134192,0.3554734
1193407670,0.21525945,-0.028313095,0.36882848
1193419928,0.21823087,-0.032902543,0.35250562
1193431673,0.20188798,-0.019134196,0.37328017
1193455702,0.21823087,-0.022193827,0.37773186
1193479629,0.21377371,-0.037491996,0.3554734
1193491931,0.23457377,-0.026783274,0.36882848
1193503671,0.20188798,-0.037491996,0.35844123
1193542694,0.21525945,-0.031372726,0.36882848
1193556491,0.2197166,-0.022193827,0.3554734
1193582469,0.20783085,-0.037491996,0.3599251
1193595918,0.19594511,-0.028313097,0.36734456
1193607540,0.21823087,-0.031372726,0.36734456
1193619781,0.22417374,-0.022193825,0.3658607
1193631671,0.20040226,-0.026783278,0.36882848
1193643663,0.2197166,-0.009955293,0.361409
1193668240,0.21823087,-0.031372726,0.35398954
1193679633,0.20634513,-0.03443236,0.37624794
1193694473,0.20634513,-0.03443236,0.37179625
1193706790,0.20337369,-0.016074559,0.37179625
1193719519,0.22417374,-0.022193825,0.36882848
1193743644,0.21377371,-0.022193827,0.38069963
1193758642,0.20634513,-0.025253462,0.36734456
1193770851,0.22417374,-0.016074557,0.36882848
1193795965,0.20783085,-0.037491996,0.37179625
1193807654,0.21823087,-0.029842911,0.3599251
1193819790,0.212288,-0.028313095,0.3599251
1193843915,0.19743082,-0.022193829,0.361409
1193855644,0.2197166,-0.026783276,0.3554734
1193868205,0.2197166,-0.029842911,0.37476408
1193891914,0.21525945,-0.028313095,0.34805393
1193915933,0.2197166,-0.022193827,0.36882848
1193927664,0.21525945,-0.0053658434,0.35398954
1193942664,0.20783085,-0.032902543,0.37179625
1193967806,0.20337369,-0.009955294,0.361409
1193980456,0.21823087,-0.031372726,0.37624794
1193991902,0.20931657,-0.02066401,0.35844123
1194015582,0.20634513,-0.025253462,0.3628929
1194028482,0.20634513,-0.025253462,0.37476408
1194039650,0.21377371,-0.019134194,0.37476408
1194052440,0.20931657,-0.02066401,0.36882848
1194064583,0.212288,-0.028313095,0.3628929
1194087899,0.20931657,-0.028313095,0.37624794
1194100204,0.2197166,-0.028313095,0.38366744
1194111634,0.22714518,-0.019134192,0.36882848
1194126346,0.21377371,-0.032902543,0.37179625
1194139959,0.20931657,-0.02066401,0.37328017
1194151633,0.22565947,-0.019134192,0.3599251
1194164007,0.20931657,-0.014544743,0.36734456
1194175645,0.21377371,-0.046670895,0.36882848
1194187921,0.21823087,-0.028313095,0.3628929
1194211925,0.20783085,-0.037491996,0.37476408
1194223670,0.20188798,-0.040551625,0.37328017
1194247639,0.20931657,-0.037491996,0.37179625
1194274932,0.20783085,-0.0099552935,0.37179625
1194286548,0.20931657,-0.022193827,0.3658607
1194299190,0.2197166,-0.016074559,0.36882848
1194310532,0.21823087,-0.025253462,0.36734456
1194323618,0.22268803,-0.03443236,0.35398954
1194335686,0.2197166,-0.016074559,0.37773186
1194348457,0.20931657,-0.029842911,0.3554734
1194359636,0.20634513,-0.014544744,0.36882848
1194372340,0.2197166,-0.032902543,0.37179625
1194383682,0.21377371,-0.022193827,0.36882848
1194420420,0.21823087,-0.032902543,0.3599251
1194445139,0.21525945,-0.031372726,0.3599251
1194481272,0.21823087,-0.02066401,0.37624794
1194493969,0.22417374,-0.032902543,0.3658607
1194505159,0.22565947,-0.031372726,0.38218355
1194518049,0.19148795,-0.025253464,0.35844123
1194544448,0.21525945,-0.028313095,0.35844123
1194557518,0.212288,-0.025253462,0.37179625
1194569209,0.20931657,-0.014544743,0.3628929
1194593183,0.21823087,-0.019134194,0.3658607
1194605436,0.20040226,-0.01607456,0.38069963
1194617148,0.21823087,-0.028313095,0.36734456
1194629581,0.20337369,-0.029842911,0.37476408
1194665651,0.21823087,-0.025253462,0.37328017
1194677910,0.21377371,-0.019134194,0.361409
1194689294,0.2197166,-0.039021812,0.3554734
1194701523,0.20634513,-0.025253462,0.3599251
1194713180,0.20783085,-0.019134194,0.37179625
1194737203,0.19891654,-0.020664012,0.36882848
1194765103,0.20783085,-0.037491996,0.361409
1194801622,0.20634513,-0.019134194,0.36734456
1194813648,0.19594511,-0.014544745,0.37328017
1194837696,0.20931657,-0.0130149275,0.3658607
1194861683,0.19743082,-0.01607456,0.37179625
1194873341,0.20931657,-0.016074559,0.3628929
1194885682,0.21823087,-0.02066401,0.36734456
1194910020,0.20783085,-0.022193827,0.37179625
1194921149,0.20931657,-0.028313095,0.37921575
1194936334,0.20783085,-0.026783276,0.37476408
1194949527,0.19148795,-0.020664012,0.3628929
1194985822,0.20783085,-0.029842911,0.36882848
1194997817,0.22268803,-0.025253462,0.3628929
1195009676,0.20337369,-0.013014928,0.37179625
1195033650,0.20188798,-0.019134196,0.37328017
1195057176,0.19743082,-0.019134196,0.38069963
1195069644,0.19743082,-0.019134196,0.37773186
1195081649,0.21525945,-0.008425477,0.37328017
1195105622,0.212288,-0.02066401,0.37921575
1195117731,0.20783085,-0.032902543,0.37476408
1195129117,0.20188798,-0.019134196,0.36734456
1195177146,0.19594511,-0.025253464,0.3628929
1195189529,0.19594511,-0.037491996,0.37476408
1195201422,0.20188798,-0.014544744,0.38663524
1195225258,0.212288,-0.02066401,0.37328017
1195237539,0.19743082,-0.0068956614,0.37773186
1195249602,0.19891654,-0.011485111,0.37624794
1195261682,0.20634513,-0.02066401,0.37921575
1195273155,0.19148795,-0.022193829,0.37476408
1195300702,0.20931657,-0.031372726,0.36882848
1195313165,0.20783085,-0.022193827,0.36882848
1195326050,0.19148795,-0.028313097,0.37328017
1195349804,0.20188798,-0.008425478,0.38663524
1195373671,0.20040226,-0.026783278,0.37773186
1195385237,0.20931657,-0.022193827,0.36882848
1195398062,0.20931657,-0.01148511,0.37624794
1195421984,0.212288,-0.0053658434,0.37921575
1195433250,0.19297366,-0.022193829,0.361409
1195446061,0.19743082,-0.01607456,0.38069963
1195485528,0.20634513,-0.014544744,0.37921575
1195497268,0.19891654,-0.028313097,0.3925708
1195509616,0.19000223,-0.019134196,0.37921575
1195521632,0.20931657,-0.029842911,0.37476408
1195549523,0.2197166,-0.026783276,0.3658607
1195561610,0.20337369,-0.013014928,0.3658607
1195573949,0.21823087,-0.02066401,0.38218355
1195597400,0.20931657,-0.014544743,0.37624794
1195609343,0.20783085,-0.026783276,0.37773186
1195621523,0.22268803,-0.019134194,0.37328017
1195633153,0.20337369,-0.013014928,0.3554734
1195645653,0.20931657,-0.016074559,0.37773186
1195672075,0.20931657,-0.016074559,0.37179625
1195684438,0.19891654,-0.020664012,0.36882848
1195697192,0.19743082,-0.022193829,0.36882848
1195709606,0.20634513,-0.02066401,0.37328017
1195733842,0.20188798,-0.028313097,0.37921575
1195745643,0.20931657,-0.022193827,0.38069963
1195757967,0.21377371,-0.019134194,0.38663524
1195769607,0.20040226,-0.013014928,0.37476408
1195781683,0.19891654,-0.028313097,0.36734456
1195805954,0.21525945,-0.014544743,0.37624794
1195817606,0.20188798,-0.020664012,0.37624794
1195829653,0.20931657,-0.02066401,0.37921575
1195841602,0.22565947,-0.02525346,0.36882848
1195853654,0.20931657,-0.02066401,0.3628929
1195865668,0.19891654,-0.019134196,0.36734456
1195877643,0.20337369,-0.016074559,0.37179625
1195889610,0.19148795,-0.028313097,0.36882848
1195913124,0.20783085,-0.019134194,0.37179625
1195925727,0.21377371,-0.016074559,0.3658607
1195949964,0.20783085,-0.016074559,0.3554734
1195973835,0.20783085,-0.016074559,0.3628929
1195985634,0.21377371,-0.0130149275,0.37773186
1195997758,0.21823087,-0.026783276,0.37179625
1196009653,0.19297366,-0.019134196,0.38069963
1196021680,0.20931657,-0.019134194,0.36882848
1196033219,0.20783085,-0.0099552935,0.36882848
1196045655,0.20931657,-0.02066401,0.37921575
1196057647,0.212288,-0.02066401,0.37328017
1196069666,0.20931657,-0.025253462,0.35398954
1196081736,0.21823087,-0.025253462,0.37328017
1196105412,0.20931657,-0.022193827,0.37476408
1196117559,0.21823087,-0.022193827,0.361409
1196129115,0.20783085,-0.022193827,0.37476408
1196141643,0.19891654,-0.014544744,0.37921575
1196153633,0.21377371,-0.0130149275,0.38069963
1196189825,0.21525945,-0.031372726,0.3925708
1196201645,0.20931657,-0.019134194,0.36882848
1196225150,0.20783085,-0.0130149275,0.37476408
1196239813,0.21823087,-0.03443236,0.3881191
1196252788,0.20783085,-0.043611262,0.37476408
1196265269,0.2197166,-0.009955293,0.36882848
1196278238,0.20931657,-0.032902543,0.37179625
1196289531,0.212288,-0.032902543,0.37328017
1196302007,0.20337369,-0.026783276,0.37773186
1196313668,0.21525945,-0.02066401,0.3628929
1196326047,0.212288,-0.01148511,0.37921575
1196350052,0.20188798,-0.019134196,0.37624794
1196374224,0.21525945,-0.014544743,0.36734456
1196397941,0.20040226,-0.01607456,0.37179625
1196421968,0.20783085,-0.0130149275,0.37179625
1196433128,0.212288,-0.031372726,0.37328017
1196446076,0.20931657,-0.0130149275,0.38069963
1196457632,0.20188798,-0.019134196,0.3628929
1196470168,0.20337369,-0.029842911,0.3658607
1196493659,0.20634513,-0.02066401,0.37921575
1196505631,0.20931657,-0.019134194,0.3628929
1196518059,0.212288,-0.02066401,0.3510217
1196566060,0.20337369,-0.016074559,0.3658607
1196577636,0.20783085,-0.0130149275,0.37773186
1196590062,0.20634513,-0.019134194,0.3628929
1196613910,0.21823087,-0.025253462,0.3881191
1196625631,0.20931657,-0.026783276,0.37476408
1196637862,0.20931657,-0.019134194,0.37328017
1196661967,0.20931657,-0.005365844,0.37624794
1196686120,0.20634513,-0.02066401,0.38218355
1196697649,0.19891654,-0.020664012,0.3628929
1196710066,0.20783085,-0.037491996,0.36882848
1196733840,0.212288,-0.031372726,0.3599251
1196745645,0.19743082,-0.01607456,0.37179625
1196757635,0.20931657,-0.01148511,0.3881191
1196769674,0.21377371,-0.019134194,0.37179625
1196781601,0.20931657,-0.0130149275,0.37773186
1196805822,0.22268803,-0.031372726,0.38663524
1196829642,0.20337369,-0.022193827,0.37773186
1196853975,0.20337369,-0.022193827,0.37476408
1196877676,0.19891654,-0.014544744,0.37328017
1196889637,0.20931657,-0.03443236,0.37624794
1196901684,0.21377371,-0.019134194,0.37476408
1196925649,0.21377371,-0.032902543,0.37179625
1196937665,0.20931657,-0.040551625,0.37328017
1196949634,0.21525945,-0.02066401,0.37328017
1196961147,0.19891654,-0.005365845,0.37328017
1196973940,0.20783085,-0.0099552935,0.37179625
1196997912,0.20634513,-0.008425478,0.37624794
1197009239,0.20337369,-0.002306211,0.3658607
1197022039,0.20783085,-0.00077639375,0.37773186
1197033633,0.20783085,-0.016074559,0.37773186
1197057696,0.19297366,-0.01607456,0.37476408
1197071802,0.20634513,-0.025253462,0.37624794
1197085827,0.20040226,-0.026783278,0.37179625
1197097633,0.20634513,-0.019134194,0.37328017
1197125438,0.20634513,-0.02066401,0.37624794
1197137064,0.19297366,-0.019134196,0.37773186
1197149950,0.20931657,-0.025253462,0.37624794
1197173739,0.20634513,-0.031372726,0.38218355
1197185641,0.20931657,-0.0099552935,0.37179625
1197197712,0.20634513,-0.019134194,0.38218355
1197221637,0.20188798,-0.020664012,0.38663524
1197245727,0.20040226,-0.022193829,0.38366744
1197257657,0.20931657,-0.0130149275,0.37179625
1197269938,0.19000223,-0.014544745,0.3881191
1197293810,0.20337369,-0.026783276,0.36882848
1197305682,0.19891654,-0.020664012,0.37328017
1197317629,0.20931657,-0.019134194,0.37773186
1197329637,0.20931657,-0.00077639363,0.37773186
1197341626,0.20337369,-0.032902543,0.38069963
1197377192,0.19743082,-0.009955294,0.38069963
1197389647,0.20634513,-0.025253462,0.38663524
1197415946,0.19891654,-0.019134196,0.38218355
1197428436,0.19594511,-0.025253464,0.37328017
1197441132,0.19594511,-0.014544745,0.36734456
1197453439,0.19891654,-0.031372726,0.38218355
1197465232,0.20040226,-0.039021812,0.37476408
1197489700,0.20188798,-0.011485111,0.38218355
1197502168,0.19891654,-0.019134196,0.37921575
1197513652,0.19743082,-0.022193829,0.37773186
1197537612,0.19297366,-0.022193829,0.37179625
1197565530,0.20337369,-0.019134194,0.38069963
1197577167,0.20188798,-0.03443236,0.37624794
1197589682,0.19297366,-0.026783278,0.37773186
1197613685,0.212288,-0.03443236,0.37921575
1197625637,0.19743082,-0.022193829,0.38663524
1197662131,0.19594511,-0.008425479,0.3628929
1197686145,0.212288,-0.028313095,0.37921575
1197697690,0.19743082,-0.029842913,0.38366744
1197709986,0.20040226,-0.019134196,0.361409
1197736155,0.19594511,-0.019134196,0.38218355
1197752052,0.20188798,-0.019134196,0.3881191
1197765833,0.19743082,-0.019134196,0.37179625
1197777670,0.19594511,-0.014544745,0.38663524
1197801645,0.19743082,-0.019134196,0.37179625
1197813223,0.19891654,-0.025253464,0.3881191
1197825028,0.20783085,-0.0130149275,0.3940547
1197837244,0.19148795,-0.01607456,0.36882848
1197849038,0.19000223,-0.019134196,0.37328017
1197861580,0.19297366,-0.022193829,0.38366744
1197886164,0.19148795,-0.029842913,0.37179625
1197897974,0.20634513,-0.028313095,0.38663524
1197909685,0.20634513,-0.019134194,0.38663524
1197921047,0.20188798,-0.011485111,0.37328017
1197936137,0.19891654,-0.025253464,0.38218355
1197948816,0.19297366,-0.029842913,0.37476408
1197961253,0.19148795,-0.01607456,0.37773186
1197973547,0.19148795,-0.020664012,0.37328017
1197997407,0.20040226,-0.019134196,0.37773186
1198009391,0.20931657,-0.0068956604,0.36882848
1198021607,0.19148795,-0.019134196,0.36882848
1198045329,0.19297366,-0.019134196,0.36882848
1198057264,0.19743082,-0.022193829,0.38069963
1198069563,0.20188798,-0.019134196,0.36882848
1198081034,0.20188798,-0.019134196,0.37624794
1198093648,0.20188798,-0.011485111,0.37921575
1198117688,0.19148795,-0.0053658453,0.37921575
1198129356,0.19297366,-0.019134196,0.36882848
1198144258,0.19743082,-0.029842913,0.37476408
1198169247,0.19743082,-0.022193829,0.37179625
1198181717,0.20783085,-0.019134194,0.36882848
1198193058,0.20931657,-0.022193827,0.37179625
1198205805,0.18257365,-0.020664012,0.37328017
1198217643,0.21823087,-0.026783276,0.37773186
1198245413,0.20634513,-0.019134194,0.38218355
1198257161,0.18257365,-0.019134196,0.3881191
1198270037,0.19148795,-0.029842913,0.37476408
1198293641,0.20337369,-0.022193827,0.37773186
1198305657,0.20188798,-0.031372726,0.37921575
1198317694,0.20040226,-0.029842913,0.37179625
1198341615,0.19148795,-0.013014929,0.38366744
1198365650,0.19148795,-0.01607456,0.38663524
1198377664,0.19594511,-0.025253464,0.36882848
1198389652,0.18554509,-0.020664012,0.37921575
1198413924,0.19148795,-0.029842913,0.37179625
1198425640,0.18108793,-0.0068956628,0.38366744
1198437635,0.20337369,-0.022193827,0.38366744
1198449657,0.19000223,-0.014544745,0.37624794
1198461508,0.19148795,-0.034432363,0.37624794
1198485676,0.19594511,-0.025253464,0.38663524
1198497699,0.20931657,-0.026783276,0.37179625
1198509500,0.20634513,-0.011485111,0.37624794
1198533822,0.20188798,-0.020664012,0.37624794
1198557519,0.18703079,-0.032902546,0.37773186
1198569211,0.19297366,-0.022193829,0.37773186
1198581611,0.19594511,-0.025253464,0.38218355
1198605564,0.20931657,-0.0099552935,0.37476408
1198617048,0.20783085,-0.0130149275,0.38663524
1198629957,0.19148795,-0.029842913,0.361409
1198641827,0.20188798,-0.031372726,0.38218355
1198677630,0.19148795,-0.026783278,0.38366744
1198689242,0.20783085,-0.016074559,0.38366744
1198701848,0.19000223,-0.0053658453,0.36882848
1198713640,0.20337369,-0.019134194,0.3658607
1198725962,0.20188798,-0.028313097,0.37328017
1198737657,0.20040226,-0.022193829,0.38069963
1198752006,0.19743082,-0.022193829,0.3658607
1198766047,0.19148795,-0.034432363,0.37624794
1198777641,0.19297366,-0.022193829,0.38069963
1198801664,0.18703079,-0.022193829,0.3658607
1198813737,0.19594511,-0.019134196,0.38663524
1198825630,0.19594511,-0.025253464,0.37624794
1198850831,0.19297366,-0.032902543,0.38069963
1198863646,0.19000223,-0.025253464,0.3881191
1198875658,0.18554509,-0.028313097,0.38218355
1198887656,0.19297366,-0.039021812,0.37773186
1198899643,0.20931657,-0.022193827,0.37179625
1198923644,0.19148795,-0.03137273,0.37328017
1198937740,0.19743082,-0.01607456,0.37179625
1198950238,0.20040226,-0.01607456,0.37773186
1198999127,0.18257365,-0.014544746,0.37328017
1199011097,0.20040226,-0.022193829,0.37179625
1199022978,0.19891654,-0.025253464,0.37624794
1199047018,0.20188798,-0.011485111,0.36882848
1199058856,0.20337369,-0.029842911,0.37773186
1199071274,0.20783085,-0.019134194,0.38663524
1199097593,0.19743082,-0.01607456,0.37476408
1199110991,0.19148795,-0.029842913,0.36882848
1199122783,0.19594511,-0.020664012,0.38663524
1199135676,0.20188798,-0.020664012,0.37921575
1199147639,0.20040226,-0.026783278,0.37476408
1199174084,0.19297366,-0.019134196,0.37773186
1199199209,0.20931657,-0.025253462,0.37328017
1199222876,0.20188798,-0.031372726,0.37328017
1199234819,0.20931657,-0.025253462,0.36882848
1199247419,0.19148795,-0.028313097,0.36882848
1199258753,0.19297366,-0.022193829,0.37773186
1199271210,0.20040226,-0.037491996,0.37179625
1199295124,0.20634513,-0.028313095,0.36734456
1199306866,0.20634513,-0.025253462,0.38218355
1199319202,0.20040226,-0.022193829,0.36882848
1199330903,0.20783085,-0.026783276,0.3658607
1199343466,0.20931657,-0.039021812,0.37179625
1199367545,0.20783085,-0.019134194,0.3658607
1199391357,0.20040226,-0.029842913,0.36882848
1199415433,0.19743082,-0.022193829,0.38663524
1199426734,0.19594511,-0.028313097,0.3628929
1199439237,0.20931657,-0.014544743,0.36882848
1199450862,0.20783085,-0.016074559,0.38663524
1199465539,0.2197166,-0.029842911,0.38069963
1199479249,0.20634513,-0.028313095,0.36734456
1199490842,0.19297366,-0.037491996,0.38366744
1199503241,0.20040226,-0.026783278,0.37476408
1199514781,0.20188798,-0.020664012,0.36734456
1199527836,0.18257365,-0.034432363,0.36882848
1199567129,0.19148795,-0.020664012,0.37328017
1199578755,0.19891654,-0.020664012,0.38218355
1199602852,0.19297366,-0.013014929,0.3658607
1199615175,0.19594511,-0.028313097,0.3628929
1199626639,0.19148795,-0.028313097,0.36882848
1199639553,0.19297366,-0.022193829,0.3658607
1199651714,0.20931657,-0.0099552935,0.37773186
1199674870,0.18554509,-0.025253464,0.3599251
1199689726,0.19743082,-0.019134196,0.361409
1199702047,0.19148795,-0.014544745,0.37328017
1199727338,0.20783085,-0.029842911,0.37476408
1199753716,0.20337369,-0.029842911,0.36882848
1199778711,0.20931657,-0.029842911,0.37773186
1199802795,0.19891654,-0.025253464,0.37921575
1199814867,0.19594511,-0.028313097,0.37328017
1199826765,0.17960219,-0.020664014,0.37921575
1199851247,0.19148795,-0.026783278,0.37179625
1199875017,0.18554509,-0.037492,0.37328017
1199887142,0.20188798,-0.011485111,0.3628929
1199898770,0.20337369,-0.022193827,0.37179625
1199922769,0.20337369,-0.032902543,0.37179625
1199937999,0.19148795,-0.028313097,0.3628929
1199950729,0.20040226,-0.019134196,0.361409
1199975654,0.20188798,-0.019134196,0.37328017
1199987641,0.19297366,-0.022193829,0.37179625
1199999650,0.19594511,-0.014544745,0.36882848
1200010829,0.20040226,-0.019134196,0.36882848
1200023233,0.20188798,-0.025253464,0.37328017
1200047590,0.19594511,-0.025253464,0.37624794
1200058857,0.19743082,-0.01607456,0.3658607
1200071779,0.19743082,-0.029842913,0.37179625
1200095640,0.20931657,-0.02066401,0.37328017
1200107630,0.212288,-0.02066401,0.37328017
1200121643,0.212288,-0.03443236,0.37328017
1200135354,0.19297366,-0.026783278,0.361409
1200146714,0.19743082,-0.026783278,0.361409
1200159534,0.20337369,-0.026783276,0.361409
1200183433,0.20931657,-0.016074559,0.37179625
1200194758,0.19148795,-0.026783278,0.37476408
1200207204,0.19148795,-0.019134196,0.3658607
1200218744,0.20040226,-0.009955294,0.37476408
1200231238,0.19148795,-0.025253464,0.36882848
1200242811,0.19148795,-0.025253464,0.37328017
1200266795,0.20783085,-0.029842911,0.37773186
1200294729,0.19297366,-0.029842913,0.37179625
1200306867,0.19297366,-0.022193829,0.3658607
1200335148,0.20634513,-0.025253462,0.37328017
1200359234,0.20931657,-0.019134194,0.36734456
1200370883,0.19297366,-0.026783278,0.37476408
1200383401,0.19891654,-0.03443236,0.36882848
1200407271,0.18257365,-0.028313097,0.36882848
1200431229,0.20188798,-0.025253464,0.37624794
1200442734,0.22565947,-0.031372726,0.37328017
1200455142,0.212288,-0.028313095,0.37921575
1200479252,0.20040226,-0.022193829,0.38069963
1200491126,0.20931657,-0.0099552935,0.361409
1200503276,0.20931657,-0.01148511,0.3628929
1200514925,0.19148795,-0.037492,0.37476408
1200527539,0.21377371,-0.016074559,0.37179625
1200551581,0.20783085,-0.029842911,0.37476408
1200562751,0.212288,-0.02066401,0.37921575
1200575209,0.20783085,-0.022193827,0.37179625
1200586789,0.21377371,-0.022193827,0.36882848
1200601582,0.20931657,-0.022193827,0.37179625
1200626751,0.20634513,-0.028313095,0.37179625
1200639273,0.20931657,-0.019134194,0.37328017
1200689863,0.212288,-0.028313095,0.37624794
1200702037,0.20634513,-0.011485111,0.36882848
1200726112,0.20931657,-0.019134194,0.38069963
1200753850,0.19000223,-0.011485112,0.36882848
1200766068,0.20783085,-0.016074559,0.3658607
1200778846,0.20337369,-0.016074559,0.37773186
1200791254,0.19297366,-0.01607456,0.37179625
1200802772,0.20783085,-0.0099552935,0.3658607
1200815149,0.20634513,-0.02066401,0.37921575
1200826809,0.20783085,-0.026783276,0.37476408
1200863516,0.20931657,-0.028313095,0.37624794
1200875674,0.20931657,-0.025253462,0.37328017
1200889598,0.20931657,-0.02066401,0.37328017
1200901969,0.19891654,-0.014544744,0.37921575
1200913723,0.20040226,-0.022193829,0.3658607
1200926348,0.19891654,-0.020664012,0.36734456
1200937597,0.20040226,-0.019134196,0.37476408
1200950216,0.19743082,-0.0068956614,0.3599251
1200962728,0.212288,-0.031372726,0.3599251
1200975440,0.20337369,-0.022193827,0.361409
1200986728,0.19297366,-0.039021812,0.36882848
1200999238,0.20783085,-0.016074559,0.37179625
1201010826,0.22268803,-0.011485109,0.36734456
1201023443,0.20783085,-0.016074559,0.36882848
1201034744,0.212288,-0.028313095,0.37624794
1201059661,0.20783085,-0.029842911,0.3658607
1201071652,0.20634513,-0.037491996,0.36882848
1201082812,0.20931657,-0.029842911,0.37179625
1201095542,0.20634513,-0.025253462,0.36882848
1201107670,0.20931657,-0.028313095,0.3628929
1201119721,0.20931657,-0.037491996,0.38069963
1201130771,0.20783085,-0.019134194,0.37179625
1201143261,0.19297366,-0.01607456,0.36882848
1201178716,0.21377371,-0.029842911,0.3554734
1201191445,0.22268803,-0.019134194,0.37624794
1201202749,0.20040226,-0.026783278,0.37179625
1201215236,0.20040226,-0.022193829,0.38069963
1201239343,0.20634513,-0.02066401,0.37328017
1201250882,0.20931657,-0.037491996,0.3554734
1201263436,0.20931657,-0.029842911,0.3658607
1201287722,0.20634513,-0.025253462,0.3599251
1201299652,0.21525945,-0.025253462,0.3599251
1201311663,0.2197166,-0.026783276,0.36882848
1201323597,0.20931657,-0.019134194,0.3599251
1201337800,0.212288,-0.025253462,0.37328017
1201361735,0.20783085,-0.029842911,0.361409
1201374180,0.2197166,-0.029842911,0.361409
1201385844,0.20931657,-0.028313095,0.37921575
1201410771,0.20634513,-0.019134194,0.36734456
1201423525,0.21525945,-0.014544743,0.36734456
1201434777,0.22268803,-0.02066401,0.36882848
1201447673,0.20931657,-0.03443236,0.35844123
1201458872,0.20337369,-0.029842911,0.361409
1201487431,0.20931657,-0.02066401,0.3628929
1201498714,0.19594511,-0.008425479,0.36882848
1201511120,0.19891654,-0.019134196,0.36734456
1201522746,0.20634513,-0.019134194,0.3628929
1201535304,0.19297366,-0.01607456,0.3658607
1201546744,0.20783085,-0.029842911,0.38069963
1201561519,0.20634513,-0.025253462,0.35844123
1201575123,0.19743082,-0.013014928,0.361409
1201598873,0.20783085,-0.016074559,0.37476408
1201622992,0.20337369,-0.029842911,0.37179625
1201634628,0.20040226,-0.026783278,0.37773186
1201647270,0.19000223,-0.014544745,0.36882848
1201672418,0.19148795,-0.011485112,0.36882848
1201686108,0.212288,-0.025253462,0.37328017
1201697732,0.21377371,-0.00689566,0.3658607
1201710060,0.20040226,-0.029842913,0.3658607
1201722748,0.20337369,-0.016074559,0.3554734
1201746792,0.20783085,-0.0130149275,0.35250562
1201759668,0.20634513,-0.028313095,0.37921575
1201771686,0.19148795,-0.0053658453,0.36734456
1201795630,0.19297366,-0.019134196,0.37476408
1201807674,0.19891654,-0.014544744,0.37921575
1201818754,0.20040226,-0.029842913,0.37476408
1201831128,0.19000223,-0.014544745,0.36734456
1201842879,0.20040226,-0.026783278,0.3599251
1201866765,0.19891654,-0.028313097,0.37624794
1201879530,0.20188798,-0.022193829,0.36734456
1201890817,0.20634513,-0.014544744,0.37328017
1201926995,0.19891654,-0.019134196,0.38218355
1201951422,0.20931657,-0.0099552935,0.3658607
1201963640,0.19000223,-0.019134196,0.36882848
1201990362,0.19743082,-0.009955294,0.3658607
1202002734,0.19297366,-0.000776395,0.37476408
1202015204,0.20040226,-0.009955294,0.36882848
1202039675,0.19594511,-0.005365845,0.36734456
1202063669,0.19891654,-0.014544744,0.37921575
1202074753,0.19891654,-0.014544744,0.37328017
1202087266,0.19891654,-0.031372726,0.37328017
1202111205,0.19891654,-0.011485111,0.37328017
1202122747,0.19743082,-0.01607456,0.37476408
1202137664,0.19891654,-0.008425478,0.36734456
1202162744,0.19148795,-0.019134196,0.361409
1202175422,0.17960219,-0.014544746,0.36734456
1202199435,0.18405935,-0.009955296,0.36882848
1202211707,0.19594511,-0.011485112,0.37624794
1202234884,0.19297366,-0.006895662,0.38663524
1202247026,0.19743082,-0.01607456,0.37773186
1202258871,0.19297366,-0.006895662,0.36882848
1202282776,0.20040226,-0.022193829,0.3658607
1202306730,0.20188798,-0.025253464,0.37921575
1202319246,0.20188798,-0.008425478,0.37328017
1202330803,0.19594511,-0.011485112,0.36882848
1202359233,0.19148795,-0.020664012,0.36734456
1202370872,0.19297366,-0.019134196,0.38069963
1202383236,0.19743082,-0.013014928,0.361409
1202394871,0.18703079,-0.013014929,0.37179625
1202407231,0.18257365,-0.014544746,0.37921575
1202431241,0.20040226,-0.019134196,0.3658607
1202442673,0.19297366,-0.009955295,0.37773186
1202455292,0.17514506,-0.03137273,0.37921575
1202481849,0.19594511,-0.019134196,0.37328017
1202494153,0.19148795,-0.025253464,0.38218355
1202519207,0.20337369,-0.026783276,0.37476408
1202545818,0.20188798,-0.019134196,0.35844123
1202558054,0.20783085,-0.032902543,0.3658607
1202570751,0.19743082,-0.01607456,0.37773186
1202583006,0.18554509,-0.014544746,0.38218355
1202594873,0.19148795,-0.019134196,0.37476408
1202618735,0.19594511,-0.014544745,0.38218355
1202631485,0.19594511,-0.020664012,0.37921575
1202642742,0.19891654,-0.028313097,0.37624794
1202655213,0.20783085,-0.019134194,0.36882848
1202666747,0.212288,-0.01148511,0.37624794
1202679269,0.20337369,-0.019134194,0.37773186
1202691138,0.19297366,-0.01607456,0.37179625
1202703324,0.20040226,-0.013014928,0.3658607
1202714891,0.20040226,-0.026783278,0.37179625
1202751434,0.19891654,-0.019134196,0.37624794
1202762889,0.19297366,-0.006895662,0.37476408
1202775246,0.20040226,-0.01607456,0.37179625
1202786792,0.20634513,-0.02066401,0.3599251
1202799663,0.19594511,-0.028313097,0.37328017
1202811637,0.19297366,-0.022193829,0.36882848
1202823665,0.20337369,-0.022193827,0.3658607
1202847650,0.17960219,-0.020664014,0.37921575
1202858761,0.20783085,-0.032902543,0.37179625
1202871405,0.19743082,-0.026783278,0.38366744
1202882872,0.20188798,-0.025253464,0.36882848
1202895749,0.20931657,-0.019134194,0.3628929
1202907683,0.20931657,-0.019134194,0.37328017
1202919635,0.19148795,-0.025253464,0.36734456
1202931642,0.18703079,-0.019134196,0.361409
1202943623,0.19148795,-0.028313097,0.36734456
1202954785,0.20040226,-0.019134196,0.3599251
1202967571,0.19000223,-0.037492,0.37328017
1202991674,0.19743082,-0.013014928,0.3658607
1203003633,0.20634513,-0.03443236,0.36734456
1203016400,0.21525945,-0.028313095,0.3599251
1203039406,0.19000223,-0.008425479,0.38218355
1203063565,0.20634513,-0.014544744,0.36882848
1203074830,0.21823087,-0.025253462,0.36734456
1203087469,0.19148795,-0.008425479,0.3599251
1203111431,0.19594511,-0.011485112,0.3599251
1203122747,0.20040226,-0.026783278,0.37179625
1203137578,0.18554509,-0.03137273,0.37921575
1203162745,0.20931657,-0.031372726,0.3628929
1203177620,0.20634513,-0.028313095,0.37328017
1203191123,0.19148795,-0.019134196,0.36882848
1203202823,0.20783085,-0.019134194,0.37476408
1203214954,0.21377371,-0.032902543,0.37476408
1203239121,0.19594511,-0.025253464,0.3881191
1203264589,0.19594511,-0.025253464,0.37328017
1203277016,0.212288,-0.031372726,0.37328017
1203300605,0.19743082,-0.032902543,0.35250562
1203312606,0.19743082,-0.026783278,0.38069963
1203324641,0.19148795,-0.03137273,0.37921575
1203336581,0.20337369,-0.022193827,0.37773186
1203348898,0.19891654,-0.020664012,0.36882848
1203360610,0.19297366,-0.022193829,0.36882848
1203372945,0.20337369,-0.029842911,0.38069963
1203384601,0.20931657,-0.03443236,0.37624794
1203396894,0.20040226,-0.032902543,0.3658607
1203420715,0.20188798,-0.025253464,0.36882848
1203432580,0.19297366,-0.022193829,0.3658607
1203444713,0.20040226,-0.01607456,0.3658607
1203456591,0.19148795,-0.014544745,0.36734456
1203468820,0.20634513,-0.02066401,0.3628929
1203492712,0.20337369,-0.022193827,0.37179625
1203516811,0.19148795,-0.019134196,0.37624794
1203528705,0.19594511,-0.03443236,0.36734456
1203540759,0.20783085,-0.019134194,0.36882848
1203552618,0.19000223,-0.028313097,0.37921575
1203564723,0.19297366,-0.026783278,0.36882848
1203576636,0.20188798,-0.025253464,0.36734456
1203600435,0.20040226,-0.032902543,0.36882848
1203613255,0.212288,-0.019134194,0.36734456
1203624702,0.19743082,-0.019134196,0.37179625
1203636901,0.20337369,-0.013014928,0.361409
1203648355,0.19891654,-0.031372726,0.3599251
1203672610,0.20337369,-0.032902543,0.3599251
1203685036,0.20931657,-0.026783276,0.38069963
1203696710,0.19594511,-0.040551625,0.36734456
1203744623,0.19594511,-0.019134196,0.37328017
1203756921,0.19891654,-0.03443236,0.36734456
1203768588,0.19148795,-0.045141082,0.36734456
1203792593,0.19297366,-0.022193829,0.3658607
1203804913,0.20040226,-0.029842913,0.3599251
1203816590,0.20634513,-0.031372726,0.37328017
1203840598,0.21377371,-0.029842911,0.3599251
1203864582,0.20040226,-0.022193829,0.3658607
1203876865,0.20783085,-0.026783276,0.361409
1203926975,0.19148795,-0.011485112,0.38218355
1203943532,0.19148795,-0.019134196,0.37476408
1203956776,0.20931657,-0.022193827,0.37476408
1203968720,0.20783085,-0.0130149275,0.37476408
1203980811,0.21525945,-0.031372726,0.3628929
1203992717,0.20040226,-0.029842913,0.3658607
1204004721,0.20634513,-0.019134194,0.37921575
1204016729,0.20040226,-0.019134196,0.37773186
1204028734,0.19148795,-0.020664012,0.37328017
1204052604,0.20337369,-0.016074559,0.37179625
1204064619,0.20931657,-0.019134194,0.37328017
1204076855,0.19743082,-0.022193829,0.37773186
1204088702,0.21525945,-0.019134194,0.37328017
1204112593,0.212288,-0.025253462,0.3628929
1204136384,0.20931657,-0.0130149275,0.36882848
1204151314,0.20188798,-0.013014928,0.36734456
1204165314,0.20188798,-0.020664012,0.36734456
1204176710,0.20040226,-0.019134196,0.37773186
1204189219,0.20337369,-0.009955294,0.36882848
1204200724,0.19148795,-0.025253464,0.38218355
1204212847,0.20040226,-0.009955294,0.361409
1204224759,0.19891654,-0.011485111,0.38218355
1204237193,0.20634513,-0.019134194,0.37921575
1204248435,0.19891654,-0.014544744,0.3599251
1204261253,0.19000223,-0.008425479,0.36882848
1204309202,0.20783085,-0.0099552935,0.37179625
1204320581,0.19148795,-0.01607456,0.37179625
1204332925,0.20337369,-0.013014928,0.37179625
1204344587,0.18703079,-0.013014929,0.37179625
1204356904,0.17663077,-0.009955296,0.38069963
1204368618,0.19148795,-0.026783278,0.3658607
1204381010,0.17960219,-0.020664014,0.35844123
1204392760,0.19000223,-0.020664012,0.37921575
1204404921,0.20188798,-0.019134196,0.3599251
1204416349,0.19891654,-0.031372726,0.36882848
1204428807,0.19000223,-0.0007763953,0.37921575
1204440436,0.19297366,-0.006895662,0.37179625
1204452850,0.18554509,-0.019134196,0.36882848
1204477156,0.20188798,-0.008425478,0.36734456
1204488715,0.17960219,-0.005365846,0.37328017
1204503408,0.19594511,-0.011485112,0.36882848
1204516713,0.19148795,-0.014544745,0.36882848
1204528601,0.18703079,-0.013014929,0.38960302
1204543551,0.20040226,-0.009955294,0.36882848
1204556708,0.18554509,-0.011485113,0.37921575
1204568752,0.18405935,0.0038130542,0.38069963
1204616434,0.20188798,-0.008425478,0.3628929
1204628619,0.19891654,0.0007534222,0.36734456
1204640613,0.18554509,0.00075342105,0.3628929
1204664478,0.19148795,-0.014544745,0.37624794
1204677335,0.19148795,-0.008425479,0.37328017
1204688612,0.18554509,-0.00842548,0.38218355
1204701234,0.18554509,0.005342871,0.3628929
1204712581,0.18554509,-0.00077639567,0.37624794
1204736737,0.19148795,-0.014544745,0.3881191
1204751437,0.19743082,-0.0007763946,0.361409
1204765095,0.18257365,0.0053428705,0.37624794
1204788613,0.18108793,0.003813054,0.361409
1204812720,0.19148795,0.006872688,0.37476408
1204824452,0.19000223,-0.008425479,0.3925708
1204872609,0.16474503,0.0038130525,0.37179625
1204884825,0.17514506,-0.011485114,0.37328017
1204911149,0.19000223,0.0007534214,0.37624794
1204936239,0.18405935,-0.009955296,0.38960302
1204948886,0.19594511,-0.014544745,0.37624794
1204960726,0.18257365,-0.005365846,0.36882848
1204984383,0.17663077,0.0068726866,0.37179625
1204996846,0.17663077,-0.006895663,0.38366744
1205008580,0.19000223,0.0007534214,0.37921575
1205032356,0.17960219,-0.0007763962,0.37921575
1205068875,0.18554509,-0.00077639567,0.36882848
1205080585,0.18108793,-0.002306213,0.38960302
1205104619,0.18108793,-0.0007763961,0.38069963
1205128365,0.17365932,-0.02219383,0.38069963
1205157034,0.18703079,-0.0068956623,0.38069963
1205181047,0.19594511,0.0007534219,0.37328017
1205192628,0.18257365,-0.005365846,0.37328017
1205204744,0.17514506,-0.011485114,0.38218355
1205228851,0.17514506,-0.0007763966,0.3955386
1205240337,0.17514506,-0.014544747,0.3925708
1205252731,0.17217362,-0.019134197,0.37921575
1205276741,0.17960219,-0.011485113,0.3881191
1205300929,0.18703079,-0.019134196,0.38366744
1205312480,0.17514506,0.0007534201,0.37624794
1205348882,0.18108793,0.006872687,0.37476408
1205360586,0.19148795,-0.00077639514,0.37773186
1205372850,0.17514506,-0.0007763966,0.36882848
1205384606,0.16920218,-0.008425481,0.37921575
1205396878,0.19148795,-0.002306212,0.3658607
1205420854,0.18108793,-0.0068956628,0.38663524
1205432927,0.17365932,-0.013014931,0.36882848
1205444805,0.19148795,0.006872688,0.37179625
1205469167,0.18554509,-0.00842548,0.37921575
1205493024,0.16771646,-0.016074562,0.37179625
1205504434,0.20040226,-0.0023062113,0.37773186
1205543520,0.19148795,-0.011485112,0.36882848
1205557256,0.19148795,-0.00077639514,0.36882848
1205568736,0.18703079,-0.009955295,0.37476408
1205592634,0.19594511,-0.028313097,0.37921575
1205616587,0.18703079,0.0038130544,0.37179625
1205628807,0.18405935,-0.00077639584,0.37476408
1205640593,0.18108793,-0.01301493,0.37476408
1205664380,0.18554509,-0.014544746,0.37921575
1205676927,0.19148795,-0.006895662,0.37179625
1205688770,0.19148795,-0.006895662,0.37476408
1205701338,0.19148795,-0.009955295,0.37179625
1205712349,0.18703079,-0.00077639555,0.37476408
1205739652,0.18703079,-0.00077639555,0.38366744
1205752123,0.18703079,-0.009955295,0.38366744
1205764742,0.19743082,-0.0023062115,0.36882848
1205791193,0.19000223,-0.019134196,0.37328017
1205803771,0.20337369,-0.009955294,0.361409
1205816241,0.18554509,-0.020664012,0.36882848
1205828639,0.18405935,-0.019134196,0.361409
1205840620,0.19000223,-0.011485112,0.37624794
1205852859,0.19000223,-0.008425479,0.3628929
1205864583,0.19594511,-0.020664012,0.36882848
1205876735,0.19148795,-0.014544745,0.38218355
1205888612,0.19148795,-0.034432363,0.36734456
1205912715,0.20040226,-0.006895661,0.37179625
1205936742,0.18554509,0.00075342105,0.37328017
1205960619,0.19891654,-0.008425478,0.37921575
1205973295,0.20040226,-0.022193829,0.37476408
1205997254,0.19594511,-0.014544745,0.38218355
1206008656,0.19594511,-0.008425479,0.37328017
1206032579,0.18703079,-0.013014929,0.3658607
1206045214,0.20040226,-0.01607456,0.36882848
1206056586,0.20188798,-0.019134196,0.37328017
1206068866,0.19148795,-0.019134196,0.37328017
1206080513,0.19594511,-0.019134196,0.36734456
1206104600,0.19148795,-0.019134196,0.3599251
1206117316,0.20188798,-0.019134196,0.36734456
1206128713,0.19743082,-0.0023062115,0.3658607
1206156862,0.21377371,-0.022193827,0.37476408
1206168432,0.20783085,-0.0023062106,0.37476408
1206181279,0.20931657,-0.0130149275,0.3658607
1206192610,0.19743082,-0.022193829,0.37179625
1206207128,0.19743082,-0.0068956614,0.36882848
1206232702,0.20931657,-0.016074559,0.361409
1206245024,0.18703079,-0.01607456,0.3599251
1206256140,0.20040226,-0.01607456,0.3658607
1206268839,0.19743082,-0.009955294,0.361409
1206292872,0.19148795,-0.008425479,0.36882848
1206304719,0.20634513,-0.02066401,0.36734456
1206316702,0.21377371,-0.016074559,0.37179625
1206328760,0.20783085,-0.0130149275,0.36882848
1206343282,0.20040226,-0.019134196,0.3658607
1206368801,0.19148795,-0.022193829,0.3554734
1206380826,0.19891654,-0.011485111,0.36734456
1206392609,0.20931657,-0.026783276,0.36882848
1206416260,0.20931657,-0.02066401,0.36882848
1206429037,0.19891654,-0.019134196,0.36882848
1206440603,0.20783085,-0.019134194,0.3554734
