timestamp,time_utc_usec,lat,lon,alt,alt_ellipsoid,s_variance_m_s,c_variance_rad,eph,epv,hdop,vdop,noise_per_ms,jamming_indicator,vel_m_s,vel_n_m_s,vel_e_m_s,vel_d_m_s,cog_rad,timestamp_time_relative,fix_type,vel_ned_valid,satellites_used
1184875594,1686681479400463,371025342,-763884513,3021,-32748,0.215,0.68534553,0.43400002,0.63900006,0.62,1.04,108,13,0.035,-0.021000002,0.028,-0.075,4.822865,0,4,1,19
1185075641,1686681479600463,371025344,-763884510,3018,-32752,0.209,0.68535393,0.43500003,0.63900006,0.62,1.04,108,13,0.035,0.027,-0.022000002,-0.031000001,4.822865,0,4,1,19
1185276525,1686681479800463,371025345,-763884508,3027,-32743,0.20300001,0.685362,0.43500003,0.63900006,0.62,1.04,108,13,0.07700001,0.075,0.018000001,-0.083000004,4.822865,0,4,1,19
1185491701,1686681480000463,371025347,-763884506,3036,-32734,0.216,0.6853707,0.43500003,0.63900006,0.62,1.04,108,13,0.072000004,-0.072000004,0.007,-0.11100001,4.822865,0,4,1,19
1185686513,1686681480200463,371025349,-763884504,3057,-32713,0.201,0.68537873,0.43500003,0.638,0.62,1.04,108,11,0.008,-0.0050000004,0.006,0.010000001,4.822865,0,4,1,19
1185874837,1686681480400463,371025352,-763884503,3058,-32712,0.18100001,0.6853859,0.43500003,0.638,0.62,1.04,108,11,0.027,0.013,0.023000002,-0.029000001,4.822865,0,4,1,19
1186074492,1686681480600463,371025355,-763884503,3058,-32712,0.21400002,0.68539864,0.43600002,0.642,0.62,1.04,108,11,0.157,-0.039,-0.15200001,0.277,4.822865,0,4,1,19
1186277699,1686681480800463,371025355,-763884510,3136,-32634,0.21900001,0.36355433,0.437,0.64500004,0.62,1.04,108,11,0.526,-0.18800001,-0.49100003,-0.74700004,4.4504743,0,4,1,19
1186474482,1686681481000463,371025353,-763884520,3373,-32397,0.21300001,0.26376984,0.43600002,0.64100003,0.62,1.04,108,11,0.614,-0.192,-0.583,-1.051,4.413514,0,4,1,19
1186685621,1686681481200463,371025353,-763884533,3619,-32151,0.186,0.2449222,0.43500003,0.637,0.62,1.04,108,13,0.72300005,-0.27,-0.671,-1.023,4.368655,0,4,1,19
1186874527,1686681481400462,371025351,-763884547,3824,-31946,0.2,0.2471489,0.43400002,0.63600004,0.62,1.04,108,13,0.71400005,-0.26900002,-0.66200006,-1.019,4.3479404,0,4,1,19
1187077612,1686681481600462,371025349,-763884559,4014,-31756,0.201,0.3486129,0.43400002,0.63500005,0.62,1.04,108,13,0.485,-0.25100002,-0.41500002,-0.84800005,4.287788,0,4,1,19
1187274639,1686681481800462,371025346,-763884565,4181,-31589,0.21200001,0.3423931,0.43400002,0.63500005,0.62,1.04,108,13,0.45900002,-0.393,-0.238,-0.781,3.9811754,0,4,1,19
1187474510,1686681482000462,371025342,-763884568,4464,-31306,0.216,0.5247693,0.43300003,0.633,0.62,1.04,108,13,0.27100003,-0.246,-0.115,-1.0320001,3.8614995,0,4,1,19
1187686180,1686681482200462,371025338,-763884571,4700,-31070,0.20300001,0.38571426,0.43100002,0.629,0.62,1.04,108,11,0.365,-0.29500002,-0.215,-0.83800006,3.803892,0,4,1,19
1187874485,1686681482400462,371025338,-763884573,4848,-30922,0.224,0.3857694,0.43100002,0.629,0.62,1.04,108,11,0.106000006,0.083000004,-0.067,-0.767,3.803892,0,4,1,19
1188074514,1686681482600462,371025338,-763884571,5090,-30680,0.21700001,0.44667807,0.42900002,0.625,0.62,1.04,108,11,0.24700001,-0.23400001,0.079,-0.85600007,3.3820105,0,4,1,19
1188274521,1686681482800462,371025334,-763884567,5250,-30520,0.224,0.24638236,0.42800003,0.62600005,0.62,1.04,108,11,0.51600003,-0.46600002,0.22000001,-0.74100006,2.8589513,0,4,1,19
1188478738,1686681483000462,371025331,-763884564,5458,-30312,0.23400001,0.67149234,0.42700002,0.625,0.62,1.04,108,11,0.18900001,-0.18900001,-0.001,-1.036,2.8930006,0,4,1,19
1188685642,1686681483200462,371025330,-763884563,5627,-30143,0.23600002,0.67152727,0.42700002,0.62600005,0.62,1.04,108,15,0.101,-0.096,0.029000001,-0.84900004,2.8930006,0,4,1,19
1188878525,1686681483400462,371025329,-763884561,5819,-29951,0.24000001,0.47597727,0.42800003,0.628,0.62,1.04,108,15,0.277,-0.25800002,0.1,-0.88000005,2.8112211,0,4,1,19
1189073608,1686681483600462,371025327,-763884557,6009,-29761,0.23200001,0.484111,0.42700002,0.62700003,0.62,1.04,108,15,0.30900002,-0.18300001,0.24900001,-0.86,2.5128229,0,4,1,19
1189270518,1686681483800462,371025324,-763884553,6288,-29482,0.24400002,0.5112724,0.42700002,0.62700003,0.62,1.04,108,15,0.22800002,-0.21800001,0.069000006,-1.051,2.6654947,0,4,1,19
1189474631,1686681484000462,371025323,-763884551,6464,-29306,0.245,0.511319,0.42600003,0.628,0.62,1.04,108,15,0.125,-0.081,0.096,-0.859,2.6654947,0,4,1,19
1189666639,1686681484200462,371025323,-763884551,6673,-29097,0.25100002,0.5113706,0.425,0.62700003,0.62,1.04,108,13,0.102000006,-0.0050000004,-0.102000006,-0.95800006,2.6654947,0,4,1,19
1189874487,1686681484400462,371025322,-763884552,6859,-28911,0.25300002,0.5114202,0.42600003,0.63000005,0.62,1.04,108,13,0.15300001,-0.147,-0.045,-0.91,2.6654947,0,4,1,19
1190083569,1686681484600462,371025320,-763884553,7071,-28698,0.246,0.5114717,0.42800003,0.63100004,0.62,1.04,108,13,0.067,0.031000001,-0.059000004,-0.95800006,2.6654947,0,4,1,19
1190276517,1686681484800462,371025318,-763884553,7246,-28524,0.23500001,0.52067024,0.42900002,0.63100004,0.62,1.04,108,13,0.261,-0.26000002,-0.023000002,-0.92,2.9419918,0,4,1,19
1190475450,1686681485000462,371025316,-763884553,7456,-28313,0.24200001,0.520717,0.42900002,0.63100004,0.62,1.04,108,13,0.125,-0.096,0.081,-0.87900007,2.9419918,0,4,1,19
1190687491,1686681485200462,371025317,-763884551,7715,-28055,0.23500001,0.68110335,0.42800003,0.63100004,0.62,1.04,108,12,0.193,-0.16000001,0.109000005,-1.1270001,2.7945154,0,4,1,19
1190875130,1686681485400462,371025316,-763884550,7901,-27869,0.24400002,0.6811391,0.42700002,0.632,0.62,1.04,108,12,0.15400001,-0.147,0.045,-0.87900007,2.7945154,0,4,1,19
1191076590,1686681485600462,371025317,-763884549,8094,-27676,0.24000001,0.6811774,0.42600003,0.63100004,0.62,1.04,108,12,0.043,-0.003,0.043,-0.947,2.7945154,0,4,1,19
1191272531,1686681485800462,371025319,-763884548,8293,-27477,0.24200001,0.6812194,0.42600003,0.63100004,0.62,1.04,108,12,0.057000004,-0.033,0.047000002,-1.0430001,2.7945154,0,4,1,19
1191484523,1686681486000462,371025321,-763884547,8461,-27309,0.24200001,0.68125015,0.425,0.632,0.62,1.04,108,12,0.108,0.101,0.039,-0.75900006,2.7945154,0,4,1,19
1191688534,1686681486200462,371025324,-763884548,8654,-27116,0.24000001,0.6812859,0.425,0.632,0.62,1.04,108,12,0.080000006,-0.072000004,-0.034,-0.883,2.7945154,0,4,1,19
1191868486,1686681486400462,371025326,-763884548,8848,-26922,0.24200001,0.7769411,0.425,0.633,0.62,1.04,108,12,0.19700001,0.185,0.068,-0.96800005,1.7330544,0,4,1,19
1192068482,1686681486600462,371025331,-763884547,9084,-26686,0.24000001,0.77697533,0.425,0.632,0.62,1.04,108,12,0.094000004,0.07,0.062000003,-0.96400005,1.7330544,0,4,1,19
1192274760,1686681486800462,371025333,-763884544,9282,-26488,0.23600002,0.77700657,0.42400002,0.63100004,0.62,1.04,108,12,0.16000001,0.032,0.157,-0.86800003,1.7330544,0,4,1,19
1192475496,1686681487000462,371025333,-763884541,9440,-26330,0.24200001,0.7770413,0.42400002,0.633,0.62,1.04,108,12,0.16100001,0.062000003,0.149,-0.97300005,1.7330544,0,4,1,19
1192687525,1686681487200462,371025333,-763884537,9665,-26105,0.23,0.6691093,0.42400002,0.63100004,0.62,1.04,108,18,0.25800002,-0.072000004,0.24700001,-1.019,1.8029053,0,4,1,19
1192878926,1686681487400462,371025330,-763884532,9820,-25950,0.24400002,0.5086015,0.42400002,0.633,0.62,1.04,108,18,0.28100002,-0.21400002,0.18300001,-0.9110001,2.202537,0,4,1,19
1193075493,1686681487600462,371025330,-763884527,9987,-25783,0.238,0.67329997,0.42400002,0.633,0.62,1.04,108,18,0.246,-0.033,0.24300002,-0.74300003,2.022251,0,4,1,19
1193275610,1686681487800462,371025330,-763884524,10194,-25576,0.24000001,0.7752162,0.423,0.633,0.62,1.03,108,18,0.18100001,-0.095000006,0.15400001,-0.901,2.0654125,0,4,1,19
1193480478,1686681488000462,371025330,-763884521,10405,-25365,0.24200001,0.6867701,0.423,0.633,0.62,1.03,108,18,0.201,-0.132,0.15200001,-0.98700005,2.1886954,0,4,1,19
1193684502,1686681488200462,371025330,-763884519,10620,-25150,0.24700001,0.6868099,0.423,0.634,0.62,1.03,108,12,0.095000006,-0.006,0.095000006,-0.99500006,2.1886954,0,4,1,19
1193876538,1686681488400461,371025330,-763884519,10876,-24894,0.23600002,0.6868575,0.42200002,0.633,0.62,1.03,108,12,0.040000003,-0.040000003,0.001,-1.189,2.1886954,0,4,1,19
1194080554,1686681488600461,371025331,-763884518,11118,-24652,0.23600002,0.6869052,0.42200002,0.634,0.62,1.03,108,12,0.117000006,0.021000002,0.115,-1.192,2.1886954,0,4,1,19
1194276478,1686681488800461,371025332,-763884518,11356,-24413,0.238,0.68695176,0.42200002,0.634,0.62,1.03,108,12,0.046000004,0.046000004,-0.002,-1.164,2.1886954,0,4,1,19
1194477560,1686681489000461,371025332,-763884518,11585,-24185,0.23700002,0.68699753,0.423,0.63500005,0.62,1.03,108,12,0.058000002,-0.049000002,0.031000001,-1.146,2.1886954,0,4,1,19
1194685548,1686681489200461,371025331,-763884518,11842,-23927,0.23200001,0.6870462,0.42200002,0.634,0.62,1.03,108,12,0.043,-0.043,0.003,-1.2190001,2.1886954,0,4,1,19
1194873576,1686681489400461,371025332,-763884519,12095,-23675,0.23400001,0.7066529,0.42200002,0.63500005,0.62,1.03,108,12,0.19000001,0.15900001,-0.104,-1.174,0.84269744,0,4,1,19
1195076797,1686681489600461,371025332,-763884521,12333,-23437,0.23300001,0.7067016,0.423,0.63500005,0.62,1.03,108,12,0.028,-0.012,-0.026,-1.256,0.84269744,0,4,1,19
1195276854,1686681489800461,371025333,-763884522,12587,-23183,0.22900002,0.70675063,0.42200002,0.634,0.62,1.03,108,12,0.057000004,0.048,-0.030000001,-1.2650001,0.84269744,0,4,1,19
1195473659,1686681490000461,371025334,-763884524,12821,-22948,0.23,0.7067977,0.42200002,0.63500005,0.62,1.03,108,12,0.132,0.07700001,-0.10700001,-1.2060001,0.84269744,0,4,1,19
1195685571,1686681490200461,371025336,-763884527,13048,-22722,0.23200001,0.7068454,0.423,0.63600004,0.62,1.03,108,11,0.18100001,0.014,-0.18,-1.2160001,0.84269744,0,4,1,19
1195876562,1686681490400461,371025337,-763884532,13332,-22438,0.22600001,0.7068943,0.423,0.63500005,0.62,1.03,108,11,0.187,-0.047000002,-0.18100001,-1.246,0.84269744,0,4,1,19
1196073579,1686681490600461,371025336,-763884535,13586,-22184,0.21900001,0.5931468,0.42100003,0.632,0.62,1.03,108,11,0.2,-0.2,-0.004,-1.264,2.2046323,0,4,1,19
1196281579,1686681490800461,371025336,-763884536,13803,-21967,0.22700001,0.593203,0.42000002,0.632,0.62,1.03,108,11,0.094000004,0.09,-0.026,-1.212,2.2046323,0,4,1,19
1196476731,1686681491000461,371025338,-763884536,14033,-21737,0.23200001,0.5932564,0.41900003,0.63100004,0.62,1.03,108,11,0.042000003,0.037,-0.020000001,-1.1550001,2.2046323,0,4,1,19
1196685592,1686681491200461,371025340,-763884539,14255,-21515,0.22900002,0.71275824,0.41900003,0.63100004,0.62,1.03,108,12,0.18900001,0.124000005,-0.143,-1.143,0.95190704,0,4,1,19
1196877160,1686681491400461,371025342,-763884541,14496,-21274,0.23300001,0.71280396,0.41900003,0.63100004,0.62,1.03,108,12,0.134,0.079,-0.108,-1.1810001,0.95190704,0,4,1,19
1197073559,1686681491600461,371025343,-763884542,14734,-21036,0.23300001,0.712857,0.42000002,0.632,0.62,1.03,108,12,0.081,0.053000003,0.061000004,-1.3770001,0.95190704,0,4,1,19
1197273635,1686681491800461,371025345,-763884542,14994,-20776,0.23300001,0.7129064,0.41900003,0.63100004,0.62,1.03,108,12,0.045,0.040000003,-0.020000001,-1.2830001,0.95190704,0,4,1,19
1197476943,1686681492000461,371025347,-763884542,15224,-20546,0.23300001,0.71295595,0.42000002,0.632,0.62,1.03,108,12,0.061000004,0.061000004,0.003,-1.2870001,0.95190704,0,4,1,19
1197685552,1686681492200461,371025349,-763884543,15479,-20290,0.22800002,0.71300393,0.41900003,0.63100004,0.62,1.03,108,12,0.109000005,0.049000002,-0.097,-1.246,0.95190704,0,4,1,19
1197876854,1686681492400461,371025352,-763884545,15743,-20027,0.23200001,0.7130539,0.41900003,0.632,0.62,1.03,108,12,0.065000005,0.063,-0.017,-1.297,0.95190704,0,4,1,19
1198077292,1686681492600461,371025352,-763884544,15979,-19790,0.23,0.7131031,0.42000002,0.633,0.62,1.03,108,12,0.081,-0.026,0.07700001,-1.276,0.95190704,0,4,1,19
1198276821,1686681492800461,371025349,-763884543,16220,-19550,0.22600001,0.52400804,0.42000002,0.633,0.62,1.03,108,12,0.238,-0.23500001,0.041,-1.271,2.262133,0,4,1,19
1198477293,1686681493000461,371025349,-763884542,16477,-19293,0.22900002,0.5240703,0.41900003,0.633,0.62,1.03,108,12,0.068,0.023000002,0.064,-1.1880001,2.262133,0,4,1,19
1198692841,1686681493200461,371025350,-763884540,16764,-19006,0.224,0.52414227,0.418,0.633,0.62,1.03,108,35,0.136,-0.043,0.12900001,-1.366,2.262133,0,4,1,19
1198870646,1686681493400461,371025350,-763884538,17056,-18714,0.22100002,0.52421117,0.41700003,0.63100004,0.62,1.03,108,35,0.082,-0.07700001,0.026,-1.315,2.262133,0,4,1,19
1199082833,1686681493600461,371025349,-763884538,17302,-18467,0.22100002,0.52427334,0.41700003,0.63100004,0.62,1.03,108,35,0.102000006,-0.101,0.016,-1.184,2.262133,0,4,1,19
1199275539,1686681493800461,371025347,-763884538,17617,-18153,0.223,0.5473649,0.41700003,0.63000005,0.62,1.03,108,35,0.22900002,-0.22900002,-0.002,-1.5120001,2.6862552,0,4,1,19
1199478652,1686681494000461,371025344,-763884537,17897,-17873,0.22100002,0.43669933,0.416,0.629,0.62,1.03,108,35,0.3,-0.284,0.095000006,-1.4820001,2.7673175,0,4,1,19
1199691483,1686681494200461,371025342,-763884538,18179,-17591,0.22900002,0.43679655,0.416,0.629,0.62,1.03,108,12,0.115,-0.080000006,-0.082,-1.5450001,2.7673175,0,4,1,19
1199875539,1686681494400461,371025340,-763884540,18456,-17314,0.22800002,0.63719314,0.41700003,0.63000005,0.62,1.03,108,12,0.22500001,-0.21300001,-0.074,-1.5020001,2.9937031,0,4,1,19
1200075501,1686681494600461,371025334,-763884540,18688,-17081,0.23,0.3872018,0.41700003,0.63000005,0.62,1.03,108,12,0.344,-0.344,-0.001,-1.4760001,3.1043549,0,4,1,19
1200267489,1686681494800461,371025328,-763884540,18942,-16827,0.23400001,0.73338014,0.418,0.63000005,0.62,1.03,108,12,0.17400001,-0.17400001,-0.001,-1.3720001,3.1138012,0,4,1,19
1200478595,1686681495000461,371025326,-763884540,19165,-16605,0.23300001,0.7218561,0.41900003,0.63000005,0.62,1.03,108,12,0.16900001,-0.16600001,0.030000001,-1.1700001,3.0362055,0,4,1,19
1200687472,1686681495200461,371025325,-763884541,19400,-16370,0.23400001,0.72190636,0.41900003,0.63100004,0.62,1.03,108,12,0.09900001,-0.098000005,-0.011000001,-1.319,3.0362055,0,4,1,19
1200878001,1686681495400461,371025325,-763884542,19669,-16100,0.23300001,0.7219561,0.41900003,0.632,0.62,1.03,108,12,0.158,-0.155,-0.033,-1.3010001,3.0362055,0,4,1,19
1201078034,1686681495600460,371025324,-763884542,19925,-15845,0.22900002,0.7220043,0.41900003,0.633,0.62,1.03,108,12,0.142,-0.11000001,0.09,-1.2570001,3.0362055,0,4,1,19
1201275803,1686681495800460,371025323,-763884541,20152,-15618,0.22800002,0.72204876,0.41900003,0.633,0.62,1.03,108,12,0.021000002,-0.013,-0.017,-1.1730001,3.0362055,0,4,1,19
1201479482,1686681496000460,371025324,-763884542,20385,-15385,0.22600001,0.72209644,0.41900003,0.633,0.62,1.03,108,12,0.031000001,0.006,-0.030000001,-1.2550001,3.0362055,0,4,1,19
1201686690,1686681496200460,371025325,-763884542,20678,-15092,0.22100002,0.7221493,0.418,0.63100004,0.62,1.03,108,11,0.057000004,0.05,0.027,-1.391,3.0362055,0,4,1,19
1201878650,1686681496400460,371025326,-763884542,20930,-14840,0.224,0.72220147,0.41700003,0.63100004,0.62,1.03,108,11,0.064,0.052,0.037,-1.3740001,3.0362055,0,4,1,19
1202075517,1686681496600460,371025326,-763884541,21127,-14643,0.22600001,0.7222509,0.418,0.63100004,0.62,1.03,108,11,0.11800001,0.117000006,0.016,-1.2930001,3.0362055,0,4,1,19
1202279485,1686681496800460,371025326,-763884540,21360,-14410,0.231,0.7222973,0.41900003,0.632,0.62,1.03,108,11,0.061000004,0.043,0.043,-1.2210001,3.0362055,0,4,1,19
1202483489,1686681497000460,371025327,-763884540,21574,-14196,0.231,0.72234637,0.41900003,0.632,0.62,1.03,108,11,0.098000005,0.096,0.019000001,-1.2880001,3.0362055,0,4,1,19
1202686626,1686681497200460,371025328,-763884540,21813,-13957,0.23,0.72239524,0.41900003,0.632,0.62,1.03,108,11,0.064,0.032,0.055000003,-1.2870001,3.0362055,0,4,1,19
1202887545,1686681497400460,371025328,-763884540,22051,-13719,0.22900002,0.7224441,0.41900003,0.632,0.62,1.03,108,11,0.072000004,-0.045,0.056,-1.2850001,3.0362055,0,4,1,19
1203075480,1686681497600460,371025328,-763884539,22285,-13485,0.22700001,0.72249156,0.418,0.63100004,0.65999997,1.04,108,11,0.064,-0.013,0.062000003,-1.251,3.0362055,0,4,1,18
1203283933,1686681497800460,371025327,-763884538,22495,-13275,0.22600001,0.72253907,0.418,0.63100004,0.62,1.03,108,11,0.064,0.031000001,0.056,-1.2520001,3.0362055,0,4,1,19
1203488492,1686681498000460,371025327,-763884536,22702,-13068,0.22600001,0.72258407,0.418,0.63100004,0.62,1.03,108,11,0.078,0.021000002,0.076000005,-1.1830001,3.0362055,0,4,1,19
1203687539,1686681498200460,371025328,-763884537,22909,-12861,0.22800002,0.72263205,0.41900003,0.63100004,0.62,1.03,108,36,0.17600001,0.13100001,-0.119,-1.251,3.0362055,0,4,1,19
1203880487,1686681498400460,371025328,-763884539,23174,-12596,0.224,0.7226839,0.418,0.629,0.62,1.03,108,36,0.072000004,-0.056,-0.046000004,-1.363,3.0362055,0,4,1,19
1204091540,1686681498600460,371025328,-763884543,23457,-12313,0.223,0.5848684,0.418,0.628,0.62,1.03,108,36,0.24000001,0.157,-0.18200001,-1.4970001,4.4793077,0,4,1,19
1204287286,1686681498800460,371025331,-763884548,23704,-12066,0.223,0.39025927,0.41700003,0.62600005,0.62,1.03,108,36,0.34600002,0.24900001,-0.24000001,-1.378,5.1968956,0,4,1,19
1204479539,1686681499000460,371025335,-763884554,23953,-11817,0.223,0.4275992,0.418,0.62600005,0.62,1.03,108,36,0.33400002,0.179,-0.28100002,-1.3900001,5.234686,0,4,1,19
1204687472,1686681499200460,371025338,-763884559,24220,-11550,0.22900002,0.42768714,0.41700003,0.625,0.62,1.03,108,10,0.083000004,0.061000004,-0.056,-1.371,5.234686,0,4,1,19
1204879563,1686681499400460,371025341,-763884561,24463,-11307,0.23200001,0.6972417,0.41700003,0.62600005,0.62,1.03,108,10,0.19500001,0.158,-0.11400001,-1.3060001,5.351304,0,4,1,19
1205079695,1686681499600460,371025342,-763884564,24686,-11084,0.22800002,0.69729286,0.41700003,0.625,0.62,1.03,108,10,0.054,0.023000002,-0.048,-1.3010001,5.351304,0,4,1,19
1205279659,1686681499800460,371025342,-763884564,24911,-10859,0.23,0.6973471,0.41700003,0.62600005,0.62,1.03,108,10,0.051000003,-0.002,0.051000003,-1.3790001,5.351304,0,4,1,19
1205483762,1686681500000460,371025342,-763884564,25128,-10642,0.23300001,0.6973967,0.41900003,0.62700003,0.62,1.03,108,10,0.020000001,-0.008,0.018000001,-1.261,5.351304,0,4,1,19
1205687273,1686681500200460,371025340,-763884563,25367,-10403,0.22500001,0.6656588,0.41900003,0.62600005,0.62,1.03,108,12,0.18400002,-0.177,0.051000003,-1.2160001,4.047534,0,4,1,19
1205879216,1686681500400460,371025337,-763884561,25620,-10150,0.224,0.37075138,0.41900003,0.62600005,0.62,1.03,108,12,0.36800003,-0.286,0.231,-1.3280001,2.8366575,0,4,1,19
1206080730,1686681500600460,371025333,-763884557,25835,-9935,0.22500001,0.54459834,0.418,0.625,0.62,1.03,108,12,0.24300002,-0.172,0.171,-1.284,2.6853297,0,4,1,19
1206284149,1686681500800460,371025331,-763884555,26057,-9713,0.231,0.5446654,0.418,0.62600005,0.62,1.03,108,12,0.108,-0.044000003,0.09900001,-1.3240001,2.6853297,0,4,1,19
1206484396,1686681501000460,371025328,-763884552,26290,-9480,0.223,0.55044645,0.418,0.625,0.62,1.03,108,12,0.27100003,-0.119,0.24400002,-1.2260001,2.358567,0,4,1,19
1206668464,1686681501200460,371025324,-763884546,26561,-9209,0.22000001,0.36925527,0.41700003,0.625,0.62,1.03,108,11,0.42100003,-0.223,0.35700002,-1.3820001,2.201118,0,4,1,19
1206883935,1686681501400460,371025321,-763884541,26823,-8947,0.22800002,0.3693565,0.41700003,0.625,0.62,1.03,108,11,0.2,-0.080000006,0.18300001,-1.348,2.201118,0,4,1,19
1207079240,1686681501600460,371025322,-763884537,27054,-8715,0.22600001,0.68569267,0.41700003,0.624,0.62,1.03,108,11,0.24400002,0.057000004,0.23700002,-1.35,2.0066118,0,4,1,19
1207284724,1686681501800460,371025322,-763884532,27315,-8455,0.22500001,0.6674207,0.416,0.624,0.62,1.03,108,11,0.254,0.023000002,0.25300002,-1.383,1.735504,0,4,1,19
1207471475,1686681502000460,371025324,-763884529,27562,-8208,0.22900002,0.6674771,0.416,0.624,0.62,1.03,108,11,0.13000001,0.108,0.072000004,-1.365,1.735504,0,4,1,19
1207686806,1686681502200460,371025325,-763884528,27768,-8002,0.22900002,0.66753066,0.416,0.624,0.62,1.03,108,12,0.178,0.16800001,0.061000004,-1.292,1.735504,0,4,1,19
1207880819,1686681502400460,371025328,-763884527,28008,-7762,0.23300001,0.6675835,0.41700003,0.625,0.62,1.03,108,12,0.187,0.17500001,0.067,-1.274,1.735504,0,4,1,19
1208078490,1686681502600460,371025329,-763884525,28257,-7513,0.23300001,0.6676383,0.41700003,0.62600005,0.62,1.03,108,12,0.102000006,0.045,0.09200001,-1.3280001,1.735504,0,4,1,19
1208282644,1686681502800459,371025330,-763884524,28510,-7259,0.23300001,0.66769606,0.41700003,0.62600005,0.62,1.03,108,12,0.09900001,0.086,0.049000002,-1.406,1.735504,0,4,1,19
1208482473,1686681503000459,371025333,-763884524,28776,-6993,0.23200001,0.66775334,0.41700003,0.62600005,0.62,1.03,108,12,0.15400001,0.15300001,-0.016,-1.3840001,1.735504,0,4,1,19
1208666786,1686681503200459,371025336,-763884524,29012,-6758,0.23,0.66780865,0.418,0.62700003,0.62,1.03,108,32,0.164,0.158,0.043,-1.337,1.735504,0,4,1,19
1208882482,1686681503400459,371025338,-763884525,29296,-6474,0.23,0.6678687,0.418,0.62700003,0.62,1.03,108,32,0.128,0.097,-0.082,-1.457,1.735504,0,4,1,19
1209081135,1686681503600459,371025341,-763884528,29587,-6183,0.22900002,0.6679314,0.418,0.62600005,0.62,1.03,108,32,0.11400001,0.053000003,-0.101,-1.5230001,1.735504,0,4,1,19
1209282656,1686681503800459,371025343,-763884530,29867,-5903,0.23,0.66799086,0.418,0.62700003,0.62,1.03,108,32,0.102000006,0.097,-0.032,-1.4460001,1.735504,0,4,1,19
1209497662,1686681504000459,371025345,-763884532,30110,-5660,0.23,0.66805106,0.41700003,0.62700003,0.62,1.03,108,32,0.075,0.05,-0.056,-1.465,1.735504,0,4,1,19
1209665663,1686681504200459,371025347,-763884535,30338,-5431,0.231,0.7484144,0.41700003,0.62700003,0.62,1.03,108,12,0.17400001,0.13800001,-0.106000006,-1.345,0.675893,0,4,1,19
1209882520,1686681504400459,371025349,-763884538,30574,-5196,0.23500001,0.74846536,0.41700003,0.629,0.62,1.03,108,12,0.13100001,0.101,-0.08400001,-1.3800001,0.675893,0,4,1,19
1210078500,1686681504600459,371025350,-763884539,30823,-4947,0.23700002,0.7485137,0.41700003,0.629,0.62,1.03,108,12,0.010000001,-0.004,0.009000001,-1.3180001,0.675893,0,4,1,19
1210278485,1686681504800459,371025351,-763884541,31075,-4695,0.23400001,0.7485624,0.416,0.63000005,0.62,1.03,108,12,0.132,-0.028,-0.12900001,-1.322,0.675893,0,4,1,19
1210482529,1686681505000459,371025350,-763884543,31348,-4422,0.23300001,0.74861634,0.416,0.63000005,0.62,1.03,108,12,0.061000004,-0.060000002,0.014,-1.4740001,0.675893,0,4,1,19
1210665628,1686681505200459,371025351,-763884545,31605,-4164,0.231,0.7486652,0.416,0.63000005,0.62,1.03,108,13,0.059000004,0.020000001,-0.056,-1.3330001,0.675893,0,4,1,19
1210877669,1686681505400459,371025352,-763884546,31850,-3920,0.22900002,0.7487146,0.416,0.63100004,0.62,1.03,108,13,0.037,0.019000001,0.032,-1.348,0.675893,0,4,1,19
1211082479,1686681505600459,371025353,-763884546,32086,-3684,0.22800002,0.7487621,0.416,0.63100004,0.62,1.03,108,13,0.072000004,0.001,0.072000004,-1.292,0.675893,0,4,1,19
1211272812,1686681505800459,371025353,-763884545,32302,-3468,0.22700001,0.7488059,0.416,0.632,0.62,1.03,108,13,0.12900001,-0.042000003,0.12200001,-1.1930001,0.675893,0,4,1,19
1211478654,1686681506000459,371025352,-763884542,32552,-3218,0.22700001,0.7488544,0.41500002,0.632,0.62,1.03,108,13,0.16900001,-0.07700001,0.15100001,-1.3130001,0.675893,0,4,1,19
1211686982,1686681506200459,371025350,-763884541,32793,-2977,0.22800002,0.7693395,0.41500002,0.633,0.62,1.03,109,12,0.16600001,-0.14400001,0.083000004,-1.25,1.6219829,0,4,1,19
1211877700,1686681506400459,371025349,-763884540,33013,-2756,0.22700001,0.76938385,0.41500002,0.633,0.62,1.03,109,12,0.089,0.0,0.089,-1.24,1.6219829,0,4,1,19
1212075577,1686681506600459,371025348,-763884539,33215,-2554,0.22800002,0.76942486,0.41500002,0.634,0.62,1.03,109,12,0.097,-0.05,0.083000004,-1.1450001,1.6219829,0,4,1,19
1212276497,1686681506800459,371025347,-763884538,33466,-2304,0.22500001,0.7694671,0.41500002,0.634,0.62,1.03,109,12,0.147,-0.126,0.076000005,-1.1800001,1.6219829,0,4,1,19
1212480487,1686681507000459,371025344,-763884537,33704,-2066,0.224,0.44691736,0.41500002,0.634,0.62,1.03,109,12,0.27600002,-0.259,0.093,-1.25,2.4996653,0,4,1,19
1212687544,1686681507200459,371025341,-763884537,33946,-1824,0.224,0.60094285,0.41500002,0.634,0.62,1.03,109,14,0.209,-0.20600002,0.037,-1.151,2.664166,0,4,1,19
1212880589,1686681507400459,371025339,-763884537,34166,-1604,0.224,0.60099137,0.41500002,0.634,0.62,1.03,109,14,0.13100001,-0.13100001,-0.011000001,-1.056,2.664166,0,4,1,19
1213088512,1686681507600459,371025334,-763884536,34377,-1393,0.216,0.2182878,0.41500002,0.633,0.62,1.03,109,14,0.574,-0.544,0.18200001,-1.1,2.8001914,0,4,1,19
1213284537,1686681507800459,371025326,-763884528,34527,-1243,0.21000001,0.20589386,0.41500002,0.634,0.62,1.03,109,14,0.69600004,-0.448,0.53300005,-0.878,2.5193188,0,4,1,19
1213483506,1686681508000459,371025313,-763884514,34631,-1139,0.17600001,0.1105104,0.41500002,0.63500005,0.62,1.03,109,14,1.228,-0.97,0.753,-0.35300002,2.4900453,0,4,1,19
1213691476,1686681508200459,371025292,-763884494,34637,-1133,0.18100001,0.07915871,0.41500002,0.637,0.62,1.03,109,11,1.6750001,-1.2830001,1.077,-0.18200001,2.4589186,0,4,1,19
1213887447,1686681508400459,371025264,-763884467,34652,-1117,0.177,0.062226743,0.41500002,0.638,0.62,1.03,109,11,2.17,-1.741,1.2950001,-0.069000006,2.4858577,0,4,1,19
1214080492,1686681508600459,371025230,-763884437,34652,-1118,0.18900001,0.053951267,0.416,0.64000005,0.62,1.03,109,11,2.4510002,-1.945,1.491,-0.095000006,2.4868135,0,4,1,19
1214287521,1686681508800459,371025193,-763884405,34647,-1123,0.20500001,0.055628702,0.41700003,0.642,0.62,1.03,109,11,2.5700002,-2.1290002,1.44,-0.19600001,2.5166478,0,4,1,19
1214484477,1686681509000459,371025153,-763884373,34651,-1119,0.22600001,0.053442676,0.41900003,0.64400005,0.62,1.03,109,11,2.5370002,-2.065,1.473,-0.05,2.5194933,0,4,1,19
1214668526,1686681509200459,371025113,-763884341,34643,-1127,0.22600001,0.057326034,0.42100003,0.646,0.62,1.03,109,14,2.516,-2.0540001,1.4530001,-0.023000002,2.5224378,0,4,1,19
1214880484,1686681509400459,371025075,-763884309,34632,-1138,0.22200002,0.06245468,0.42400002,0.647,0.62,1.03,109,14,2.4490001,-1.978,1.445,0.044000003,2.5168965,0,4,1,19
1215080493,1686681509600459,371025040,-763884276,34601,-1169,0.209,0.07181611,0.42700002,0.648,0.62,1.03,109,14,2.2540002,-1.697,1.483,0.079,2.4759684,0,4,1,19
1215286901,1686681509800458,371025012,-763884241,34544,-1226,0.20300001,0.084977984,0.42900002,0.64900005,0.62,1.03,109,14,2.0670002,-1.2950001,1.6110001,0.018000001,2.3796644,0,4,1,19
1215496500,1686681510000458,371024992,-763884203,34492,-1278,0.19100001,0.11673407,0.432,0.65000004,0.62,1.03,109,14,1.8670001,-0.83800006,1.6680001,-0.076000005,2.2596962,0,4,1,19
1215687934,1686681510200458,371024982,-763884163,34472,-1298,0.163,0.12841295,0.43600002,0.651,0.62,1.03,109,11,1.7960001,-0.24800001,1.779,0.008,2.0096366,0,4,1,19
1215883539,1686681510400458,371024982,-763884122,34420,-1350,0.15200001,0.1179462,0.439,0.652,0.62,1.03,109,11,1.8650001,0.16800001,1.8570001,0.098000005,1.7219133,0,4,1,19
1216084543,1686681510600458,371024989,-763884080,34361,-1409,0.142,0.10924993,0.441,0.65400004,0.62,1.03,109,11,1.9920001,0.66700006,1.8770001,0.13700001,1.4557691,0,4,1,19
1216280489,1686681510800458,371025003,-763884037,34336,-1434,0.14500001,0.09945252,0.44200003,0.657,0.62,1.03,109,11,2.187,0.96400005,1.963,0.082,1.268096,0,4,1,19
1216484714,1686681511000458,371025021,-763883993,34281,-1489,0.148,0.093924016,0.44400004,0.66,0.62,1.03,109,11,2.301,1.1980001,1.9650002,0.087000005,1.1379787,0,4,1,19
1216672788,1686681511200458,371025043,-763883949,34204,-1566,0.149,0.08985077,0.446,0.661,0.62,1.03,109,16,2.3990002,1.296,2.0180001,0.020000001,1.0654405,0,4,1,19
1216880461,1686681511400458,371025068,-763883904,34169,-1601,0.15300001,0.08259648,0.44700003,0.66200006,0.62,1.03,109,16,2.522,1.5150001,2.016,0.104,0.98945045,0,4,1,19
1217085557,1686681511600458,371025096,-763883859,34122,-1648,0.156,0.079318754,0.448,0.66200006,0.62,1.03,109,16,2.582,1.628,2.005,0.123,0.93658566,0,4,1,19
1217265041,1686681511800458,371025122,-763883813,34030,-1740,0.157,0.07497759,0.44900003,0.66200006,0.62,1.03,109,16,2.5770001,1.5580001,2.0530002,0.066,0.92846644,0,4,1,19
1217488791,1686681512000458,371025148,-763883765,33967,-1803,0.157,0.07308583,0.45000002,0.66300005,0.62,1.03,109,16,2.6360002,1.6190001,2.0800002,0.061000004,0.91852117,0,4,1,19
1217669628,1686681512200458,371025175,-763883718,33882,-1888,0.157,0.07459572,0.45100003,0.66300005,0.62,1.03,109,11,2.581,1.5760001,2.0440001,0.078,0.9162608,0,4,1,19
1217885077,1686681512400458,371025202,-763883673,33797,-1973,0.15400001,0.07163075,0.45100003,0.66300005,0.62,1.03,109,11,2.65,1.725,2.012,0.028,0.88773793,0,4,1,19
1218085122,1686681512600458,371025231,-763883628,33757,-2013,0.155,0.07871434,0.45200002,0.66300005,0.62,1.03,109,11,2.6680002,1.7210001,2.0400002,0.07300001,0.8796026,0,4,1,19
1218281561,1686681512800458,371025259,-763883584,33711,-2059,0.15400001,0.082486875,0.453,0.66400003,0.62,1.03,109,11,2.5600002,1.6090001,1.9920001,0.045,0.885329,0,4,1,19
1218484870,1686681513000458,371025289,-763883540,33678,-2092,0.15900001,0.07637822,0.455,0.66400003,0.62,1.03,109,11,2.726,1.8290001,2.022,0.13000001,0.8582749,0,4,1,19
1218672554,1686681513200458,371025319,-763883496,33605,-2165,0.158,0.07498981,0.455,0.66400003,0.62,1.03,109,11,2.6790001,1.8050001,1.9800001,0.12200001,0.8444452,0,4,1,19
1218892760,1686681513400458,371025350,-763883451,33540,-2230,0.163,0.07385029,0.45600003,0.665,0.62,1.03,109,11,2.736,1.8000001,2.0600002,0.156,0.8487073,0,4,1,19
1219081559,1686681513600458,371025382,-763883405,33482,-2288,0.165,0.07162761,0.45700002,0.666,0.62,1.03,109,11,2.7940001,1.909,2.0400002,0.055000003,0.8330636,0,4,1,19
1219281621,1686681513800458,371025415,-763883362,33442,-2328,0.15300001,0.068495445,0.45800003,0.666,0.62,1.03,109,11,2.8240001,1.988,2.005,0.19700001,0.810024,0,4,1,19
1219484469,1686681514000458,371025449,-763883318,33393,-2377,0.155,0.06852476,0.45800003,0.665,0.62,1.03,109,11,2.8980002,2.0270002,2.071,0.076000005,0.8029235,0,4,1,19
1219669422,1686681514200458,371025484,-763883273,33356,-2414,0.155,0.06889983,0.45800003,0.666,0.62,1.03,109,12,2.811,1.973,2.002,0.064,0.7978655,0,4,1,19
1219888755,1686681514400458,371025518,-763883228,33270,-2500,0.15300001,0.06976953,0.45800003,0.665,0.62,1.03,109,12,2.871,1.9650002,2.0930002,0.10700001,0.807372,0,4,1,19
1220085140,1686681514600458,371025551,-763883181,33223,-2547,0.157,0.07272822,0.45900002,0.665,0.62,1.03,109,12,2.776,1.8440001,2.075,0.11400001,0.825271,0,4,1,19
1220281598,1686681514800458,371025584,-763883134,33181,-2589,0.16900001,0.07063173,0.46,0.666,0.62,1.03,109,12,2.861,1.9900001,2.055,0.083000004,0.81289893,0,4,1,19
1220481557,1686681515000458,371025616,-763883084,33100,-2670,0.155,0.0610743,0.46,0.666,0.62,1.03,109,12,2.9550002,1.9560001,2.216,0.096,0.83305347,0,4,1,19
1220688351,1686681515200458,371025649,-763883034,33037,-2733,0.156,0.06714752,0.46,0.666,0.62,1.03,109,12,2.864,1.8770001,2.163,0.080000006,0.84371495,0,4,1,19
1220879485,1686681515400458,371025682,-763882985,32988,-2782,0.16700001,0.06941104,0.462,0.66700006,0.62,1.03,109,12,2.969,1.9700001,2.2210002,0.11400001,0.84453076,0,4,1,19
1221082490,1686681515600458,371025715,-763882935,32925,-2845,0.162,0.0706785,0.46300003,0.669,0.62,1.03,109,12,2.9310002,1.9030001,2.23,0.15400001,0.8543662,0,4,1,19
1221279483,1686681515800458,371025748,-763882886,32900,-2870,0.156,0.070384935,0.46400002,0.67,0.62,1.03,109,12,2.913,1.9190001,2.1910002,-0.027,0.852834,0,4,1,19
1221495483,1686681516000458,371025780,-763882837,32887,-2883,0.158,0.07065354,0.46600002,0.671,0.62,1.03,109,12,2.877,1.9420002,2.1230001,-0.010000001,0.8413261,0,4,1,19
1221687499,1686681516200458,371025813,-763882790,32883,-2887,0.157,0.07099021,0.467,0.67200005,0.62,1.03,109,11,2.868,1.9250001,2.1260002,-0.057000004,0.83814055,0,4,1,19
1221879531,1686681516400458,371025845,-763882742,32890,-2880,0.156,0.07188417,0.46800002,0.674,0.62,1.03,109,11,2.8430002,1.876,2.137,-0.076000005,0.84430104,0,4,1,19
1222079485,1686681516600458,371025876,-763882694,32902,-2868,0.15400001,0.07032507,0.46800002,0.674,0.62,1.03,109,11,2.835,1.8320001,2.163,-0.030000001,0.8565976,0,4,1,19
1222271487,1686681516800458,371025907,-763882645,32913,-2857,0.158,0.07120908,0.469,0.674,0.62,1.03,109,11,2.805,1.7950001,2.1550002,-0.029000001,0.8664102,0,4,1,19
1222475496,1686681517000457,371025937,-763882597,32917,-2853,0.15300001,0.07229206,0.469,0.675,0.62,1.03,109,11,2.7610002,1.7720001,2.117,-0.072000004,0.870212,0,4,1,19
1222687592,1686681517200457,371025968,-763882548,32939,-2831,0.15300001,0.07024374,0.47000003,0.67600006,0.62,1.03,109,12,2.8470001,1.8130001,2.194,-0.051000003,0.8754187,0,4,1,19
1222878642,1686681517400457,371025999,-763882499,32942,-2828,0.15300001,0.07026765,0.47000003,0.67700005,0.62,1.03,109,12,2.8470001,1.807,2.2010002,-0.016,0.87947154,0,4,1,19
1223082639,1686681517600457,371026029,-763882449,32947,-2823,0.15200001,0.07112059,0.47100002,0.679,0.62,1.03,109,12,2.8790002,1.7930001,2.252,-0.024,0.888985,0,4,1,19
1223279527,1686681517800457,371026060,-763882399,32957,-2813,0.156,0.07301829,0.47300002,0.68200004,0.62,1.03,109,12,2.8030002,1.7470001,2.193,-0.014,0.8935171,0,4,1,19
1223475495,1686681518000457,371026089,-763882350,32956,-2814,0.155,0.07481284,0.47400004,0.684,0.62,1.03,109,12,2.7440002,1.6700001,2.1780002,-0.10700001,0.9050408,0,4,1,19
1223666806,1686681518200457,371026118,-763882301,32987,-2783,0.156,0.07521479,0.47500002,0.68500006,0.62,1.03,109,15,2.772,1.6960001,2.1920002,-0.164,0.9088063,0,4,1,19
1223875482,1686681518400457,371026147,-763882251,32980,-2790,0.15300001,0.07629863,0.476,0.68500006,0.62,1.03,109,15,2.709,1.6220001,2.1690001,-0.057000004,0.9187744,0,4,1,19
1224075491,1686681518600457,371026173,-763882202,32961,-2809,0.147,0.07254932,0.47500002,0.684,0.62,1.03,109,15,2.6750002,1.588,2.1520002,-0.059000004,0.92752254,0,4,1,19
1224279522,1686681518800457,371026198,-763882152,32951,-2819,0.15200001,0.07433846,0.476,0.684,0.62,1.03,109,15,2.644,1.445,2.214,0.060000002,0.959701,0,4,1,19
1224490842,1686681519000457,371026222,-763882101,32924,-2846,0.14500001,0.07378868,0.476,0.684,0.62,1.03,109,15,2.6200001,1.4380001,2.19,0.057000004,0.9750702,0,4,1,19
1224687473,1686681519200457,371026244,-763882049,32894,-2876,0.149,0.07417579,0.476,0.684,0.62,1.03,109,11,2.627,1.3570001,2.249,0.081,1.0016608,0,4,1,19
1224882534,1686681519400457,371026266,-763881997,32864,-2906,0.157,0.0737056,0.47700003,0.684,0.62,1.03,109,11,2.674,1.279,2.348,0.028,1.037631,0,4,1,19
1225074810,1686681519600457,371026286,-763881942,32841,-2929,0.157,0.072920725,0.47800002,0.684,0.62,1.03,109,11,2.7,1.3030001,2.365,0.063,1.0528603,0,4,1,19
1225279712,1686681519800457,371026308,-763881888,32812,-2958,0.157,0.073246054,0.47800002,0.684,0.62,1.03,109,11,2.684,1.3060001,2.345,0.028,1.0578697,0,4,1,19
1225484253,1686681520000457,371026330,-763881836,32798,-2972,0.15300001,0.076933935,0.47900003,0.684,0.62,1.03,109,11,2.6890001,1.3920001,2.301,0.025,1.0428398,0,4,1,19
1225692420,1686681520200457,371026355,-763881783,32783,-2987,0.149,0.072914444,0.47900003,0.683,0.62,1.03,109,12,2.696,1.48,2.2540002,-0.065000005,1.0145652,0,4,1,19
1225879716,1686681520400457,371026381,-763881733,32749,-3021,0.155,0.077448286,0.48000002,0.683,0.62,1.03,109,12,2.6620002,1.5660001,2.1520002,0.031000001,0.97982323,0,4,1,19
1226077033,1686681520600457,371026409,-763881684,32711,-3059,0.157,0.07688716,0.48100004,0.683,0.62,1.03,109,12,2.654,1.654,2.0760002,0.033,0.938216,0,4,1,19
1226279975,1686681520800457,371026439,-763881638,32675,-3095,0.16000001,0.08109236,0.48200002,0.683,0.62,1.03,109,12,2.634,1.7310001,1.9850001,0.124000005,0.8977336,0,4,1,19
1226476606,1686681521000457,371026470,-763881590,32627,-3143,0.155,0.07318497,0.48200002,0.68100005,0.62,1.03,109,12,2.7310002,1.8230001,2.0340002,-0.0050000004,0.8655731,0,4,1,19
1226688324,1686681521200457,371026504,-763881544,32573,-3197,0.158,0.07391556,0.483,0.68100005,0.62,1.03,109,11,2.6980002,1.871,1.9440001,-0.015000001,0.83486456,0,4,1,19
1226876570,1686681521400457,371026536,-763881498,32521,-3249,0.162,0.073371895,0.483,0.68,0.62,1.03,109,11,2.7480001,1.8280001,2.052,0.065000005,0.83906627,0,4,1,19
1227076508,1686681521600457,371026567,-763881450,32464,-3306,0.16100001,0.07289088,0.483,0.68,0.62,1.03,109,11,2.7900002,1.7990001,2.1330001,0.22500001,0.8548788,0,4,1,19
1227276490,1686681521800457,371026597,-763881402,32428,-3342,0.15900001,0.073583424,0.48400003,0.68,0.62,1.03,109,11,2.7680001,1.7730001,2.1260002,0.067,0.8652766,0,4,1,19
1227487774,1686681522000457,371026627,-763881354,32380,-3390,0.15300001,0.073821485,0.48400003,0.679,0.62,1.03,109,11,2.7610002,1.7540001,2.1330001,0.163,0.8740617,0,4,1,19
1227668475,1686681522200457,371026658,-763881306,32327,-3443,0.147,0.07378082,0.483,0.67800003,0.62,1.03,109,13,2.7570002,1.7700001,2.114,0.089,0.8738957,0,4,1,19
1227877133,1686681522400457,371026690,-763881257,32289,-3481,0.14600001,0.07194491,0.483,0.67700005,0.62,1.03,109,13,2.8230002,1.8140001,2.163,-0.056,0.8733496,0,4,1,19
1228060564,1686681522600457,371026725,-763881208,32291,-3479,0.147,0.07235943,0.483,0.67600006,0.62,1.03,109,13,2.7930002,1.8900001,2.056,-0.147,0.85021806,0,4,1,19
1228279528,1686681522800457,371026760,-763881161,32302,-3468,0.155,0.07454999,0.48400003,0.67600006,0.62,1.03,109,13,2.7840002,1.9100001,2.025,-0.165,0.83276236,0,4,1,19
1228479592,1686681523000457,371026792,-763881114,32265,-3505,0.15200001,0.07752141,0.48400003,0.67600006,0.62,1.03,109,13,2.6260002,1.6840001,2.015,-0.231,0.85325,0,4,1,19
1228687809,1686681523200457,371026822,-763881069,32264,-3506,0.158,0.07419394,0.48400003,0.67600006,0.62,1.03,109,12,2.5730002,1.6760001,1.9520001,-0.097,0.85745734,0,4,1,19
1228879610,1686681523400457,371026850,-763881024,32250,-3520,0.15100001,0.07701021,0.48400003,0.67700005,0.62,1.03,109,12,2.49,1.5790001,1.9250001,-0.089,0.87024033,0,4,1,19
1229084107,1686681523600457,371026876,-763880981,32219,-3551,0.158,0.0803183,0.483,0.67700005,0.62,1.03,109,12,2.387,1.5120001,1.8470001,-0.09,0.8773656,0,4,1,19
1229284100,1686681523800457,371026900,-763880939,32210,-3560,0.148,0.080045156,0.483,0.67700005,0.62,1.03,109,12,2.417,1.463,1.9240001,-0.041,0.8993025,0,4,1,19
1229484546,1686681524000457,371026925,-763880895,32213,-3557,0.143,0.0768622,0.48100004,0.67600006,0.62,1.03,109,12,2.516,1.5270001,2.0,0.014,0.90955925,0,4,1,19
1229686796,1686681524200456,371026951,-763880850,32216,-3554,0.15,0.075267665,0.48000002,0.67600006,0.62,1.03,109,12,2.546,1.6220001,1.9620001,0.009000001,0.89420104,0,4,1,19
1229881896,1686681524400456,371026980,-763880807,32192,-3578,0.14600001,0.0759843,0.47900003,0.675,0.62,1.03,109,12,2.5110002,1.6330001,1.9080001,-0.215,0.8785156,0,4,1,19
1230077682,1686681524600456,371027010,-763880764,32213,-3557,0.148,0.08182435,0.47900003,0.675,0.62,1.03,109,12,2.575,1.677,1.9540001,-0.14600001,0.8706002,0,4,1,19
1230281548,1686681524800456,371027040,-763880720,32225,-3545,0.163,0.08144997,0.48000002,0.675,0.62,1.03,109,12,2.5860002,1.6910001,1.9560001,-0.119,0.86413115,0,4,1,19
1230478476,1686681525000456,371027069,-763880675,32231,-3539,0.164,0.07331848,0.48000002,0.674,0.62,1.03,109,12,2.6230001,1.6700001,2.023,-0.014,0.87349814,0,4,1,19
1230686871,1686681525200456,371027099,-763880628,32217,-3553,0.165,0.07383423,0.48100004,0.67300004,0.62,1.03,109,11,2.6360002,1.6010001,2.094,-0.123,0.8958633,0,4,1,19
1230882480,1686681525400456,371027126,-763880580,32193,-3577,0.16100001,0.07138396,0.48100004,0.67300004,0.62,1.03,109,11,2.6660001,1.506,2.2,-0.096,0.93491346,0,4,1,19
1231081891,1686681525600456,371027151,-763880532,32169,-3601,0.148,0.07317502,0.48000002,0.67300004,0.62,1.03,109,11,2.6130002,1.406,2.2020001,-0.127,0.96826583,0,4,1,19
1231278487,1686681525800456,371027174,-763880483,32165,-3605,0.14500001,0.07602968,0.47900003,0.67300004,0.62,1.03,109,11,2.5730002,1.378,2.173,0.020000001,0.98647034,0,4,1,19
1233878489,1686681528400456,371027496,-763879779,31468,-4302,0.148,0.07250045,0.47500002,0.67,0.62,1.03,109,11,2.8500001,1.682,2.301,0.07,0.9674365,0,4,1,19
1234079486,1686681528600456,371027526,-763879728,31440,-4330,0.148,0.074379474,0.476,0.67,0.62,1.03,109,11,2.7710001,1.659,2.22,-0.032,0.9483585,0,4,1,19
1234280523,1686681528800456,371027556,-763879678,31423,-4347,0.15100001,0.07372637,0.476,0.67,0.62,1.03,109,11,2.778,1.7220001,2.18,0.066,0.92474765,0,4,1,19
1234480478,1686681529000456,371027586,-763879628,31394,-4376,0.149,0.07342914,0.476,0.67,0.62,1.03,109,11,2.798,1.7160001,2.2110002,0.004,0.91765827,0,4,1,19
1234687556,1686681529200456,371027616,-763879578,31390,-4380,0.149,0.07366755,0.476,0.67,0.62,1.03,109,15,2.7930002,1.6990001,2.217,0.009000001,0.91726124,0,4,1,19
1234876572,1686681529400456,371027646,-763879528,31375,-4395,0.14600001,0.070673965,0.476,0.669,0.62,1.03,109,15,2.8360002,1.702,2.269,-0.086,0.9225422,0,4,1,19
1235080488,1686681529600456,371027678,-763879477,31341,-4429,0.143,0.0678392,0.476,0.669,0.62,1.03,109,15,2.9310002,1.838,2.283,0.14600001,0.9068919,0,4,1,19
1235276493,1686681529800456,371027711,-763879425,31311,-4459,0.14,0.067135654,0.476,0.669,0.62,1.03,109,15,2.9750001,1.8220001,2.351,0.024,0.90921754,0,4,1,19
1235480486,1686681530000456,371027744,-763879372,31324,-4446,0.141,0.06773692,0.476,0.67,0.62,1.03,109,15,2.9710002,1.8620001,2.315,-0.032,0.9012855,0,4,1,19
1235688488,1686681530200456,371027780,-763879320,31325,-4445,0.149,0.06613122,0.476,0.671,0.62,1.03,109,11,3.0110002,2.01,2.242,-0.133,0.8692727,0,4,1,19
1235880480,1686681530400456,371027816,-763879270,31357,-4413,0.143,0.06663894,0.476,0.671,0.62,1.03,109,11,2.9940002,1.9690001,2.255,-0.18400002,0.86108834,0,4,1,19
1236075506,1686681530600456,371027852,-763879221,31347,-4423,0.141,0.06764145,0.476,0.67,0.62,1.03,109,11,2.92,2.0040002,2.1230001,-0.177,0.83759797,0,4,1,19
1236276517,1686681530800456,371027887,-763879175,31352,-4418,0.149,0.071981736,0.476,0.67,0.62,1.03,109,11,2.8040001,1.8780001,2.0830002,-0.15200001,0.8372864,0,4,1,19
1236480556,1686681531000456,371027922,-763879129,31341,-4429,0.14,0.0609921,0.47400004,0.669,0.62,1.03,109,11,2.831,1.963,2.039,-0.120000005,0.81793505,0,4,1,19
1236691976,1686681531200456,371027957,-763879083,31360,-4410,0.141,0.06351689,0.47200003,0.66800004,0.62,1.03,109,11,2.7250001,1.8730001,1.9800001,-0.13100001,0.8155485,0,4,1,19
1236880545,1686681531400455,371027989,-763879038,31382,-4388,0.13800001,0.06789138,0.47000003,0.66700006,0.62,1.03,109,11,2.605,1.6370001,2.026,-0.025,0.8516133,0,4,1,19
1237083580,1686681531600455,371028019,-763878992,31369,-4401,0.13700001,0.06756588,0.469,0.666,0.62,1.03,109,11,2.6320002,1.616,2.0770001,-0.135,0.88116133,0,4,1,19
1237279540,1686681531800455,371028047,-763878945,31385,-4385,0.136,0.068556875,0.467,0.665,0.62,1.03,109,11,2.608,1.562,2.088,-0.062000003,0.90496695,0,4,1,19
1237476611,1686681532000455,371028074,-763878899,31395,-4375,0.142,0.084526815,0.46800002,0.666,0.62,1.03,109,11,2.532,1.4860001,2.0500002,-0.086,0.9205986,0,4,1,19
1237688501,1686681532200455,371028100,-763878853,31419,-4351,0.136,0.08822901,0.46800002,0.66700006,0.62,1.03,109,12,2.47,1.3920001,2.0400002,-0.096,0.94546837,0,4,1,19
1237876489,1686681532400455,371028124,-763878808,31432,-4339,0.136,0.08778866,0.469,0.66700006,0.62,1.03,109,12,2.4910002,1.353,2.091,-0.117000006,0.9713797,0,4,1,19
1238080510,1686681532600455,371028147,-763878762,31469,-4302,0.13900001,0.086047694,0.47000003,0.66700006,0.62,1.03,109,12,2.444,1.4180001,1.991,-0.05,0.9613659,0,4,1,19
1238280488,1686681532800455,371028170,-763878718,31456,-4315,0.15200001,0.091689296,0.47100002,0.669,0.62,1.03,109,12,2.394,1.269,2.0300002,-0.1,0.9853116,0,4,1,19
1238481564,1686681533000455,371028194,-763878673,31477,-4293,0.14500001,0.082705915,0.47100002,0.66800004,0.62,1.03,109,12,2.4620001,1.4590001,1.9840001,-0.19900002,0.95825166,0,4,1,19
1238668617,1686681533200455,371028218,-763878628,31500,-4270,0.136,0.088265486,0.47100002,0.666,0.62,1.03,109,11,2.3370001,1.263,1.9670001,-0.209,0.977906,0,4,1,19
1238876898,1686681533400455,371028240,-763878583,31494,-4276,0.13700001,0.0795446,0.47000003,0.66300005,0.62,1.03,109,11,2.318,1.284,1.9300001,0.004,0.9810671,0,4,1,19
1239084252,1686681533600455,371028263,-763878539,31487,-4284,0.13800001,0.08203989,0.469,0.661,0.62,1.03,109,11,2.38,1.3610001,1.9520001,-0.021000002,0.9716523,0,4,1,19
1239281130,1686681533800455,371028286,-763878494,31490,-4280,0.13800001,0.079348944,0.46800002,0.65900004,0.62,1.03,109,11,2.4150002,1.4020001,1.9660001,-0.048,0.9611173,0,4,1,19
1239509101,1686681534000455,371028310,-763878449,31484,-4286,0.135,0.080213934,0.467,0.657,0.62,1.03,109,11,2.4180002,1.302,2.0370002,0.032,0.9815567,0,4,1,19
1239668473,1686681534200455,371028333,-763878404,31485,-4285,0.13900001,0.08859099,0.467,0.656,0.62,1.03,109,29,2.3850002,1.3900001,1.9390001,0.064,0.96671426,0,4,1,19
1239881438,1686681534400455,371028358,-763878360,31468,-4302,0.13800001,0.08705178,0.46800002,0.65500003,0.62,1.03,109,29,2.4310002,1.4030001,1.9850001,-0.060000002,0.960925,0,4,1,19
1240077561,1686681534600455,371028383,-763878316,31494,-4277,0.136,0.08499928,0.46800002,0.65400004,0.62,1.03,109,29,2.3930001,1.401,1.9390001,-0.057000004,0.95280224,0,4,1,19
1240273602,1686681534800455,371028408,-763878273,31490,-4280,0.13900001,0.08103179,0.46800002,0.65300006,0.62,1.03,109,29,2.4320002,1.463,1.9430001,0.068,0.9382223,0,4,1,19
1240477553,1686681535000455,371028434,-763878229,31487,-4283,0.13800001,0.0843535,0.46800002,0.651,0.62,1.03,109,29,2.3470001,1.3720001,1.904,0.076000005,0.9422027,0,4,1,19
1240668479,1686681535200455,371028458,-763878187,31489,-4281,0.15100001,0.084126785,0.46800002,0.65000004,0.62,1.03,109,15,2.414,1.4460001,1.9330001,0.053000003,0.93529344,0,4,1,19
1240881185,1686681535400455,371028483,-763878144,31489,-4281,0.15200001,0.08297993,0.469,0.65000004,0.62,1.03,109,15,2.4450002,1.4740001,1.95,0.075,0.9292258,0,4,1,19
1241076531,1686681535600455,371028506,-763878101,31483,-4287,0.149,0.08758585,0.469,0.64900005,0.62,1.03,109,15,2.384,1.3440001,1.9690001,0.025,0.949568,0,4,1,19
1241281288,1686681535800455,371028530,-763878058,31461,-4310,0.15100001,0.08385783,0.47000003,0.64900005,0.62,1.03,109,15,2.4740002,1.4510001,2.003,0.108,0.946663,0,4,1,19
1241477896,1686681536000455,371028554,-763878014,31438,-4332,0.148,0.087957956,0.47100002,0.648,0.62,1.03,109,15,2.3790002,1.322,1.978,0.067,0.9634439,0,4,1,19
1241668773,1686681536200455,371028576,-763877970,31468,-4302,0.14,0.087826185,0.47100002,0.648,0.62,1.03,109,12,2.3920002,1.2830001,2.0180001,0.019000001,0.98410594,0,4,1,19
1241877604,1686681536400455,371028596,-763877925,31480,-4290,0.13800001,0.08393986,0.47100002,0.648,0.62,1.03,109,12,2.365,1.2110001,2.0310001,-0.003,1.0100309,0,4,1,19
1242077644,1686681536600455,371028617,-763877880,31486,-4284,0.141,0.080358796,0.47100002,0.648,0.62,1.03,109,12,2.492,1.3560001,2.091,0.044000003,1.0024555,0,4,1,19
1242280889,1686681536800455,371028640,-763877834,31484,-4286,0.141,0.08591767,0.47100002,0.648,0.62,1.03,109,12,2.437,1.325,2.045,0.07700001,0.9993132,0,4,1,19
1242481138,1686681537000455,371028663,-763877788,31463,-4307,0.14,0.08498793,0.47200003,0.648,0.62,1.03,109,12,2.4710002,1.3080001,2.0970001,0.05,1.0063727,0,4,1,19
1242668396,1686681537200455,371028687,-763877741,31476,-4294,0.14400001,0.08054781,0.47200003,0.64900005,0.62,1.03,109,10,2.578,1.4860001,2.108,0.113000005,0.9800217,0,4,1,19
1242882809,1686681537400455,371028713,-763877694,31486,-4285,0.13800001,0.07979662,0.47200003,0.648,0.62,1.03,109,10,2.549,1.491,2.0670002,0.025,0.96260035,0,4,1,19
1243079492,1686681537600455,371028739,-763877646,31512,-4258,0.136,0.08105536,0.47300002,0.648,0.62,1.03,109,10,2.528,1.4080001,2.0990002,0.011000001,0.9711764,0,4,1,19
1243279541,1686681537800455,371028766,-763877598,31536,-4234,0.13900001,0.0812737,0.47400004,0.648,0.62,1.03,109,10,2.5870001,1.536,2.081,-0.029000001,0.9528769,0,4,1,19
1243479493,1686681538000455,371028795,-763877551,31570,-4200,0.141,0.07623877,0.47500002,0.648,0.62,1.03,109,10,2.65,1.664,2.0630002,0.075,0.9201721,0,4,1,19
1243687476,1686681538200455,371028826,-763877504,31625,-4146,0.13900001,0.08002771,0.476,0.648,0.62,1.03,109,11,2.578,1.6090001,2.0140002,-0.045,0.90890247,0,4,1,19
1243879519,1686681538400455,371028856,-763877456,31641,-4129,0.13800001,0.07627996,0.47700003,0.648,0.62,1.03,109,11,2.719,1.6450001,2.1660001,-0.018000001,0.91543734,0,4,1,19
1244083191,1686681538600454,371028885,-763877408,31689,-4081,0.135,0.08107682,0.47800002,0.648,0.62,1.03,109,11,2.572,1.498,2.091,-0.156,0.931475,0,4,1,19
1244282875,1686681538800454,371028914,-763877361,31723,-4047,0.14,0.08067557,0.47800002,0.64900005,0.62,1.03,109,11,2.5630002,1.5870001,2.013,0.039,0.9170347,0,4,1,19
1244479524,1686681539000454,371028942,-763877315,31754,-4016,0.141,0.07460078,0.47800002,0.648,0.62,1.03,109,11,2.5760002,1.6250001,1.9990001,-0.08400001,0.90134907,0,4,1,19
1244687477,1686681539200454,371028970,-763877270,31766,-4004,0.14,0.07386582,0.47800002,0.648,0.62,1.03,109,11,2.5370002,1.6100001,1.9610001,-0.018000001,0.8922358,0,4,1,19
1244878487,1686681539400454,371028998,-763877226,31811,-3959,0.141,0.07594293,0.47700003,0.647,0.62,1.03,109,11,2.4610002,1.59,1.8780001,-0.019000001,0.88048,0,4,1,19
1245079483,1686681539600454,371029026,-763877184,31839,-3932,0.15200001,0.081767276,0.47800002,0.648,0.62,1.03,109,11,2.476,1.6470001,1.848,-0.020000001,0.86285776,0,4,1,19
1245278506,1686681539800454,371029055,-763877144,31874,-3896,0.148,0.08166046,0.47900003,0.64900005,0.62,1.03,109,11,2.4190001,1.5940001,1.8190001,-0.20300001,0.8571032,0,4,1,19
1245495478,1686681540000454,371029083,-763877103,31903,-3867,0.149,0.08046753,0.48000002,0.65000004,0.62,1.03,109,11,2.457,1.6070001,1.8590001,0.055000003,0.85748386,0,4,1,19
1245687506,1686681540200454,371029112,-763877062,31906,-3864,0.148,0.07986487,0.48100004,0.651,0.58,0.95,109,12,2.4380002,1.5960001,1.843,0.008,0.857343,0,4,1,20
1245879511,1686681540400454,371029140,-763877022,31927,-3843,0.14400001,0.08200237,0.48200002,0.652,0.58,0.95,109,12,2.367,1.57,1.771,-0.012,0.8515194,0,4,1,20
1246082904,1686681540600454,371029168,-763876981,31961,-3809,0.143,0.08146219,0.483,0.65300006,0.58,0.95,109,12,2.397,1.544,1.8330001,0.060000002,0.8612538,0,4,1,20
1246282989,1686681540800454,371029194,-763876940,31984,-3786,0.13800001,0.08433151,0.48400003,0.65500003,0.58,0.95,109,12,2.334,1.416,1.8550001,-0.079,0.8893143,0,4,1,20
1246479506,1686681541000454,371029219,-763876898,31992,-3778,0.13900001,0.08410357,0.485,0.656,0.58,0.95,109,12,2.3390002,1.4230001,1.8560001,0.0050000004,0.9030492,0,4,1,20
1246687516,1686681541200454,371029244,-763876857,32027,-3743,0.14,0.08504465,0.48600003,0.65800005,0.58,0.95,109,11,2.3820002,1.45,1.8900001,0.013,0.9096994,0,4,1,20
1246882495,1686681541400454,371029270,-763876814,32052,-3718,0.149,0.08260032,0.48700002,0.66,0.58,0.95,109,11,2.4550002,1.4710001,1.9660001,-0.112,0.9194094,0,4,1,20
1247079493,1686681541600454,371029295,-763876770,32070,-3700,0.149,0.07644769,0.48700002,0.66,0.58,0.95,109,11,2.4420002,1.4530001,1.963,-0.18400002,0.9271094,0,4,1,20
1247260348,1686681541800454,371029321,-763876726,32111,-3659,0.14,0.0764606,0.48700002,0.65900004,0.58,0.95,109,11,2.433,1.4820001,1.9300001,-0.127,0.9214476,0,4,1,20
1247484027,1686681542000454,371029346,-763876681,32163,-3607,0.13900001,0.076257445,0.48600003,0.65800005,0.58,0.95,109,11,2.447,1.462,1.9620001,-0.008,0.9260072,0,4,1,20
1247687544,1686681542200454,371029371,-763876636,32171,-3599,0.143,0.07663845,0.48600003,0.657,0.58,0.95,109,12,2.444,1.4280001,1.983,0.017,0.9363923,0,4,1,20
1247884519,1686681542400454,371029397,-763876591,32158,-3612,0.158,0.07213236,0.48600003,0.65800005,0.58,0.95,109,12,2.572,1.585,2.025,-0.040000003,0.92041314,0,4,1,20
1248084488,1686681542600454,371029424,-763876545,32141,-3629,0.15100001,0.074886136,0.48600003,0.65800005,0.58,0.95,109,12,2.5080001,1.432,2.0600002,-0.003,0.9413703,0,4,1,20
1248284981,1686681542800454,371029449,-763876499,32151,-3619,0.14500001,0.07548548,0.485,0.657,0.58,0.95,109,12,2.492,1.404,2.059,-0.133,0.95694196,0,4,1,20
1248484489,1686681543000454,371029474,-763876452,32153,-3618,0.147,0.072633795,0.48400003,0.656,0.58,0.95,109,12,2.578,1.498,2.098,-0.007,0.95371485,0,4,1,20
1248668540,1686681543200454,371029501,-763876405,32125,-3645,0.15,0.07395047,0.483,0.65500003,0.58,0.95,109,11,2.5830002,1.529,2.082,-0.004,0.9455811,0,4,1,20
1248884060,1686681543400454,371029527,-763876357,32114,-3656,0.149,0.0745266,0.483,0.65500003,0.58,0.95,109,11,2.5570002,1.521,2.056,-0.089,0.939698,0,4,1,20
1249080522,1686681543600454,371029556,-763876310,32113,-3657,0.14,0.08203972,0.483,0.65400004,0.58,0.95,109,11,2.5410001,1.5400001,2.0210001,-0.104,0.93054664,0,4,1,20
1249284490,1686681543800454,371029585,-763876263,32127,-3643,0.143,0.078533,0.48400003,0.65400004,0.58,0.95,109,11,2.6320002,1.6680001,2.036,-0.104,0.90631765,0,4,1,20
1249484557,1686681544000454,371029614,-763876217,32148,-3622,0.14,0.08095622,0.485,0.65300006,0.58,0.95,109,11,2.5670002,1.5810001,2.022,-0.22700001,0.90664667,0,4,1,20
1249668330,1686681544200454,371029643,-763876170,32148,-3623,0.14400001,0.07178661,0.48400003,0.652,0.58,0.95,109,12,2.6460001,1.6010001,2.107,-0.17600001,0.91487586,0,4,1,20
1249876793,1686681544400454,371029671,-763876124,32128,-3642,0.148,0.06792245,0.483,0.652,0.58,0.95,109,12,2.575,1.5960001,2.0210001,-0.059000004,0.9082087,0,4,1,20
1250080516,1686681544600454,371029701,-763876078,32136,-3634,0.15,0.066273466,0.483,0.652,0.58,0.95,109,12,2.631,1.6660001,2.035,-0.067,0.8960159,0,4,1,20
1250280858,1686681544800454,371029729,-763876033,32109,-3661,0.148,0.07153371,0.48200002,0.651,0.58,0.95,109,12,2.473,1.4440001,2.0080001,0.020000001,0.9200806,0,4,1,20
1250484052,1686681545000454,371029756,-763875988,32092,-3678,0.15,0.06873752,0.48100004,0.65300006,0.58,0.95,109,12,2.5660002,1.5320001,2.059,-0.028,0.9259252,0,4,1,20
1250687706,1686681545200454,371029784,-763875941,32072,-3698,0.14600001,0.073271886,0.48000002,0.65300006,0.58,0.95,109,14,2.5960002,1.5710001,2.0670002,-0.096,0.9234376,0,4,1,20
1250884555,1686681545400454,371029812,-763875892,32055,-3715,0.16000001,0.06995052,0.48100004,0.65300006,0.58,0.95,109,14,2.7410002,1.5860001,2.2350001,0.245,0.93940663,0,4,1,20
1251084270,1686681545600454,371029843,-763875836,32078,-3692,0.16000001,0.059691302,0.48100004,0.65300006,0.58,0.95,109,14,3.2450001,1.8850001,2.641,-0.268,0.94615495,0,4,1,20
1251279906,1686681545800454,371029881,-763875768,32178,-3592,0.165,0.049021583,0.48100004,0.65400004,0.59,0.95,109,14,4.0010004,2.164,3.3660002,-1.052,0.978697,0,4,1,19
1251481534,1686681546000453,371029923,-763875683,32364,-3406,0.185,0.03980101,0.48100004,0.65500003,0.59,0.95,109,14,4.6670003,2.3990002,4.0030003,-1.046,1.0114851,0,4,1,19
1251674644,1686681546200453,371029969,-763875585,32564,-3206,0.18900001,0.035943657,0.48200002,0.65800005,0.59,0.95,109,12,5.372,2.72,4.6330004,-1.1860001,1.0283352,0,4,1,19
1251877408,1686681546400453,371030021,-763875475,32766,-3005,0.163,0.03312268,0.483,0.65900004,0.59,0.95,109,12,5.861,2.907,5.089,-1.0120001,1.0423481,0,4,1,19
1252077180,1686681546600453,371030073,-763875358,32946,-2824,0.15100001,0.03205297,0.483,0.66,0.59,0.95,109,12,6.0220003,2.8500001,5.3050003,-1.1470001,1.0630255,0,4,1,19
1252278625,1686681546800453,371030123,-763875239,33190,-2580,0.15,0.030905416,0.483,0.66,0.59,0.95,109,12,6.018,2.7340002,5.361,-1.2720001,1.0843004,0,4,1,19
1252462816,1686681547000453,371030172,-763875118,33448,-2322,0.142,0.030423356,0.48100004,0.66,0.59,0.95,109,12,6.0660005,2.663,5.4500003,-1.2650001,1.1029365,0,4,1,19
1252689697,1686681547200453,371030220,-763874995,33715,-2055,0.13900001,0.030607488,0.48000002,0.66,0.58,0.95,109,11,6.083,2.5800002,5.5090003,-1.302,1.1201379,0,4,1,20
1252878850,1686681547400453,371030267,-763874870,33964,-1807,0.14400001,0.030172378,0.47900003,0.66,0.58,0.95,109,11,6.1920004,2.5860002,5.6260004,-1.1810001,1.1317236,0,4,1,20
1253086484,1686681547600453,371030313,-763874741,34187,-1583,0.14400001,0.029422933,0.47800002,0.661,0.58,0.95,109,11,6.4020004,2.433,5.9220004,-1.2320001,1.1609774,0,4,1,20
1253278489,1686681547800453,371030358,-763874605,34421,-1350,0.14600001,0.029247876,0.47700003,0.661,0.58,0.95,109,11,6.617,2.526,6.116,-1.1880001,1.1717074,0,4,1,20
1253486476,1686681548000453,371030404,-763874465,34678,-1092,0.14600001,0.028343447,0.47700003,0.66200006,0.58,0.95,109,11,6.807,2.5470002,6.3120003,-1.243,1.1811471,0,4,1,20
1253670655,1686681548200453,371030449,-763874322,34931,-839,0.14600001,0.027903276,0.47700003,0.66200006,0.58,0.95,109,11,6.938,2.456,6.4890003,-1.3440001,1.1979332,0,4,1,20
1253885932,1686681548400453,371030493,-763874175,35172,-598,0.14500001,0.027806584,0.476,0.66300005,0.58,0.95,109,11,6.9740005,2.2930002,6.5860004,-1.281,1.2206693,0,4,1,20
1254078505,1686681548600453,371030536,-763874028,35400,-370,0.14400001,0.027640253,0.476,0.66400003,0.58,0.95,109,11,7.0130005,2.3600001,6.604,-1.2140001,1.2248604,0,4,1,20
1254278507,1686681548800453,371030580,-763873879,35653,-117,0.143,0.026992388,0.47500002,0.66400003,0.58,0.95,109,11,7.116,2.469,6.6740003,-1.212,1.2196915,0,4,1,20
1254493884,1686681549000453,371030626,-763873730,35903,133,0.142,0.026963765,0.47500002,0.66400003,0.58,0.95,109,11,7.0810003,2.513,6.6200004,-1.3240001,1.2125701,0,4,1,20
1254674520,1686681549200453,371030672,-763873582,36155,385,0.142,0.026917338,0.47400004,0.665,0.58,0.95,109,20,7.1380005,2.46,6.701,-1.3920001,1.2164513,0,4,1,20
1254877671,1686681549400453,371030720,-763873434,36413,643,0.142,0.02715453,0.47400004,0.665,0.58,0.95,109,20,7.0490003,2.6890001,6.5160003,-1.327,1.1941352,0,4,1,20
1255078488,1686681549600453,371030770,-763873289,36680,909,0.142,0.027056092,0.47400004,0.665,0.58,0.95,109,20,7.0530005,2.7400002,6.5000005,-1.411,1.1806295,0,4,1,20
1255281573,1686681549800453,371030820,-763873145,36940,1170,0.142,0.027346864,0.47300002,0.666,0.58,0.95,109,20,6.9870005,2.6680002,6.458,-1.3970001,1.179666,0,4,1,20
1255477593,1686681550000453,371030868,-763873001,37194,1423,0.142,0.027523667,0.47300002,0.666,0.58,0.95,109,20,6.9490004,2.588,6.4500003,-1.3570001,1.1854144,0,4,1,20
1255677913,1686681550200453,371030917,-763872858,37440,1670,0.141,0.027459437,0.47200003,0.666,0.58,0.95,109,14,6.965,2.7600002,6.3950005,-1.2260001,1.1721358,0,4,1,20
1255878866,1686681550400453,371030968,-763872715,37672,1902,0.14,0.026811048,0.47200003,0.666,0.58,0.95,109,14,6.9750004,2.7180002,6.4230003,-1.279,1.171084,0,4,1,20
1256080476,1686681550600453,371031019,-763872571,37911,2140,0.135,0.026626218,0.47100002,0.666,0.58,0.95,109,14,7.0220003,2.68,6.4900002,-1.307,1.1760768,0,4,1,20
1256280498,1686681550800453,371031067,-763872427,38161,2390,0.135,0.02706866,0.47000003,0.666,0.58,0.95,109,14,6.9700003,2.6120002,6.4620004,-1.2750001,1.1824617,0,4,1,20
1256479497,1686681551000453,371031116,-763872283,38428,2657,0.13900001,0.027022757,0.469,0.66700006,0.58,0.95,109,14,6.9810004,2.6230001,6.4690003,-1.4610001,1.1843177,0,4,1,20
1256688545,1686681551200453,371031164,-763872137,38692,2922,0.13800001,0.026718022,0.469,0.66700006,0.58,0.95,109,15,7.0670004,2.5600002,6.5870004,-1.3970001,1.1940172,0,4,1,20
1256880483,1686681551400453,371031210,-763871990,38949,3178,0.136,0.026951896,0.46800002,0.66700006,0.58,0.95,109,15,7.0010004,2.3930001,6.5800004,-1.475,1.2108638,0,4,1,20
1257080542,1686681551600453,371031254,-763871842,39206,3436,0.135,0.026648208,0.467,0.66700006,0.58,0.95,109,15,7.084,2.344,6.6850004,-1.3290001,1.2247535,0,4,1,20
1257280491,1686681551800453,371031296,-763871693,39446,3675,0.135,0.027110895,0.467,0.666,0.58,0.95,109,15,6.9670005,2.17,6.6200004,-1.2490001,1.2423321,0,4,1,20
1257491686,1686681552000453,371031336,-763871545,39695,3924,0.135,0.027105136,0.46600002,0.666,0.58,0.95,109,15,6.9660006,2.1920002,6.6120005,-1.2490001,1.2474049,0,4,1,20
