timestamp,rollspeed,pitchspeed,yawspeed,rollspeed_integ,pitchspeed_integ,yawspeed_integ,additional_integ1
1184732016,-0.0006928891,0.00013381802,0.0011239212,-0.00075043703,0.00021887841,3.1280837e-05,0.0
1184860837,-1.4025718e-06,-0.0005317982,-0.00034485932,-0.0009868988,0.0002907082,3.815922e-05,0.0
1184893637,0.00016382523,0.0006243065,0.0005695199,-0.0013003581,0.00038710533,3.783086e-05,0.0
1184925682,-0.00047505088,-0.00014547817,-0.00051217026,-0.0016088262,0.00048173754,4.084854e-05,0.0
1184953628,-0.0010818876,-0.0001580324,-0.0012378506,-0.0018779486,0.0005651229,5.0140596e-05,0.0
1184985663,0.0001956299,-0.00036154315,-0.0015989788,-0.002188735,0.00065969664,6.054628e-05,0.0
1185017682,-0.0003483165,-0.00041932426,0.00049581286,-0.0024997494,0.0007535464,6.8755035e-05,0.0
1185049625,-0.0040713903,-0.0033228584,0.0013025139,-0.0028121995,0.0008486958,7.072508e-05,0.0
1185081636,0.0023448542,0.00085144676,-0.00069091644,-0.0031201236,0.00093958434,8.2939194e-05,0.0
1185113691,-0.0061176717,-0.0013390165,-0.00063499185,-0.0034455615,0.0010338272,6.5044136e-05,0.0
1185145696,-0.0022065695,-0.004753981,0.012465137,-0.0037778043,0.0011382033,8.40058e-05,0.0
1185177673,-0.033581376,-0.0014625844,-0.0074405614,-0.004005212,0.0012125601,-1.1451804e-06,0.0
1185209633,-0.022748297,0.017212037,0.022273973,-0.0043233433,0.0012866115,3.2099433e-05,0.0
1185241696,-0.056235194,0.03540045,-0.03088436,-0.00457331,0.0013271335,-6.794871e-05,0.0
1185273676,-0.015495297,-0.0013762228,0.00945981,-0.004816866,0.0014414762,0.00020519305,0.0
1185305682,-0.0006624777,0.01693163,-0.0256501,-0.0051126527,0.0014871367,5.014476e-05,0.0
1185337629,0.010605062,-0.021493554,0.010089255,-0.005410152,0.001539015,0.0002866356,0.0
1185369692,0.03255347,-0.016191328,-0.015197146,-0.005760483,0.0016685752,0.00021616589,0.0
1185401649,0.05555667,-0.038720235,0.038781274,-0.006173173,0.0018642728,0.00018369999,0.0
1185433678,0.028656488,-0.029100543,-0.007422323,-0.00657166,0.001973505,8.3957515e-05,0.0
1185465623,0.01503652,-0.023888629,0.0047495584,-0.0069329706,0.002121207,7.950272e-05,0.0
1185497664,-0.010590306,-0.00033208728,0.0074485913,-0.0072587645,0.0022468874,4.352997e-05,0.0
1185529710,-0.015615653,0.011383656,0.003991848,-0.007586167,0.0023854398,7.7239265e-06,0.0
1185561635,-0.033637527,0.02158671,0.0069565107,-0.007895922,0.002445131,-5.126571e-05,0.0
1185593642,-0.038241938,0.01896338,-0.0011528046,-0.008148718,0.0025246746,-4.733556e-05,0.0
1185623318,-0.029285891,0.026488652,0.0073621524,-0.0083928695,0.0025750361,-9.360706e-05,0.0
1185655275,-0.018066136,0.021542532,-0.0064721834,-0.008653477,0.0026626894,-7.2045186e-05,0.0
1185687235,-0.02026983,0.010185009,-0.0010919826,-0.00896467,0.0027241432,-7.946444e-05,0.0
1185719320,-0.025770213,0.00026455522,-0.00012452976,-0.009260911,0.002803714,-7.970992e-05,0.0
1185747227,-0.10439114,0.0020046905,0.015931139,-0.009438879,0.0028832816,-0.00013427703,0.0
1185779304,-0.27897212,-0.009059453,0.027291233,-0.0094157,0.0029973623,-0.00029081822,0.0
1185811239,-0.48434094,-0.026610518,0.015800202,-0.009041087,0.0031473604,-0.0005038776,0.0
1185843302,-0.7400836,-0.034479335,0.0031902771,-0.008174819,0.0033042606,-0.0005714654,0.0
1185875237,-0.8835776,-0.033300035,-0.004427396,-0.006835298,0.0034577781,-0.0005734472,0.0
1185907317,-0.7981273,0.023681877,0.005214608,-0.0052120485,0.0035732135,-0.00057862676,0.0
1185939232,-0.49080873,0.075707,0.0012097709,-0.003627798,0.0035896157,-0.00061047124,0.0
1185971283,-0.13530536,0.16560657,0.009812763,-0.0023188,0.0034857541,-0.00067411107,0.0
1186003256,0.090837546,0.24717113,0.0019462218,-0.0013111697,0.0032317846,-0.000695207,0.0
1186035392,0.05443283,0.20737763,0.017586851,-0.0004664217,0.002869062,-0.0007724062,0.0
1186067300,-0.046315737,0.20701814,0.031823415,0.0003318562,0.0025121477,-0.00096397154,0.0
1186099243,-0.044203214,0.16102365,0.05495167,0.0010294307,0.002108091,-0.0012989867,0.0
1186131232,0.10441063,0.09755884,0.0651167,0.0015464163,0.0018459235,-0.0017362644,0.0
1186163306,0.24640326,0.0379157,0.06758701,0.0020389678,0.0016663573,-0.0022302272,0.0
1186195221,0.46115717,0.031881593,0.05753525,0.0023895795,0.0015506275,-0.002710056,0.0
1186227250,0.5711371,-0.043185145,0.06407653,0.0025274598,0.0014344184,-0.0032006202,0.0
1186259264,0.5548506,-0.103202574,0.06473646,0.0024243544,0.0014094528,-0.003711144,0.0
1186291284,0.4425466,-0.07081086,0.060640164,0.0022492309,0.0014232948,-0.0042610313,0.0
1186323388,0.355381,-0.005517315,0.060718335,0.0021207328,0.0014025545,-0.004811601,0.0
1186355231,0.42422247,0.010975881,0.054611783,0.0020085047,0.0012786756,-0.005353388,0.0
1186387300,0.49979,0.024510702,0.046518326,0.0018277005,0.001073426,-0.005873396,0.0
1186419258,0.4537118,-0.001618199,0.042219035,0.0015731497,0.00086908403,-0.0063785776,0.0
1186451316,0.33438346,0.0062241443,0.044274274,0.0013132326,0.000682058,-0.0068985173,0.0
1186483291,0.2197956,0.027697816,0.040208388,0.0011700821,0.00047997068,-0.007399715,0.0
1186515289,0.17437567,0.028904108,0.03407011,0.0011507082,0.00024434744,-0.007888023,0.0
1186547239,0.19008407,-0.029853668,0.033513866,0.0011748178,3.3493103e-05,-0.008373914,0.0
1186579313,0.21061221,-0.091249965,0.033807684,0.001139557,-0.00010190738,-0.008840765,0.0
1186611220,0.18808669,-0.10574937,0.028572699,0.0010353433,-0.00018076519,-0.009296487,0.0
1186643298,0.14670105,-0.08710906,0.019950127,0.00090673286,-0.00023544052,-0.009721474,0.0
1186675248,0.13847788,-0.0797166,0.013630053,0.00079476775,-0.00030014603,-0.010098383,0.0
1186707344,0.15713677,-0.100784875,0.013364814,0.0006855804,-0.0003767951,-0.010456984,0.0
1186739228,0.19587387,-0.11594201,0.010093406,0.00052515074,-0.00044780117,-0.0108120125,0.0
1186771232,0.17647468,-0.112769224,0.009129858,0.0003118065,-0.00049036293,-0.011167669,0.0
1186803309,0.089962,-0.07457472,0.009362603,0.00012048916,-0.0005238131,-0.011533224,0.0
1186835270,0.03450737,-0.07318503,0.007571386,3.6971694e-06,-0.0005696882,-0.011891676,0.0
1186867236,0.044772156,-0.075802386,0.007718905,-6.949516e-05,-0.00062129606,-0.012231898,0.0
1186899252,0.050991215,-0.08086476,0.008883157,-0.00012785569,-0.0006525666,-0.012587354,0.0
1186931272,0.027698759,-0.072138734,0.008557617,-0.00020301007,-0.0006675207,-0.012938067,0.0
1186963307,0.007753684,-0.068873614,0.0076227887,-0.0002858583,-0.0006767658,-0.013292535,0.0
1186995267,-0.020215243,-0.071886405,0.005562697,-0.00033456384,-0.00067596085,-0.013642374,0.0
1187027224,-0.04740823,-0.07427435,0.0017968005,-0.00033693115,-0.000665879,-0.013979916,0.0
1187059301,-0.0330092,-0.06863835,0.0010611132,-0.00031840018,-0.0006560721,-0.014301579,0.0
1187091271,-0.029163165,-0.062331803,0.00080178725,-0.00030381198,-0.0006463984,-0.014615123,0.0
1187123312,-0.0625611,-0.05511541,0.0018474456,-0.00027714155,-0.0006200639,-0.014942816,0.0
1187155254,-0.0782468,-0.053726785,0.0056560994,-0.00023147225,-0.0005689077,-0.015275986,0.0
1187187275,-0.06315011,-0.059690073,-0.0020946865,-0.0001588105,-0.00049646856,-0.015593229,0.0
1187219251,-0.07085803,-0.064092204,0.00087193475,-5.8164176e-05,-0.00040175344,-0.015905948,0.0
1187251264,-0.06996626,-0.04557336,-0.0016244801,3.507171e-05,-0.000320964,-0.016219528,0.0
1187283278,-0.05059869,-0.017040685,-0.00521507,0.00011061036,-0.00028740786,-0.016512865,0.0
1187315267,-0.06435864,0.009360721,-0.0014940237,0.00018855218,-0.0002962042,-0.01681624,0.0
1187347273,-0.06324911,0.044668585,0.000644543,0.00026826008,-0.00033548835,-0.017121306,0.0
1187379261,-0.03777565,0.06146878,0.0015684814,0.00034240523,-0.00041017283,-0.017437357,0.0
1187411225,-0.040971078,0.05414439,0.0037626077,0.00041626228,-0.0005162442,-0.017751958,0.0
1187443258,-0.03891761,0.052415125,0.0017510937,0.00047066642,-0.00063664315,-0.018067053,0.0
1187475296,-0.02273517,0.038542945,-0.00078242744,0.00050069,-0.00074582174,-0.01838483,0.0
1187507221,-0.02727144,0.012672532,3.617257e-05,0.0005216341,-0.00084203295,-0.018703533,0.0
1187539233,-0.020413512,0.015530134,-0.0014222967,0.0005341037,-0.00092749123,-0.019016175,0.0
1187571233,-0.007033346,0.021932114,0.0011351544,0.00053640705,-0.0009952656,-0.019345747,0.0
1187603411,-0.023745995,-0.0025157258,0.0015258675,0.0005451126,-0.001047857,-0.01966965,0.0
1187635222,-0.039289933,0.014457308,0.0010933535,0.0005661012,-0.001107264,-0.019981582,0.0
1187667293,-0.044042177,0.029597055,-0.0010151312,0.00059903855,-0.0011822106,-0.020287223,0.0
1187699234,-0.056763925,0.009239484,-0.0015711191,0.00064837537,-0.0012699644,-0.020589018,0.0
1187731316,-0.05271413,0.021019636,-0.0067329826,0.0006934126,-0.0013887533,-0.02085562,0.0
1187763294,-0.039133355,0.04115364,-0.012534968,0.0007247978,-0.0015284683,-0.021106632,0.0
1187795276,-0.047423806,0.01563019,-0.012623637,0.0007643663,-0.0016587059,-0.021347648,0.0
1187827237,-0.047736272,0.021874769,-0.010706857,0.00080948643,-0.0017818059,-0.021575302,0.0
1187859322,-0.03300075,0.04129508,-0.014479419,0.0008555202,-0.0019100065,-0.021791132,0.0
1187891263,-0.0516592,-0.0014085174,-0.012089443,0.0009021269,-0.0020127955,-0.021996971,0.0
1187923328,-0.053926125,-0.026160963,-0.011109396,0.0009413802,-0.002092536,-0.022191016,0.0
1187955250,-0.036656953,-0.0100860465,-0.0144407265,0.000977606,-0.0021645613,-0.022372315,0.0
1187987290,-0.05554848,-0.028852817,-0.017836142,0.0010263558,-0.0022242405,-0.022544231,0.0
1188019271,-0.04453188,-0.018963754,-0.018835068,0.00108146,-0.002284432,-0.022705287,0.0
1188051254,-0.031136174,0.0027910713,-0.019002046,0.0011382197,-0.0023479299,-0.022854418,0.0
1188083261,-0.06171608,0.0030113142,-0.01524576,0.001212325,-0.0024110219,-0.023007449,0.0
1188115256,-0.06514915,0.00640554,-0.010890997,0.0012839099,-0.0024804592,-0.023165168,0.0
1188147281,-0.04950103,0.0011151079,-0.014543383,0.001355748,-0.0025598912,-0.023311395,0.0
1188179221,-0.056576442,0.004100343,-0.011329753,0.0014428002,-0.0026544642,-0.02346784,0.0
1188211256,-0.056111537,0.00719391,-0.01359573,0.0015214775,-0.002754343,-0.023627931,0.0
1188243262,-0.030717896,0.012195155,-0.0153061375,0.0016029848,-0.0028435676,-0.02377901,0.0
1188275291,-0.044187635,0.01741539,-0.009720039,0.0016895684,-0.0029347262,-0.02393785,0.0
1188307231,-0.055542834,0.016211884,-0.0043422906,0.0017676231,-0.0030372427,-0.024104597,0.0
1188339260,-0.034556687,0.0034549292,-0.009389503,0.0018440522,-0.0031320506,-0.024264539,0.0
1188371276,-0.047216207,-0.010104941,-0.004341695,0.0019231798,-0.0032317198,-0.024431441,0.0
1188403324,-0.040110014,0.005803114,-0.010206232,0.0019919083,-0.003340703,-0.024591526,0.0
1188435239,-0.016984252,0.011741666,-0.009531653,0.0020552126,-0.0034494516,-0.024752809,0.0
1188467282,-0.031298228,-0.010411864,-0.006359933,0.0021245803,-0.003557835,-0.024918541,0.0
1188499283,-0.036729485,0.0037925504,-0.0091140615,0.0021985432,-0.003665014,-0.02507754,0.0
1188531285,-0.04318017,-0.0016263612,-0.007164555,0.0022839506,-0.003763476,-0.025227144,0.0
1188563262,-0.058393016,-0.027212523,-0.007954051,0.00238276,-0.003863092,-0.02536639,0.0
1188595274,-0.052687846,-0.0055477414,-0.0094048,0.0024938495,-0.00397312,-0.025505323,0.0
1188627220,-0.053899594,-0.009777943,-0.009297424,0.0026227871,-0.004068789,-0.025641616,0.0
1188659312,-0.047621153,-0.016779782,-0.010925442,0.0027610487,-0.0041582207,-0.025768688,0.0
1188691251,-0.034246594,-0.008150313,-0.009071145,0.0028882646,-0.0042530093,-0.025883889,0.0
1188723312,-0.042788085,-0.016243408,-0.010532085,0.0030252014,-0.004339192,-0.025998406,0.0
1188755231,-0.043975674,-0.037907727,-0.0074564815,0.0031682483,-0.0044026426,-0.026117662,0.0
1188787283,-0.026663097,-0.038313773,-0.009427537,0.0033029208,-0.0044512344,-0.02624111,0.0
1188819221,-0.024303071,-0.027517106,-0.008183674,0.0034382225,-0.004493758,-0.026367014,0.0
1188851239,-0.025439428,-0.022930002,-0.007181773,0.0035757183,-0.0045289653,-0.026490975,0.0
1188883270,-0.01834739,-0.038248736,-0.0062933755,0.0037198456,-0.0045494577,-0.026611455,0.0
1188915275,-0.0013458934,-0.040501736,-0.0042560888,0.0038597817,-0.0045593227,-0.026729364,0.0
1188947236,-0.0021142326,-0.03302718,-0.01096416,0.003988229,-0.004568828,-0.02683845,0.0
1188979231,-0.007917764,-0.04777642,-0.008620635,0.004116672,-0.004567157,-0.02695089,0.0
1189011275,0.01059925,-0.029972494,-0.0050672702,0.0042407946,-0.0045627635,-0.027072882,0.0
1189043297,0.011622265,-0.01945158,-0.0070753107,0.004354281,-0.004557679,-0.0271796,0.0
1189075320,0.016761817,-0.03387884,-0.0040576174,0.0044535724,-0.0045355777,-0.027285954,0.0
1189107254,0.031695142,-0.031127954,-0.0046593454,0.0045336504,-0.0045166966,-0.027390543,0.0
1189139278,0.02058298,-0.034951683,-0.006741818,0.004616607,-0.0044909115,-0.027501024,0.0
1189171293,0.02078053,-0.032869857,-0.006995833,0.0046995874,-0.0044531873,-0.02760396,0.0
1189203313,0.04364577,-0.01612763,-0.0059313765,0.0047641657,-0.004420673,-0.027710713,0.0
1189235220,0.03430737,-0.0037509017,-0.004610078,0.0048329257,-0.004384732,-0.027822146,0.0
1189267279,0.0064851474,-0.00733394,-3.2216543e-05,0.0049030297,-0.0043593533,-0.027938707,0.0
1189299268,0.023601763,-0.0041637104,-0.005073951,0.004955122,-0.0043464014,-0.028044933,0.0
1189331308,0.022244034,0.0038405973,-0.004167442,0.005015206,-0.004331993,-0.028148605,0.0
1189363257,0.0020739231,0.014177075,-0.003084226,0.005083281,-0.0043332665,-0.028259864,0.0
1189395235,0.018517755,0.030020759,-0.008848321,0.0051594856,-0.004348589,-0.028348466,0.0
1189427247,0.0064108567,0.022867143,-0.0050708563,0.005262079,-0.0043604984,-0.028441794,0.0
1189459284,-0.021695297,0.019881584,-0.005878466,0.0053739105,-0.004376142,-0.028532034,0.0
1189491252,-0.020680228,0.015529554,-0.007194719,0.005490389,-0.004388586,-0.028610287,0.0
1189523262,-0.018667681,0.003933141,-0.0057564974,0.0056165922,-0.0044019534,-0.02868497,0.0
1189555274,-0.006019462,0.028874027,-0.008020526,0.005741434,-0.0044275178,-0.02874728,0.0
1189587276,-0.0055739377,0.03352253,-0.0064730975,0.0058639366,-0.0044439533,-0.02882765,0.0
1189619228,-0.00664448,0.016798928,-0.002719696,0.005986276,-0.0044565247,-0.028894803,0.0
1189651247,0.012344413,0.029081432,-0.0087756375,0.006096786,-0.004479595,-0.028957054,0.0
1189683306,-0.0014577806,0.017796274,-0.008287592,0.0061990432,-0.004508943,-0.029019099,0.0
1189715275,0.018343318,0.022017607,-0.0074242977,0.0062828953,-0.004552812,-0.029076623,0.0
1189747286,0.03553265,0.035356734,-0.009452402,0.0063557373,-0.004602665,-0.02912246,0.0
1189779227,0.009381005,0.03731584,-0.009094509,0.0064363335,-0.0046499767,-0.029162452,0.0
1189811261,0.023669071,0.042981297,-0.009978125,0.0065057245,-0.0046941587,-0.029189363,0.0
1189843306,0.028785313,0.020233478,-0.008685277,0.0065745525,-0.0047322954,-0.029205443,0.0
1189875280,0.0120309405,0.003126895,-0.009347778,0.006648235,-0.0047653,-0.029220654,0.0
1189907245,0.016841669,0.0110931825,-0.012700601,0.0067074504,-0.0047947606,-0.02922331,0.0
1189939283,0.036389135,0.014930524,-0.014629496,0.006769493,-0.004814264,-0.029222563,0.0
1189971259,0.013602067,0.012343613,-0.008632623,0.0068466864,-0.0048381775,-0.029224468,0.0
1190003294,0.010308354,0.0316343,-0.0126257185,0.0069263484,-0.0048727784,-0.02922153,0.0
1190032052,0.011469986,0.035368897,-0.013687352,0.007001817,-0.004901596,-0.0292035,0.0
1190064868,0.005130939,0.018121924,-0.010637178,0.0071053486,-0.004931005,-0.029198727,0.0
1190096881,-0.018254437,-0.0047569796,-0.006416242,0.007217391,-0.0049646306,-0.029191798,0.0
1190128839,-0.008943563,0.018784663,-0.012331728,0.007328725,-0.0050115753,-0.02918215,0.0
1190160898,-0.015276276,0.009844039,-0.008711251,0.0074487636,-0.0050449856,-0.029163163,0.0
1190192861,0.005034795,0.015896428,-0.0071391175,0.007574981,-0.005078604,-0.029146269,0.0
1190224861,0.0058149537,0.009038322,-0.009558589,0.007707982,-0.005104707,-0.02913448,0.0
1190256830,-0.004374832,-0.0015646517,-0.0080311345,0.007837429,-0.005122132,-0.02912108,0.0
1190288869,0.011277644,-0.016530517,-0.0070857066,0.00794683,-0.005115478,-0.02911042,0.0
1190320866,0.023804734,-0.03717386,-0.007821155,0.008030748,-0.0050879493,-0.029089946,0.0
1190352836,0.02614048,-0.023981348,-0.0063719535,0.0081092585,-0.0050523793,-0.029074073,0.0
1190384821,0.029399104,0.00031969883,-0.005622876,0.008177114,-0.0050258017,-0.029063681,0.0
1190416881,0.04284849,-0.0012981798,-0.0024903584,0.008239025,-0.0049953456,-0.029056886,0.0
1190448877,0.025768515,-0.02976108,-0.0027304576,0.008297166,-0.00496786,-0.029042304,0.0
1190480825,0.03602846,-0.001477804,-0.004645185,0.008343816,-0.004963252,-0.029026909,0.0
1190512842,0.041145198,0.008202082,-0.008708552,0.008382004,-0.004964843,-0.029014142,0.0
1190544852,0.030192222,-0.0039816275,-0.004339655,0.008420853,-0.0049685333,-0.028996447,0.0
1190576873,0.029890351,0.010824632,-0.00019715127,0.008460928,-0.004982158,-0.028997792,0.0
1190608825,0.019766623,0.023679134,-0.0030702478,0.008502519,-0.0050056376,-0.028990233,0.0
1190640872,0.006817364,0.0018081795,0.001341358,0.00855674,-0.0050129765,-0.028983466,0.0
1190672855,0.0010581147,-0.016572151,-0.00030512363,0.008619587,-0.005017323,-0.028981319,0.0
1190704912,0.0010252222,-0.006873099,-0.0044098934,0.008692002,-0.0050163995,-0.028982755,0.0
1190736829,-0.010478776,-0.010948073,0.0008691264,0.008777226,-0.005000116,-0.028994087,0.0
1190768873,0.0053308383,-0.008942893,0.00285152,0.008855202,-0.004979811,-0.029014824,0.0
1190800836,0.009728226,-0.017601144,0.0017333319,0.008925642,-0.0049577476,-0.029034365,0.0
1190832898,-0.013746353,-0.022178309,0.002716563,0.009001306,-0.0049240375,-0.029067088,0.0
1190864833,-0.0023258384,-0.0156392,0.0041126627,0.009061239,-0.0048883604,-0.029087802,0.0
1190896875,0.006235497,-0.034787938,0.00237974,0.009114356,-0.0048475945,-0.029121129,0.0
1190928834,-0.003607411,-0.018973902,0.005996086,0.009176679,-0.004794378,-0.029171934,0.0
1190960908,-0.00122145,-0.010725297,0.009617392,0.009239462,-0.004737478,-0.029228231,0.0
1190992835,-0.0060801934,-0.033959188,0.006775354,0.009314127,-0.0046702246,-0.029293893,0.0
1191024818,-0.019501062,-0.043295305,0.006914952,0.00939933,-0.0045962185,-0.029348802,0.0
1191056819,-0.017961925,-0.020260189,0.00091795105,0.009481964,-0.004527559,-0.02939626,0.0
1191088854,-0.012521651,-0.027217343,0.0044854814,0.009566882,-0.0044465777,-0.029442677,0.0
1191120845,-0.01977243,-0.028955234,0.0063850987,0.009657964,-0.0043552862,-0.029500453,0.0
1191152837,-0.004623696,0.019308891,0.0033937595,0.009742851,-0.004286382,-0.02955034,0.0
1191184828,-0.015510505,0.0021870919,0.0035024856,0.009826981,-0.0042211604,-0.029594945,0.0
1191216841,-0.023570457,-0.02409995,0.0072936886,0.00991119,-0.004152142,-0.029641518,0.0
1191248823,-0.009523297,0.005774133,0.0022089544,0.009993465,-0.0041030506,-0.029680483,0.0
1191280838,-0.011647919,0.007831145,0.0037992117,0.010080005,-0.004054831,-0.029738307,0.0
1191312871,0.012060692,0.02041535,0.0045208517,0.0101623675,-0.004003737,-0.0298078,0.0
1191344870,-0.0057175774,0.021236753,0.00471102,0.010243785,-0.003960963,-0.029874435,0.0
1191376901,-0.021013653,0.02130347,0.0060505765,0.010328221,-0.0039231856,-0.02993406,0.0
1191408818,-0.0060630906,0.027336143,0.0054041613,0.010407936,-0.003886427,-0.029995108,0.0
1191440864,-0.0021223389,0.014090292,0.0052847774,0.010477237,-0.0038587793,-0.030065231,0.0
1191472912,-0.0065844506,0.02345474,0.0063877143,0.010551004,-0.003840538,-0.030139873,0.0
1191504924,-0.0020893645,0.041112907,0.0077893427,0.010615149,-0.00382642,-0.030220103,0.0
1191536830,0.013936982,0.042541094,0.0053757704,0.0106828315,-0.0038106136,-0.030291922,0.0
1191568886,-0.0040247403,0.02273376,0.007065884,0.010755314,-0.0037966357,-0.030367827,0.0
1191600864,-0.0035707448,0.04236539,0.005318407,0.010820955,-0.003802584,-0.030457338,0.0
1191632889,0.015762689,0.03233753,0.001654154,0.010877566,-0.0038127098,-0.030534938,0.0
1191664856,-0.0009679422,0.014976634,0.0040726517,0.010929764,-0.003823479,-0.030605933,0.0
1191696827,0.006912118,0.044486277,-0.0020878676,0.010978973,-0.0038397298,-0.030665068,0.0
1191728843,-0.005923545,0.029070579,0.005825449,0.0110328505,-0.0038337316,-0.030748514,0.0
1191760861,-0.0030488726,0.011201756,0.0073659644,0.011086572,-0.0038257912,-0.030820958,0.0
1191792842,0.008361192,0.020101273,0.0022670997,0.011141074,-0.003823442,-0.030882202,0.0
1191824814,-0.013627,0.0055964235,0.0029621907,0.011201892,-0.0038112886,-0.030944234,0.0
1191856829,-0.007163735,-0.002712477,0.0017699669,0.011264994,-0.0037929097,-0.031008234,0.0
1191888853,-0.00078258663,0.007000312,-0.002074779,0.011329812,-0.0037799452,-0.031065378,0.0
1191920834,-0.0043570064,0.02337884,-0.005485247,0.011405833,-0.003773429,-0.031111682,0.0
1191952841,-0.0028331243,0.023612473,0.0015927625,0.011479671,-0.003764786,-0.03116372,0.0
1191984824,-0.0074099284,0.003561454,0.00048377772,0.011552915,-0.0037486935,-0.031212205,0.0
1192016875,-0.0206171,0.004090773,0.00012742545,0.011633613,-0.003728463,-0.03125768,0.0
1192048873,-0.01675459,0.021775838,-0.0070959805,0.011704244,-0.003726947,-0.031272333,0.0
1192080821,-0.00041695312,0.015991634,-0.0061056265,0.011778329,-0.003730692,-0.031283647,0.0
1192112906,-0.0074303523,0.016552364,-0.002756499,0.011858112,-0.00373742,-0.031291097,0.0
1192144897,0.0040284637,0.046410117,-0.007101938,0.0119317835,-0.0037547038,-0.03129644,0.0
1192176857,0.0019963514,0.026603237,-0.009257075,0.012001821,-0.0037604992,-0.031289533,0.0
1192208821,-0.0029076654,-0.007163726,-0.004459368,0.012067794,-0.0037573972,-0.031274013,0.0
1192240909,0.0045370255,0.01569912,-0.012455508,0.01212643,-0.0037642282,-0.031254802,0.0
1192272862,0.00050229207,0.01191988,-0.010900579,0.012181339,-0.0037679563,-0.031218823,0.0
1192304822,0.0152944,0.014255844,-0.00831787,0.012230567,-0.003769612,-0.031182528,0.0
1192336829,0.012348147,0.02735555,-0.008797884,0.012268517,-0.0037775554,-0.031138835,0.0
1192368844,3.7953258e-05,0.021169323,-0.010159986,0.012311695,-0.0037824987,-0.031084271,0.0
1192400852,0.0021968093,0.009753088,-0.0067843096,0.012345672,-0.0037918123,-0.031036073,0.0
1192432824,0.021784,0.0006465651,-0.015383157,0.012364455,-0.0038045556,-0.03096801,0.0
1192464838,0.011790819,-0.0016464759,-0.012748741,0.012383466,-0.0038107648,-0.030896366,0.0
1192496837,0.0134639125,0.031666026,-0.013244708,0.01239113,-0.0038273318,-0.030821927,0.0
1192528867,0.021373568,0.027359609,-0.008610354,0.012394525,-0.003848725,-0.030752866,0.0
1192560825,0.005328657,0.003182603,-0.007342717,0.012396039,-0.0038662301,-0.030683212,0.0
1192592830,0.007682751,0.014432441,-0.008529694,0.012395966,-0.0038897847,-0.03061459,0.0
1192624833,-0.0008838922,0.011141913,-0.008814932,0.012380804,-0.003909687,-0.030545635,0.0
1192656889,0.0062014423,-0.00023995899,-0.0077868938,0.012370629,-0.0039282986,-0.030470923,0.0
1192688838,0.0038508996,0.0101617705,-0.004560949,0.01237318,-0.0039536366,-0.030407716,0.0
1192720889,-0.001859501,0.019431762,-0.0059863804,0.012378653,-0.0039786985,-0.030351367,0.0
1192752825,-0.01642252,-0.005609533,-0.003900036,0.012390527,-0.0039880825,-0.030301947,0.0
1192784915,-0.027816791,-0.017750874,-0.00052260625,0.012407463,-0.003998727,-0.030256711,0.0
1192816829,-0.022394806,0.0035081692,-0.004851741,0.012427148,-0.004015154,-0.030218812,0.0
1192848864,-0.03493706,-0.010758927,0.004756622,0.012449676,-0.004023849,-0.0302053,0.0
1192880832,-0.0020443331,-0.010234788,0.007951027,0.012462146,-0.004024864,-0.030208334,0.0
1192912929,-0.006658189,-0.019952094,0.0036500774,0.012466014,-0.0040154937,-0.030215295,0.0
1192944873,-0.024197118,-0.023345448,0.0027372392,0.012469353,-0.00400389,-0.030219682,0.0
1192976821,-0.007394096,-0.026769284,0.006426775,0.012454998,-0.003994994,-0.030236553,0.0
1193008830,0.0008165892,-0.033467088,0.0055698743,0.012432469,-0.003982348,-0.030262798,0.0
1193040861,-0.013270877,-0.02023251,0.0069939527,0.012417223,-0.003961563,-0.030288594,0.0
1193072859,-0.020474734,-0.023706013,0.013668716,0.012395187,-0.0039385827,-0.030333286,0.0
1193104828,-0.0044393037,-0.041274834,0.00894246,0.01237253,-0.003903193,-0.030379236,0.0
1193136836,-0.027441248,-0.05496373,0.009271366,0.012360272,-0.0038560994,-0.030426899,0.0
1193168859,-0.027531715,-0.039168175,0.009589181,0.0123447785,-0.003820911,-0.030483857,0.0
1193200858,-0.004590597,-0.026148088,0.0050193593,0.0123364,-0.0037731444,-0.03053878,0.0
1193232828,-0.037386455,-0.02996291,0.012501166,0.012344678,-0.0037276244,-0.0306016,0.0
1193264823,-0.045513473,-0.014543077,0.008822355,0.012359761,-0.0036936824,-0.030665018,0.0
1193296848,-0.038690954,-0.029192625,0.010651171,0.012377502,-0.003654961,-0.030731222,0.0
1193328851,-0.041520573,-0.039860852,0.012806041,0.012397051,-0.0036242055,-0.030794363,0.0
1193360839,-0.02840092,-0.006084338,0.00431518,0.01241752,-0.0036026442,-0.030853722,0.0
1193392858,-0.030860301,-0.009669175,0.008120193,0.012436861,-0.0035803774,-0.030919092,0.0
1193424860,-0.020531204,-0.011823442,0.007944966,0.012456049,-0.003560866,-0.030975224,0.0
1193456898,-0.019418046,-0.008587731,0.0050357254,0.012475822,-0.0035381445,-0.031041196,0.0
1193488832,-0.039600693,-0.027685001,0.009925198,0.012496276,-0.0035038334,-0.031104576,0.0
1193520875,-0.017178856,-0.025057197,0.006900095,0.012502562,-0.0034730278,-0.031165013,0.0
1193552865,-0.0063508693,-0.010642001,0.003297811,0.012501399,-0.00344399,-0.03122632,0.0
1193584914,-0.008570429,-0.0010042991,0.007214533,0.0124885775,-0.0034213103,-0.031285275,0.0
1193616814,0.0133003965,-0.009236252,0.006626844,0.012461096,-0.003398041,-0.031354368,0.0
1193648857,0.007631911,-0.016417135,0.0032278637,0.012436344,-0.0033695474,-0.031418853,0.0
1193680869,0.004718259,-0.0064482894,0.0027139809,0.012398418,-0.0033488385,-0.031470772,0.0
1193712868,0.014515526,-0.019254733,0.001681726,0.012350472,-0.0033234032,-0.03152348,0.0
1193744825,-0.0061279573,-0.025079835,0.0046856254,0.012314749,-0.0032890963,-0.03157747,0.0
1193776824,0.004660774,0.012527583,0.0024763749,0.012275572,-0.0032680407,-0.031629212,0.0
1193808839,0.016799208,0.007866636,0.0011945043,0.012234341,-0.0032427667,-0.03167115,0.0
1193840872,-0.015427632,-0.024809893,0.0003511188,0.012211486,-0.003213034,-0.031695046,0.0
1193872830,-0.020715596,0.0028365757,-0.0029581117,0.012193676,-0.0032011806,-0.031713925,0.0
1193904822,-0.001042543,0.0067455657,-0.005806992,0.012183392,-0.003186279,-0.031728685,0.0
1193936847,-0.024416825,-0.0058263764,-0.0023451466,0.012186638,-0.0031731573,-0.03174145,0.0
1193968864,-0.016737357,0.029735139,-0.0030359935,0.012191436,-0.003181431,-0.03174562,0.0
1194000869,-0.01912776,0.015732784,-0.0011381237,0.012205671,-0.0031825502,-0.031762365,0.0
1194032835,-0.032064497,-0.012125542,-0.0006404687,0.012232009,-0.003176248,-0.031760693,0.0
1194064853,-0.019759933,0.010214958,-0.0075933877,0.012258277,-0.0031775949,-0.0317545,0.0
1194096864,-0.02210384,0.000782365,-0.0044132103,0.012292996,-0.0031683964,-0.0317564,0.0
1194128863,-0.00029195473,0.0014192909,-0.0039153206,0.012329333,-0.0031544964,-0.031753022,0.0
1194160834,0.00029254705,0.0020697862,-0.0069761374,0.0123577695,-0.0031365997,-0.03173571,0.0
1194192863,-0.030355465,-0.0119344015,-0.0021329694,0.012389497,-0.0031094318,-0.031717706,0.0
1194224857,0.005510796,-0.003514273,-0.005118695,0.012410652,-0.0030804013,-0.03169312,0.0
1194256907,0.011764372,-0.01215725,-0.0075614853,0.0124173695,-0.0030486872,-0.031668846,0.0
1194288825,0.012353189,0.0093501415,-0.0038354439,0.012416655,-0.003020251,-0.031649925,0.0
1194320888,0.030559998,0.014279569,-0.0032725364,0.012406509,-0.002986211,-0.03163299,0.0
1194352868,0.0126562575,-0.023110775,-0.0051910444,0.012400836,-0.0029431588,-0.03161069,0.0
1194384820,0.013895739,-0.010560729,-0.0023319665,0.012390083,-0.0029022307,-0.031590026,0.0
1194416819,0.030878507,0.0064123143,-0.0055936384,0.01236033,-0.0028621736,-0.031570435,0.0
1194450438,0.022664644,-0.009894501,0.0003201468,0.012333402,-0.0028064977,-0.031545002,0.0
1194482442,0.023960052,0.015830101,-0.0006525377,0.012301874,-0.0027584063,-0.03153747,0.0
1194514467,0.036525972,0.013137383,-0.0030007653,0.012261158,-0.0027052918,-0.031521935,0.0
1194546466,0.020715801,-0.025026634,0.00057230063,0.012218314,-0.002650889,-0.031516735,0.0
1194578444,0.036872257,0.01872942,-0.0029988964,0.012172284,-0.0026097742,-0.03150953,0.0
1194610465,0.035145603,0.041111037,-0.0038231115,0.012125802,-0.0025767211,-0.03149195,0.0
1194642469,0.016518058,0.013211051,0.005055181,0.012081526,-0.0025489684,-0.03148118,0.0
1194674470,0.024960663,0.036086477,-0.0006452544,0.012032091,-0.00253644,-0.03147595,0.0
1194706480,0.023282891,0.022795834,-0.0035262217,0.011979804,-0.002527495,-0.031457074,0.0
1194738441,0.029463217,0.015241796,-0.0020438342,0.011924596,-0.0025193945,-0.031436827,0.0
1194770492,0.028918467,0.04224827,-0.0026356403,0.011870059,-0.0025258886,-0.03141926,0.0
1194802466,0.009471725,0.042347208,-0.0014576331,0.011819368,-0.002538358,-0.031396244,0.0
1194834486,0.013359827,0.02548051,-8.214824e-05,0.011764575,-0.002553372,-0.031364605,0.0
1194866434,0.014291579,0.02334353,-0.0024347124,0.011709222,-0.0025719875,-0.03133138,0.0
1194898497,0.0062020198,0.029624753,-0.0045145405,0.011657732,-0.0026014536,-0.031301875,0.0
1194930491,0.019941108,0.03385111,-0.0031806645,0.01160563,-0.002635726,-0.03127137,0.0
1194962481,0.020056037,0.028753337,-0.0035324628,0.011553379,-0.0026702085,-0.031240841,0.0
1194994418,-0.0026025828,0.02859812,0.00067109277,0.011506868,-0.0027064793,-0.031216346,0.0
1195026471,0.0023819134,0.030733116,0.00053934,0.011455782,-0.002746601,-0.031181887,0.0
1195058518,0.012170446,0.019170111,-0.004251522,0.011406389,-0.002797811,-0.031145638,0.0
1195090435,-0.003715923,0.027228203,-0.0019646853,0.011365461,-0.0028570562,-0.031118104,0.0
1195122435,0.0053758137,0.03942588,-0.0034433661,0.011323649,-0.0029220837,-0.031075502,0.0
1195154474,0.009274007,0.02548939,-0.0039838166,0.011290837,-0.0029866651,-0.031034052,0.0
1195186457,-0.010206237,0.014797963,0.0009255783,0.011261391,-0.0030534996,-0.03099519,0.0
1195218417,-0.00619,0.026804725,-0.0018500381,0.011230311,-0.0031299398,-0.030953899,0.0
1195250437,-0.0102419015,0.00942691,-0.004163855,0.011202078,-0.0032030097,-0.030911945,0.0
1195282481,-0.017582102,0.004542304,-0.00073119195,0.011184712,-0.0032783197,-0.030871471,0.0
1195314471,0.006696008,0.023647396,0.002262341,0.011166385,-0.0033589478,-0.030843174,0.0
1195346440,-0.0024553891,0.009360988,-0.0018915163,0.01115152,-0.0034350618,-0.030815275,0.0
1195378503,-0.020429883,-0.010930102,0.00037145725,0.011146628,-0.003500362,-0.030788247,0.0
1195410423,-0.008721391,-0.0082667675,0.0024094828,0.011143815,-0.0035651554,-0.03076536,0.0
1195442497,-0.0068322625,-0.012217384,-0.00040900713,0.011134788,-0.0036234395,-0.030751465,0.0
1195474430,-0.013012566,-0.01851127,0.0020048183,0.011121427,-0.0036717877,-0.030745313,0.0
1195506509,0.013594604,-0.01598998,0.002186873,0.01109854,-0.0037197853,-0.03072372,0.0
1195538474,0.01432651,-0.012830717,0.0028209155,0.011079428,-0.0037624561,-0.030713942,0.0
1195570511,-0.003486259,-0.02914134,0.0023119517,0.011056924,-0.0037932638,-0.030707218,0.0
1195602433,0.01479793,-0.034151264,-0.0012004848,0.011018339,-0.0038219674,-0.030689443,0.0
1195634468,0.0205264,-0.03765914,-0.0004760524,0.010976381,-0.0038407976,-0.030670099,0.0
1195666455,0.00085728243,-0.03380613,0.002049668,0.0109385885,-0.0038473029,-0.030648105,0.0
1195698518,0.018674077,-0.02275111,0.0019192852,0.010893843,-0.0038480326,-0.030632943,0.0
1195730461,0.01859206,-0.039763257,0.0022281366,0.01085287,-0.0038379617,-0.030618504,0.0
1195762437,-0.0018520653,-0.053709224,0.0009372964,0.010825229,-0.0038170733,-0.030601868,0.0
1195794431,0.007878257,-0.038365845,-0.0022835284,0.010793497,-0.0037848076,-0.03058063,0.0
1195826462,0.009741926,-0.03648773,-0.0027782782,0.0107669495,-0.003752515,-0.030550128,0.0
1195858490,-0.0073830653,-0.025648354,0.0025195822,0.010753656,-0.003727275,-0.030526808,0.0
1195890454,0.00074385665,-0.008100331,-0.0010512543,0.010736493,-0.0037051649,-0.030498393,0.0
1195922438,0.0061433837,-0.030116897,0.004559419,0.010718446,-0.003679366,-0.03047846,0.0
1195954487,0.0018674843,-0.03364133,0.0031639673,0.010704732,-0.0036533566,-0.030476024,0.0
1195986468,0.005852281,-0.0012670271,-0.0051453686,0.010688966,-0.0036365828,-0.030455835,0.0
1196018421,0.0076821167,-0.00986735,0.002401607,0.010678344,-0.003609093,-0.030445352,0.0
1196050474,0.008462541,-0.018538523,0.0056767957,0.010660622,-0.0035774626,-0.030435871,0.0
1196082457,0.011647564,-0.0032610595,0.002727342,0.010632612,-0.0035494356,-0.030428438,0.0
1196114526,0.007420292,-0.016214482,0.0027664676,0.010603329,-0.0035172983,-0.030416215,0.0
1196146438,0.01647265,-0.018204607,0.0024752864,0.010572401,-0.0034889907,-0.030406695,0.0
1196178522,0.028801125,0.021492252,-0.0050513693,0.010543957,-0.0034785904,-0.030389143,0.0
1196210461,0.004725581,0.01019448,0.0012363759,0.010518136,-0.0034683275,-0.030375807,0.0
1196242516,0.0022424273,-0.013526536,0.005257832,0.010492967,-0.0034560517,-0.030361546,0.0
1196274441,0.003164325,0.005792618,0.00094939815,0.010481595,-0.0034455606,-0.03035976,0.0
1196306476,-0.017509868,-0.004100425,0.0027029773,0.01047693,-0.0034341647,-0.030350428,0.0
1196338466,0.013728915,0.00021663867,0.0019040417,0.010467022,-0.0034208677,-0.030340344,0.0
1196370624,0.012605412,0.0074367523,-0.0025686321,0.010465293,-0.003405233,-0.030322535,0.0
1196402462,-0.017656505,-0.0019164775,0.0018693453,0.01046841,-0.0033807482,-0.030298622,0.0
1196434433,-0.003020607,-0.0076840892,0.002421022,0.010469972,-0.003356235,-0.03028293,0.0
1196466453,-0.01421033,-0.0153174875,-0.00083786505,0.010481741,-0.0033263043,-0.030266574,0.0
1196498473,-0.01449969,0.008460723,-0.00030253027,0.010499117,-0.0033025993,-0.03024338,0.0
1196530437,0.010177562,0.016437145,4.5650813e-06,0.010507449,-0.0032737444,-0.030215422,0.0
1196562437,-0.0063022375,-0.010173548,-0.0028924244,0.010526535,-0.0032354393,-0.0301801,0.0
1196594434,-0.01723283,-0.0055028163,-0.004283067,0.010547099,-0.0031979338,-0.030133782,0.0
1196626482,-0.0052762255,0.0038946718,-0.004444793,0.0105643775,-0.0031593086,-0.030091083,0.0
1196658447,-0.006527722,-0.0052331146,-0.002985191,0.0105889235,-0.0031168256,-0.03004097,0.0
1196690435,-0.005675558,0.018320883,-0.0015924752,0.01061487,-0.0030772358,-0.02999537,0.0
1196722445,-0.0085200425,0.015712505,-0.0038413173,0.010643057,-0.0030340708,-0.02994062,0.0
1196754477,-0.0036079977,-0.012283236,-0.00060197525,0.010670182,-0.0029880004,-0.02989486,0.0
1196786479,0.0025434047,-0.0013757385,-0.0051758713,0.0106911,-0.002942731,-0.029850865,0.0
1196818427,-0.0013561491,0.021248069,-0.0037053048,0.010710614,-0.002895518,-0.029804332,0.0
1196850500,0.012647275,0.01487493,0.003145219,0.010732951,-0.0028382686,-0.029767461,0.0
1196882463,0.00152261,0.0045344923,0.0029422469,0.010748978,-0.0027850484,-0.029737186,0.0
1196914473,-0.009842552,0.017007474,0.001017923,0.010770545,-0.0027384788,-0.029718662,0.0
1196946434,0.009773474,0.018366594,0.0010951564,0.01079524,-0.002693642,-0.029702382,0.0
1196978516,0.020394,0.024201069,0.0027149322,0.0108166905,-0.0026537809,-0.02969689,0.0
1197010469,0.0032040104,0.035788648,0.003626636,0.010842534,-0.0026175156,-0.029688375,0.0
1197042421,-0.001207022,0.025467297,0.0052710464,0.010864032,-0.0025812183,-0.029687863,0.0
1197074473,0.014228239,0.019041788,0.0025092724,0.0108730905,-0.0025523098,-0.029676354,0.0
1197106456,0.011182813,0.02858994,0.0028952947,0.010880145,-0.0025229077,-0.02967466,0.0
1197138472,0.019234538,0.03922064,0.005887189,0.010885679,-0.0024930732,-0.029685492,0.0
1197170430,0.027341627,0.03137796,0.0012122954,0.010889712,-0.0024588802,-0.02968914,0.0
1197202421,-0.001173459,0.011239259,0.00555696,0.010900985,-0.0024256904,-0.029694324,0.0
1197234450,0.0030853134,0.026941791,0.0016738287,0.0108997915,-0.002407983,-0.029691434,0.0
1197266476,0.02003198,0.036638267,0.0013583526,0.010895602,-0.0023950136,-0.029690236,0.0
1197298518,0.002675129,0.036827676,0.0040651034,0.010903929,-0.0023916962,-0.029682966,0.0
1197330437,-0.00099466,0.05727637,0.0015027893,0.010914517,-0.0024046556,-0.02967255,0.0
1197362434,-0.00077080727,0.041558433,-0.0015408412,0.0109349955,-0.0024202878,-0.029661115,0.0
1197394507,-0.026403692,0.0032827482,-0.00019999483,0.010973578,-0.0024303799,-0.029632775,0.0
1197426435,-0.018474765,0.036496073,-0.0053341542,0.011025774,-0.0024530997,-0.029605526,0.0
1197458475,-0.025388077,0.040487222,-0.003236043,0.011095741,-0.0024680393,-0.029567529,0.0
1197490427,-0.026164336,0.018098576,0.0038463357,0.011171724,-0.0024739183,-0.029543288,0.0
1197522621,-0.011767326,0.017432034,0.00010772701,0.011238594,-0.002477581,-0.029522114,0.0
1197554468,-0.018353645,4.2274594e-05,0.00029281602,0.011292326,-0.0024724416,-0.029500803,0.0
1197586477,0.011645434,0.0039664097,-0.0011769544,0.011325947,-0.002467151,-0.029471533,0.0
1197618417,0.019100647,0.013802562,-0.0014968722,0.0113484515,-0.0024748843,-0.029462678,0.0
1197650492,0.0060518263,0.026868412,0.005219796,0.011371205,-0.0024930763,-0.029456314,0.0
1197682479,0.010619428,0.018941114,0.0050588455,0.0113844145,-0.0025179756,-0.029451288,0.0
1197714481,0.010436181,-0.00019635074,0.0024667862,0.011396545,-0.0025409167,-0.029442146,0.0
1197746470,-0.003046533,0.008872336,0.0028958083,0.011417909,-0.0025630067,-0.029441992,0.0
1197778531,0.005059343,0.010603936,0.0032879987,0.011436124,-0.0025829189,-0.029445115,0.0
1197810467,0.014773555,-0.0027577598,0.0034595067,0.011455677,-0.0025903548,-0.029450282,0.0
1197842418,0.0025916789,-0.016057668,0.008178117,0.011485839,-0.0025819675,-0.029474415,0.0
1197874422,-0.004046809,-0.006999055,0.0048429985,0.011510404,-0.0025738885,-0.029492658,0.0
1197906460,-0.0010509342,-0.016464978,0.0055307657,0.011533248,-0.0025573631,-0.029524457,0.0
1197938473,-0.004085019,-0.027305676,0.009736954,0.011564317,-0.0025325473,-0.029569251,0.0
1197970466,0.0030020736,-0.000393413,0.006120003,0.011590455,-0.0025105085,-0.029619996,0.0
1198002460,0.0045916364,-0.01779233,0.011833666,0.011615557,-0.0024709501,-0.029664176,0.0
1198034440,0.006016868,-0.049557257,0.011183343,0.011635021,-0.002413926,-0.029725319,0.0
1198066511,0.008372661,-0.022409566,0.0062261256,0.011647122,-0.0023574247,-0.029791715,0.0
1198098441,0.0025864523,-0.023249267,0.008491063,0.011658284,-0.0023020147,-0.029856177,0.0
1198130478,0.020581627,-0.024697132,0.011534801,0.0116569,-0.0022421076,-0.029934173,0.0
1198162469,0.023990296,0.009113053,0.010686735,0.011647228,-0.0021907494,-0.0300246,0.0
1198194527,0.0021681115,0.0071171746,0.016897343,0.011633285,-0.0021604,-0.030121827,0.0
1198226420,0.005813135,-0.010657582,0.013219101,0.011613999,-0.0021460445,-0.030226942,0.0
1198258468,0.014624042,0.006247841,0.013189393,0.011600616,-0.0021467034,-0.030342573,0.0
1198290483,0.024375815,0.016344173,0.014922679,0.011572725,-0.0021481651,-0.030477902,0.0
1198322516,0.029082976,0.008940991,0.014083609,0.0115257045,-0.0021432815,-0.030615263,0.0
1198354428,0.011866233,0.009283697,0.018524213,0.011476872,-0.002138171,-0.03076095,0.0
1198386435,0.004731152,0.0061788578,0.01934061,0.01142785,-0.0021342502,-0.030926349,0.0
1198418493,0.005976389,-0.008898294,0.015953766,0.011379882,-0.0021350642,-0.031095281,0.0
1198450466,0.002572976,-0.00017897598,0.020913055,0.011327743,-0.0021609731,-0.031278286,0.0
1198482432,0.017758293,0.018747661,0.018035345,0.011263562,-0.0022000822,-0.031466406,0.0
1198514451,0.0050823297,0.006586263,0.014396032,0.011210517,-0.0022351602,-0.031648222,0.0
1198546481,-0.0073836986,0.018402291,0.018247314,0.011166266,-0.002280183,-0.031837694,0.0
1198578482,-0.007618999,0.019683471,0.015897239,0.011122443,-0.0023308008,-0.032029636,0.0
1198610435,-0.029698038,-0.020596493,0.016465833,0.011093574,-0.0023695016,-0.03221687,0.0
1198642463,-0.033261873,-0.012822589,0.012017765,0.011068982,-0.0024100563,-0.032400437,0.0
1198674504,-0.042847745,-0.008857774,0.0099447835,0.01106553,-0.0024448433,-0.03256869,0.0
1198706478,-0.037323195,-0.023775542,0.008795148,0.011079205,-0.0024722712,-0.032726113,0.0
1198738437,-0.021363655,0.0013714451,0.0039764056,0.011087155,-0.0025035634,-0.03287369,0.0
1198770432,-0.042974014,-0.021582238,0.004592585,0.0111056175,-0.002528232,-0.033006385,0.0
1198802464,-0.03366953,-0.03927487,0.0017113414,0.011117419,-0.0025381548,-0.033130664,0.0
1198830420,-0.02976445,-0.03754066,0.0013892775,0.011120682,-0.0025460774,-0.033229575,0.0
1198864023,-0.025408812,-0.024767112,-0.0024696684,0.011131166,-0.0025491894,-0.033342317,0.0
1198896076,-0.034376863,-0.03762578,-7.240355e-05,0.011143707,-0.0025535692,-0.033444185,0.0
1198928081,-0.025710376,-0.033025473,-0.0039204224,0.011149297,-0.0025570865,-0.033536732,0.0
1198960065,-0.022531379,-0.0134992255,-0.0027225323,0.011162604,-0.002552963,-0.033625755,0.0
1198992027,-0.025568252,-0.017809108,-0.0020442111,0.011170053,-0.0025374321,-0.03370292,0.0
1199024048,-0.03020977,-0.031261664,-0.0028527793,0.011189234,-0.002520417,-0.033775922,0.0
1199056072,-0.017707216,-0.02193178,-0.00585979,0.011212623,-0.0025167156,-0.033841703,0.0
1199088250,-0.011071121,-0.025172714,-0.010384276,0.011224207,-0.0025140957,-0.033900607,0.0
1199120043,-0.024383983,-0.024304733,-0.00762769,0.011241377,-0.002503652,-0.033958167,0.0
1199152080,-0.013726713,0.0044560954,-0.0048611625,0.011261579,-0.0025125402,-0.03401868,0.0
1199184054,-0.019308874,-0.0010684654,-0.0073586116,0.011285769,-0.0025201498,-0.034070075,0.0
1199216058,-0.02385839,-0.028228486,-0.0037615234,0.011311314,-0.002524803,-0.034111645,0.0
1199248030,-0.010548215,-0.0032357909,-0.0069361343,0.01133997,-0.002537645,-0.034164418,0.0
1199280080,-0.029389113,-0.008089226,-0.008661792,0.011382683,-0.0025529077,-0.034199886,0.0
1199312089,-0.016662113,-0.010853052,-0.004547566,0.0114227645,-0.0025784546,-0.034254305,0.0
1199344070,0.0153812505,0.019128034,-0.0053084292,0.011453911,-0.0026146069,-0.034311365,0.0
1199376024,-0.010741694,0.002252508,-0.0019743436,0.011487973,-0.0026505704,-0.03437422,0.0
1199408029,0.0015726388,-0.002649121,2.1760963e-05,0.011502818,-0.002696543,-0.03443671,0.0
1199440044,0.02078328,0.010461107,-0.0052178535,0.011500571,-0.0027539576,-0.03449309,0.0
1199468233,0.025540248,0.007553527,-0.0039218892,0.011494878,-0.0028076689,-0.03452912,0.0
1199500066,-0.004045928,-0.009892169,-0.001796934,0.011493137,-0.0028649287,-0.034582786,0.0
1199532073,0.010061557,-0.00441115,-0.006014365,0.011486606,-0.0029204735,-0.034632616,0.0
1199564028,0.020325646,-0.00055594556,-0.0035127196,0.011491186,-0.002976524,-0.03467647,0.0
1199596130,0.0018916167,-0.0005273707,-0.0079718735,0.011507159,-0.0030337006,-0.03471419,0.0
1199628189,-0.0027061421,-0.006609086,-0.0025382815,0.011525594,-0.0030830826,-0.03475401,0.0
1199660023,-0.0014620274,-0.025874982,-0.0009618769,0.011555662,-0.0031330113,-0.03480287,0.0
1199692025,-0.003044458,-0.012045547,-0.0093442425,0.011586096,-0.003200547,-0.03483343,0.0
1199724030,0.00026431307,-0.011075169,-0.0062361183,0.011609669,-0.003265969,-0.034866717,0.0
1199756066,0.003979115,-0.019941833,-0.003947996,0.011633605,-0.0033299176,-0.034896713,0.0
1199788021,0.013119761,0.010880418,-0.009041512,0.011656497,-0.003403561,-0.03491629,0.0
1199820014,0.0019690357,0.0031038728,-0.0046867393,0.011675873,-0.0034740225,-0.034939494,0.0
1199852046,0.0058183894,-0.028426472,0.0031975957,0.011699197,-0.0035334663,-0.034979474,0.0
1199884051,0.014402868,-0.015393064,-0.005831836,0.01172339,-0.003601991,-0.034999736,0.0
1199916032,0.0033766907,-0.012247711,-0.005193841,0.011747675,-0.003684178,-0.035020318,0.0
1199948221,0.019040324,-0.009679552,-0.0033551448,0.011771696,-0.0037666531,-0.035049334,0.0
1199980017,0.020283917,0.00036340952,-0.006049401,0.011801551,-0.0038506002,-0.035076577,0.0
1200012112,-0.0026696138,0.004139781,-7.3651085e-05,0.011838571,-0.003940409,-0.035112042,0.0
1200044020,0.0067875255,0.0047540385,-0.0015544205,0.011877987,-0.004034114,-0.035127513,0.0
1200076073,-0.004268028,-0.0240322,-0.0028914728,0.011930281,-0.0041230656,-0.035151325,0.0
1200108026,-0.014016619,-0.010478303,-0.0015143486,0.011999545,-0.0042184815,-0.035167273,0.0
1200140112,0.008156472,-0.002803268,-0.0048681693,0.012057038,-0.004317201,-0.035180844,0.0
1200172027,0.008507364,-0.031994056,-0.007747293,0.012118991,-0.0044032778,-0.035182234,0.0
1200204069,0.015779344,-0.017345304,-0.0010802929,0.012180358,-0.0044822334,-0.035198905,0.0
1200236017,0.02296148,-0.014605462,-0.0046132705,0.012233762,-0.0045553837,-0.035226047,0.0
1200268283,0.0089976145,-0.048550732,0.003545106,0.012286908,-0.0046134098,-0.035265278,0.0
1200300071,0.022682192,-0.04751187,0.0033239075,0.0123203145,-0.004669225,-0.03530339,0.0
1200332024,0.036485292,-0.031194728,-0.0018968864,0.012339083,-0.0047276802,-0.035346936,0.0
1200364036,0.024717126,-0.04121378,0.0031465793,0.012354321,-0.0047757095,-0.035394903,0.0
1200396048,0.042606086,-0.029182646,0.00048607372,0.012359027,-0.0048235776,-0.035445355,0.0
1200428068,0.051586173,-0.016533457,0.0019846298,0.012356718,-0.004874218,-0.035493445,0.0
1200460028,0.022309057,-0.033922672,0.0062710303,0.012354418,-0.0049253735,-0.035553902,0.0
1200492039,0.039510168,-0.02793213,0.0012167445,0.012341974,-0.004995144,-0.035605162,0.0
1200524056,0.041984715,-0.015828233,0.0030938897,0.012334699,-0.0050772983,-0.03566734,0.0
1200556062,0.015839517,-0.0098547675,0.0034022827,0.012328765,-0.0051749875,-0.035732925,0.0
1200588018,0.022848738,0.004178809,0.00013883787,0.012317149,-0.005285318,-0.03579414,0.0
1200620079,0.024038397,0.0063655395,0.002888991,0.012314087,-0.005393569,-0.03584771,0.0
1200652036,0.013378631,0.011723844,0.0055016023,0.012311251,-0.0055113756,-0.035910826,0.0
1200684133,0.016102053,0.00874435,0.0051809354,0.012297176,-0.005631775,-0.03597603,0.0
1200716035,0.010998846,-0.014960967,0.0072773825,0.012287626,-0.0057508512,-0.036037575,0.0
1200748221,0.007620386,-0.0023425855,-0.0028840571,0.012285301,-0.0058753234,-0.036081783,0.0
1200780042,-0.0060189757,-0.0110358205,-0.0021739495,0.012290775,-0.0059901937,-0.03612449,0.0
1200812115,0.0010800678,-0.016746644,-0.00049578666,0.012303931,-0.0061001307,-0.03617023,0.0
1200844029,0.005021395,-0.0043656826,-0.001865153,0.012324759,-0.0062140906,-0.03621684,0.0
1200876058,-0.025315175,-0.0057653096,-0.002171364,0.012355277,-0.0063180043,-0.036252566,0.0
1200908041,-0.0185101,-0.0076610893,-0.0010298949,0.012399704,-0.0064079636,-0.0362799,0.0
1200940124,-0.019079648,-0.026894057,-0.0023456644,0.012444269,-0.006486129,-0.03629706,0.0
1200972029,-0.027628792,-0.02949736,-0.005414597,0.012496375,-0.0065558306,-0.036313165,0.0
1201004027,-0.019723348,-0.0378648,-0.0013339191,0.012550027,-0.006601599,-0.03633023,0.0
1201036055,-0.026025055,-0.055220217,-0.011426168,0.012620353,-0.0066275597,-0.036332387,0.0
1201068059,-0.033820953,-0.05207346,-0.0029330952,0.012704756,-0.0066441745,-0.03633975,0.0
1201100031,-0.014380055,-0.024871532,-0.0067502833,0.012793177,-0.0066595413,-0.036346063,0.0
1201132032,-0.025892539,-0.03702103,-0.005097758,0.012897432,-0.006659213,-0.036347833,0.0
1201164049,-0.037559472,-0.034827545,-0.0012508328,0.013010117,-0.0066604395,-0.036351573,0.0
1201196065,-0.029097725,-0.0072901007,-0.010029645,0.013125276,-0.0066784797,-0.03634227,0.0
1201228025,-0.043026287,-0.027091455,-0.0031753557,0.013249058,-0.0066894945,-0.036329284,0.0
1201260021,-0.026135776,-0.011902751,-0.011852077,0.0133744115,-0.006703107,-0.036303706,0.0
1201292061,-0.009437166,0.009474404,-0.014964262,0.013493351,-0.006723946,-0.03624754,0.0
1201324053,-0.022621207,0.010100985,-0.011103718,0.013619115,-0.0067477445,-0.036170915,0.0
1201356132,-0.012870891,-8.675456e-05,-0.01759048,0.013743683,-0.0067616315,-0.036076013,0.0
1201388036,-0.0137217995,-0.0127173485,-0.01974816,0.013870413,-0.0067688734,-0.035958987,0.0
1201420051,-0.00048770383,0.0057120826,-0.02097787,0.013998713,-0.0067777885,-0.03582938,0.0
1201452070,0.007940401,0.021815,-0.026410084,0.01412088,-0.0067959446,-0.03568363,0.0
1201484061,0.004147999,0.01850211,-0.022909317,0.01424593,-0.0068167862,-0.03552731,0.0
1201516028,0.00507191,0.023485998,-0.019163813,0.01435593,-0.0068441667,-0.03535917,0.0
1201548215,0.026520662,0.0376838,-0.023561833,0.01445265,-0.0068816445,-0.03517795,0.0
1201580078,0.023568098,0.014426481,-0.020098826,0.014534413,-0.0069127483,-0.03499664,0.0
1201612111,0.046672706,0.031202646,-0.024051389,0.014578945,-0.006952822,-0.03480311,0.0
1201644039,0.069740824,0.045443002,-0.022161717,0.014599656,-0.0069935126,-0.03460813,0.0
1201676048,0.05409976,0.043982625,-0.01670618,0.014611621,-0.007042676,-0.03442213,0.0
1201708224,0.060298987,0.048962794,-0.017073972,0.014616867,-0.0070992294,-0.034253143,0.0
1201740076,0.051097035,0.038961366,-0.014936512,0.014611469,-0.0071764733,-0.034085516,0.0
1201772026,0.04995725,0.05719927,-0.011456469,0.014599444,-0.007273985,-0.033926483,0.0
1201804033,0.0526893,0.0694218,-0.006496109,0.014576411,-0.0073862467,-0.033786908,0.0
1201836042,0.05284622,0.070566036,-0.00469586,0.014542924,-0.007489862,-0.03368107,0.0
1201868059,0.039505884,0.04552734,0.0044252356,0.014505159,-0.007598808,-0.033595946,0.0
1201900022,0.0634655,0.052869037,0.004022589,0.014448798,-0.0077135954,-0.033523794,0.0
1201932032,0.051705953,0.05559585,0.0012670084,0.014372854,-0.007845711,-0.03346745,0.0
1201964117,0.042502202,0.044761922,0.00729721,0.014282996,-0.007979242,-0.033432867,0.0
1201996055,0.046245612,0.04529146,0.0110157505,0.014190609,-0.008114207,-0.033419292,0.0
1202028230,0.04228312,0.06414151,0.0109145045,0.014094966,-0.008250755,-0.033424128,0.0
1202060024,0.02214453,0.053467695,0.015330702,0.01399503,-0.008393721,-0.033442426,0.0
1202092113,0.018713703,0.035511114,0.017845899,0.013896224,-0.008531138,-0.033484228,0.0
1202124075,0.00861651,0.034890734,0.012328765,0.013812862,-0.008671756,-0.033517476,0.0
1202156073,-0.012756884,0.035243586,0.011602668,0.013744705,-0.008824932,-0.033557486,0.0
1202188021,-0.020300364,0.018679492,0.016851878,0.013683252,-0.008970345,-0.033612028,0.0
1202220107,-0.027936088,0.013873078,0.012630256,0.013636079,-0.009107366,-0.033678662,0.0
1202252099,-0.037135266,0.036769412,0.016908498,0.013611169,-0.00925045,-0.033740904,0.0
1202284081,-0.05514855,0.03462156,0.011705797,0.0136131,-0.009393937,-0.033808406,0.0
1202316022,-0.069058344,0.008507071,0.015237986,0.013636535,-0.009530846,-0.033876013,0.0
1202348039,-0.052862138,0.0018936843,0.016417876,0.01366079,-0.009667803,-0.033948973,0.0
1202380070,-0.04950051,-0.0005806349,0.006137001,0.013675025,-0.00980304,-0.034004413,0.0
1202412030,-0.0437167,-0.016481034,0.0051397504,0.013675803,-0.009924667,-0.03405311,0.0
1202444026,-0.031247701,-0.03257929,0.00899314,0.013674171,-0.010018109,-0.034107577,0.0
1202476033,-0.034416616,-0.029864626,0.0024949368,0.013683408,-0.010079115,-0.034147907,0.0
1202508056,-0.050975982,-0.05850012,0.0069794897,0.013694905,-0.010097652,-0.034181118,0.0
1202544058,-0.03773974,-0.076021224,-0.00040192917,0.013703911,-0.010078714,-0.034191735,0.0
1202576115,-0.061465293,-0.06699994,-0.0015549895,0.013732268,-0.010055934,-0.034188304,0.0
1202604040,-0.06090469,-0.052229077,-0.003915051,0.013765028,-0.010047428,-0.034167558,0.0
1202636113,-0.027316255,-0.022444073,-0.012373481,0.01379979,-0.010067386,-0.034114342,0.0
1202668021,-0.036503285,-0.008712379,-0.011728426,0.013848463,-0.010108389,-0.03405021,0.0
1202700058,-0.039871097,0.00908369,-0.013514726,0.013894973,-0.010169621,-0.033959877,0.0
1202732032,-0.033690646,0.0027861781,-0.014289413,0.01393843,-0.010226169,-0.03384975,0.0
1202764127,-0.03644262,-0.02643297,-0.01726882,0.013976215,-0.010277897,-0.033720765,0.0
1202796018,-0.00022106431,-0.0022531245,-0.023034167,0.013984771,-0.010327101,-0.033564795,0.0
1202828058,0.017734053,-0.0068706647,-0.025572976,0.013972047,-0.010354353,-0.033378944,0.0
1202860052,0.01817973,-0.023585174,-0.025081918,0.013935632,-0.010372845,-0.033180073,0.0
1202892132,0.021782683,-0.029590465,-0.024143778,0.013883,-0.010381382,-0.032961242,0.0
1202924049,0.0020044073,-0.041988436,-0.027067568,0.013855946,-0.010356075,-0.032742802,0.0
1202956059,-0.025479125,-0.05715651,-0.025059832,0.013861666,-0.010299729,-0.032511417,0.0
1202988021,-0.024173366,-0.048587725,-0.028642038,0.013889581,-0.010221992,-0.0322587,0.0
1203020131,-0.04227568,-0.068807885,-0.023068368,0.013953645,-0.010109589,-0.032003194,0.0
1203052018,-0.0636316,-0.06525886,-0.027326787,0.01406174,-0.0099808965,-0.031733435,0.0
1203084030,-0.06971927,-0.04939536,-0.030686643,0.014199194,-0.009852373,-0.03144707,0.0
1203116041,-0.07590706,-0.02452824,-0.028961461,0.014363997,-0.009746914,-0.031152984,0.0
1203148060,-0.064154625,0.020251216,-0.025214838,0.014543491,-0.0096845385,-0.030840015,0.0
1203180019,-0.07912779,0.021784913,-0.029706953,0.014746047,-0.009658775,-0.030522233,0.0
1203212017,-0.07004724,0.027093673,-0.03261253,0.014967434,-0.009658322,-0.030170465,0.0
1203240893,-0.06962145,0.031884916,-0.03109979,0.015171198,-0.00967576,-0.029851949,0.0
1203273657,-0.039664563,0.055397168,-0.031317335,0.015396983,-0.009719332,-0.029472623,0.0
1203305717,-0.037443828,0.03203619,-0.029126437,0.015637953,-0.009729217,-0.029098485,0.0
1203337654,-0.039162472,0.0031027924,-0.026607022,0.015872436,-0.009708455,-0.028729843,0.0
1203369674,-0.0039775614,0.010250889,-0.028242093,0.0160889,-0.009667549,-0.02835006,0.0
1203401633,-0.0038258433,-0.00017650239,-0.023060186,0.016305113,-0.009606494,-0.027981764,0.0
1203433621,0.0019088667,-0.021707049,-0.015508242,0.016525697,-0.009525897,-0.027630866,0.0
1203465666,0.020989528,-0.018403847,-0.020051386,0.016742736,-0.009426561,-0.027298301,0.0
1203497689,0.0019037612,-0.009576142,-0.010386826,0.01697383,-0.009326335,-0.026977818,0.0
1203529631,-0.0030620154,-0.0043442324,-0.008987868,0.017226625,-0.009228069,-0.026678165,0.0
1203561632,-0.013245167,-0.0007224139,-0.005564927,0.017504282,-0.0091393925,-0.026381735,0.0
1203593643,-0.024589818,0.013785746,-0.0020195404,0.01781549,-0.009069353,-0.02612112,0.0
1203625662,-0.005102778,0.02619717,0.0007790026,0.018137282,-0.009004137,-0.02587551,0.0
1203657668,0.010824736,0.009270817,0.0034672746,0.01846073,-0.00892802,-0.02564779,0.0
1203689635,0.0036564395,-0.032886244,0.0022818428,0.018770874,-0.008820978,-0.025431095,0.0
1203721667,0.039321195,0.00034982152,0.003528848,0.019060899,-0.008701205,-0.025227295,0.0
1203753665,0.036565,-0.0025194865,0.015323172,0.019337894,-0.008555715,-0.025068197,0.0
1203785694,0.055959158,-0.0121526085,0.01479651,0.019594071,-0.0083978,-0.024921862,0.0
1203817645,0.07534169,-0.02298712,0.014017819,0.019824687,-0.008244967,-0.024794925,0.0
1203849676,0.07937698,-0.004962815,0.02347142,0.020036483,-0.008097932,-0.024698103,0.0
1203881659,0.09358311,0.026694681,0.017596403,0.020235367,-0.007951089,-0.024629036,0.0
1203913620,0.076575816,0.00026077963,0.02492745,0.020430222,-0.0077989013,-0.024563685,0.0
1203945659,0.09595041,-0.0052253306,0.02095789,0.020608671,-0.00764734,-0.024522578,0.0
1203977641,0.119224176,0.038704507,0.022478886,0.020770138,-0.007515764,-0.024499409,0.0
1204009683,0.07268898,0.014130093,0.03240978,0.020930797,-0.0073680677,-0.024515867,0.0
1204041695,0.077220306,0.024333254,0.02791356,0.021084936,-0.007225491,-0.024532922,0.0
1204073634,0.06665767,0.006266538,0.0261537,0.021247953,-0.0070856474,-0.024558274,0.0
1204105637,0.08525915,0.0382094,0.023874654,0.0214138,-0.0069575864,-0.024583591,0.0
1204137673,0.07130095,0.04272087,0.025798364,0.021573696,-0.0068374793,-0.024613399,0.0
1204169677,0.062559664,0.022294963,0.021919347,0.021744004,-0.006700698,-0.024641976,0.0
1204201624,0.050663546,0.010034051,0.023900652,0.021914274,-0.0065534036,-0.0246739,0.0
1204233628,0.061041936,0.031924546,0.01693537,0.022093937,-0.0064160274,-0.024708726,0.0
1204265695,0.05462099,0.034039944,0.019617204,0.022275576,-0.0062851096,-0.024755735,0.0
1204297665,0.06591594,0.03630291,0.018352248,0.022435153,-0.006165325,-0.024798853,0.0
1204329710,0.059251882,0.042649955,0.025564168,0.022579437,-0.006058088,-0.02486267,0.0
1204361634,0.055209998,0.0328091,0.021358335,0.02270058,-0.005951086,-0.024928862,0.0
1204393684,0.08311868,0.03492138,0.01981143,0.022794599,-0.00584098,-0.025010908,0.0
1204425648,0.08177358,0.028482355,0.024294952,0.022871919,-0.0057227705,-0.025100732,0.0
1204457683,0.08696741,0.05873575,0.019337544,0.022927677,-0.0056142844,-0.02519852,0.0
1204489639,0.06793805,0.045230713,0.024808675,0.022979258,-0.0055175475,-0.025301138,0.0
1204521720,0.06572737,0.040766917,0.021855753,0.023023037,-0.0054499633,-0.025417205,0.0
1204553663,0.06864354,0.055060193,0.012991851,0.023069745,-0.005402162,-0.025516266,0.0
1204585677,0.050238043,0.061039824,0.013648391,0.023120007,-0.005354971,-0.02561456,0.0
1204617624,0.058711946,0.059743747,0.017432418,0.023155877,-0.0053068404,-0.025718324,0.0
1204649649,0.042791747,0.044659782,0.01747219,0.02319231,-0.005261207,-0.025815608,0.0
1204681685,0.0073595364,0.04024949,0.012123428,0.02324816,-0.005224574,-0.025910756,0.0
1204713632,0.012418855,0.046973888,0.0064051324,0.023302479,-0.0051945383,-0.025981449,0.0
1204745653,0.025249328,0.043669872,0.00637812,0.023361031,-0.005162462,-0.026050104,0.0
1204777668,0.02795793,0.061910667,0.008306765,0.023404839,-0.005152528,-0.026105283,0.0
1204809670,-0.006083263,0.049308527,0.0024884788,0.023452146,-0.005144864,-0.026152791,0.0
1204841628,-0.022875926,0.017373092,0.0058456697,0.023512952,-0.0051356438,-0.026192354,0.0
1204873626,0.008484446,0.0301246,0.0019563017,0.023572497,-0.005140564,-0.026237715,0.0
1204905661,0.003695555,0.052775405,-0.0022204656,0.023636216,-0.0051659974,-0.02627103,0.0
1204937702,-0.030738026,0.0514184,0.0026884838,0.023707518,-0.0052050357,-0.026300294,0.0
1204969633,-0.034779638,0.052023288,-0.0046774885,0.02379623,-0.005261023,-0.026305122,0.0
1205001679,-0.0462378,0.040191893,-0.0050374097,0.0239056,-0.0053358413,-0.026286028,0.0
1205033636,-0.050028592,0.055284113,-0.013841786,0.024027685,-0.005439975,-0.026231086,0.0
1205065682,-0.048678108,0.06382382,-0.013079883,0.024154115,-0.0055649485,-0.026165528,0.0
1205097631,-0.04952908,0.040998008,-0.010608771,0.024286924,-0.0056915474,-0.026076661,0.0
1205129683,-0.041943837,0.03594866,-0.013792576,0.024424268,-0.005812503,-0.025979862,0.0
1205161645,-0.06384031,0.006481761,-0.018555254,0.024584098,-0.005925264,-0.025859706,0.0
1205193704,-0.045633454,0.002776241,-0.023679985,0.02473349,-0.006035747,-0.025716087,0.0
1205225631,-0.022812083,-0.008138558,-0.020319864,0.02487243,-0.0061350465,-0.025564617,0.0
1205257656,-0.02413167,-0.027914306,-0.016199678,0.025003025,-0.006215991,-0.025410594,0.0
1205289641,-0.018436452,-0.029431349,-0.016425364,0.025111223,-0.006285805,-0.025248896,0.0
1205321663,-0.010909999,-0.04118549,-0.019065939,0.025196446,-0.0063436707,-0.025089053,0.0
1205353647,-0.0029853154,-0.04649223,-0.014852524,0.025261188,-0.00640176,-0.024924947,0.0
1205385636,0.023677532,-0.057790466,-0.01223564,0.025305348,-0.006441993,-0.024767842,0.0
1205417623,0.0038749743,-0.07155345,-0.011607548,0.025357593,-0.006461338,-0.024610683,0.0
1205449666,-0.011052826,-0.06734369,-0.014785238,0.025412446,-0.006478516,-0.024461431,0.0
1205481682,-0.009633789,-0.06271446,-0.011322193,0.025463875,-0.006492601,-0.024313644,0.0
1205513629,-0.017597878,-0.077705905,-0.0063285725,0.02553482,-0.0064923274,-0.024184367,0.0
1205545638,-0.015351715,-0.0646272,0.002144853,0.025608547,-0.0064888187,-0.024076914,0.0
1205577697,-0.017861264,-0.0634681,-0.0020381087,0.025671078,-0.006490186,-0.023979977,0.0
1205609712,-0.013115689,-0.0643232,0.004252376,0.025708674,-0.0064945915,-0.023920665,0.0
1205641629,0.033169694,-0.043727968,0.008007417,0.025715956,-0.0065080794,-0.023878086,0.0
1205673680,0.019081539,-0.043578386,0.012796525,0.02571146,-0.0065274285,-0.023871418,0.0
1205705675,4.2945147e-05,-0.047706738,0.013871036,0.02569366,-0.0065577934,-0.023874486,0.0
