timestamp,timestamp_sample,control[0],control[1],control[2],control[3],control[4],control[5],control[6],control[7]
1184732000,1184731869,-0.026075892,0.0077623622,-0.00023659201,0.47981113,0.0,0.0,0.0,-1.0
1184856861,1184856669,-0.026744109,0.008068772,0.00025110404,0.504857,0.0,0.0,0.0,-1.0
1184897656,1184897469,-0.027367461,0.008090767,7.91419e-05,0.51293635,0.0,0.0,0.0,-1.0
1184941626,1184941469,-0.027530484,0.008589798,0.00082024495,0.52203405,0.0,0.0,0.0,-1.0
1184981617,1184981478,-0.028489567,0.008520988,0.00080152473,0.530043,0.0,0.0,0.0,-1.0
1185025668,1185025472,-0.029011471,0.0090071,0.000100040896,0.5387508,0.0,0.0,0.0,-1.0
1185065643,1185065469,-0.03018704,0.008403843,0.0016955327,0.54694456,0.0,0.0,0.0,-1.0
1185109631,1185109484,-0.032555163,0.010153692,0.00054249377,0.5554431,0.0,0.0,0.0,-1.0
1185149605,1185149468,-0.029666549,0.0081123905,-0.007878333,0.56372386,0.0,0.0,0.0,-1.0
1185193638,1185193469,-0.032194376,0.0065929685,0.006732312,0.57249373,0.0,0.0,0.0,-1.0
1185233653,1185233469,-0.01873234,0.0019301277,-0.0031453934,0.5801761,0.0,0.0,0.0,-1.0
1185277614,1185277469,-0.036680996,0.026714165,-0.010469729,0.59061223,0.0,0.0,0.0,-1.0
1185317607,1185317468,-0.033821072,-0.003595836,0.02470826,0.5986506,0.0,0.0,0.0,-1.0
1185361677,1185361494,-0.040790632,0.010126676,-0.0003950592,0.60840625,0.0,0.0,0.0,-1.0
1185401633,1185401469,-0.04694506,0.018925393,-0.015007745,0.61547697,0.0,0.0,0.0,-1.0
1185445648,1185445513,-0.0358732,0.014899729,0.0008443681,0.62549806,0.0,0.0,0.0,-1.0
1185485611,1185485470,-0.033897437,0.008537655,-0.0018491809,0.6341919,0.0,0.0,0.0,-1.0
1185529694,1185529500,-0.03778019,0.008022692,-0.0017391084,0.64331794,0.0,0.0,0.0,-1.0
1185569662,1185569469,-0.02702127,0.0068750763,-0.0010563267,0.65247285,0.0,0.0,0.0,-1.0
1185610442,1185610275,-0.03294015,0.004794161,-0.0040129106,0.6609526,0.0,0.0,0.0,-1.0
1185651283,1185651115,-0.034346495,0.009080364,0.0030133107,0.66974723,0.0,0.0,0.0,-1.0
1185695260,1185695069,-0.03305735,0.010124023,0.0007846983,0.68069077,0.0,0.0,0.0,-1.0
1185747210,1185747069,-0.010750444,0.009812748,-0.0070830067,0.68958473,0.0,0.0,0.0,-1.0
1185791299,1185791113,0.034877364,0.01750531,-0.01783246,0.6891213,0.0,0.0,0.0,-1.0
1185835220,1185835069,0.094437286,0.016511764,-0.0046101925,0.6903112,0.0,0.0,0.0,-1.0
1185875220,1185875069,0.13436648,0.020222604,5.6087156e-06,0.695029,0.0,0.0,0.0,-1.0
1185919218,1185919069,0.10830465,-0.00016376004,-0.0030364923,0.674929,0.0,0.0,0.0,-1.0
1185959245,1185959086,0.06969939,-0.015433855,-0.0069645136,0.64375865,0.0,0.0,0.0,-1.0
1186003240,1186003069,0.0562746,-0.03062821,-0.0022539208,0.6173149,0.0,0.0,0.0,-1.0
1186047268,1186047077,0.07739328,-0.013500495,-0.010284911,0.6045115,0.0,0.0,0.0,-1.0
1186091231,1186091068,0.05354473,-0.029009098,-0.024142796,0.57408303,0.0,0.0,0.0,-1.0
1186131215,1186131069,0.028634943,-0.011779815,-0.03092039,0.551851,0.0,0.0,0.0,-1.0
1186175215,1186175069,0.019693417,0.0048691453,-0.033837475,0.53584343,0.0,0.0,0.0,-1.0
1186215224,1186215069,0.0022804327,-0.00435635,-0.03595759,0.52292484,0.0,0.0,0.0,-1.0
1186259247,1186259092,-0.005443971,0.009744914,-0.037812814,0.51616204,0.0,0.0,0.0,-1.0
1186303311,1186303068,9.882171e-05,-0.00050933054,-0.038929116,0.5126235,0.0,0.0,0.0,-1.0
1186343252,1186343069,-0.012962279,-0.0146005675,-0.037791222,0.51299745,0.0,0.0,0.0,-1.0
1186387283,1186387106,-0.02321478,-0.01685055,-0.03680638,0.50940883,0.0,0.0,0.0,-1.0
1186427253,1186427100,-0.018644774,-0.012108806,-0.03973234,0.5083405,0.0,0.0,0.0,-1.0
1186467224,1186467069,0.0017966451,-0.018343078,-0.038637593,0.50844455,0.0,0.0,0.0,-1.0
1186511227,1186511069,0.0054772003,-0.0162172,-0.038443472,0.5100509,0.0,0.0,0.0,-1.0
1186551220,1186551069,0.00061080325,-0.005486883,-0.04038389,0.50840896,0.0,0.0,0.0,-1.0
1186595267,1186595101,-0.006355049,-0.004990473,-0.038619347,0.5128507,0.0,0.0,0.0,-1.0
1186635217,1186635075,-0.003958952,-0.004087133,-0.035882868,0.5118463,0.0,0.0,0.0,-1.0
1186675228,1186675080,-0.0069025033,-0.0066940784,-0.033533838,0.51385176,0.0,0.0,0.0,-1.0
1186715254,1186715069,-0.014509308,-0.0066429456,-0.032088686,0.5178783,0.0,0.0,0.0,-1.0
1186759215,1186759071,-0.016602565,-0.005161266,-0.032058485,0.5186519,0.0,0.0,0.0,-1.0
1186799215,1186799075,-0.008006528,-0.005224212,-0.03414441,0.51924103,0.0,0.0,0.0,-1.0
1186843262,1186843089,-0.0033228276,-0.003944372,-0.03314556,0.5222588,0.0,0.0,0.0,-1.0
1186883279,1186883068,-0.0071042,-0.002625112,-0.03474982,0.5235115,0.0,0.0,0.0,-1.0
1186927218,1186927069,-0.005354084,-0.004096457,-0.033951998,0.5245512,0.0,0.0,0.0,-1.0
1186967223,1186967068,-0.002119583,-0.0007295697,-0.035169713,0.5221656,0.0,0.0,0.0,-1.0
1187011261,1187011069,0.003268722,0.002269619,-0.035067137,0.5232238,0.0,0.0,0.0,-1.0
1187051267,1187051069,0.00046908215,-0.0021936449,-0.034107298,0.52562463,0.0,0.0,0.0,-1.0
1187095231,1187095080,0.004420473,-0.0012139385,-0.03436586,0.52643365,0.0,0.0,0.0,-1.0
1187135211,1187135069,0.0065456037,0.002414628,-0.034339204,0.5267227,0.0,0.0,0.0,-1.0
1187179231,1187179069,0.011208147,0.00592532,-0.034090213,0.52759165,0.0,0.0,0.0,-1.0
1187219234,1187219069,0.008532311,0.0076080686,-0.036028303,0.53108376,0.0,0.0,0.0,-1.0
1187263259,1187263069,0.00987726,0.00069308653,-0.035674527,0.5318657,0.0,0.0,0.0,-1.0
1187303250,1187303075,0.009491743,-0.005501299,-0.035725437,0.534132,0.0,0.0,0.0,-1.0
1187347257,1187347069,0.007880581,-0.009581036,-0.036782872,0.534294,0.0,0.0,0.0,-1.0
1187387259,1187387070,0.0078638205,-0.010952018,-0.03616544,0.5335758,0.0,0.0,0.0,-1.0
1187431214,1187431069,0.0036718803,-0.010710399,-0.03669347,0.5325328,0.0,0.0,0.0,-1.0
1187471221,1187471069,0.0036745935,-0.009766445,-0.03957008,0.53418314,0.0,0.0,0.0,-1.0
1187515249,1187515069,-0.001992969,-0.010088581,-0.039257657,0.5365637,0.0,0.0,0.0,-1.0
1187555244,1187555069,-0.0011415458,-0.008138733,-0.038441204,0.5362063,0.0,0.0,0.0,-1.0
1187599219,1187599069,-0.0005347952,-0.0053684507,-0.038455825,0.5358268,0.0,0.0,0.0,-1.0
1187639205,1187639069,0.0027077277,-0.008206122,-0.039193593,0.53623676,0.0,0.0,0.0,-1.0
1187683305,1187683075,0.0051452485,-0.008587964,-0.039937034,0.53533447,0.0,0.0,0.0,-1.0
1187727220,1187727081,0.0066740117,-0.009790771,-0.03795433,0.5354097,0.0,0.0,0.0,-1.0
1187771255,1187771070,0.005519934,-0.011817529,-0.037838552,0.5358577,0.0,0.0,0.0,-1.0
1187815252,1187815075,0.004342694,-0.014470195,-0.035747506,0.5386092,0.0,0.0,0.0,-1.0
1187855230,1187855069,0.0019268807,-0.010964745,-0.035295714,0.5371884,0.0,0.0,0.0,-1.0
1187895219,1187895069,0.004786325,-0.0047023376,-0.03556418,0.53474504,0.0,0.0,0.0,-1.0
1187939255,1187939069,0.0025387257,-0.0066695153,-0.0344304,0.5389214,0.0,0.0,0.0,-1.0
1187979244,1187979069,0.004645676,-0.009202104,-0.033606187,0.541202,0.0,0.0,0.0,-1.0
1188019254,1188019069,0.0049236775,-0.0075854044,-0.031730756,0.5390434,0.0,0.0,0.0,-1.0
1188059283,1188059077,0.008874968,-0.0049010655,-0.033828944,0.5365162,0.0,0.0,0.0,-1.0
1188103249,1188103070,0.005959398,-0.008298705,-0.03388378,0.5400646,0.0,0.0,0.0,-1.0
1188143260,1188143077,0.009119072,-0.011835534,-0.033102863,0.543127,0.0,0.0,0.0,-1.0
1188187205,1188187069,0.0065280367,-0.012625326,-0.033427306,0.54496634,0.0,0.0,0.0,-1.0
1188231221,1188231069,0.008548337,-0.009859796,-0.0330012,0.5440648,0.0,0.0,0.0,-1.0
1188275275,1188275069,0.010520446,-0.011868306,-0.03406909,0.54307544,0.0,0.0,0.0,-1.0
1188319270,1188319079,0.009203969,-0.014003657,-0.033691972,0.5446619,0.0,0.0,0.0,-1.0
1188359234,1188359069,0.009120455,-0.011733922,-0.034800626,0.54207736,0.0,0.0,0.0,-1.0
1188399207,1188399069,0.011335093,-0.008723426,-0.036067337,0.5404453,0.0,0.0,0.0,-1.0
1188443279,1188443069,0.009993302,-0.014096598,-0.03530897,0.54134816,0.0,0.0,0.0,-1.0
1188483300,1188483070,0.008330403,-0.011945165,-0.03498815,0.5434682,0.0,0.0,0.0,-1.0
1188527233,1188527069,0.0069900514,-0.017024128,-0.03325325,0.5467737,0.0,0.0,0.0,-1.0
1188567220,1188567075,0.009672995,-0.014511429,-0.032723896,0.543877,0.0,0.0,0.0,-1.0
1188611222,1188611069,0.012827278,-0.014690314,-0.033072725,0.5465906,0.0,0.0,0.0,-1.0
1188651223,1188651069,0.013685975,-0.013717487,-0.033024568,0.5447389,0.0,0.0,0.0,-1.0
1188695260,1188695107,0.015633516,-0.0115182325,-0.033003237,0.54489625,0.0,0.0,0.0,-1.0
1188735219,1188735080,0.0148290945,-0.0106933005,-0.033398475,0.5455811,0.0,0.0,0.0,-1.0
1188779216,1188779069,0.015319989,-0.010160462,-0.034768924,0.5456032,0.0,0.0,0.0,-1.0
1188819204,1188819069,0.015515073,-0.008719162,-0.033781316,0.545024,0.0,0.0,0.0,-1.0
1188859253,1188859082,0.01682814,-0.004306158,-0.03449012,0.542571,0.0,0.0,0.0,-1.0
1188903251,1188903081,0.014883886,-0.006381174,-0.0330596,0.5426578,0.0,0.0,0.0,-1.0
1188947220,1188947069,0.013559895,-0.0062751845,-0.032387916,0.54453844,0.0,0.0,0.0,-1.0
1188987216,1188987069,0.013029982,-0.0073478823,-0.035051774,0.5452896,0.0,0.0,0.0,-1.0
1189031249,1189031095,0.013952653,-0.0044502555,-0.034110874,0.54368776,0.0,0.0,0.0,-1.0
1189071246,1189071091,0.011104656,-0.0063395165,-0.032493535,0.5458542,0.0,0.0,0.0,-1.0
1189115224,1189115074,0.012640368,-0.0022261303,-0.034025002,0.54214704,0.0,0.0,0.0,-1.0
1189155210,1189155069,0.013523248,-0.0005204172,-0.03327961,0.5416896,0.0,0.0,0.0,-1.0
1189195211,1189195069,0.013539202,-0.0015883176,-0.034629878,0.54012084,0.0,0.0,0.0,-1.0
1189235204,1189235068,0.011832189,-0.0043182033,-0.034471337,0.5424475,0.0,0.0,0.0,-1.0
1189279246,1189279094,0.011347413,-0.005761784,-0.035565097,0.5435889,0.0,0.0,0.0,-1.0
1189319243,1189319069,0.011828759,-0.0034207243,-0.03513616,0.5420053,0.0,0.0,0.0,-1.0
1189363240,1189363069,0.011813847,-0.00685217,-0.03515894,0.5420964,0.0,0.0,0.0,-1.0
1189403235,1189403069,0.018495347,-0.004892938,-0.034114167,0.53943646,0.0,0.0,0.0,-1.0
1189447265,1189447069,0.0165135,-0.005416497,-0.03368266,0.53910017,0.0,0.0,0.0,-1.0
1189487275,1189487069,0.016190987,-0.0082518635,-0.032514147,0.54413563,0.0,0.0,0.0,-1.0
1189531220,1189531069,0.01525133,-0.0074313544,-0.031419184,0.5421617,0.0,0.0,0.0,-1.0
1189575263,1189575068,0.016838247,-0.004599752,-0.034727987,0.54090786,0.0,0.0,0.0,-1.0
1189619212,1189619069,0.01570321,-0.0055851648,-0.034683548,0.54171634,0.0,0.0,0.0,-1.0
1189659239,1189659081,0.015544578,-0.0073156967,-0.03356027,0.53992295,0.0,0.0,0.0,-1.0
1189703282,1189703105,0.010205147,-0.009811905,-0.032553773,0.5419215,0.0,0.0,0.0,-1.0
1189743269,1189743069,0.012293201,-0.006671144,-0.031674866,0.5383686,0.0,0.0,0.0,-1.0
1189787212,1189787069,0.009689432,-0.0057482477,-0.031279653,0.53988594,0.0,0.0,0.0,-1.0
1189827220,1189827069,0.011515136,-0.009302458,-0.029929945,0.54090774,0.0,0.0,0.0,-1.0
1189871258,1189871069,0.011596958,-0.006260585,-0.030016024,0.54016334,0.0,0.0,0.0,-1.0
1189911268,1189911077,0.009511153,-0.007436254,-0.028345762,0.5399345,0.0,0.0,0.0,-1.0
1189955227,1189955076,0.012791728,-0.006215392,-0.028867358,0.53804374,0.0,0.0,0.0,-1.0
1189995204,1189995069,0.014559845,-0.003977044,-0.028094336,0.53557205,0.0,0.0,0.0,-1.0
1190036055,1190035914,0.017871065,-0.0053214477,-0.028680949,0.5359983,0.0,0.0,0.0,-1.0
1190080809,1190080669,0.01969644,-0.0048195207,-0.029804997,0.53506994,0.0,0.0,0.0,-1.0
1190120899,1190120714,0.017369166,-0.0072788685,-0.029248036,0.5360705,0.0,0.0,0.0,-1.0
1190164811,1190164669,0.017869651,-0.0084117595,-0.028436633,0.5368518,0.0,0.0,0.0,-1.0
1190204809,1190204669,0.020357354,-0.0059196637,-0.02961386,0.53446484,0.0,0.0,0.0,-1.0
1190248837,1190248698,0.015856354,-0.005543341,-0.028954748,0.5351613,0.0,0.0,0.0,-1.0
1190292812,1190292669,0.013651935,-0.0020365599,-0.027445655,0.53641135,0.0,0.0,0.0,-1.0
1190336813,1190336669,0.014747243,0.0012811215,-0.027807299,0.53424287,0.0,0.0,0.0,-1.0
1190380809,1190380669,0.015276722,0.0005144241,-0.028113835,0.53208345,0.0,0.0,0.0,-1.0
1190420820,1190420669,0.015641566,0.0016701083,-0.029039603,0.5335201,0.0,0.0,0.0,-1.0
1190464812,1190464671,0.015686553,-0.0012823103,-0.028798655,0.530955,0.0,0.0,0.0,-1.0
1190504817,1190504669,0.014453119,-0.0032780555,-0.029823981,0.53598064,0.0,0.0,0.0,-1.0
1190544835,1190544696,0.011964867,-0.0038458412,-0.027936151,0.53668356,0.0,0.0,0.0,-1.0
1190584840,1190584696,0.012807952,-0.0030124406,-0.028203119,0.5353526,0.0,0.0,0.0,-1.0
1190628801,1190628669,0.016120864,-0.0024874771,-0.029268537,0.535562,0.0,0.0,0.0,-1.0
1190672835,1190672693,0.016169209,-0.002687641,-0.029441657,0.53723687,0.0,0.0,0.0,-1.0
1190716815,1190716669,0.015819617,-0.0021948966,-0.029207867,0.5355587,0.0,0.0,0.0,-1.0
1190756817,1190756668,0.014600309,-0.0029254989,-0.030878063,0.5386803,0.0,0.0,0.0,-1.0
1190800820,1190800678,0.013478607,-0.0018154043,-0.030172097,0.536705,0.0,0.0,0.0,-1.0
1190840845,1190840705,0.011845575,-0.0008902217,-0.029202951,0.5375898,0.0,0.0,0.0,-1.0
1190884819,1190884675,0.011747206,-7.558975e-05,-0.031142445,0.53551656,0.0,0.0,0.0,-1.0
1190924816,1190924669,0.016640464,0.0034882056,-0.030479098,0.5357421,0.0,0.0,0.0,-1.0
1190968829,1190968690,0.01773816,0.003784605,-0.033941653,0.53301233,0.0,0.0,0.0,-1.0
1191008845,1191008691,0.018230945,0.005431241,-0.032221477,0.5340495,0.0,0.0,0.0,-1.0
1191052818,1191052669,0.01867897,0.00459399,-0.033192996,0.53201467,0.0,0.0,0.0,-1.0
1191092855,1191092669,0.018226,0.004993286,-0.034598712,0.53566456,0.0,0.0,0.0,-1.0
1191136815,1191136676,0.017381033,-0.0014882158,-0.032870922,0.53460145,0.0,0.0,0.0,-1.0
1191176839,1191176669,0.015252592,0.0011566002,-0.031917777,0.5345561,0.0,0.0,0.0,-1.0
1191220821,1191220689,0.01438168,-0.0023490814,-0.030242542,0.53396684,0.0,0.0,0.0,-1.0
1191260827,1191260676,0.017012034,0.0022329655,-0.033910573,0.534108,0.0,0.0,0.0,-1.0
1191300816,1191300669,0.016407147,-0.00040574177,-0.034937948,0.53661466,0.0,0.0,0.0,-1.0
1191344854,1191344674,0.015551005,-0.002318709,-0.03354688,0.53699416,0.0,0.0,0.0,-1.0
1191388804,1191388669,0.018163536,-0.002913868,-0.032523483,0.5346538,0.0,0.0,0.0,-1.0
1191428805,1191428669,0.016397644,-0.0002077739,-0.033986863,0.533633,0.0,0.0,0.0,-1.0
1191472896,1191472681,0.017909909,-0.0021981942,-0.03490525,0.53302324,0.0,0.0,0.0,-1.0
1191512854,1191512669,0.019889789,0.0022188518,-0.035960633,0.5332837,0.0,0.0,0.0,-1.0
1191556827,1191556669,0.018244598,-0.0021725204,-0.03524414,0.5328342,0.0,0.0,0.0,-1.0
1191596817,1191596669,0.018504651,-0.00395121,-0.038291343,0.5343639,0.0,0.0,0.0,-1.0
1191640837,1191640669,0.015208821,-0.0095213475,-0.034871116,0.5345158,0.0,0.0,0.0,-1.0
1191680858,1191680669,0.015730329,-0.0046822676,-0.033809967,0.53502643,0.0,0.0,0.0,-1.0
1191724816,1191724669,0.015089061,-0.006201556,-0.0332627,0.5358572,0.0,0.0,0.0,-1.0
1191764815,1191764671,0.015492994,-0.0042114756,-0.034804232,0.532905,0.0,0.0,0.0,-1.0
1191804809,1191804669,0.015477334,-0.0031269002,-0.035938315,0.536746,0.0,0.0,0.0,-1.0
1191848843,1191848669,0.017154677,-0.0048230244,-0.03352486,0.5366853,0.0,0.0,0.0,-1.0
1191888836,1191888669,0.015015154,-0.0026784374,-0.03334053,0.5358759,0.0,0.0,0.0,-1.0
1191928808,1191928669,0.015144839,-0.0020962819,-0.033700477,0.53549945,0.0,0.0,0.0,-1.0
1191972811,1191972669,0.019520793,-3.6358077e-05,-0.03414663,0.5337291,0.0,0.0,0.0,-1.0
1192016858,1192016669,0.022630835,-0.0006178643,-0.034529164,0.5329048,0.0,0.0,0.0,-1.0
1192056860,1192056670,0.020813458,-0.0032422664,-0.03159228,0.53604084,0.0,0.0,0.0,-1.0
1192100812,1192100669,0.020004584,-0.00681458,-0.031246012,0.53614664,0.0,0.0,0.0,-1.0
1192140811,1192140669,0.018420039,-0.003260872,-0.03265377,0.53570205,0.0,0.0,0.0,-1.0
1192184847,1192184670,0.017653532,-0.007079124,-0.029253988,0.5369424,0.0,0.0,0.0,-1.0
1192224805,1192224669,0.016538825,-0.0008203775,-0.03105674,0.5350649,0.0,0.0,0.0,-1.0
1192264817,1192264669,0.015554355,-0.0027629011,-0.030788505,0.5377334,0.0,0.0,0.0,-1.0
1192308809,1192308669,0.0136544285,-0.0051965225,-0.02998777,0.5386314,0.0,0.0,0.0,-1.0
1192352861,1192352669,0.017591938,-0.0062467186,-0.027460797,0.5389899,0.0,0.0,0.0,-1.0
1192392810,1192392671,0.012313672,-0.006139557,-0.027387949,0.53901297,0.0,0.0,0.0,-1.0
1192436811,1192436669,0.015121027,-0.004711575,-0.024976075,0.53725505,0.0,0.0,0.0,-1.0
1192476819,1192476670,0.012463279,-0.0024093648,-0.025868958,0.5373058,0.0,0.0,0.0,-1.0
1192516824,1192516673,0.012592348,-0.0034381354,-0.026900671,0.53833604,0.0,0.0,0.0,-1.0
1192556897,1192556718,0.009116566,-0.008605955,-0.024505667,0.5397946,0.0,0.0,0.0,-1.0
1192600810,1192600669,0.010607676,-0.004794543,-0.025205899,0.53889215,0.0,0.0,0.0,-1.0
1192640805,1192640669,0.010117957,-0.004318885,-0.025216084,0.5380743,0.0,0.0,0.0,-1.0
1192684854,1192684708,0.013769928,-0.002272752,-0.026557751,0.53764087,0.0,0.0,0.0,-1.0
1192724878,1192724679,0.01577545,-0.002077885,-0.027038412,0.53675777,0.0,0.0,0.0,-1.0
1192768808,1192768672,0.016921178,-0.0016114018,-0.028323071,0.53686744,0.0,0.0,0.0,-1.0
1192812835,1192812688,0.015935073,-0.002101551,-0.029332565,0.53942734,0.0,0.0,0.0,-1.0
1192852885,1192852717,0.013869406,-0.0037164548,-0.0304777,0.53900415,0.0,0.0,0.0,-1.0
1192892898,1192892669,0.013022483,-0.0021429425,-0.03209553,0.53997076,0.0,0.0,0.0,-1.0
1192936808,1192936669,0.01007521,-0.003206766,-0.030829448,0.5413097,0.0,0.0,0.0,-1.0
1192980833,1192980701,0.008229787,-0.0030827995,-0.03141372,0.54280674,0.0,0.0,0.0,-1.0
1193024809,1193024669,0.01109263,-0.0013098205,-0.031232398,0.5414692,0.0,0.0,0.0,-1.0
1193064817,1193064670,0.010011841,0.0007247433,-0.03148915,0.54069793,0.0,0.0,0.0,-1.0
1193108862,1193108720,0.012042334,0.0030949824,-0.032269355,0.5376763,0.0,0.0,0.0,-1.0
1193148925,1193148691,0.013389796,0.0032021878,-0.03521401,0.5397058,0.0,0.0,0.0,-1.0
1193192811,1193192669,0.015691692,0.0024081278,-0.03519532,0.53839946,0.0,0.0,0.0,-1.0
1193232811,1193232669,0.01569744,-0.0005638194,-0.035513863,0.54209447,0.0,0.0,0.0,-1.0
1193276858,1193276711,0.013314709,-0.0055219363,-0.03368915,0.54276466,0.0,0.0,0.0,-1.0
1193316846,1193316679,0.012246979,-0.0024177092,-0.033559512,0.5408367,0.0,0.0,0.0,-1.0
1193360815,1193360669,0.011695349,-0.005307277,-0.03323295,0.54218537,0.0,0.0,0.0,-1.0
1193404845,1193404702,0.01248046,-0.0038125888,-0.03341364,0.5431216,0.0,0.0,0.0,-1.0
1193444836,1193444696,0.016230647,-0.00080073636,-0.035320476,0.5415471,0.0,0.0,0.0,-1.0
1193488812,1193488669,0.015595541,0.0007348438,-0.036220577,0.5415613,0.0,0.0,0.0,-1.0
1193528818,1193528670,0.013017607,-0.0019659442,-0.035559457,0.54296374,0.0,0.0,0.0,-1.0
1193572839,1193572687,0.010042084,-0.0021656435,-0.0359822,0.5423138,0.0,0.0,0.0,-1.0
1193612838,1193612669,0.0105499495,-0.0029209657,-0.03624749,0.5423393,0.0,0.0,0.0,-1.0
1193656811,1193656669,0.006336489,-0.0029901946,-0.034352843,0.54196036,0.0,0.0,0.0,-1.0
1193696816,1193696669,0.007828623,-0.0019386353,-0.033969164,0.54197913,0.0,0.0,0.0,-1.0
1193740845,1193740700,0.00794905,0.0005790896,-0.032785498,0.5417965,0.0,0.0,0.0,-1.0
1193780869,1193780669,0.0052699316,-0.0026405524,-0.035117015,0.544046,0.0,0.0,0.0,-1.0
1193820844,1193820669,0.0077680466,-0.004812908,-0.033269774,0.5459355,0.0,0.0,0.0,-1.0
1193864817,1193864669,0.010620186,-0.0020266697,-0.033155642,0.54421216,0.0,0.0,0.0,-1.0
1193908851,1193908669,0.013565412,0.00011549122,-0.0341503,0.54468215,0.0,0.0,0.0,-1.0
1193948855,1193948669,0.013825503,-0.0007223217,-0.031172018,0.5423216,0.0,0.0,0.0,-1.0
1193988847,1193988669,0.015380404,0.0005411803,-0.033729665,0.5416848,0.0,0.0,0.0,-1.0
1194032819,1194032672,0.016073894,0.0005902508,-0.03298493,0.5423159,0.0,0.0,0.0,-1.0
1194076845,1194076677,0.015815968,-0.00017831696,-0.032501683,0.5431164,0.0,0.0,0.0,-1.0
1194116862,1194116669,0.014712996,-0.0014003813,-0.03221353,0.54611397,0.0,0.0,0.0,-1.0
1194160818,1194160669,0.0130962785,-0.0014033972,-0.029919734,0.545039,0.0,0.0,0.0,-1.0
1194200812,1194200669,0.010864601,-0.0011361447,-0.029133819,0.54625183,0.0,0.0,0.0,-1.0
1194244859,1194244669,0.011656506,-0.00128774,-0.029418057,0.5435532,0.0,0.0,0.0,-1.0
1194284867,1194284669,0.011807663,0.0014901429,-0.029192345,0.5441516,0.0,0.0,0.0,-1.0
1194328811,1194328669,0.014530045,-0.0005650214,-0.030951735,0.54215777,0.0,0.0,0.0,-1.0
1194368810,1194368669,0.013720039,0.005866886,-0.030662008,0.5414084,0.0,0.0,0.0,-1.0
1194412836,1194412669,0.011939648,0.0018715356,-0.030266758,0.5424688,0.0,0.0,0.0,-1.0
1194454464,1194454297,0.010843812,-0.00038335493,-0.03140703,0.5440426,0.0,0.0,0.0,-1.0
1194494446,1194494269,0.009198459,-0.0010765481,-0.03127431,0.5444247,0.0,0.0,0.0,-1.0
1194538463,1194538318,0.00548737,-0.0055205096,-0.031051384,0.5488606,0.0,0.0,0.0,-1.0
1194582466,1194582275,0.007082873,-0.003881616,-0.030224778,0.5501068,0.0,0.0,0.0,-1.0
1194622415,1194622288,0.0059488984,-0.004961885,-0.02915182,0.55028373,0.0,0.0,0.0,-1.0
1194662440,1194662269,0.006204294,-0.0040015895,-0.02971024,0.5482123,0.0,0.0,0.0,-1.0
1194706463,1194706321,0.007519043,-0.0009065242,-0.029595058,0.54679716,0.0,0.0,0.0,-1.0
1194746417,1194746269,0.008688981,-0.004454259,-0.03025281,0.54704726,0.0,0.0,0.0,-1.0
1194790497,1194790310,0.008986218,-0.0013610616,-0.03125828,0.5443077,0.0,0.0,0.0,-1.0
1194830442,1194830269,0.008175328,-0.00537151,-0.029493805,0.54742247,0.0,0.0,0.0,-1.0
1194874463,1194874313,0.0079357345,-0.004408485,-0.031162627,0.54464704,0.0,0.0,0.0,-1.0
1194914402,1194914269,0.0066375113,-0.0047049075,-0.029330445,0.545011,0.0,0.0,0.0,-1.0
1194954410,1194954269,0.00905065,-0.003793218,-0.03045517,0.54417473,0.0,0.0,0.0,-1.0
1194998434,1194998269,0.0069366232,-0.0046603186,-0.030390717,0.5428756,0.0,0.0,0.0,-1.0
1195038444,1195038269,0.007798886,-0.00876248,-0.030265162,0.5462668,0.0,0.0,0.0,-1.0
1195082449,1195082294,0.0077964757,-0.008238049,-0.030192606,0.5450762,0.0,0.0,0.0,-1.0
1195122414,1195122269,0.006549392,-0.009551834,-0.028336316,0.545816,0.0,0.0,0.0,-1.0
1195166453,1195166269,0.00768301,-0.008425176,-0.027827315,0.5444398,0.0,0.0,0.0,-1.0
1195206450,1195206269,0.0075007677,-0.010454202,-0.02762297,0.5447227,0.0,0.0,0.0,-1.0
1195250411,1195250279,0.010742413,-0.0075400686,-0.02760893,0.54304284,0.0,0.0,0.0,-1.0
1195294497,1195294314,0.012711086,-0.007243568,-0.02835893,0.54047513,0.0,0.0,0.0,-1.0
1195334447,1195334269,0.0113181425,-0.0070707,-0.028704008,0.5419996,0.0,0.0,0.0,-1.0
1195378470,1195378318,0.012275136,-0.007454612,-0.029188633,0.5416729,0.0,0.0,0.0,-1.0
1195418421,1195418289,0.011489874,-0.0072234324,-0.030326635,0.5414983,0.0,0.0,0.0,-1.0
1195462464,1195462273,0.008844129,-0.008366994,-0.031727467,0.5430796,0.0,0.0,0.0,-1.0
1195502454,1195502269,0.01067206,-0.0056513734,-0.029916406,0.5412631,0.0,0.0,0.0,-1.0
1195546456,1195546312,0.0087662535,-0.006941839,-0.030905211,0.5441804,0.0,0.0,0.0,-1.0
1195586401,1195586269,0.008702224,-0.0048251124,-0.029791912,0.54084355,0.0,0.0,0.0,-1.0
1195626403,1195626269,0.007556708,-0.0057613296,-0.030284539,0.543415,0.0,0.0,0.0,-1.0
1195666435,1195666291,0.009860385,-0.0038000776,-0.029926566,0.5434957,0.0,0.0,0.0,-1.0
1195710420,1195710281,0.0064043296,-0.0041034524,-0.029996095,0.54375374,0.0,0.0,0.0,-1.0
1195754420,1195754269,0.0064201746,-0.0021548322,-0.029536756,0.545702,0.0,0.0,0.0,-1.0
1195798497,1195798314,0.0061660344,-0.0011695036,-0.028920291,0.54675436,0.0,0.0,0.0,-1.0
1195838401,1195838269,0.008429621,-0.0013851237,-0.02766231,0.5446595,0.0,0.0,0.0,-1.0
1195882480,1195882317,0.010009352,-6.680819e-05,-0.02799414,0.54425246,0.0,0.0,0.0,-1.0
1195922412,1195922269,0.009462138,0.00027467648,-0.03074624,0.54365927,0.0,0.0,0.0,-1.0
1195966499,1195966317,0.010909053,0.0018896749,-0.03172489,0.54279876,0.0,0.0,0.0,-1.0
1196006405,1196006269,0.011597079,0.00027043396,-0.031746622,0.54421943,0.0,0.0,0.0,-1.0
1196050457,1196050312,0.009078154,-5.8861886e-05,-0.031183783,0.5463108,0.0,0.0,0.0,-1.0
1196090412,1196090269,0.007376582,-0.00085231254,-0.03000545,0.54585344,0.0,0.0,0.0,-1.0
1196130434,1196130293,0.008806773,0.00014379522,-0.02989657,0.5436317,0.0,0.0,0.0,-1.0
1196174434,1196174269,0.005166221,-0.0012947248,-0.029497424,0.54587203,0.0,0.0,0.0,-1.0
1196214416,1196214277,0.009467227,0.00012758223,-0.030692505,0.54359365,0.0,0.0,0.0,-1.0
1196258436,1196258277,0.010604756,0.00033254013,-0.031381655,0.5443245,0.0,0.0,0.0,-1.0
1196298451,1196298308,0.0078069833,-0.0023429894,-0.029296713,0.5484493,0.0,0.0,0.0,-1.0
1196338450,1196338301,0.006529599,-0.0022064582,-0.029706173,0.5463586,0.0,0.0,0.0,-1.0
1196382410,1196382269,0.007391425,-0.0016216588,-0.028005997,0.548368,0.0,0.0,0.0,-1.0
1196426466,1196426324,0.01072669,-0.002748129,-0.02885344,0.54655683,0.0,0.0,0.0,-1.0
1196466432,1196466286,0.012864266,0.001483762,-0.0285263,0.5456484,0.0,0.0,0.0,-1.0
1196510408,1196510269,0.014546375,-0.00084074924,-0.028645555,0.5441619,0.0,0.0,0.0,-1.0
1196550412,1196550269,0.01481764,0.0036200937,-0.027854262,0.54390347,0.0,0.0,0.0,-1.0
1196594410,1196594271,0.014049411,0.00018897344,-0.026894934,0.54507804,0.0,0.0,0.0,-1.0
1196634439,1196634269,0.013842627,0.00017310525,-0.027892636,0.54426634,0.0,0.0,0.0,-1.0
1196678430,1196678283,0.012565678,-0.0021999017,-0.027112128,0.5470025,0.0,0.0,0.0,-1.0
1196718420,1196718275,0.011612216,-0.0044813254,-0.026811844,0.54701406,0.0,0.0,0.0,-1.0
1196762437,1196762283,0.009997565,-0.005265433,-0.027057162,0.550041,0.0,0.0,0.0,-1.0
1196802459,1196802269,0.010256441,-0.0022147112,-0.025550291,0.5471084,0.0,0.0,0.0,-1.0
1196846408,1196846269,0.010133199,-0.0012456849,-0.026714746,0.54905134,0.0,0.0,0.0,-1.0
1196886408,1196886269,0.012428679,-0.00014816225,-0.0267757,0.54562867,0.0,0.0,0.0,-1.0
1196930466,1196930269,0.013855143,0.0013192148,-0.02869894,0.5449586,0.0,0.0,0.0,-1.0
1196970452,1196970269,0.015378117,1.4189107e-05,-0.030490646,0.5439046,0.0,0.0,0.0,-1.0
1197014405,1197014269,0.015049979,0.0018825673,-0.03094828,0.543105,0.0,0.0,0.0,-1.0
1197054420,1197054279,0.01300752,-0.0012562495,-0.030053386,0.54545635,0.0,0.0,0.0,-1.0
1197098441,1197098270,0.009362548,0.00095224375,-0.030529305,0.5451575,0.0,0.0,0.0,-1.0
1197138456,1197138281,0.009421866,-0.0021982188,-0.030643921,0.5472391,0.0,0.0,0.0,-1.0
1197182401,1197182269,0.0076475157,-0.0021678368,-0.029486738,0.54537284,0.0,0.0,0.0,-1.0
1197222410,1197222269,0.007933314,-0.0026981093,-0.02910259,0.54669887,0.0,0.0,0.0,-1.0
1197266459,1197266271,0.010425305,-0.0019504786,-0.029148914,0.5448627,0.0,0.0,0.0,-1.0
1197310451,1197310313,0.012492346,-0.0015271106,-0.029577449,0.5456748,0.0,0.0,0.0,-1.0
1197350415,1197350269,0.014271249,-0.00011700159,-0.028679257,0.54327023,0.0,0.0,0.0,-1.0
1197394491,1197394316,0.017204259,0.0019117846,-0.028457412,0.5441036,0.0,0.0,0.0,-1.0
1197434432,1197434271,0.019524164,-0.00023715163,-0.029100388,0.54371905,0.0,0.0,0.0,-1.0
1197478410,1197478271,0.017572176,-0.00038124886,-0.029345894,0.54513246,0.0,0.0,0.0,-1.0
1197518416,1197518280,0.016057938,-0.0020878618,-0.029193278,0.5456144,0.0,0.0,0.0,-1.0
1197562512,1197562318,0.011970845,-0.003192093,-0.02770683,0.546803,0.0,0.0,0.0,-1.0
1197602478,1197602269,0.0099275615,-0.0023205604,-0.028788375,0.5451325,0.0,0.0,0.0,-1.0
1197642441,1197642269,0.010538832,-0.0022765864,-0.029067717,0.54295665,0.0,0.0,0.0,-1.0
1197682413,1197682271,0.012330039,-0.005086408,-0.030260215,0.5444273,0.0,0.0,0.0,-1.0
1197722412,1197722269,0.012059875,-0.006455372,-0.029495144,0.5462347,0.0,0.0,0.0,-1.0
1197766422,1197766275,0.009470118,-0.004837557,-0.029217962,0.54402626,0.0,0.0,0.0,-1.0
1197806415,1197806280,0.011197675,-0.0041976366,-0.029380232,0.54550683,0.0,0.0,0.0,-1.0
1197850404,1197850269,0.011378159,-0.0010593369,-0.03000992,0.5432968,0.0,0.0,0.0,-1.0
1197890413,1197890269,0.012484843,-0.0017440631,-0.031096758,0.54417586,0.0,0.0,0.0,-1.0
1197930415,1197930269,0.0124732535,-0.0024619794,-0.03204798,0.54565895,0.0,0.0,0.0,-1.0
1197970446,1197970297,0.011010427,-0.0045864466,-0.031683683,0.54597884,0.0,0.0,0.0,-1.0
1198014414,1198014273,0.012138096,-0.0014322207,-0.03328232,0.54707724,0.0,0.0,0.0,-1.0
1198054475,1198054326,0.012566079,-0.00023662101,-0.032643046,0.5463881,0.0,0.0,0.0,-1.0
1198098415,1198098272,0.011742932,0.002087812,-0.033659365,0.5456748,0.0,0.0,0.0,-1.0
1198138439,1198138297,0.012753274,0.0036589412,-0.036196467,0.5448135,0.0,0.0,0.0,-1.0
1198182414,1198182274,0.0109069515,0.0016879945,-0.036953077,0.542463,0.0,0.0,0.0,-1.0
1198222477,1198222297,0.012351202,-0.002612696,-0.038208745,0.5462514,0.0,0.0,0.0,-1.0
1198266413,1198266269,0.0090965815,-0.0023734795,-0.038625468,0.54573953,0.0,0.0,0.0,-1.0
1198306443,1198306300,0.0032610875,-0.004204701,-0.038723364,0.54706544,0.0,0.0,0.0,-1.0
1198350458,1198350269,0.004278066,-0.0013401208,-0.03881495,0.54731,0.0,0.0,0.0,-1.0
1198390467,1198390296,0.0073227626,0.001156587,-0.04113709,0.54476887,0.0,0.0,0.0,-1.0
1198434407,1198434269,0.008691383,-0.0009767052,-0.04338014,0.5437037,0.0,0.0,0.0,-1.0
1198474452,1198474298,0.010163963,-0.0013669577,-0.04388421,0.5461162,0.0,0.0,0.0,-1.0
1198518456,1198518269,0.008829263,-0.0053384043,-0.04421916,0.54602027,0.0,0.0,0.0,-1.0
1198558489,1198558297,0.006870855,-0.0061098957,-0.044466633,0.54572284,0.0,0.0,0.0,-1.0
1198602407,1198602269,0.004598693,-0.008880642,-0.04272019,0.5490357,0.0,0.0,0.0,-1.0
1198642443,1198642297,0.011142414,-0.0046144435,-0.043337304,0.54662424,0.0,0.0,0.0,-1.0
1198686465,1198686269,0.012736155,-0.0068403613,-0.040772438,0.54893565,0.0,0.0,0.0,-1.0
1198726468,1198726298,0.010549532,-0.0070078685,-0.041360285,0.55036205,0.0,0.0,0.0,-1.0
1198770413,1198770269,0.01314879,-0.003700446,-0.04153395,0.5495027,0.0,0.0,0.0,-1.0
1198810449,1198810297,0.011932971,-0.00542019,-0.04058473,0.54877156,0.0,0.0,0.0,-1.0
1198852007,1198851870,0.014415773,-0.0015745669,-0.040221855,0.54720646,0.0,0.0,0.0,-1.0
1198896059,1198895918,0.013343069,-0.0015079433,-0.04017219,0.5435579,0.0,0.0,0.0,-1.0
1198936307,1198935903,0.0136119155,0.0012552412,-0.039689347,0.5429291,0.0,0.0,0.0,-1.0
1198976039,1198975869,0.012629223,-0.003700793,-0.038801022,0.54615206,0.0,0.0,0.0,-1.0
1199020001,1199019868,0.012820428,-0.0027892636,-0.03802868,0.5442767,0.0,0.0,0.0,-1.0
1199060008,1199059869,0.01050436,-0.0030977584,-0.03641626,0.54656214,0.0,0.0,0.0,-1.0
1199104046,1199103869,0.011664206,-0.0017198803,-0.035700835,0.5452793,0.0,0.0,0.0,-1.0
1199144052,1199143869,0.012923488,-0.0019238341,-0.037467744,0.5422042,0.0,0.0,0.0,-1.0
1199188015,1199187869,0.013645268,-0.00059902825,-0.037882987,0.5428602,0.0,0.0,0.0,-1.0
1199228017,1199227869,0.016888326,-0.0016963826,-0.038805388,0.54252034,0.0,0.0,0.0,-1.0
1199272060,1199271875,0.015546742,-0.0031380244,-0.038501337,0.5443676,0.0,0.0,0.0,-1.0
1199312065,1199311888,0.014193019,-0.0039936244,-0.037639376,0.5437095,0.0,0.0,0.0,-1.0
1199356020,1199355869,0.0098876655,-0.0063737095,-0.03755026,0.5436116,0.0,0.0,0.0,-1.0
1199400037,1199399869,0.008679312,-0.010293525,-0.0371917,0.54525566,0.0,0.0,0.0,-1.0
1199440028,1199439869,0.011227278,-0.007846654,-0.037241526,0.5430817,0.0,0.0,0.0,-1.0
1199484026,1199483873,0.014967583,-0.007093876,-0.038389403,0.5434697,0.0,0.0,0.0,-1.0
1199524014,1199523869,0.013542106,-0.0067539136,-0.037340593,0.5439637,0.0,0.0,0.0,-1.0
1199568051,1199567869,0.01487377,-0.008499107,-0.03757554,0.5453059,0.0,0.0,0.0,-1.0
1199608061,1199607879,0.015628159,-0.006302926,-0.036512576,0.54472893,0.0,0.0,0.0,-1.0
1199652001,1199651868,0.013943571,-0.01081024,-0.03701873,0.5445978,0.0,0.0,0.0,-1.0
1199692008,1199691869,0.015646992,-0.010104342,-0.03516092,0.5425334,0.0,0.0,0.0,-1.0
1199732018,1199731869,0.014239101,-0.0093124155,-0.03770454,0.54476756,0.0,0.0,0.0,-1.0
1199772004,1199771869,0.013278779,-0.008685426,-0.03720174,0.5452479,0.0,0.0,0.0,-1.0
1199811998,1199811869,0.011709263,-0.007045123,-0.037557013,0.54335564,0.0,0.0,0.0,-1.0
1199856012,1199855869,0.012888796,-0.008523303,-0.036596343,0.54318535,0.0,0.0,0.0,-1.0
1199896025,1199895876,0.011869872,-0.009638547,-0.03751385,0.54529476,0.0,0.0,0.0,-1.0
1199940009,1199939869,0.014275312,-0.01070754,-0.03644548,0.5436292,0.0,0.0,0.0,-1.0
1199980001,1199979869,0.013376048,-0.011798644,-0.03549715,0.5448246,0.0,0.0,0.0,-1.0
1200024010,1200023875,0.015422294,-0.014363994,-0.034944028,0.5432742,0.0,0.0,0.0,-1.0
1200064004,1200063869,0.017168408,-0.009670069,-0.03737082,0.53994596,0.0,0.0,0.0,-1.0
1200108009,1200107880,0.01940204,-0.0138519155,-0.037095986,0.54197884,0.0,0.0,0.0,-1.0
1200148027,1200147877,0.018698722,-0.010626341,-0.038016826,0.5419503,0.0,0.0,0.0,-1.0
1200188039,1200187900,0.016900387,-0.007998291,-0.036476552,0.5420841,0.0,0.0,0.0,-1.0
1200228054,1200227918,0.018546373,-0.0075671994,-0.037099462,0.54145485,0.0,0.0,0.0,-1.0
1200272015,1200271869,0.015674984,-0.00828838,-0.03825128,0.541693,0.0,0.0,0.0,-1.0
1200312022,1200311882,0.014892884,-0.0061956863,-0.03894806,0.5424823,0.0,0.0,0.0,-1.0
1200356028,1200355886,0.010477819,-0.008519539,-0.038479336,0.5450238,0.0,0.0,0.0,-1.0
1200396031,1200395869,0.00938039,-0.01021323,-0.037852816,0.54569197,0.0,0.0,0.0,-1.0
1200440006,1200439869,0.008843565,-0.0111454725,-0.038916387,0.5451691,0.0,0.0,0.0,-1.0
1200480010,1200479870,0.008930175,-0.011953194,-0.037949618,0.5448304,0.0,0.0,0.0,-1.0
1200524039,1200523869,0.012879109,-0.011864464,-0.03926013,0.5417571,0.0,0.0,0.0,-1.0
1200564050,1200563869,0.011536056,-0.012836129,-0.041344777,0.542667,0.0,0.0,0.0,-1.0
1200608010,1200607869,0.014625866,-0.014382858,-0.040387094,0.54191124,0.0,0.0,0.0,-1.0
1200648016,1200647869,0.012509878,-0.015034222,-0.04136477,0.54161954,0.0,0.0,0.0,-1.0
1200692106,1200691869,0.012243907,-0.017623551,-0.038684655,0.54231876,0.0,0.0,0.0,-1.0
1200732039,1200731876,0.012934453,-0.013787265,-0.04073623,0.53985244,0.0,0.0,0.0,-1.0
1200776008,1200775869,0.014321267,-0.016551461,-0.03906748,0.5404473,0.0,0.0,0.0,-1.0
1200816001,1200815869,0.013726482,-0.016754666,-0.03900971,0.5427716,0.0,0.0,0.0,-1.0
1200860034,1200859869,0.014180607,-0.017098822,-0.03685595,0.5426251,0.0,0.0,0.0,-1.0
1200900062,1200899876,0.016524648,-0.012218898,-0.036749464,0.5400535,0.0,0.0,0.0,-1.0
1200944008,1200943869,0.018519653,-0.012196565,-0.038168132,0.5396347,0.0,0.0,0.0,-1.0
1200984010,1200983869,0.01813912,-0.010282074,-0.037647072,0.5401837,0.0,0.0,0.0,-1.0
1201028052,1201027869,0.0220214,-0.012429697,-0.03775064,0.54147166,0.0,0.0,0.0,-1.0
1201068039,1201067869,0.019081263,-0.0057115173,-0.03738455,0.53940034,0.0,0.0,0.0,-1.0
1201112023,1201111885,0.020075874,-0.008973667,-0.036174648,0.5426065,0.0,0.0,0.0,-1.0
1201152007,1201151874,0.023798982,-0.0074753338,-0.03716943,0.5390842,0.0,0.0,0.0,-1.0
1201196049,1201195884,0.023825323,-0.010964334,-0.034189932,0.54086494,0.0,0.0,0.0,-1.0
1201236040,1201235869,0.019946462,-0.009950125,-0.034816757,0.54223245,0.0,0.0,0.0,-1.0
1201280013,1201279869,0.023504611,-0.010438046,-0.032687295,0.5418302,0.0,0.0,0.0,-1.0
1201320028,1201319869,0.022487989,-0.009485204,-0.030938616,0.5429211,0.0,0.0,0.0,-1.0
1201364117,1201363914,0.026266648,-0.009241005,-0.028783198,0.5418525,0.0,0.0,0.0,-1.0
1201404042,1201403869,0.025016343,-0.0049609947,-0.028032683,0.54010344,0.0,0.0,0.0,-1.0
1201448009,1201447874,0.02477095,-0.010885624,-0.026272394,0.5399547,0.0,0.0,0.0,-1.0
1201488010,1201487869,0.02478732,-0.008051478,-0.027482748,0.5405747,0.0,0.0,0.0,-1.0
1201532042,1201531869,0.022637505,-0.011420709,-0.024444576,0.54099745,0.0,0.0,0.0,-1.0
1201572007,1201571869,0.015391436,-0.011987816,-0.022887282,0.5449699,0.0,0.0,0.0,-1.0
1201616024,1201615890,0.01348271,-0.011643522,-0.021668147,0.5434954,0.0,0.0,0.0,-1.0
1201656010,1201655869,0.011033813,-0.012465406,-0.022273751,0.5446321,0.0,0.0,0.0,-1.0
1201700081,1201699878,0.013748406,-0.0120251635,-0.023925351,0.5418854,0.0,0.0,0.0,-1.0
1201740029,1201739879,0.013402794,-0.01408212,-0.023460884,0.54279315,0.0,0.0,0.0,-1.0
1201784016,1201783875,0.0141110215,-0.014432465,-0.02422142,0.5413093,0.0,0.0,0.0,-1.0
1201824020,1201823875,0.012659822,-0.01452363,-0.02743696,0.54155874,0.0,0.0,0.0,-1.0
1201868009,1201867869,0.0113989785,-0.014927228,-0.030384218,0.5429484,0.0,0.0,0.0,-1.0
1201908014,1201907873,0.008895161,-0.018325752,-0.029778007,0.54334784,0.0,0.0,0.0,-1.0
1201952014,1201951869,0.00847235,-0.018628651,-0.031035034,0.5438099,0.0,0.0,0.0,-1.0
1201992023,1201991887,0.007863106,-0.017101001,-0.03316898,0.54306835,0.0,0.0,0.0,-1.0
1202036011,1202035869,0.005651541,-0.017819356,-0.034516096,0.5447884,0.0,0.0,0.0,-1.0
1202076007,1202075869,0.005509979,-0.019165523,-0.037853453,0.5467933,0.0,0.0,0.0,-1.0
1202120015,1202119869,0.007337942,-0.022535212,-0.036265783,0.54932845,0.0,0.0,0.0,-1.0
1202160036,1202159884,0.008787712,-0.020612832,-0.03713442,0.54888684,0.0,0.0,0.0,-1.0
1202204020,1202203869,0.010486456,-0.018109681,-0.03723765,0.5489718,0.0,0.0,0.0,-1.0
1202244013,1202243876,0.013782098,-0.019339329,-0.037037674,0.5486429,0.0,0.0,0.0,-1.0
1202288021,1202287878,0.016645001,-0.017773109,-0.03795196,0.54763585,0.0,0.0,0.0,-1.0
1202328051,1202327908,0.015999965,-0.022619788,-0.037930522,0.5503023,0.0,0.0,0.0,-1.0
1202372008,1202371869,0.01594197,-0.020632146,-0.037657015,0.5509462,0.0,0.0,0.0,-1.0
1202412013,1202411869,0.013966007,-0.017677834,-0.035809375,0.54904014,0.0,0.0,0.0,-1.0
1202456039,1202455894,0.013447114,-0.012491864,-0.03661188,0.5488987,0.0,0.0,0.0,-1.0
1202496005,1202495869,0.0141714765,-0.00810863,-0.038120978,0.54929763,0.0,0.0,0.0,-1.0
1202544039,1202543887,0.015235507,-0.0063304524,-0.034193985,0.5480481,0.0,0.0,0.0,-1.0
1202584017,1202583878,0.018267164,-0.008065668,-0.03321897,0.54866165,0.0,0.0,0.0,-1.0
1202628008,1202627869,0.019894853,-0.014040681,-0.032130234,0.54675037,0.0,0.0,0.0,-1.0
1202668005,1202667869,0.017820591,-0.015617461,-0.028970236,0.5481563,0.0,0.0,0.0,-1.0
1202712018,1202711869,0.016335305,-0.018586375,-0.026713174,0.54926085,0.0,0.0,0.0,-1.0
1202752026,1202751891,0.015020961,-0.014016586,-0.026433475,0.54685706,0.0,0.0,0.0,-1.0
1202796001,1202795869,0.010433984,-0.014692449,-0.022641875,0.5496334,0.0,0.0,0.0,-1.0
1202836000,1202835868,0.00891843,-0.012657609,-0.021620214,0.54766744,0.0,0.0,0.0,-1.0
1202880030,1202879888,0.009723712,-0.01116788,-0.018524673,0.5493211,0.0,0.0,0.0,-1.0
1202920056,1202919916,0.010090229,-0.006555387,-0.019163702,0.55152917,0.0,0.0,0.0,-1.0
1202964015,1202963869,0.015934518,-0.0029139991,-0.016640492,0.5504285,0.0,0.0,0.0,-1.0
1203004006,1203003868,0.018211294,-0.0005082323,-0.016712114,0.55271715,0.0,0.0,0.0,-1.0
1203048032,1203047900,0.024837103,0.0013819113,-0.016389744,0.5516022,0.0,0.0,0.0,-1.0
1203088057,1203087907,0.028339203,-0.0026779734,-0.01345782,0.5522908,0.0,0.0,0.0,-1.0
1203132013,1203131869,0.029887056,-0.0076642884,-0.012754686,0.55349016,0.0,0.0,0.0,-1.0
1203176126,1203175886,0.032370273,-0.012666977,-0.011589326,0.55304354,0.0,0.0,0.0,-1.0
1203219998,1203219869,0.033467807,-0.014236476,-0.007703418,0.55208594,0.0,0.0,0.0,-1.0
1203261707,1203261475,0.03331106,-0.014324373,-0.0060392004,0.5518776,0.0,0.0,0.0,-1.0
1203301677,1203301469,0.030227255,-0.011685595,-0.0047905482,0.55258256,0.0,0.0,0.0,-1.0
1203345657,1203345469,0.032705203,-0.0052444045,-0.0049039647,0.55083585,0.0,0.0,0.0,-1.0
1203385640,1203385469,0.033040375,-0.005046622,-0.0042924006,0.5474919,0.0,0.0,0.0,-1.0
1203429676,1203429469,0.035873327,-0.0021392037,-0.0061138906,0.54606134,0.0,0.0,0.0,-1.0
1203469688,1203469469,0.036658198,-0.001048724,-0.0077621937,0.5473836,0.0,0.0,0.0,-1.0
1203513675,1203513469,0.04062954,-0.0015650045,-0.009838181,0.5460527,0.0,0.0,0.0,-1.0
1203553664,1203553482,0.04049183,-0.002994223,-0.008229123,0.54593664,0.0,0.0,0.0,-1.0
1203597690,1203597469,0.042487893,-0.0043065804,-0.01048043,0.54341817,0.0,0.0,0.0,-1.0
1203637649,1203637468,0.042532966,-0.0076805446,-0.011345716,0.54651725,0.0,0.0,0.0,-1.0
1203681661,1203681469,0.040105693,-0.0042155506,-0.011165868,0.54907703,0.0,0.0,0.0,-1.0
1203721651,1203721469,0.041050527,0.0011220332,-0.01209793,0.54164827,0.0,0.0,0.0,-1.0
1203765693,1203765469,0.03814614,-0.00012104871,-0.014626296,0.54321843,0.0,0.0,0.0,-1.0
1203805649,1203805468,0.03704865,0.005340436,-0.01751069,0.5408235,0.0,0.0,0.0,-1.0
1203849659,1203849469,0.036772624,0.0044549187,-0.021022903,0.54121774,0.0,0.0,0.0,-1.0
1203889668,1203889480,0.0372804,0.0059207464,-0.020462528,0.5393116,0.0,0.0,0.0,-1.0
1203933651,1203933469,0.031798195,0.0035885088,-0.022154594,0.5393825,0.0,0.0,0.0,-1.0
1203973676,1203973481,0.032085493,0.0056746993,-0.023723364,0.5387407,0.0,0.0,0.0,-1.0
1204017654,1204017469,0.03153255,0.0053324015,-0.02435729,0.5371559,0.0,0.0,0.0,-1.0
1204057663,1204057481,0.035968717,0.005024628,-0.026234776,0.537713,0.0,0.0,0.0,-1.0
1204101654,1204101468,0.03727458,0.007758843,-0.027251057,0.5362723,0.0,0.0,0.0,-1.0
1204141673,1204141490,0.03813864,0.006656127,-0.026218556,0.5340244,0.0,0.0,0.0,-1.0
1204185657,1204185469,0.03826735,0.008075916,-0.02728607,0.5357911,0.0,0.0,0.0,-1.0
1204225664,1204225471,0.042479523,0.0065086638,-0.028615408,0.53561586,0.0,0.0,0.0,-1.0
1204269670,1204269469,0.037208617,0.00558878,-0.027894257,0.5374787,0.0,0.0,0.0,-1.0
1204309663,1204309481,0.032832067,0.00075217907,-0.02751318,0.53792584,0.0,0.0,0.0,-1.0
1204353683,1204353503,0.030736484,0.0027205294,-0.028060963,0.5401066,0.0,0.0,0.0,-1.0
1204393668,1204393479,0.028791558,0.0050347135,-0.029645365,0.5369359,0.0,0.0,0.0,-1.0
1204437656,1204437469,0.029998139,0.006183893,-0.031896845,0.53747046,0.0,0.0,0.0,-1.0
1204477654,1204477468,0.030372914,0.004804951,-0.031165808,0.534947,0.0,0.0,0.0,-1.0
1204521698,1204521518,0.027275138,0.0007680587,-0.032958742,0.5379957,0.0,0.0,0.0,-1.0
1204565615,1204565469,0.026293514,0.00050081994,-0.032067496,0.5396341,0.0,0.0,0.0,-1.0
1204609617,1204609469,0.026650565,0.0011837616,-0.03240393,0.53975344,0.0,0.0,0.0,-1.0
1204649633,1204649500,0.029034417,-2.7272443e-05,-0.033288088,0.5402928,0.0,0.0,0.0,-1.0
1204689700,1204689505,0.027785588,-0.002580811,-0.029753622,0.5442715,0.0,0.0,0.0,-1.0
1204729679,1204729469,0.027684925,-0.0024927561,-0.030002892,0.54434335,0.0,0.0,0.0,-1.0
1204773666,1204773475,0.027947817,-0.0030022524,-0.029451763,0.5436375,0.0,0.0,0.0,-1.0
1204813647,1204813469,0.030825216,-0.0002419057,-0.028979197,0.541134,0.0,0.0,0.0,-1.0
1204857682,1204857469,0.02977156,-0.0022700098,-0.02974491,0.5433338,0.0,0.0,0.0,-1.0
1204897697,1204897468,0.030143555,-0.005783569,-0.029726334,0.5426508,0.0,0.0,0.0,-1.0
1204937686,1204937510,0.030112877,-0.0103434855,-0.028485607,0.5465081,0.0,0.0,0.0,-1.0
1204981645,1204981469,0.030439187,-0.015712626,-0.025016146,0.54596907,0.0,0.0,0.0,-1.0
1205025708,1205025469,0.03435183,-0.015578472,-0.02247016,0.5462996,0.0,0.0,0.0,-1.0
1205065666,1205065469,0.033853296,-0.016836857,-0.0211516,0.54551387,0.0,0.0,0.0,-1.0
1205109679,1205109490,0.037904378,-0.014158187,-0.021161992,0.54435277,0.0,0.0,0.0,-1.0
1205149636,1205149469,0.038758595,-0.012299246,-0.01778847,0.5454409,0.0,0.0,0.0,-1.0
1205193684,1205193469,0.0346725,-0.013850204,-0.014757728,0.5451795,0.0,0.0,0.0,-1.0
1205233681,1205233469,0.037503555,-0.011406229,-0.01615762,0.54526085,0.0,0.0,0.0,-1.0
1205277660,1205277469,0.034150813,-0.012815745,-0.013122718,0.54617983,0.0,0.0,0.0,-1.0
1205317649,1205317469,0.03142091,-0.01209676,-0.014835312,0.5460288,0.0,0.0,0.0,-1.0
1205361706,1205361469,0.031295184,-0.009667322,-0.013847716,0.5465841,0.0,0.0,0.0,-1.0
1205401681,1205401469,0.027243774,-0.0066797645,-0.01603698,0.5476603,0.0,0.0,0.0,-1.0
1205445659,1205445475,0.031886782,-0.0049734097,-0.018349472,0.54697907,0.0,0.0,0.0,-1.0
1205485654,1205485475,0.03223724,-0.0059068287,-0.016391922,0.5493671,0.0,0.0,0.0,-1.0
1205529684,1205529469,0.032167315,-0.004344042,-0.019404998,0.55015725,0.0,0.0,0.0,-1.0
1205569690,1205569469,0.029838735,-0.007892936,-0.017764883,0.55090535,0.0,0.0,0.0,-1.0
1205613650,1205613469,0.023060597,-0.00939692,-0.01956473,0.5531929,0.0,0.0,0.0,-1.0
1205653649,1205653477,0.021620715,-0.010593061,-0.023030097,0.55257577,0.0,0.0,0.0,-1.0
1205697710,1205697469,0.019015832,-0.0126724,-0.022875652,0.55614847,0.0,0.0,0.0,-1.0
1205741611,1205741469,0.02213107,-0.009301485,-0.026132843,0.55395174,0.0,0.0,0.0,-1.0
1205785658,1205785469,0.026524605,-0.008470108,-0.027150508,0.55308324,0.0,0.0,0.0,-1.0
1205829611,1205829469,0.02864278,-0.010243719,-0.026049083,0.5560865,0.0,0.0,0.0,-1.0
1205869622,1205869487,0.027149033,-0.00848601,-0.025279677,0.55426806,0.0,0.0,0.0,-1.0
1205909607,1205909469,0.02601514,-0.0022731484,-0.024647584,0.55205387,0.0,0.0,0.0,-1.0
1205953654,1205953475,0.027358765,-0.0024844755,-0.025049489,0.5524849,0.0,0.0,0.0,-1.0
1205993652,1205993469,0.027062044,0.0007567921,-0.024686715,0.55182177,0.0,0.0,0.0,-1.0
1206037605,1206037469,0.029256167,0.0032482937,-0.026330696,0.5504455,0.0,0.0,0.0,-1.0
1206077615,1206077469,0.025001835,0.0041243485,-0.025981838,0.5508666,0.0,0.0,0.0,-1.0
1206121663,1206121469,0.0237191,0.0012097387,-0.024911305,0.5504094,0.0,0.0,0.0,-1.0
1206161661,1206161469,0.02070378,0.0018921257,-0.02664994,0.5511782,0.0,0.0,0.0,-1.0
1206201658,1206201469,0.021676911,0.0012945769,-0.026860507,0.5550126,0.0,0.0,0.0,-1.0
1206245616,1206245469,0.02221025,0.00059653574,-0.025767777,0.55467236,0.0,0.0,0.0,-1.0
1206289657,1206289475,0.02918722,0.0021012032,-0.02690604,0.5536779,0.0,0.0,0.0,-1.0
1206329620,1206329475,0.024022501,-2.9878167e-05,-0.024598997,0.5549793,0.0,0.0,0.0,-1.0
1206373613,1206373469,0.025804907,-0.0027020471,-0.024831567,0.5558664,0.0,0.0,0.0,-1.0
1206413605,1206413469,0.022598857,-0.0036545834,-0.026107714,0.5540816,0.0,0.0,0.0,-1.0
1206457658,1206457469,0.020217907,-0.008409475,-0.023675928,0.55711627,0.0,0.0,0.0,-1.0
1206501615,1206501469,0.021954125,-0.0063491557,-0.02652398,0.55445874,0.0,0.0,0.0,-1.0
1206541619,1206541469,0.023453051,-0.0034455806,-0.024481654,0.5533308,0.0,0.0,0.0,-1.0
1206585666,1206585483,0.026275273,-0.0018821321,-0.025917482,0.5517407,0.0,0.0,0.0,-1.0
1206625605,1206625469,0.025602845,-0.0028982223,-0.021820001,0.5499189,0.0,0.0,0.0,-1.0
1206669706,1206669514,0.024673164,-0.0015527651,-0.022610169,0.5506864,0.0,0.0,0.0,-1.0
1206709890,1206709502,0.026727227,-0.0032440517,-0.022420391,0.54942685,0.0,0.0,0.0,-1.0
1206749619,1206749469,0.027094327,-0.004500574,-0.02292776,0.54892105,0.0,0.0,0.0,-1.0
1206793617,1206793469,0.025365572,-0.004090962,-0.022431515,0.5474807,0.0,0.0,0.0,-1.0
1206833605,1206833469,0.023558408,-0.0065782457,-0.019710025,0.54959774,0.0,0.0,0.0,-1.0
1206877608,1206877469,0.024037467,-0.0051712235,-0.020367265,0.5481408,0.0,0.0,0.0,-1.0
1206917620,1206917481,0.02378482,-0.0076929815,-0.020164289,0.5487208,0.0,0.0,0.0,-1.0
1206961621,1206961469,0.025915373,-0.003994151,-0.022622047,0.54718006,0.0,0.0,0.0,-1.0
1207001620,1207001469,0.024334379,-0.0047174944,-0.021222562,0.5458056,0.0,0.0,0.0,-1.0
1207045606,1207045469,0.022725865,-0.0042810184,-0.02211107,0.5477421,0.0,0.0,0.0,-1.0
1207085665,1207085512,0.02397887,0.00026867545,-0.023052739,0.5428041,0.0,0.0,0.0,-1.0
1207129610,1207129469,0.019848863,-0.0037690545,-0.022562932,0.5466401,0.0,0.0,0.0,-1.0
1207173610,1207173469,0.019359095,-0.0033813557,-0.021739952,0.5475185,0.0,0.0,0.0,-1.0
1207213640,1207213503,0.023737589,-0.002247168,-0.021551358,0.54570425,0.0,0.0,0.0,-1.0
1207257629,1207257482,0.0257275,0.002428143,-0.023175897,0.54607946,0.0,0.0,0.0,-1.0
1207297614,1207297469,0.025163135,0.0031844568,-0.022737104,0.54356927,0.0,0.0,0.0,-1.0
1207341611,1207341470,0.026254002,0.0058399616,-0.02475861,0.544554,0.0,0.0,0.0,-1.0
1207381660,1207381515,0.028874906,0.005732199,-0.025932947,0.5414052,0.0,0.0,0.0,-1.0
1207421655,1207421469,0.026750056,0.004114495,-0.025631946,0.5435864,0.0,0.0,0.0,-1.0
1207465620,1207465470,0.025418522,0.00020166949,-0.025837492,0.54352856,0.0,0.0,0.0,-1.0
1207509643,1207509500,0.023401039,-0.0015765983,-0.025001371,0.5452245,0.0,0.0,0.0,-1.0
1207549653,1207549508,0.020739527,-0.0024870501,-0.024888234,0.544841,0.0,0.0,0.0,-1.0
1207593628,1207593484,0.022072507,-0.00024842622,-0.026359078,0.5446191,0.0,0.0,0.0,-1.0
1207633604,1207633469,0.026055003,0.00092379184,-0.026356276,0.54445237,0.0,0.0,0.0,-1.0
1207675218,1207675069,0.028742727,0.0024272674,-0.027263982,0.5426771,0.0,0.0,0.0,-1.0
1207715218,1207715069,0.02572775,0.004600868,-0.028498324,0.5415121,0.0,0.0,0.0,-1.0
1207759216,1207759069,0.028686086,0.0037274007,-0.030628892,0.54152954,0.0,0.0,0.0,-1.0
1207799226,1207799088,0.02728055,0.0047795717,-0.031870816,0.54062396,0.0,0.0,0.0,-1.0
1207843252,1207843069,0.026478332,0.001752983,-0.03275434,0.54262626,0.0,0.0,0.0,-1.0
1207883256,1207883069,0.020576172,-0.0007547792,-0.031593654,0.5426138,0.0,0.0,0.0,-1.0
1207923254,1207923069,0.022424912,0.0019876393,-0.03352899,0.542405,0.0,0.0,0.0,-1.0
1207963241,1207963069,0.025450446,0.004667194,-0.033590615,0.54217035,0.0,0.0,0.0,-1.0
1208007257,1208007105,0.02334717,0.0028183092,-0.031236148,0.54225546,0.0,0.0,0.0,-1.0
1208047257,1208047068,0.023332281,0.0047154943,-0.033297233,0.5403107,0.0,0.0,0.0,-1.0
1208091220,1208091069,0.022685645,0.002128899,-0.032436717,0.54045844,0.0,0.0,0.0,-1.0
1208131218,1208131069,0.022502415,0.0021789994,-0.033085663,0.54221845,0.0,0.0,0.0,-1.0
1208175235,1208175069,0.0252257,0.00048283165,-0.03456508,0.5406937,0.0,0.0,0.0,-1.0
1208215228,1208215069,0.02199525,-0.00036883366,-0.031280227,0.53864044,0.0,0.0,0.0,-1.0
1208259221,1208259069,0.021098351,-0.0017251805,-0.033624727,0.54028,0.0,0.0,0.0,-1.0
1208299217,1208299069,0.024216976,0.0023953328,-0.03278034,0.53602535,0.0,0.0,0.0,-1.0
1208339222,1208339069,0.025650669,0.005678382,-0.032703914,0.5386718,0.0,0.0,0.0,-1.0
1208383291,1208383069,0.022501087,0.001004175,-0.03188211,0.53874886,0.0,0.0,0.0,-1.0
1208427205,1208427069,0.025110781,0.00032933368,-0.02976264,0.53833306,0.0,0.0,0.0,-1.0
1208467224,1208467069,0.024317218,-4.4443004e-05,-0.031086946,0.54104954,0.0,0.0,0.0,-1.0
1208511252,1208511070,0.029426547,-0.0016585113,-0.03196219,0.53972936,0.0,0.0,0.0,-1.0
1208551249,1208551069,0.028498864,0.0056175375,-0.030638555,0.53936225,0.0,0.0,0.0,-1.0
1208595217,1208595069,0.02739718,0.0013994512,-0.030906066,0.53932995,0.0,0.0,0.0,-1.0
1208635208,1208635069,0.028391508,0.007382751,-0.032994583,0.53789514,0.0,0.0,0.0,-1.0
1208679279,1208679075,0.027292129,0.0014279288,-0.029097801,0.5388956,0.0,0.0,0.0,-1.0
1208719258,1208719068,0.026129544,0.0061175576,-0.0312804,0.538639,0.0,0.0,0.0,-1.0
1208763251,1208763069,0.028544655,0.0049184468,-0.029237878,0.5388039,0.0,0.0,0.0,-1.0
1208803245,1208803069,0.026316488,0.0042386116,-0.031564325,0.53804016,0.0,0.0,0.0,-1.0
1208847247,1208847069,0.029243805,0.0048614047,-0.03218542,0.5386268,0.0,0.0,0.0,-1.0
1208887252,1208887070,0.025468737,0.003683669,-0.03100731,0.53714824,0.0,0.0,0.0,-1.0
1208931220,1208931069,0.025659142,0.0049676835,-0.030796446,0.5397755,0.0,0.0,0.0,-1.0
1208971211,1208971069,0.024298035,0.006518806,-0.0310893,0.5360801,0.0,0.0,0.0,-1.0
1209015261,1209015069,0.02494037,0.0021805495,-0.028938167,0.53792405,0.0,0.0,0.0,-1.0
1209055268,1209055074,0.024528794,0.0066286293,-0.030861007,0.5355295,0.0,0.0,0.0,-1.0
1209099233,1209099073,0.02590217,0.005452272,-0.028964631,0.5359645,0.0,0.0,0.0,-1.0
1209139210,1209139069,0.024845224,0.0063652555,-0.03173896,0.53830147,0.0,0.0,0.0,-1.0
1209183272,1209183069,0.028454524,0.0082231695,-0.03058163,0.53433156,0.0,0.0,0.0,-1.0
1209223301,1209223079,0.02681488,0.0052587707,-0.030896572,0.5370853,0.0,0.0,0.0,-1.0
1209267223,1209267069,0.027992757,0.005249872,-0.030558797,0.53755605,0.0,0.0,0.0,-1.0
1209307218,1209307069,0.028491255,0.0040130597,-0.030547544,0.5348118,0.0,0.0,0.0,-1.0
1209351262,1209351069,0.027373457,0.00012063701,-0.030496163,0.53804564,0.0,0.0,0.0,-1.0
1209391219,1209391076,0.028275708,0.006125539,-0.03188006,0.53277415,0.0,0.0,0.0,-1.0
1209435214,1209435069,0.029152103,0.0043025054,-0.029671403,0.5350256,0.0,0.0,0.0,-1.0
1209475231,1209475069,0.028051816,0.0074970694,-0.032500744,0.5338329,0.0,0.0,0.0,-1.0
1209519231,1209519069,0.031378664,0.006539763,-0.031951595,0.5326991,0.0,0.0,0.0,-1.0
1209559214,1209559069,0.028340707,0.005259468,-0.033414666,0.53516734,0.0,0.0,0.0,-1.0
1209603246,1209603069,0.027142316,0.0071792062,-0.032383192,0.5355556,0.0,0.0,0.0,-1.0
1209643256,1209643073,0.023372447,0.004469307,-0.031727728,0.5372369,0.0,0.0,0.0,-1.0
1209687220,1209687069,0.024497641,0.001207894,-0.027795516,0.538176,0.0,0.0,0.0,-1.0
1209727217,1209727069,0.02440136,0.0047993315,-0.027297553,0.5352323,0.0,0.0,0.0,-1.0
1209771221,1209771072,0.027112838,0.0054170247,-0.024395738,0.5371754,0.0,0.0,0.0,-1.0
1209811221,1209811085,0.028868824,0.009197904,-0.025754968,0.535198,0.0,0.0,0.0,-1.0
1209855230,1209855069,0.03442432,0.0134929605,-0.025363415,0.534031,0.0,0.0,0.0,-1.0
1209895216,1209895075,0.035308275,0.011082153,-0.025258856,0.53602713,0.0,0.0,0.0,-1.0
1209939237,1209939093,0.03580975,0.011213154,-0.024655648,0.53687936,0.0,0.0,0.0,-1.0
1209983262,1209983072,0.03340759,0.015341175,-0.023496987,0.53633076,0.0,0.0,0.0,-1.0
1210027220,1210027069,0.031423137,0.015941644,-0.022883456,0.5341712,0.0,0.0,0.0,-1.0
1210067238,1210067071,0.029207855,0.008620697,-0.022300486,0.53734124,0.0,0.0,0.0,-1.0
1210111208,1210111069,0.030186106,0.013487024,-0.023315221,0.5350458,0.0,0.0,0.0,-1.0
1210151220,1210151068,0.030335328,0.009760196,-0.022421176,0.53598887,0.0,0.0,0.0,-1.0
1210195209,1210195069,0.027991397,0.011456102,-0.02456614,0.534899,0.0,0.0,0.0,-1.0
1210235241,1210235093,0.026053771,0.008311095,-0.023686508,0.5394866,0.0,0.0,0.0,-1.0
1210279267,1210279110,0.022618491,0.008734779,-0.024167039,0.5384878,0.0,0.0,0.0,-1.0
1210319211,1210319069,0.019928815,0.0045380522,-0.024001125,0.5409211,0.0,0.0,0.0,-1.0
1210363255,1210363076,0.019930655,0.006567913,-0.024673918,0.5415741,0.0,0.0,0.0,-1.0
1210403283,1210403105,0.020557849,0.004674867,-0.021717198,0.5400065,0.0,0.0,0.0,-1.0
1210447218,1210447069,0.020642547,0.0067865807,-0.023382584,0.53889036,0.0,0.0,0.0,-1.0
1210487224,1210487070,0.02127816,0.0073074135,-0.023858843,0.54118687,0.0,0.0,0.0,-1.0
1210531256,1210531108,0.025382359,0.011395491,-0.026099512,0.53716713,0.0,0.0,0.0,-1.0
1210571240,1210571091,0.025704756,0.009327171,-0.027339775,0.5405871,0.0,0.0,0.0,-1.0
1210615208,1210615069,0.025981374,0.013745934,-0.027735908,0.5403533,0.0,0.0,0.0,-1.0
1210655233,1210655069,0.02424989,0.010068874,-0.028293865,0.5416553,0.0,0.0,0.0,-1.0
1210699261,1210699115,0.019335708,0.011318051,-0.028933318,0.5425935,0.0,0.0,0.0,-1.0
1210739244,1210739069,0.01950779,0.008953057,-0.027597073,0.54181725,0.0,0.0,0.0,-1.0
1210783241,1210783075,0.019600734,0.012448883,-0.028275501,0.5415302,0.0,0.0,0.0,-1.0
1210823240,1210823069,0.016320433,0.010387114,-0.026112724,0.54106957,0.0,0.0,0.0,-1.0
1210867255,1210867103,0.016875843,0.014309896,-0.027253307,0.54019856,0.0,0.0,0.0,-1.0
1210907259,1210907069,0.020540085,0.015720192,-0.025602004,0.53979564,0.0,0.0,0.0,-1.0
1210947244,1210947069,0.022447651,0.014406833,-0.024857586,0.54233,0.0,0.0,0.0,-1.0
1210987265,1210987075,0.022782462,0.012299746,-0.02383743,0.54247576,0.0,0.0,0.0,-1.0
1211031208,1211031069,0.025142312,0.018670471,-0.026424127,0.54113424,0.0,0.0,0.0,-1.0
1211071229,1211071069,0.023860514,0.016377829,-0.027504608,0.54123586,0.0,0.0,0.0,-1.0
1211115247,1211115076,0.023345567,0.01881319,-0.029895863,0.5403551,0.0,0.0,0.0,-1.0
1211155243,1211155076,0.025426881,0.013118947,-0.031935092,0.54356724,0.0,0.0,0.0,-1.0
1211199209,1211199069,0.021657996,0.013371463,-0.032329854,0.54257935,0.0,0.0,0.0,-1.0
1211239216,1211239069,0.021349603,0.0102694435,-0.032884512,0.54519737,0.0,0.0,0.0,-1.0
1211283272,1211283069,0.025714794,0.013326854,-0.03587992,0.5450452,0.0,0.0,0.0,-1.0
1211323295,1211323069,0.028088555,0.01161082,-0.03649083,0.54396874,0.0,0.0,0.0,-1.0
1211367467,1211367069,0.027360415,0.010202391,-0.04030902,0.5446994,0.0,0.0,0.0,-1.0
1211407233,1211407080,0.028393274,0.011099505,-0.040051233,0.5414361,0.0,0.0,0.0,-1.0
1211451255,1211451069,0.025148574,0.007826912,-0.04092037,0.54190445,0.0,0.0,0.0,-1.0
1211491250,1211491070,0.026860712,0.0057287854,-0.042189356,0.54295546,0.0,0.0,0.0,-1.0
1211535212,1211535069,0.02912565,0.005740048,-0.042117067,0.5437914,0.0,0.0,0.0,-1.0
1211575220,1211575069,0.025853895,0.007229559,-0.043511648,0.5436331,0.0,0.0,0.0,-1.0
1211619231,1211619069,0.026885936,0.005879457,-0.04442764,0.54457515,0.0,0.0,0.0,-1.0
1211659305,1211659076,0.027446816,0.004279336,-0.044076156,0.5440709,0.0,0.0,0.0,-1.0
1211703244,1211703069,0.022536049,0.0040544863,-0.041602906,0.546435,0.0,0.0,0.0,-1.0
1211743243,1211743069,0.024825364,0.01018456,-0.0412449,0.5438853,0.0,0.0,0.0,-1.0
1211787211,1211787069,0.027485859,0.015419314,-0.043186717,0.5422316,0.0,0.0,0.0,-1.0
1211827213,1211827069,0.030206602,0.01576207,-0.044962198,0.5440853,0.0,0.0,0.0,-1.0
1211871325,1211871069,0.029333668,0.016612574,-0.04351452,0.5437913,0.0,0.0,0.0,-1.0
1211911214,1211911069,0.028484588,0.015828608,-0.045035727,0.54526806,0.0,0.0,0.0,-1.0
1211955212,1211955069,0.029745257,0.01349341,-0.042292774,0.54509574,0.0,0.0,0.0,-1.0
1211995209,1211995069,0.030501643,0.009015297,-0.040187407,0.54698545,0.0,0.0,0.0,-1.0
1212040010,1212039869,0.032936294,0.010563151,-0.040214445,0.54372317,0.0,0.0,0.0,-1.0
1212080814,1212080668,0.03238966,0.0101374155,-0.038586624,0.5427666,0.0,0.0,0.0,-1.0
1212120826,1212120669,0.032232177,0.013939381,-0.037184678,0.5394042,0.0,0.0,0.0,-1.0
1212164857,1212164669,0.032339834,0.011280158,-0.03446357,0.5430433,0.0,0.0,0.0,-1.0
1212204850,1212204669,0.029977249,0.01284418,-0.031898562,0.5384131,0.0,0.0,0.0,-1.0
1212248843,1212248711,0.03184213,0.015059421,-0.031343553,0.5296623,0.0,0.0,0.0,-1.0
1212288825,1212288677,0.034301408,0.013169797,-0.028153388,0.51801425,0.0,0.0,0.0,-1.0
1212332842,1212332669,0.030994661,0.010272168,-0.026599258,0.5121203,0.0,0.0,0.0,-1.0
1212372873,1212372669,0.026385251,0.013450243,-0.026479995,0.5080416,0.0,0.0,0.0,-1.0
1212416804,1212416669,0.023391996,0.010422679,-0.024177464,0.5041902,0.0,0.0,0.0,-1.0
1212456834,1212456670,0.023523197,0.013131261,-0.022334184,0.4961805,0.0,0.0,0.0,-1.0
1212500858,1212500669,0.021616418,0.013657674,-0.021124622,0.492874,0.0,0.0,0.0,-1.0
1212540818,1212540669,0.02093681,0.010329613,-0.020031296,0.49135435,0.0,0.0,0.0,-1.0
1212580829,1212580689,0.023106081,0.00943531,-0.020446438,0.49428466,0.0,0.0,0.0,-1.0
1212624815,1212624673,0.021971539,0.0049492735,-0.017489467,0.49479124,0.0,0.0,0.0,-1.0
1212668805,1212668669,0.022547832,0.006328766,-0.018204737,0.49328935,0.0,0.0,0.0,-1.0
1212708829,1212708675,0.081998006,0.123613,-0.04334196,0.48728564,0.0,0.0,0.0,1.0
1212752808,1212752673,0.06236953,0.09006036,-0.0363072,0.49395862,0.0,0.0,0.0,1.0
1212792815,1212792669,0.03711444,0.050316803,-0.03600087,0.49519873,0.0,0.0,0.0,1.0
1212836807,1212836670,0.024788722,0.035847887,-0.03475944,0.50667626,0.0,0.0,0.0,1.0
1212876831,1212876679,0.017365335,0.017741043,-0.035764586,0.5069871,0.0,0.0,0.0,1.0
1212916805,1212916669,0.0059680045,0.0047881515,-0.032308143,0.5200203,0.0,0.0,0.0,1.0
1212960826,1212960669,0.06357097,-0.04090074,0.2949297,0.5239295,0.0,0.0,0.0,1.0
1213004810,1213004669,0.06397556,-0.05151892,0.22590235,0.5239927,0.0,0.0,0.0,1.0
1213044819,1213044669,0.039998796,-0.0490652,0.16488919,0.5283922,0.0,0.0,0.0,1.0
1213088840,1213088691,0.012205803,-0.028651157,0.12986837,0.52487,0.0,0.0,0.0,1.0
1213132847,1213132689,0.003147516,-0.012201125,0.10505867,0.5256041,0.0,0.0,0.0,1.0
1213176855,1213176669,-0.0050013573,-0.005414107,0.08849592,0.52182096,0.0,0.0,0.0,1.0
1213216830,1213216669,-0.005085405,-0.00052483473,0.07455165,0.5207079,0.0,0.0,0.0,1.0
1213260848,1213260669,-0.0041787154,0.0008472982,0.05954611,0.5247291,0.0,0.0,0.0,1.0
1213300831,1213300669,0.0024000593,0.00035138265,0.049022198,0.5252949,0.0,0.0,0.0,1.0
1213344845,1213344669,0.009222452,0.0059215184,0.038563643,0.52574563,0.0,0.0,0.0,1.0
1213384832,1213384669,0.009636559,0.008672491,0.0315282,0.5300185,0.0,0.0,0.0,1.0
1213428909,1213428695,0.01845295,0.010225238,0.024750886,0.5308847,0.0,0.0,0.0,1.0
1213468868,1213468672,0.02340886,0.013836569,0.021591607,0.53227013,0.0,0.0,0.0,1.0
1213512865,1213512669,0.029377738,0.01971407,0.016131118,0.5332245,0.0,0.0,0.0,1.0
1213552882,1213552705,0.03566603,0.01710607,0.014908315,0.53181934,0.0,0.0,0.0,1.0
1213596862,1213596669,0.04397536,0.017896611,0.014221277,0.53352535,0.0,0.0,0.0,1.0
1213636853,1213636669,0.04730929,0.018232323,0.0125271445,0.53469443,0.0,0.0,0.0,1.0
