timestamp,roll,pitch,yaw,thrust
1184860799,-0.19092618,0.058185413,0.00040519712,0.5057273
1184901604,-0.19194342,0.059031628,0.0003735067,0.513871
1184945668,-0.19382052,0.059255432,0.00043199782,0.522749
1184985625,-0.19440897,0.058863267,0.0004932717,0.53076977
1185029636,-0.19587693,0.057618245,0.00046051896,0.53956246
1185069591,-0.18585643,0.058740795,0.0004807196,0.5477736
1185113657,-0.21598816,0.067880884,0.00067927747,0.5569616
1185153633,-0.1739914,0.052426063,-0.00043399766,0.5646568
1185197638,-0.2312544,0.05063053,0.00019827618,0.5736373
1185237596,-0.15085723,0.019492332,-0.0016158697,0.5823716
1185281627,-0.19893993,0.10382859,0.0011416879,0.59158325
1185321621,-0.17737325,0.03565089,0.0016688145,0.5991582
1185365623,-0.17966269,0.059202798,0.0013134364,0.60920805
1185405589,-0.21808423,0.05567693,0.00016828546,0.6166312
1185449666,-0.20577691,0.07373718,0.00027990842,0.62602264
1185489642,-0.19655041,0.09129976,0.00016012201,0.63477767
1185533652,-0.23432122,0.060038064,-0.00057094987,0.6446492
1185573612,-0.19369182,0.06927208,-0.0008907822,0.6532279
1185614434,-0.18985172,0.05875913,-0.00128132,0.6625411
1185659232,-0.2225925,0.05647769,-0.00086107745,0.67159694
1185699251,-0.19813627,0.052811157,-0.00095810153,0.6808495
1185751204,-0.18561609,0.065765515,-0.0013471178,0.6911677
1185791280,-0.14785759,0.08164314,-0.0030977959,0.6891213
1185835201,-0.087836534,0.08199375,-0.0035335356,0.6903112
1185875198,0.0665985,0.08064701,-0.0029768583,0.695029
1185919200,0.28757614,0.051151965,-0.0031769099,0.674929
1185959221,0.56160116,0.056202985,-0.0035873856,0.64375865
1186003221,0.6620491,0.052383594,-0.00195845,0.6173149
1186047202,0.52116734,-0.015294723,-0.0023504512,0.6045115
1186091212,0.33125797,-0.058906935,-0.0057407245,0.57408303
1186131193,0.3941604,-0.047198027,-0.007989826,0.551851
1186175197,0.5782901,-0.030044448,-0.011380486,0.53584343
1186215202,0.6319059,-0.06515785,-0.015319699,0.52292484
1186259229,0.4658761,-0.07320626,-0.020689165,0.51616204
1186303293,0.32857463,-0.041942943,-0.025261402,0.5126235
1186347232,0.3530301,-0.063914835,-0.028841987,0.5126157
1186391228,0.34646675,-0.11960205,-0.030855406,0.5105649
1186431264,0.25809813,-0.13112605,-0.033976637,0.50799006
1186475203,0.1698455,-0.10871961,-0.037549473,0.50668013
1186515251,0.18922532,-0.1426417,-0.03886906,0.5092875
1186559223,0.19851108,-0.17374863,-0.03975025,0.51018864
1186599280,0.14098963,-0.14077239,-0.042721517,0.50910425
1186643220,0.06855152,-0.11609179,-0.044922736,0.51251626
1186683272,0.06167072,-0.13996717,-0.044455744,0.51521784
1186727278,0.070461795,-0.15949494,-0.043559175,0.5165707
1186767273,0.025562381,-0.120777324,-0.04544589,0.5169936
1186811186,-0.02772696,-0.09786528,-0.046775084,0.5214053
1186851242,-0.024882086,-0.11127782,-0.046400856,0.5219108
1186895199,-0.0161114,-0.11993437,-0.045998152,0.5237989
1186935236,-0.02978971,-0.074183054,-0.0480505,0.52281725
1186979185,-0.061754264,-0.061260667,-0.048616074,0.52452374
1187019232,-0.044444308,-0.06292047,-0.048777223,0.52544326
1187063325,-0.031538434,-0.062475555,-0.048213407,0.52668816
1187103266,-0.02852413,-0.04148738,-0.049016234,0.525118
1187147198,-0.04089808,-0.014958298,-0.04953656,0.5273659
1187187236,-0.029375546,-0.0071636476,-0.049660917,0.5303794
1187231197,0.00091680256,-0.0008063936,-0.04939348,0.53158873
1187271242,-0.017866582,-0.00601358,-0.04864386,0.5335227
1187315191,-0.0076434854,-0.0076444894,-0.04846873,0.53332996
1187355266,0.011033648,0.013362662,-0.049260378,0.5321856
1187399186,0.02684176,-0.0059098443,-0.049090967,0.5314305
1187439237,0.008722866,-0.024105359,-0.048630495,0.533969
1187483281,0.004300042,-0.041266125,-0.048544306,0.5344205
1187523433,-0.0074729766,-0.026351407,-0.048758525,0.53305566
1187567192,-0.016302196,-0.040948484,-0.048725516,0.5338784
1187607257,0.0006091358,-0.02934976,-0.049230527,0.5324539
1187651273,-0.025986932,-0.048946932,-0.04871141,0.53684956
1187691273,-0.029812288,-0.06204969,-0.048272733,0.5365788
1187735193,-0.039945308,-0.069282226,-0.04771998,0.5397968
1187775241,-0.029021477,-0.055952296,-0.047735788,0.5369374
1187819200,-0.027130378,-0.04372586,-0.04688047,0.53894776
1187859287,-0.015609068,-0.07671486,-0.045547217,0.54191947
1187903279,-0.0069699213,-0.06810548,-0.044319905,0.5412064
1187943267,-0.0160056,-0.06889304,-0.0434914,0.5398317
1187987211,-0.015277394,-0.050688103,-0.04234887,0.5396069
1188027284,0.0042186296,-0.041220814,-0.04132085,0.54082274
1188071199,0.0057613906,-0.029356666,-0.040276103,0.53977126
1188111234,0.008972196,-0.05021786,-0.038641922,0.5428186
1188155285,-0.0042255204,-0.051484153,-0.03752977,0.54157203
1188195263,-0.0020544215,-0.06306685,-0.036705054,0.5422096
1188239189,-0.017972723,-0.05731749,-0.035907015,0.5422345
1188279232,0.002637337,-0.046057265,-0.03523412,0.54249424
1188323301,-0.00040843934,-0.0433488,-0.034581296,0.5430502
1188363322,-0.007384837,-0.07106934,-0.033510547,0.5458172
1188407189,0.005809039,-0.05402634,-0.033085927,0.54449815
1188447221,-0.01665541,-0.073926106,-0.032500833,0.54541737
1188491287,0.013444936,-0.059130363,-0.03210446,0.54289776
1188531250,0.025028845,-0.05343852,-0.031435106,0.54409236
1188575196,0.038613345,-0.06197429,-0.030717805,0.5437141
1188615224,0.032676637,-0.0579809,-0.029985892,0.5440606
1188659277,0.037256166,-0.064539105,-0.029379629,0.54338485
1188699279,0.0421986,-0.06509762,-0.028568529,0.543996
1188743221,0.05463731,-0.069484085,-0.02802805,0.54349416
1188783256,0.05703272,-0.049898908,-0.02737576,0.5437734
1188827225,0.057200797,-0.050304417,-0.026685616,0.5434294
1188867266,0.06260915,-0.04742279,-0.026183942,0.54403436
1188911197,0.07407961,-0.03728796,-0.025431609,0.54376626
1188951225,0.08543416,-0.032435454,-0.024642747,0.5423587
1188995223,0.07175897,-0.037584443,-0.024029711,0.543077
1189035263,0.083584264,-0.013494967,-0.023724383,0.53914255
1189079204,0.06548957,-0.019008234,-0.023222953,0.5409835
1189119228,0.07704587,-0.013221143,-0.022787485,0.5413792
1189163333,0.06694149,-0.0014376008,-0.022112295,0.5429639
1189203279,0.050858937,-0.009434064,-0.02152763,0.5431451
1189247219,0.067414895,0.0049514044,-0.021265958,0.5412356
1189287240,0.036172304,0.0059097307,-0.020821687,0.5423737
1189331199,0.068397924,0.0188881,-0.020676015,0.53959405
1189375200,0.067169875,0.0012101018,-0.02031837,0.5412023
1189419215,0.061483763,0.006998368,-0.019915884,0.54033315
1189459246,0.06292872,0.0038684332,-0.01927601,0.54265475
1189503222,0.056379013,0.021449925,-0.018504903,0.54148936
1189543240,0.056051068,-0.004966665,-0.017912764,0.54408157
1189587237,0.069203764,0.011635099,-0.017467523,0.53994113
1189627187,0.07359473,0.0010295325,-0.016710732,0.541576
1189671200,0.072949335,0.008196819,-0.016242787,0.5379351
1189711194,0.075851515,0.020301137,-0.015739704,0.53820366
1189755200,0.066493414,0.0146223195,-0.0152038,0.5372047
1189795186,0.06649642,-0.0025089732,-0.014183698,0.54009914
1189839192,0.053718414,-0.008338449,-0.01331816,0.5405218
1189879196,0.044863332,-0.015008527,-0.012310162,0.53917205
1189923231,0.036437955,-0.0068275044,-0.011391952,0.53981835
1189967203,0.05926434,0.0039344793,-0.010597881,0.5370131
1190011246,0.057174318,0.0013759568,-0.009525426,0.53632027
1190052869,0.07344351,0.01049506,-0.008777552,0.5351984
1190092821,0.08119708,0.011789874,-0.008004757,0.53599745
1190136846,0.08200661,0.0007143593,-0.0073198117,0.5362884
1190180859,0.060784735,-0.014373325,-0.006286873,0.5391572
1190224826,0.07929859,-0.00961218,-0.0056914804,0.5367099
1190264834,0.057970684,-0.01847973,-0.004963661,0.5374404
1190304840,0.06777559,0.00407598,-0.0044610393,0.5348794
1190344795,0.071787514,0.01649445,-0.0043871463,0.53438216
1190388869,0.07145527,0.019248791,-0.0036862125,0.5346258
1190428817,0.056719303,-0.0076159462,-0.0029898565,0.5383975
1190472828,0.073819794,0.008774727,-0.0026559734,0.53671
1190512807,0.04724895,0.0009900717,-0.0020686546,0.5380684
1190556853,0.061149526,0.014989634,-0.0018537643,0.53557694
1190596844,0.046510868,0.0082371235,-0.0015960266,0.5385173
1190640834,0.05556333,0.026822703,-0.0016619754,0.5352799
1190680796,0.0506071,-0.0032145046,-0.0010331918,0.5397405
1190724898,0.059660148,0.007717952,-0.0012939314,0.5371038
1190764785,0.04128475,-0.00096325163,-0.0011001625,0.53780603
1190808849,0.032370124,0.0017519012,-0.0013529845,0.5367105
1190848792,0.046437968,0.0077267075,-0.0015527954,0.53683215
1190888794,0.05100473,-0.0068296264,-0.0016875933,0.5375005
1190928796,0.03280042,0.000102600156,-0.0017844255,0.535887
1190972782,0.028617814,-0.007961969,-0.0023623123,0.53940344
1191012799,0.041875705,-0.0024600527,-0.00275498,0.53452957
1191056784,0.02283919,-0.0024875344,-0.002851717,0.53883606
1191096815,0.031515356,0.020136576,-0.0035132575,0.53512794
1191136797,0.054948285,0.022598054,-0.0038070828,0.53460145
1191180790,0.034260422,0.008320736,-0.003477175,0.538623
1191224791,0.040507037,0.025865877,-0.003611821,0.53869754
1191264834,0.038908213,0.02234971,-0.0039167637,0.5349822
1191308787,0.033500735,0.039555606,-0.004328097,0.5346506
1191348793,0.063002914,0.044151947,-0.0047733793,0.5344119
1191392805,0.048502397,0.047254696,-0.005110068,0.53484523
1191432793,0.040471137,0.021807013,-0.00497053,0.5364846
1191476793,0.026331238,0.027037043,-0.005618423,0.5377317
1191516790,0.03910154,0.021981627,-0.0059822667,0.5361813
1191560794,0.028431948,0.025330309,-0.0062062186,0.5382938
1191600830,0.02694595,0.020840503,-0.0066523314,0.53632283
1191644786,0.015568036,0.029107045,-0.006937473,0.5360615
1191684801,0.0184217,0.012984212,-0.0069854846,0.53733563
1191728805,0.03632009,0.03468209,-0.007651576,0.53632754
1191768830,0.02297072,0.007814903,-0.0070757517,0.5353723
1191812779,0.026125709,0.02367926,-0.007631089,0.5333888
1191852788,0.039989706,0.02827238,-0.007887489,0.53319424
1191896833,0.04781591,0.034608774,-0.008484262,0.5332083
1191936833,0.027779093,0.008778458,-0.0075130775,0.5369622
1191980788,0.03063987,0.017202951,-0.007946012,0.53654283
1192020786,0.013071995,0.006959735,-0.007504985,0.5368118
1192064817,0.02472529,0.014827694,-0.0071713445,0.5366928
1192104823,0.021559287,0.019171495,-0.0063213846,0.5378595
1192148801,0.042274646,0.03222786,-0.0062299836,0.5369204
1192188788,0.016417446,0.008338095,-0.0052832426,0.5389315
1192232828,0.04270141,0.021902088,-0.0050819083,0.5370002
1192272827,0.031241544,0.010644812,-0.0038598217,0.5375601
1192316798,0.036175758,0.012779093,-0.0034189634,0.5358274
1192356787,0.032768756,0.02407061,-0.0026459917,0.53529704
1192400817,0.025613971,0.021627722,-0.0020685284,0.53527576
1192440821,0.017910695,-0.004936436,-0.0007285513,0.53818625
1192484790,0.0057818564,-0.004975453,-2.0043246e-05,0.53934634
1192524810,-0.0008470381,-0.010306033,0.00093954965,0.53740513
1192568836,-0.01718564,-0.008281567,0.0017002465,0.5384925
1192608849,-0.0059680436,-0.013978221,0.002368019,0.5394399
1192652793,-0.012358054,0.000850451,0.0030122153,0.5389508
1192692794,-0.010459062,-0.02253035,0.0036731688,0.5402394
1192736825,-0.011277518,-0.010156343,0.004027835,0.5406907
1192776790,-0.020504557,-0.022720484,0.0042939866,0.5411254
1192820786,-0.024897845,-0.014617237,0.0046047163,0.5415809
1192860812,-0.0060378844,-0.029014913,0.0044736294,0.5411104
1192904833,-0.014105988,-0.020991132,0.004077507,0.54121065
1192944793,-0.0072810315,-0.014492022,0.0038956678,0.5389319
1192988796,-0.023619324,-0.01663199,0.0032916183,0.53997093
1193028789,-0.018761337,-0.022732876,0.0029136809,0.5403981
1193072794,-0.042217888,-0.018637849,0.0024204268,0.54222846
1193112789,-0.026599068,-0.03258692,0.0020056644,0.5422969
1193156794,-0.04548182,-0.022554515,0.0014281974,0.5430991
1193196786,-0.056019202,-0.02331121,0.0006870893,0.5438026
1193240781,-0.0374336,-0.0010136573,7.086135e-05,0.5415064
1193280794,-0.029727105,0.0006495233,-0.00049622986,0.5431198
1193324804,-0.0072161383,0.019995883,-0.0011452917,0.54159385
1193364821,-0.027503876,0.0028985953,-0.0013707633,0.5441763
1193408789,-0.012642353,0.008331443,-0.0021829256,0.5416012
1193448786,-0.01623514,0.005138474,-0.0027112723,0.5408278
1193492796,-0.022624852,0.002111402,-0.003158416,0.54143184
1193532827,0.0020453597,0.021883132,-0.0035317307,0.5402933
1193576790,-0.01007684,0.01084377,-0.003696141,0.54163104
1193616779,-0.03159561,0.0029399095,-0.0040772236,0.5430135
1193660795,-0.025047094,0.0031165865,-0.0041377433,0.5438459
1193700845,-0.021154175,0.006632302,-0.0043770517,0.5429392
1193744790,-0.012992886,0.009496824,-0.004518817,0.54135436
1193788823,-0.012876649,-0.00038987512,-0.0048238006,0.54185945
1193832820,-0.03678999,-0.015424477,-0.004695766,0.54587084
1193872791,-0.02406138,-0.006165262,-0.0047381567,0.5421285
1193916833,-0.0344145,0.0066562924,-0.0043358416,0.5447791
1193956815,-0.021827232,-0.0048267078,-0.0042009936,0.546024
1194000830,-0.0029277066,0.019303052,-0.0039298693,0.5449747
1194044820,0.016415311,0.030558992,-0.0036629613,0.5423538
1194084833,0.002593063,0.019149603,-0.0030581227,0.5451874
1194124854,-0.0035064986,0.006128538,-0.0027892457,0.544307
1194168826,-0.003409655,0.015192494,-0.0024710684,0.5432696
1194212830,-0.014026227,0.0075691445,-0.0018150164,0.5456112
1194256826,0.005867058,0.012219332,-0.0012969304,0.54496217
1194300787,0.011167182,0.00664801,-0.00092035666,0.5429405
1194340852,0.029399954,0.036489677,-0.00053332845,0.5417237
1194384785,0.024914764,0.023367213,-0.00029832113,0.5413739
1194424834,0.021775495,0.04052843,6.0151768e-05,0.54273933
1194466434,0.011891618,0.029029647,0.00016603568,0.54346865
1194510401,-0.01049591,0.015099321,0.0005028428,0.5476281
1194554470,-0.00865051,0.028550472,0.00068639906,0.5488677
1194598385,0.009293777,0.05728845,0.00064407475,0.54644156
1194638413,0.0018142383,0.04160387,0.0009151676,0.5477403
1194682445,0.0032894774,0.03855319,0.00094428397,0.5460283
1194722485,-0.0059810886,0.047172375,0.0011247528,0.54479164
1194766400,-0.016129892,0.027801916,0.0012012311,0.54605454
1194806429,-0.010263767,0.03952023,0.0013009395,0.5430497
1194850413,-0.029276954,0.023399161,0.0018548346,0.545424
1194890451,-0.011853525,0.012286518,0.0018837771,0.54634094
1194930456,-0.027626777,0.010223578,0.0023430537,0.5448004
1194974398,-0.036866274,0.002616962,0.002609206,0.54685944
1195014386,-0.029641537,0.0046329466,0.0026046706,0.54491913
1195058480,-0.01740638,-0.0005417598,0.00293259,0.54329395
1195102391,-0.02097099,-0.0113203265,0.003303274,0.54089415
1195142429,-0.01919278,-0.0038841686,0.0036042756,0.5424143
1195186417,-0.019612521,-0.022494588,0.003730753,0.5424474
1195226458,-0.023152873,-0.026214754,0.00397653,0.5422291
1195270391,-0.029862706,-0.038277626,0.004108215,0.5444814
1195310423,-0.020706655,-0.042062134,0.004245919,0.54289114
1195354470,-0.022833906,-0.04906596,0.0041123796,0.543991
1195398401,-0.016941627,-0.055862807,0.0042589577,0.545074
1195438389,-0.008572039,-0.040370576,0.0040731025,0.5424347
1195478417,-0.02388864,-0.05470126,0.003847985,0.5449723
1195522395,-0.020434808,-0.04833184,0.003981741,0.5438315
1195562471,-0.033273924,-0.04611543,0.0038817073,0.5448293
1195602389,-0.018693144,-0.045842845,0.0037602677,0.5443863
1195646398,-0.011107747,-0.03487088,0.003922936,0.5432238
1195686414,-0.025651244,-0.031709768,0.0036732515,0.54481494
1195730421,-0.01195752,-0.019906782,0.003760966,0.5441705
1195774386,0.008113862,-0.019705568,0.0035242662,0.54323214
1195814413,-0.0070181293,-0.008457859,0.0039526992,0.5452987
1195858415,0.0058911215,-0.016371572,0.0037742592,0.54525256
1195898435,0.001824453,-0.013395786,0.004176059,0.54519653
1195938389,-0.0017331638,0.008200295,0.003860119,0.5431962
1195982406,-0.003384039,0.0024240124,0.0036984717,0.5425885
1196022392,0.006319042,0.010736667,0.0036665753,0.54445744
1196066423,0.002882286,0.0061443932,0.0036518923,0.54526484
1196106401,0.0014064056,0.0015932615,0.0037215357,0.54656684
1196150406,0.007648063,-0.0044465675,0.0037789373,0.54767
1196190407,-0.018338341,-0.0063867844,0.0037806453,0.54562145
1196234413,-0.017368337,-0.01021462,0.0040467065,0.54616386
1196274398,0.0147401225,0.0094409725,0.003387214,0.5435848
1196318395,0.010829907,0.0055979015,0.00350804,0.54447937
1196358443,0.01694091,0.009716489,0.0035282196,0.54533684
1196402419,-0.0022857683,0.01298471,0.003700897,0.5473067
1196442385,0.0014449155,0.0001731569,0.0035583358,0.5470296
1196486461,-0.01425318,0.0038046248,0.0034885043,0.5490073
1196526418,-0.0003701735,-0.003361963,0.0033980254,0.5477681
1196570416,-0.014132804,0.009541129,0.0035942113,0.54841036
1196610388,-0.010900131,0.011237582,0.004040655,0.5479497
1196654444,0.0024628325,0.038623177,0.0042347526,0.5466506
1196694447,0.0017330209,0.033900417,0.00429219,0.54767025
1196738436,0.021756886,0.06018885,0.0043411395,0.5449454
1196778389,0.014708745,0.038057007,0.004639616,0.54835135
1196818391,0.002503704,0.022135973,0.005280758,0.5497542
1196862420,0.015136413,0.051590074,0.0050185416,0.5471255
1196906418,0.02278812,0.050984755,0.0046602497,0.54484797
1196950441,0.004575732,0.042983294,0.004809537,0.5467151
1196990459,0.0012279147,0.043371636,0.0044988077,0.54512304
1197034393,0.0056530572,0.04329198,0.0042543174,0.545736
1197074435,0.010288122,0.04521589,0.0039282334,0.5445533
1197118454,0.029507548,0.04727408,0.0034912191,0.54324293
1197158464,0.026725717,0.06287523,0.0031927358,0.5443631
1197202386,0.027528722,0.06210453,0.0028723592,0.541834
1197242417,0.024451856,0.04913059,0.0026263173,0.54563594
1197286423,0.021410007,0.037053704,0.0025420845,0.54427487
1197326460,0.016450599,0.025678791,0.0026215909,0.5445711
1197370389,0.008726384,0.001997932,0.0028499712,0.54520565
1197410420,0.014404135,0.02161561,0.0028345976,0.54220325
1197454448,0.013170253,0.006156766,0.0032876278,0.5435534
1197494485,0.025295317,0.021872682,0.0030474495,0.5436692
1197538395,0.029439365,0.013518341,0.0032715346,0.5438208
1197578418,0.03212372,0.010524067,0.003359602,0.5449631
1197618382,0.014448382,0.0014459351,0.0034788172,0.5453401
1197658409,0.0055116713,0.004517462,0.0032677888,0.5452801
1197702399,0.022492088,2.8162618e-05,0.0031899929,0.5430223
1197746435,0.025334142,-0.008008918,0.0030381926,0.5412616
1197790441,0.012174261,-0.022938257,0.0027773054,0.5441556
1197830411,0.028742509,-0.01174851,0.0023090933,0.54067147
1197874387,0.012136547,-0.018942557,0.002102856,0.5445014
1197914419,0.008388744,-0.0204811,0.0015666627,0.54335845
1197958390,0.0076112086,-0.008096466,0.0008782485,0.5460123
1197998416,0.0073743076,-0.018244963,0.0005642128,0.5462321
1198042398,0.014605055,0.0058017904,-0.00021984798,0.5474255
1198082421,0.006303131,-0.008000099,-0.00072738365,0.54618007
1198126410,0.007205638,0.016544722,-0.0016897763,0.54476887
1198166433,0.009113706,0.029061792,-0.00277125,0.54474103
1198210383,0.0022001797,0.036149323,-0.00391475,0.5431978
1198250437,0.008283842,0.016141197,-0.004674077,0.5463446
1198294399,-0.0046005454,0.0133715775,-0.00574685,0.5466638
1198334418,-0.0344139,0.0035036628,-0.0065715024,0.5462202
1198378413,-0.022966249,-0.00018219643,-0.007884838,0.5458839
1198418445,-0.012323798,0.012962732,-0.009213852,0.5451979
1198462387,-0.011181774,0.0077859033,-0.010521822,0.5435062
1198502414,-0.023236731,-0.007615807,-0.011490812,0.5463643
1198546446,-0.03292266,-0.034718663,-0.012886444,0.5463933
1198586398,-0.044702478,-0.032898296,-0.013934823,0.5454868
1198630395,-0.05857457,-0.046385616,-0.0149944415,0.548804
1198670428,-0.03165858,-0.037130587,-0.015928684,0.5474753
1198714410,-0.015668195,-0.028864076,-0.016311593,0.5491072
1198754466,-0.025969088,-0.04867956,-0.01664891,0.55017126
1198798384,-0.024650285,-0.028156875,-0.016975723,0.5483565
1198839995,-0.025635716,-0.023514124,-0.016921027,0.5476224
1198884000,-0.030072128,-0.03427064,-0.016990677,0.54336834
1198924072,-0.011888641,-0.025960322,-0.016779568,0.5427395
1198964017,-0.026045969,-0.009697631,-0.016652444,0.54413533
1199008241,-0.03117634,-0.016800927,-0.016111905,0.54430455
1199051987,-0.015304547,-0.013783528,-0.015850961,0.5467361
1199092083,-0.011315858,-0.019179545,-0.015222855,0.546572
1199135986,-0.0025201463,-0.014920782,-0.014865843,0.5455827
1199175983,-0.0059273685,-0.013245151,-0.014577157,0.5433575
1199219983,-0.0048312824,-0.030506212,-0.014056014,0.5423048
1199264043,-0.008958263,-0.027126897,-0.013207435,0.54585594
1199303993,0.025023824,-0.021626253,-0.013195299,0.54391795
1199347990,0.029761828,-0.011602727,-0.012622096,0.54412186
1199387990,0.021774292,-0.034588315,-0.012354766,0.5471547
1199431985,0.016606012,-0.020259539,-0.0120807765,0.54357225
1199471989,0.020431705,-0.037309285,-0.011735021,0.544189
1199515998,0.006416378,-0.03851996,-0.011626418,0.54161245
1199556009,0.014474656,-0.029551845,-0.011115162,0.5417855
1199599991,0.0052605392,-0.03682912,-0.010804208,0.5426698
1199640018,-0.0044734976,-0.053782497,-0.010354046,0.54519707
1199684011,0.01333626,-0.047307108,-0.010113273,0.5459478
1199723995,0.0016654151,-0.058489557,-0.009507017,0.54558676
1199767992,0.026358,-0.0504815,-0.009266626,0.5431731
1199807989,0.028451301,-0.030006927,-0.009014077,0.5426969
1199852011,0.021199375,-0.03674009,-0.008631255,0.5427245
1199892033,0.04215656,-0.045397572,-0.008181955,0.54365504
1199936343,0.025178354,-0.06624794,-0.0076448643,0.5461949
1199975988,0.016537514,-0.06651663,-0.0074655404,0.5435072
1200020007,0.020135034,-0.06687802,-0.0070018843,0.5443417
1200060036,0.040811446,-0.05413787,-0.006871611,0.543841
1200103992,0.057415202,-0.045336798,-0.0063182656,0.54217774
1200143993,0.057826176,-0.065446414,-0.0060037663,0.5442461
1200188021,0.04485851,-0.068746865,-0.0054866145,0.5420841
1200228036,0.052233003,-0.068021104,-0.0055618216,0.54145485
1200271996,0.039248627,-0.08155413,-0.0055401754,0.541693
1200312000,0.04545517,-0.057558823,-0.005462917,0.5424823
1200356006,0.023314085,-0.06671583,-0.005551751,0.5450238
1200396013,0.019285737,-0.07380765,-0.005544709,0.54569197
1200439988,0.017676622,-0.0698829,-0.0056182737,0.5451691
1200479992,0.008390694,-0.07266003,-0.005636739,0.5448304
1200524021,0.041585688,-0.0680092,-0.0059062047,0.5417571
1200564032,0.018671392,-0.051987242,-0.0063407565,0.542667
1200607988,0.028302524,-0.068503365,-0.006433814,0.54191124
1200647994,0.023902152,-0.068567805,-0.006469589,0.54161954
1200692076,0.017084302,-0.08765239,-0.0066878954,0.54231876
1200732021,0.009093139,-0.07209636,-0.007084717,0.53985244
1200775989,0.016065432,-0.07935661,-0.006989914,0.5404473
1200815983,0.009118934,-0.08040623,-0.006877039,0.5427716
1200860015,0.013172428,-0.09114754,-0.0064678225,0.5426251
1200900041,0.010127664,-0.071184985,-0.006805294,0.5400535
1200943989,0.020846311,-0.071568266,-0.006517944,0.5396347
1200983992,0.023611857,-0.066449046,-0.006132794,0.5401837
1201028033,0.034337576,-0.07736239,-0.005911492,0.54147166
1201068021,0.014713667,-0.049640886,-0.0055503314,0.53940034
1201112005,0.02051961,-0.059933912,-0.005278151,0.5426065
1201151989,0.03853605,-0.03903571,-0.005107211,0.5390842
1201196030,0.053160086,-0.035238445,-0.0046378933,0.54086494
1201236022,0.036768295,-0.029120605,-0.0041581914,0.54223245
1201279995,0.06924558,-0.016254064,-0.0035426812,0.5418302
1201319999,0.05604381,-0.016035413,-0.00229739,0.5429211
1201364099,0.08499926,-0.013763577,-0.0013435099,0.5418525
1201403988,0.070623964,0.0010197796,-0.00014692647,0.54010344
1201447991,0.07859422,-0.009032448,0.0011714031,0.5399547
1201487992,0.07948016,0.007885302,0.0026261245,0.5405747
1201532023,0.09172208,0.010767213,0.0041688457,0.54099745
1201575992,0.0948479,0.013284096,0.006112399,0.54125977
1201616006,0.06838395,0.009128599,0.007660413,0.5434954
1201655992,0.024842197,-0.0065156543,0.009591953,0.5446321
1201700063,0.049622543,0.0037577501,0.010397412,0.5418854
1201740011,0.04126619,-0.0030338508,0.011677917,0.54279315
1201783998,0.043097228,-0.00053085334,0.012280357,0.5413093
1201824002,0.03104169,0.005065029,0.012394744,0.54155874
1201867991,0.015742868,-0.0048680147,0.012470637,0.5429484
1201907996,0.019073248,-0.01480846,0.012407621,0.54334784
1201951995,0.006756797,-0.03054488,0.01189741,0.5438099
1201992001,-0.01327028,-0.025086235,0.011208083,0.54306835
1202035989,-0.021451062,-0.029658748,0.010034671,0.5447884
1202075989,-0.04768789,-0.040578924,0.009100627,0.5467933
1202119997,-0.050267864,-0.057869557,0.007944364,0.54932845
1202160017,-0.05662337,-0.056081414,0.007101855,0.54888684
1202203994,-0.057631075,-0.0625064,0.0058055273,0.5489718
1202243991,-0.050913416,-0.049661163,0.004404972,0.5486429
1202288003,-0.044901874,-0.0521634,0.003406967,0.54763585
1202328029,-0.035600714,-0.07220194,0.002655309,0.5503023
1202371989,-0.03292208,-0.07844713,0.0015017837,0.5509462
1202411995,-0.039361358,-0.08220993,0.0007404253,0.54904014
1202456017,-0.036768172,-0.07640914,-0.00010595458,0.5488987
1202495986,-0.032553796,-0.053723704,-0.0005857747,0.54929763
1202544017,-0.02682944,-0.052204106,-0.0004075619,0.5480481
1202583995,-0.013648752,-0.032465797,-0.00038518352,0.54866165
1202627990,0.0048297527,-0.040422563,0.00010622219,0.54675037
1202667986,-0.0039630122,-0.040715054,0.0009967217,0.5481563
1202712000,-0.012030884,-0.054210294,0.0017876251,0.54926085
1202752008,-0.018138466,-0.039386887,0.0029686186,0.54685706
1202795983,-0.021577902,-0.052757956,0.0043275338,0.5496334
1202835982,-0.011222385,-0.036757708,0.0060073687,0.54766744
1202880011,-0.009436835,-0.03185434,0.007971374,0.5493211
1202920037,-0.028432917,-0.0234932,0.009788953,0.55152917
1202963992,0.003054184,0.0004136551,0.011627846,0.5504285
1203003988,-0.019492745,-0.002323156,0.01384348,0.55271715
1203048014,0.004689934,0.022628164,0.015721016,0.5516022
1203088032,0.028380424,0.023610737,0.01763481,0.5522908
1203131991,0.041067705,0.029250398,0.019741105,0.55349016
1203176108,0.06239726,0.03199429,0.02163179,0.55304354
1203219979,0.09401636,0.039165214,0.023939392,0.55208594
1203261688,0.0969608,0.030697357,0.026579117,0.5518776
1203301659,0.08564988,0.0125145335,0.02891513,0.55258256
1203345639,0.116897844,0.033814527,0.030982869,0.55083585
1203385622,0.13190532,0.038836487,0.032589547,0.5474919
1203429657,0.14864357,0.04318345,0.034038004,0.54606134
1203469670,0.15880248,0.043964483,0.03536889,0.5473836
1203513653,0.1586453,0.04983776,0.036096722,0.5460527
1203553643,0.15557688,0.056752384,0.037080567,0.54593664
1203597672,0.17411692,0.060164962,0.036906697,0.54341817
1203637630,0.176969,0.03153626,0.03718811,0.54651725
1203681642,0.18273284,0.03920242,0.037018817,0.54907703
1203721632,0.20994566,0.054704852,0.03641865,0.54164827
1203765642,0.217819,0.060718916,0.035548612,0.54321843
1203805631,0.20595182,0.08384191,0.034244936,0.5408235
1203849637,0.20621853,0.08259232,0.0326777,0.54121774
1203889647,0.20916323,0.101333335,0.03087873,0.5393116
1203933633,0.18837228,0.09181958,0.029536925,0.5393825
1203973654,0.17444158,0.09615349,0.027335968,0.5387407
1204017635,0.16808271,0.103893265,0.02505644,0.5371559
1204057645,0.17127529,0.11222686,0.022724297,0.537713
1204101635,0.1780129,0.11654058,0.020509562,0.5362723
1204141655,0.19661638,0.13102145,0.017903285,0.5340244
1204185635,0.16434804,0.1204938,0.016485725,0.5357911
1204225645,0.19019684,0.12527741,0.014144316,0.53561586
1204269651,0.16623695,0.113684624,0.012968704,0.5374787
1204309645,0.14953463,0.09854765,0.011918756,0.53792584
1204353665,0.1339927,0.10198172,0.01015852,0.5401066
1204393649,0.1303972,0.11118369,0.008201751,0.5369359
1204437638,0.13241376,0.10349768,0.0063089714,0.53747046
1204477632,0.13253619,0.124447,0.0037378736,0.534947
1204521680,0.088742614,0.097727396,0.0029640673,0.5379957
1204565593,0.07380081,0.08864243,0.0017131711,0.5396341
1204609595,0.072597265,0.0910053,0.00016504995,0.53975344
1204649611,0.079502635,0.086863406,-0.0012463272,0.5402928
1204689681,0.06083138,0.07074407,-0.0018942254,0.5442715
1204729661,0.042568933,0.0572196,-0.0021489123,0.54434335
1204773647,0.04369206,0.05079048,-0.002847901,0.5436375
1204813629,0.03815362,0.057615403,-0.003513993,0.541134
1204857664,0.025925975,0.03839836,-0.0035464787,0.5433338
1204897678,0.03722062,0.045803383,-0.004075784,0.5426508
1204937667,0.008952696,0.010872247,-0.002785975,0.5465081
1204981627,0.009197395,-0.003955183,-0.00253581,0.54596907
1205025690,0.03712471,-0.01271019,-0.0019244713,0.5462996
1205065647,0.022377675,-0.023244912,-0.00051955756,0.54551387
1205109661,0.03378126,-0.03876832,0.00040484502,0.54435277
1205149618,0.040478162,-0.046305187,0.0019686753,0.5454409
1205193666,0.030856574,-0.0684992,0.0037707854,0.5451795
1205233662,0.058185343,-0.071313426,0.004895616,0.54526085
1205277638,0.05348696,-0.08000476,0.006646877,0.54617983
1205317629,0.05886291,-0.080184534,0.007901955,0.5460288
1205361687,0.05849515,-0.08510322,0.009731072,0.5465841
1205401663,0.029225841,-0.070100725,0.010473625,0.5476603
1205445640,0.039385453,-0.060024254,0.011267094,0.54697907
1205485636,0.033528037,-0.07029996,0.012469729,0.5493671
1205529665,0.022922222,-0.06397093,0.01301312,0.55015725
1205569672,0.030338006,-0.0694099,0.013250359,0.55090535
1205613632,0.0054062232,-0.068338804,0.0131960595,0.5531929
1205653631,-0.018612437,-0.07379115,0.012640638,0.55257577
1205697692,-0.021607943,-0.06827256,0.012010628,0.55614847
1205741593,-0.010692473,-0.056550175,0.011030267,0.55395174
1205785636,-0.00812783,-0.06514899,0.009933601,0.55308324
1205829592,-0.0075412095,-0.064327724,0.008814296,0.5560865
1205869604,-0.023253078,-0.07110521,0.008260056,0.55426806
1205913641,-0.0075424565,-0.06254676,0.0075620892,0.5556556
1205953632,-0.02540394,-0.038536184,0.0066320454,0.5524849
1205997594,-0.011340285,-0.03798217,0.0059869583,0.5516571
1206037587,0.0025192245,-0.019613191,0.0054851845,0.5504455
1206081632,-0.007868931,-0.031851742,0.0050188997,0.5526106
1206121645,-0.025945388,-0.013161539,0.004627217,0.5504094
1206165616,-0.027456928,-0.012590803,0.004450818,0.5540857
1206205609,-0.028465811,0.0009105843,0.0036040554,0.5522434
1206249635,-0.024441168,0.016122004,0.003149681,0.5531612
1206293594,-0.03426006,0.038374685,0.0025672752,0.55078816
1206333642,-0.016845698,0.034852594,0.0021769407,0.55531245
1206373591,-0.01973622,0.028833687,0.0021250339,0.5558664
1206413587,-0.04093997,0.028221099,0.0019099077,0.5540816
1206457594,-0.053498827,0.018904855,0.0018112566,0.55711627
1206501597,-0.038137957,0.041404314,0.0013143916,0.55445874
1206541601,-0.037679818,0.033536468,0.0012952314,0.5533308
1206585648,-0.03297264,0.04566723,0.000917349,0.5517407
1206625587,-0.025425527,0.040302116,0.0008436121,0.5499189
1206669684,-0.045059945,0.04040183,0.0011461108,0.5506864
1206709872,-0.04171474,0.03867048,0.0013710111,0.54942685
1206749594,-0.019239085,0.035346568,0.0013914153,0.54892105
1206793595,-0.022873133,0.03209174,0.0017237309,0.5474807
1206833586,-0.031567022,0.028244806,0.0020834813,0.54959774
1206877589,-0.023935886,0.038952127,0.0026283227,0.5481408
1206917602,-0.026450593,0.013265132,0.00303303,0.5487208
1206961599,-0.014167713,0.027884053,0.0032100044,0.54718006
1207001602,-0.024389893,0.0044923443,0.003559289,0.5458056
1207045581,-0.028083095,0.0006955122,0.0036767365,0.5477421
1207085637,-0.031019472,0.016157748,0.0035993683,0.5428041
1207129591,-0.05001001,0.01046524,0.0036418384,0.5466401
1207173591,-0.044545695,0.01850395,0.0037686713,0.5475185
1207213622,-0.029970046,0.020328099,0.0034450102,0.54570425
1207257607,-0.02184164,0.0387049,0.0034560869,0.54607946
1207297595,-0.017889425,0.04292231,0.003217957,0.54356927
1207341592,-0.023110736,0.046259277,0.0027068197,0.544554
1207381638,-0.0020981533,0.0708453,0.002245665,0.5414052
1207421637,0.0059012445,0.06984575,0.0019425193,0.5435864
1207465602,-0.0033969479,0.059728295,0.0015889223,0.54352856
1207509624,-0.016832352,0.060449183,0.0012806113,0.5452245
1207553598,-0.014741389,0.08026999,0.0009740703,0.5437065
1207593610,-0.024962679,0.06234337,0.00047647225,0.5446191
1207633585,-0.010294218,0.06325662,-0.00030920634,0.54445237
1207675199,0.017347503,0.06488155,-0.001312,0.5426771
1207715200,0.00047403548,0.078410536,-0.0018262147,0.5415121
1207759198,0.012874923,0.07280307,-0.0029373064,0.54152954
1207799208,0.015002588,0.09001262,-0.0035799686,0.54062396
1207843233,0.017654156,0.074484944,-0.00472307,0.54262626
1207883238,0.0055486374,0.06865675,-0.005393855,0.5426138
1207923233,-0.018097224,0.06537167,-0.0060697114,0.542405
1207963223,-0.0056751296,0.067562126,-0.0069458066,0.54217035
1208007238,-0.0034599577,0.0679592,-0.0076434943,0.54225546
1208047239,-0.007940623,0.06988083,-0.008595324,0.5403107
1208091202,0.003100807,0.07265471,-0.009249966,0.54045844
1208131197,-0.0048771286,0.070229925,-0.009365331,0.54221845
1208175217,0.011494309,0.05927499,-0.01022036,0.5406937
1208215209,-0.0049051014,0.05480388,-0.010317986,0.53864044
1208259199,-0.019465132,0.030590566,-0.010862558,0.54028
1208299195,0.0039273985,0.049810205,-0.011343444,0.53602535
1208339203,0.016289853,0.062440332,-0.011735115,0.5386718
1208383273,0.0037972485,0.044931524,-0.011735827,0.53874886
1208427186,0.0142434295,0.040546723,-0.011716072,0.53833306
1208467202,0.00066745246,0.034967553,-0.011508755,0.54104954
1208511233,0.02938186,0.023205027,-0.011702345,0.53972936
1208551231,0.019492095,0.03552129,-0.01149895,0.53936225
1208595195,0.014982146,0.020362692,-0.011696491,0.53932995
1208635190,0.013890646,0.034340534,-0.01169019,0.53789514
1208679257,0.020874327,0.016656166,-0.011496193,0.5388956
1208719240,0.020941196,0.039742317,-0.011238665,0.538639
1208763229,0.033884093,0.044548146,-0.011053514,0.5388039
1208803226,0.033906125,0.04493749,-0.010894756,0.53804016
1208847229,0.046232875,0.038700253,-0.010960893,0.5386268
1208887234,0.033158273,0.03496942,-0.010198794,0.53714824
1208931201,0.021557216,0.03225552,-0.010013917,0.5397755
1208971193,0.011110104,0.040812384,-0.009664869,0.5360801
1209015242,0.022104215,0.029648222,-0.009510537,0.53792405
1209055203,0.030564273,0.045952227,-0.009665429,0.5355295
1209099211,0.039516635,0.05303093,-0.009362137,0.5359645
1209139192,0.024682036,0.056666024,-0.00938662,0.53830147
1209183254,0.047746222,0.06865148,-0.009453258,0.53433156
1209223283,0.03040263,0.043818057,-0.008587148,0.5370853
1209267201,0.024174584,0.045824897,-0.008423342,0.53755605
1209307196,0.016297499,0.043882124,-0.008110929,0.5348118
1209351198,0.014377083,0.03042317,-0.008088237,0.53804564
1209391200,0.024930285,0.04340929,-0.008180896,0.53277415
1209435195,0.035978496,0.047706686,-0.00816456,0.5350256
1209475209,0.05071104,0.06780582,-0.008857747,0.5338329
1209519212,0.06225357,0.067182496,-0.008950638,0.5326991
1209559196,0.057035267,0.054941718,-0.008934637,0.53516734
1209603221,0.047952075,0.058960862,-0.008900943,0.5355556
1209643234,0.01394368,0.040784273,-0.008088479,0.5372369
1209687202,0.021526452,0.03681228,-0.007727873,0.538176
1209727195,0.01786769,0.037046783,-0.0068743965,0.5352323
1209771203,0.02787107,0.04916086,-0.00597272,0.5371754
1209811202,0.025579318,0.0698983,-0.0056408923,0.535198
1209855212,0.043615058,0.07684026,-0.0046935934,0.534031
1209895198,0.047753245,0.06799167,-0.00387337,0.53602713
1209939215,0.047292087,0.06494879,-0.0028564094,0.53687936
1209983244,0.030760914,0.08026098,-0.001815558,0.53633076
1210027195,0.04365757,0.11028166,-0.0012973415,0.5341712
1210067212,0.0342872,0.085923016,4.3164513e-05,0.53734124
1210111190,0.034669314,0.0957732,0.0008911949,0.5350458
1210151198,0.06500499,0.09114196,0.0012952224,0.53598887
1210195191,0.039555687,0.09826814,0.0019522792,0.534899
1210235219,0.035088003,0.070868626,0.0025857969,0.5394866
1210279249,0.011642953,0.0801123,0.0030298606,0.5384878
1210319193,0.0002413397,0.04722697,0.0038798777,0.5409211
1210363237,-0.011402815,0.05702097,0.004005405,0.5415741
1210403265,-0.009658059,0.052410413,0.0040457635,0.5400065
1210447196,-0.012504801,0.06293204,0.0041478807,0.53889036
1210487202,-0.025051227,0.056167483,0.0041316627,0.54118687
1210531237,-0.015159456,0.07046703,0.0036968258,0.53716713
1210571222,-0.018035812,0.053971164,0.003996998,0.5405871
1210615186,-0.00993307,0.06700796,0.0030588554,0.5403533
1210655215,-0.030682122,0.042662352,0.003224304,0.5416553
1210699242,-0.05099843,0.050871145,0.002867903,0.5425935
1210739226,-0.03822821,0.0381595,0.0028134282,0.54181725
1210783222,-0.042790238,0.047335327,0.0025279978,0.5415302
1210823221,-0.050070178,0.04057362,0.0023802798,0.54106957
1210867236,-0.05438953,0.05362903,0.0021479512,0.54019856
1210907241,-0.053692326,0.06027238,0.0021142487,0.53979564
1210947225,-0.041058447,0.063454844,0.002182595,0.54233
1210987247,-0.04234777,0.057280827,0.0023846687,0.54247576
1211031190,-0.044911966,0.07535769,0.0024217048,0.54113424
1211071207,-0.033088684,0.08253862,0.0021202546,0.54123586
1211115228,-0.041752316,0.08924496,0.0019156698,0.5403551
1211155224,-0.04157673,0.0635654,0.0016531239,0.54356724
1211199191,-0.0476403,0.07730329,0.00086905324,0.54257935
1211239194,-0.06698099,0.059551276,0.00020591686,0.54519737
1211283254,-0.04780091,0.06808489,-0.001148271,0.5450452
1211323277,-0.027952814,0.060694624,-0.002611829,0.54396874
1211367449,-0.013760191,0.048011243,-0.004623254,0.5446994
1211407207,-0.017553087,0.052685045,-0.0062118825,0.5414361
1211451237,-0.026593445,0.033820715,-0.008017935,0.54190445
1211491197,-0.007515303,0.029525012,-0.009692458,0.54295546
1211535193,0.008114567,0.019587304,-0.011408132,0.5437914
1211575194,-0.0034206738,0.01734035,-0.012861451,0.5436331
1211619183,0.010490267,0.010282509,-0.014769288,0.54457515
1211659287,0.008181905,-0.016759377,-0.015962658,0.5440709
1211703226,-0.015644144,-0.022556908,-0.017024757,0.546435
1211743224,-0.0111542065,-0.006654404,-0.017998025,0.5438853
1211787189,0.0054629534,0.020045312,-0.018986827,0.5422316
1211827195,0.009415058,0.009939691,-0.019741943,0.5440853
1211871307,0.011540278,0.016259639,-0.020732325,0.5437913
1211911195,-0.00046174132,0.01970142,-0.021338394,0.54526806
1211955194,0.018939832,0.0240839,-0.02177797,0.54509574
1211995190,0.006490109,-0.00079849124,-0.021551805,0.54698545
1212039988,0.03232756,0.010415661,-0.021423396,0.54372317
1212080795,0.0214815,0.0137947155,-0.021199992,0.5427666
1212120807,0.02354917,0.015789181,-0.02038339,0.5394042
1212164839,0.038605243,0.004268177,-0.019703794,0.5430433
1212204832,0.04417311,0.025751675,-0.018396992,0.5384131
1212248824,0.047198817,0.024578549,-0.016906856,0.5296623
1212288806,0.08325099,0.039836872,-0.015898407,0.51801425
1212332824,0.06121067,0.027602525,-0.013529516,0.5121203
1212372854,0.04409952,0.027870588,-0.011452865,0.5080416
1212416786,0.030327093,0.020090206,-0.00917998,0.5041902
1212456815,0.040531192,0.03748889,-0.007447132,0.4961805
1212496794,0.024787907,0.05075362,-0.0051616025,0.49329326
1212540800,0.013328377,0.041640047,-0.0028444112,0.49135435
1212580810,0.009948755,0.034282096,-0.00044856977,0.49428466
1212624796,0.0009717948,0.020657679,0.0017876739,0.49479124
1212668787,-0.0071798004,0.014394739,0.0035248483,0.49328935
1212708810,0.420533,0.87266463,-0.050629735,0.48728564
1212752790,0.40669113,0.87266463,-0.048971873,0.49395862
1212792796,0.3809863,0.87266463,-0.0478845,0.49519873
1212836789,0.32230052,0.87266463,-0.046036795,0.50667626
1212876813,0.28981203,0.87266463,-0.04635028,0.5069871
1212920830,0.22849277,0.87266463,-0.045168355,0.52092135
1212960808,0.5820628,0.5047635,0.7853982,0.5239295
1213004788,0.5045869,0.33996728,0.7853982,0.5239927
1213044797,0.3916909,0.21586864,0.7853982,0.5283922
1213092846,0.24778682,0.13386795,0.7853982,0.5249645
1213132828,0.14500117,0.06607704,0.7853982,0.5256041
1213176836,0.025638223,-0.03208629,0.7853982,0.52182096
1213216812,-0.03138351,-0.09045521,0.7853982,0.5207079
1213260830,-0.12599616,-0.10533348,0.7853982,0.5247291
1213300812,-0.19381037,-0.13185859,0.7853982,0.5252949
1213344827,-0.22407135,-0.15487412,0.7853982,0.52574563
1213388785,-0.24685426,-0.15299642,0.7853982,0.52483827
1213428891,-0.2794504,-0.17039253,0.7853982,0.5308847
1213468846,-0.29927388,-0.1583896,0.7853982,0.53227013
1213512846,-0.30687505,-0.15781334,0.7853982,0.5332245
1213552863,-0.26793084,-0.13668187,0.7853982,0.53181934
1213596843,-0.24654731,-0.13150445,0.7853982,0.53352535
1213636835,-0.23736246,-0.13885038,0.7853982,0.53469443
1213684796,-0.20701306,-0.11964008,0.7853982,0.5350261
1213728792,-0.13578755,-0.09660256,0.7853982,0.53495836
1213772857,-0.102427796,-0.08467068,0.7853982,0.52687824
1213816792,-0.087221265,-0.102534115,0.7853982,0.5254943
1213860851,-0.05748202,-0.09186953,0.7853982,0.5252558
1213908851,0.002778838,-0.07923229,0.7853982,0.52402115
1213948811,0.021848202,-0.05711387,0.7853982,0.5213818
1213992829,0.062211715,-0.0261461,0.7695844,0.5136169
1214032792,0.07928441,-0.054894432,0.7159916,0.51971865
1214076850,0.08314525,-0.06093495,0.6586582,0.51817286
1214116829,0.12641597,-0.038315415,0.6075098,0.511695
1214160822,0.13623491,-0.047098145,0.55475676,0.5129379
1214200785,0.101856835,-0.06368049,0.5015633,0.5141342
1214240785,0.1315876,-0.05970346,0.45540872,0.5136851
1214280813,0.17543037,-0.023633229,0.40983924,0.50784165
1214324836,0.16512297,-0.045951605,0.36723202,0.50915813
1214364793,0.11723688,-0.1611451,0.33172104,0.50819373
1214408783,0.0848079,-0.22707552,0.2929452,0.50652844
1214452875,0.068847954,-0.29683834,0.25687504,0.49817273
1214496837,0.01795478,-0.36641487,0.22270593,0.49738953
1214540870,0.004953275,-0.42100522,0.19058007,0.49759948
1214580882,-0.015628206,-0.43290764,0.1632872,0.49256933
1214620819,-0.07448446,-0.4717338,0.13594323,0.4985189
1214664860,-0.07730846,-0.4928652,0.109492905,0.49797305
1214708864,-0.060673345,-0.5171194,0.08472271,0.49906978
1214752846,-0.025832424,-0.51015395,0.06314609,0.49627692
1214796828,-0.04988735,-0.5211874,0.033043176,0.5001877
1214836880,-0.040253732,-0.5402141,0.015818352,0.49912998
1214876867,-0.043602817,-0.5080038,-0.00077311404,0.4964442
1214920859,-0.0005496803,-0.52364206,-0.016421735,0.4937042
1214960813,0.005158153,-0.5562397,-0.031827554,0.50131434
1215004875,0.029891115,-0.5974315,-0.045133792,0.5004495
1215044854,0.049244173,-0.5909309,-0.053838033,0.50259936
1215084868,0.047826387,-0.6125463,-0.06669603,0.50890434
1215124787,0.10031747,-0.625059,-0.07505096,0.506269
1215168833,0.11834367,-0.59439033,-0.079944804,0.50783134
1215208787,0.15132217,-0.53072816,-0.079573885,0.50684816
1215252891,0.15074393,-0.51253754,-0.08245154,0.5124421
1215292798,0.16390029,-0.48248872,-0.08089012,0.5107397
1215336841,0.21060361,-0.40675884,-0.07478584,0.50251544
1215376800,0.24659492,-0.40360665,-0.07187765,0.50479895
1215420839,0.2355965,-0.35941407,-0.072249316,0.5024699
1215460802,0.22398244,-0.32419428,-0.06767329,0.5050186
1215504796,0.20059127,-0.30956608,-0.06303082,0.51096034
1215548827,0.22010136,-0.286309,-0.057826273,0.51027995
1215592840,0.20835567,-0.26039147,-0.05147615,0.5133159
1215636819,0.16550945,-0.23962438,-0.04593895,0.51729363
1215676839,0.26775682,-0.2057029,-0.04234007,0.5104281
1215720799,0.23174807,-0.18975873,-0.03724203,0.51658016
1215764843,0.22707991,-0.16724585,-0.03280479,0.5179415
1215812813,0.20151785,-0.17063822,-0.028193261,0.5229246
1215852836,0.23758534,-0.15423265,-0.023292134,0.52210695
1215892844,0.23090371,-0.150641,-0.018496199,0.52211934
1215932839,0.20660532,-0.15232195,-0.015312616,0.5241111
1215976791,0.22584164,-0.14145379,-0.010708715,0.52138114
1216020832,0.20796944,-0.16757256,-0.008273567,0.5240458
1216068881,0.16928297,-0.18285277,-0.007777892,0.52527356
1216116838,0.19181448,-0.22790474,-0.007382471,0.52527887
1216156885,0.19311535,-0.21196565,-0.005673795,0.5190409
1216204787,0.22281815,-0.2267335,-0.0033283574,0.5143756
1216244789,0.16494521,-0.24398248,-0.004167497,0.5229066
1216292790,0.1936386,-0.23260418,-0.0037657865,0.5147469
1216340768,0.18230857,-0.2565469,-0.005067676,0.5197783
1216380790,0.16776507,-0.2515445,-0.005568667,0.5175879
1216425665,0.12756468,-0.26599926,-0.006679494,0.5200901
1216470388,0.17311613,-0.2682045,-0.00674567,0.51199013
1216510391,0.09231377,-0.27607697,-0.009735131,0.52088237
1216554404,0.070748724,-0.2771232,-0.011283233,0.52297986
1216594413,0.062493548,-0.26812416,-0.012323864,0.5200162
1216638389,0.0531818,-0.27222186,-0.014257963,0.5253363
1216678390,0.08877153,-0.26152945,-0.016020326,0.5182134
1216726382,0.035708997,-0.28646025,-0.018484298,0.526158
1216766421,0.013167984,-0.25189033,-0.021793038,0.5196055
1216810379,-0.038416658,-0.24248692,-0.024334129,0.52930015
1216850410,-0.0047314493,-0.21094531,-0.027081193,0.5263451
1216894381,-0.0499189,-0.2337243,-0.03023448,0.5298296
1216934396,-0.07113145,-0.21832187,-0.03295151,0.5338385
1216978392,-0.07802049,-0.21198882,-0.035344075,0.5267317
1217018443,-0.07313347,-0.25001842,-0.036870666,0.5335257
1217062427,-0.09143015,-0.21704313,-0.038607046,0.5304838
1217102502,-0.11215034,-0.2137503,-0.040277157,0.523489
1217146392,-0.07162128,-0.18893285,-0.040879928,0.5230309
1217190411,-0.10763969,-0.24384327,-0.04164751,0.52760875
1217230392,-0.12593451,-0.24898264,-0.0423978,0.52826464
1217270396,-0.114227384,-0.24530563,-0.04215603,0.52485967
1217314434,-0.111498125,-0.27193382,-0.04181579,0.52674556
1217358378,-0.10917467,-0.2502455,-0.040573,0.52256685
1217402400,-0.10944413,-0.26380777,-0.04109377,0.5241867
1217446386,-0.13706501,-0.24255139,-0.04063835,0.5275298
1217486415,-0.1592671,-0.24348027,-0.039935492,0.5215555
1217530397,-0.14869826,-0.26365456,-0.039353274,0.52731687
1217570418,-0.12555313,-0.24219124,-0.038015947,0.52082074
1217614385,-0.16375116,-0.26670784,-0.037020482,0.523116
1217654423,-0.119847775,-0.2630967,-0.03592024,0.516938
1217702470,-0.1544583,-0.27680436,-0.034473278,0.51620615
1217742396,-0.14731744,-0.28199023,-0.03365076,0.5183856
1217790433,-0.12784739,-0.27042904,-0.03158629,0.51447785
1217830468,-0.14986369,-0.25028214,-0.030480426,0.5159304
1217874387,-0.1151583,-0.25622413,-0.027917566,0.51443684
1217918461,-0.16819546,-0.28414494,-0.026897945,0.51395553
1217962416,-0.13241348,-0.2634258,-0.024270365,0.5131597
1218006443,-0.104594626,-0.25300115,-0.022427678,0.5117227
1218046453,-0.11679072,-0.24216786,-0.02062945,0.5091002
1218090387,-0.08793297,-0.22703296,-0.01829816,0.510224
1218134435,-0.14121027,-0.24227093,-0.016454242,0.5141011
1218178391,-0.10245111,-0.23204018,-0.015097902,0.5161165
1218222429,-0.06863416,-0.21967827,-0.013775989,0.51281315
1218266389,-0.10796034,-0.19619314,-0.012300732,0.5133704
1218306402,-0.056170933,-0.19813439,-0.011035108,0.51608413
1218346387,-0.07763498,-0.20102519,-0.009953641,0.5233316
1218386391,-0.08310932,-0.1853786,-0.009416104,0.5151486
1218430429,-0.06839192,-0.18359621,-0.008223819,0.50793
1218470500,-0.09158983,-0.19273257,-0.007951201,0.5211504
1218514398,-0.07303058,-0.21572238,-0.0069930777,0.5233106
1218558436,-0.056564413,-0.17540868,-0.0062829703,0.51213664
1218598459,-0.077861026,-0.18912578,-0.005223056,0.5205457
1218638416,-0.097658485,-0.20415549,-0.0043453746,0.5249934
1218682405,-0.058754858,-0.19477686,-0.0035818657,0.51756525
1218722400,-0.10130573,-0.20224488,-0.0032493079,0.52223235
1218766443,-0.0660901,-0.1571463,-0.001692067,0.5172404
1218806434,-0.10076462,-0.1602307,-0.001712959,0.51901835
1218854414,-0.059314393,-0.1506041,2.7076812e-05,0.51600516
1218894483,-0.0650899,-0.15894875,0.0014067186,0.5185995
1218938396,-0.018955322,-0.12820442,0.0019882123,0.51402664
1218978391,-0.04086647,-0.13084379,0.0028988237,0.5153782
1219018389,-0.04697132,-0.13903455,0.0036610805,0.5197377
1219062443,-0.016385753,-0.12565139,0.0039143926,0.51782805
1219106402,-0.052596472,-0.1362879,0.0041552265,0.5200765
1219150471,-0.026194278,-0.11637071,0.004694162,0.51830053
1219194455,-0.021609252,-0.13845761,0.0054676724,0.52613604
1219238490,0.005840518,-0.09143493,0.005723606,0.51506716
1219278468,0.0060017942,-0.12278518,0.0060107214,0.52032936
1219318439,0.00016311307,-0.11704681,0.00630288,0.5205029
1219358446,0.011368563,-0.12901832,0.0070723183,0.5233364
1219398388,-0.008756574,-0.10393616,0.007330643,0.5202674
1219442388,0.013873357,-0.08963514,0.007945444,0.519805
1219482388,0.014761875,-0.08837159,0.0077218935,0.5155351
1219526432,-0.0061882865,-0.12112895,0.007787029,0.526546
1219566386,0.0099899,-0.092898935,0.0065975524,0.5173976
1219610389,-0.020067938,-0.1114966,0.0059590377,0.5209532
1219654469,0.0029268172,-0.08738097,0.0034479361,0.5208517
1219694392,-0.0028900905,-0.08573583,0.0016557501,0.5183318
1219734399,-0.031211525,-0.09803351,-8.9613815e-05,0.52173173
1219778435,-0.004418624,-0.07214338,-0.0016639114,0.51791805
1219818379,-0.055894457,-0.08440675,-0.002793884,0.52428967
1219862384,-0.077566385,-0.07470234,-0.0047842576,0.5232378
1219902393,-0.061337568,-0.0654828,-0.00615676,0.52356917
1219946394,-0.05837408,-0.056713477,-0.0074207783,0.52374995
1219990499,-0.100703284,-0.07713509,-0.008180782,0.5266788
1220030610,-0.09691808,-0.05226251,-0.009232513,0.52185553
1220070383,-0.105326146,-0.042404898,-0.010294733,0.5250545
1220114403,-0.106264405,-0.068659306,-0.01068104,0.52911776
1220158479,-0.1302843,-0.07049595,-0.010907201,0.5299137
1220202462,-0.07652642,-0.023020897,-0.012624806,0.5234417
1220246467,-0.09492552,-0.051571283,-0.012147331,0.52877086
1220286498,-0.07138443,-0.052572772,-0.012142824,0.5235278
1220330439,-0.12856339,-0.076739304,-0.011578479,0.52779335
1220370483,-0.11317554,-0.048500072,-0.011869321,0.52292013
1220414469,-0.08882754,-0.03983546,-0.011934191,0.5214935
1220454521,-0.09538827,-0.053121664,-0.011195459,0.5247704
1220498447,-0.08780268,-0.02246852,-0.0116203595,0.5228507
1220538437,-0.10535228,-0.038289703,-0.010654446,0.5274099
1220582453,-0.11176758,-0.02476606,-0.009717656,0.5339849
1220622437,-0.084222496,-0.009504968,-0.008691392,0.52652764
1220666441,-0.09879858,-0.013006295,-0.0070723095,0.52739936
1220706446,-0.108705856,-0.019702597,-0.0055661965,0.5348474
1220746431,-0.10133435,-0.02589426,-0.00411765,0.53365886
1220790455,-0.07886597,-0.008541022,-0.002988466,0.53157306
1220832019,-0.024335142,0.0024170324,-0.0023743026,0.52912605
1220871996,-0.039999723,0.005714041,-0.0012622025,0.534568
1220915993,-0.004619981,-0.022551583,-0.00045643226,0.5344715
1220955998,-0.012534829,-0.018101202,-0.00011529467,0.53710306
1221000041,0.009846512,-0.022860555,0.0010708936,0.53509337
1221039988,0.03615793,0.00095371506,0.00039674868,0.5267178
1221083988,0.0038679193,-0.030618012,0.000527766,0.5273024
1221124002,0.01926485,-0.037880573,0.00052294927,0.5282694
1221167999,0.013536531,-0.02353893,7.00846e-05,0.53037393
1221207991,0.007832334,-0.05749224,0.00039233372,0.53356904
1221251985,0.024644524,-0.07543837,0.00032912256,0.5329389
1221292010,-0.0035158251,-0.06704368,0.0002619936,0.53157395
1221335992,0.027662603,-0.049372967,-0.00031195377,0.5286303
1221379990,0.040744647,-0.08407912,-0.00032068416,0.529523
1221423985,0.05122574,-0.0833727,-0.00014251012,0.5241779
1221464002,0.039988972,-0.112366945,0.00040347016,0.5316781
1221507993,0.040527984,-0.08514396,0.00025498803,0.52385896
1221548015,0.047503658,-0.08117652,-0.00023779496,0.51898134
1221587988,0.048676435,-0.07812041,-0.00061262655,0.5215218
1221631985,0.043211058,-0.07193508,-0.00092175504,0.5184752
1221672001,0.06930143,-0.073271796,-0.0016840394,0.5131976
1221715987,0.051340938,-0.083904326,-0.0017107215,0.5163615
1221756003,0.06800784,-0.0650354,-0.0025756643,0.51522577
1221799987,0.024393117,-0.09061069,-0.0025001608,0.51960385
1221839993,0.057513572,-0.078708634,-0.002764397,0.52192354
1221884005,0.037148803,-0.07917623,-0.0036021275,0.5207644
1221927995,0.056443684,-0.048871286,-0.0045350757,0.5142582
1221972034,-0.016399775,-0.05754313,-0.0031105643,0.5234397
1222012007,0.019315831,-0.026593767,-0.0044783684,0.52060056
1222055992,0.0063478006,-0.031477485,-0.004255891,0.52384734
1222096003,-0.021334238,-0.05217652,-0.0037605288,0.5241033
1222140264,0.014721451,-0.016422732,-0.005197259,0.52066934
1222180017,-0.031795856,-0.020328227,-0.0044150474,0.5255027
1222223983,-0.0047068032,-0.0073032216,-0.0044752792,0.51927555
1222263999,-0.010592126,0.0014973717,-0.0040781396,0.51748514
1222308016,-0.04831844,-0.00733982,-0.0027117846,0.5229661
1222348030,-0.017605696,0.0075473995,-0.0023888843,0.51950127
1222391983,-0.07120602,-0.027730677,-0.00086531765,0.5272362
1222431993,-0.020689152,-0.0018508966,-0.0006577841,0.5222394
1222476007,-0.017192228,-0.0018530068,-0.0003830238,0.5184586
1222516000,0.012195546,-0.02064939,0.0008277151,0.5211477
1222559985,-0.0034074408,-0.008788013,0.0016815605,0.5223961
1222600012,7.453037e-05,-0.007459294,0.002753552,0.52381086
1222643989,-0.005357155,-0.017377878,0.0040580016,0.52198035
1222684032,-0.031107705,-0.05939775,0.005981237,0.52833015
1222727991,0.037603486,-0.002163289,0.0053554447,0.51509976
1222767996,0.004905792,-0.030933244,0.006929435,0.51708364
1222807986,0.005968863,-0.05964776,0.008033214,0.52120656
1222852021,0.017985156,-0.042349234,0.008553001,0.51871234
1222895987,0.03513341,-0.047740463,0.009054017,0.514737
1222935989,0.03630659,-0.04864317,0.009322829,0.5150792
1222980026,0.030725872,-0.053240523,0.009836599,0.515191
1223020031,0.06966944,-0.04412316,0.009341332,0.5086934
1223064000,0.008684998,-0.09671453,0.010403686,0.519492
1223104005,0.05039083,-0.063387975,0.008988184,0.51474214
1223148028,0.03226064,-0.11219405,0.009745196,0.5206497
1223188023,0.09100269,-0.097642414,0.008698493,0.5129355
1223231995,0.10613065,-0.09339242,0.007991277,0.509514
1223272004,0.11999727,-0.105166554,0.0078121205,0.5130908
1223316030,0.11965479,-0.07945754,0.006371458,0.50547856
1223356036,0.1000232,-0.09144672,0.0061329473,0.50820804
1223399990,0.0880328,-0.07604896,0.0052730376,0.50430316
1223439991,0.0819479,-0.101429924,0.0039602257,0.5038975
1223484014,0.05950297,-0.09648165,0.0026883595,0.50491613
1223524021,0.05860137,-0.1128179,0.0018560089,0.50809604
1223567987,0.089143395,-0.12880056,0.00010154303,0.5089038
1223607996,-0.003245621,-0.11585349,-0.0014591368,0.51190495
1223652032,0.029783994,-0.11783727,-0.0032973152,0.50759095
1223692116,0.024904672,-0.1135412,-0.0057193823,0.50698507
1223735991,-0.015579771,-0.13300718,-0.007301389,0.5094346
1223775995,-0.050339412,-0.111504,-0.009032937,0.50212693
1223820009,-0.05481507,-0.1296714,-0.010506987,0.50051117
1223860027,-0.111316934,-0.16257074,-0.009902767,0.5083214
1223903999,-0.094565034,-0.16068065,-0.010319337,0.50183344
1223944000,-0.15756746,-0.14653733,-0.010305868,0.4991017
1223988052,-0.1777553,-0.11382602,-0.01020683,0.49674374
1224027992,-0.17941253,-0.15990245,-0.007832354,0.50003785
1224071980,-0.19153264,-0.14875768,-0.0062668305,0.4995822
1224111992,-0.22273734,-0.1147512,-0.0046528685,0.50001836
1224156047,-0.24981084,-0.14463615,-0.0016099596,0.50881726
1224195988,-0.19123086,-0.09739369,-7.9078935e-05,0.5025949
1224239980,-0.19050455,-0.1012965,0.0028313233,0.5053076
1224279993,-0.22709517,-0.108219005,0.005147515,0.50741184
1224323992,-0.2297875,-0.07975395,0.006455628,0.50266856
1224363996,-0.19487755,-0.065825775,0.008032434,0.50499284
1224407985,-0.20779826,-0.073377,0.0101993205,0.507732
1224448025,-0.24375628,-0.05748934,0.010947769,0.5033201
1224491997,-0.25893813,-0.051486276,0.011537408,0.5112777
1224531992,-0.2382873,-0.022041256,0.01197268,0.5084611
1224575985,-0.26094815,-0.046334215,0.012995072,0.5138685
1224616008,-0.28581387,0.0019990078,0.012975571,0.5055886
1224660004,-0.30733126,-0.014603134,0.013131288,0.51001114
1224699994,-0.30476525,-0.013232559,0.013029797,0.5048065
1224743989,-0.33644125,-0.045744594,0.013136047,0.5075223
1224784039,-0.35534945,-0.030402439,0.014099804,0.50380445
1224827988,-0.3392186,-0.021578293,0.014414731,0.50223744
1224868007,-0.3786973,-0.057049513,0.01429979,0.5056389
1224912011,-0.38692433,-0.041880716,0.014751668,0.505663
1224951996,-0.3909814,-0.055898596,0.014911873,0.50704753
1224995979,-0.3613502,-0.03360632,0.015563594,0.50291604
1225035989,-0.3339252,-0.03832082,0.01652367,0.50944036
1225079992,-0.2888527,-0.023075934,0.018213633,0.4995939
1225120032,-0.27338764,-0.016835649,0.019812377,0.5010218
1225163992,-0.27190933,-0.06946973,0.018473098,0.50534725
1225204810,-0.25125977,-0.07608639,0.019930214,0.49928388
1225245625,-0.1503427,-0.071777254,0.020934109,0.49412507
1225285608,-0.19393136,-0.11734104,0.02143648,0.5010348
1225329633,-0.12587097,-0.12659793,0.021571035,0.49725252
1225373637,-0.11055292,-0.1641559,0.020118084,0.49794337
1225413629,-0.113204435,-0.16857749,0.018970996,0.5074243
1225457680,-0.086393386,-0.1812873,0.017119633,0.4964287
1225497633,-0.059199616,-0.18025334,0.015196071,0.5034382
1225541633,-0.040126547,-0.13939668,0.013907498,0.49707112
1225581622,-0.086925715,-0.19275834,0.010370959,0.50546014
1225625628,-0.09250522,-0.18869786,0.008451688,0.49995506
1225665676,-0.13275895,-0.15852198,0.0069870995,0.5018791
1225709637,-0.15468295,-0.14944628,0.0053507453,0.5042184
1225749625,-0.107570305,-0.14818619,0.0034238263,0.5033209
1225789592,-0.09474225,-0.11372337,0.0025246437,0.5033105
1225833627,-0.1444906,-0.09962696,0.0022767552,0.50817597
1225873642,-0.07759755,-0.10249523,0.0013482072,0.50408417
1225917626,-0.038827464,-0.085892595,0.0018216952,0.5014465
1225957590,-0.0721933,-0.09729274,0.0026931968,0.50793666
1226001660,-0.06394257,-0.11119742,0.0031726921,0.509987
1226045630,0.029753245,-0.08099832,0.0049791336,0.50410414
1226085640,0.082428664,-0.0898972,0.005944131,0.5063076
1226125607,0.03845325,-0.08529477,0.008523005,0.5149533
1226169668,0.07222085,-0.08387948,0.009442868,0.50189984
1226213636,0.18273526,-0.07408649,0.010895679,0.49453348
1226253631,0.09546022,-0.09775354,0.0130258575,0.5048942
1226293594,0.14976801,-0.04839913,0.014563653,0.49673733
1226337676,0.06409126,-0.110797465,0.016005121,0.5073791
1226381639,0.11246652,-0.07728559,0.018339438,0.49782747
1226421633,0.12062644,-0.026901843,0.019666005,0.49311307
1226465689,0.007754124,-0.07738291,0.021907864,0.50969046
1226505660,0.00359147,-0.04054856,0.02275073,0.504806
1226549637,0.04450669,0.016436635,0.02323272,0.50118524
1226589631,0.018461533,0.023021646,0.02401403,0.50410074
1226629604,-0.10466114,0.0062524085,0.025739169,0.5083616
1226673700,-0.092036664,0.06946604,0.024705524,0.50413513
1226713648,-0.090063006,0.036254957,0.02468725,0.51181155
1226753593,-0.088590026,0.025650963,0.023787642,0.51714414
1226797584,-0.14507304,0.03778407,0.024224859,0.5143972
1226841649,-0.14937077,0.07673001,0.022675795,0.5111303
1226881633,-0.11275955,0.04645325,0.021299869,0.51539254
1226925627,-0.13226457,0.034682177,0.019177154,0.51171666
1226965584,-0.16910067,0.03560058,0.018200167,0.5183277
1227009707,-0.15476012,0.0641152,0.016652958,0.5140148
1227053676,-0.14488706,-0.007045266,0.015426271,0.51686126
1227093635,-0.08903228,-0.0036909769,0.013319527,0.51058495
1227133607,-0.13282675,-0.014853588,0.012696364,0.5189496
1227177655,-0.13676606,0.0070971535,0.011446649,0.5120746
1227221643,-0.14057016,-0.028442806,0.01004262,0.5153867
1227261617,-0.11289545,-0.025910784,0.008601978,0.51789594
1227305668,-0.10990384,-0.017684532,0.007656264,0.5210262
1227345613,-0.08336924,-0.025375385,0.0060209436,0.5197752
1227389639,-0.06854642,-0.02216143,0.004667976,0.52229875
1227429613,-0.038226727,0.0020365084,0.0039695534,0.52063173
1227469873,0.019238912,0.023749705,0.002573072,0.5181904
1227513616,0.045885343,0.023423404,0.0015915452,0.5141093
1227557644,0.08253475,0.016697504,0.00085491047,0.5210713
1227597607,0.14566962,0.06492688,0.0008251107,0.5130498
1227641633,0.11795062,-0.0016011639,0.0017383227,0.5275495
1227681616,0.14748123,0.018540103,0.0017345926,0.5197306
1227725631,0.19427381,0.049028628,0.0022840067,0.5193231
1227765623,0.1814288,0.042209405,0.003926341,0.51847696
1227805601,0.24769825,0.025937488,0.0034823725,0.5125864
1227849646,0.25308567,0.036696818,0.0051179267,0.519221
1227893653,0.23072805,0.059133783,0.006714539,0.5172138
1227933652,0.26962587,0.036180384,0.006059659,0.5126423
1227977640,0.20002145,-0.043970436,0.008152711,0.5188571
1228017631,0.24424273,-0.057076402,0.007397061,0.516971
1228061661,0.2550429,-0.050888337,0.0066177486,0.50643516
1228101706,0.25015113,-0.117394656,0.0056746574,0.50312996
1228141613,0.22668263,-0.1459659,0.004128162,0.4970748
