timestamp,noutputs,output[0],output[1],output[2],output[3],output[4],output[5],output[6],output[7],output[8],output[9],output[10],output[11],output[12],output[13],output[14],output[15]
1184732080,8,1129.0,1135.0,1131.0,1119.0,1106.0,1101.0,1104.0,1116.0,0.0,0.0,0.0,0.0,0.0,0.0,0.0,0.0
1184860898,8,1463.0,1470.0,1466.0,1455.0,1442.0,1436.0,1440.0,1452.0,0.0,0.0,0.0,0.0,0.0,0.0,0.0,0.0
1184901703,8,1469.0,1475.0,1471.0,1460.0,1447.0,1441.0,1444.0,1456.0,0.0,0.0,0.0,0.0,0.0,0.0,0.0,0.0
1184945853,8,1474.0,1481.0,1476.0,1465.0,1452.0,1446.0,1449.0,1462.0,0.0,0.0,0.0,0.0,0.0,0.0,0.0,0.0
1184985809,8,1479.0,1486.0,1481.0,1470.0,1456.0,1451.0,1454.0,1467.0,0.0,0.0,0.0,0.0,0.0,0.0,0.0,0.0
1185029854,8,1485.0,1491.0,1487.0,1475.0,1462.0,1455.0,1459.0,1471.0,0.0,0.0,0.0,0.0,0.0,0.0,0.0,0.0
1185069691,8,1488.0,1497.0,1492.0,1481.0,1466.0,1461.0,1463.0,1477.0,0.0,0.0,0.0,0.0,0.0,0.0,0.0,0.0
1185113830,8,1497.0,1505.0,1499.0,1486.0,1470.0,1463.0,1467.0,1482.0,0.0,0.0,0.0,0.0,0.0,0.0,0.0,0.0
1185153825,8,1504.0,1499.0,1508.0,1485.0,1484.0,1466.0,1481.0,1480.0,0.0,0.0,0.0,0.0,0.0,0.0,0.0,0.0
1185197839,8,1503.0,1516.0,1509.0,1500.0,1481.0,1475.0,1474.0,1491.0,0.0,0.0,0.0,0.0,0.0,0.0,0.0,0.0
1185237696,8,1500.0,1510.0,1506.0,1505.0,1494.0,1492.0,1488.0,1497.0,0.0,0.0,0.0,0.0,0.0,0.0,0.0,0.0
1185281724,8,1536.0,1520.0,1529.0,1490.0,1493.0,1469.0,1499.0,1499.0,0.0,0.0,0.0,0.0,0.0,0.0,0.0,0.0
1185321720,8,1503.0,1542.0,1513.0,1530.0,1487.0,1504.0,1477.0,1516.0,0.0,0.0,0.0,0.0,0.0,0.0,0.0,0.0
1185365720,8,1527.0,1541.0,1532.0,1521.0,1499.0,1493.0,1493.0,1513.0,0.0,0.0,0.0,0.0,0.0,0.0,0.0,0.0
1185405689,8,1548.0,1540.0,1552.0,1513.0,1510.0,1480.0,1506.0,1507.0,0.0,0.0,0.0,0.0,0.0,0.0,0.0,0.0
1185449846,8,1542.0,1549.0,1542.0,1525.0,1509.0,1501.0,1508.0,1525.0,0.0,0.0,0.0,0.0,0.0,0.0,0.0,0.0
1185489819,8,1545.0,1549.0,1548.0,1531.0,1519.0,1508.0,1516.0,1527.0,0.0,0.0,0.0,0.0,0.0,0.0,0.0,0.0
1185533837,8,1550.0,1557.0,1557.0,1540.0,1526.0,1513.0,1518.0,1530.0,0.0,0.0,0.0,0.0,0.0,0.0,0.0,0.0
1185573712,8,1552.0,1558.0,1554.0,1544.0,1531.0,1525.0,1528.0,1539.0,0.0,0.0,0.0,0.0,0.0,0.0,0.0,0.0
1185614608,8,1560.0,1564.0,1567.0,1549.0,1540.0,1525.0,1532.0,1539.0,0.0,0.0,0.0,0.0,0.0,0.0,0.0,0.0
1185659453,8,1565.0,1577.0,1572.0,1559.0,1539.0,1529.0,1531.0,1548.0,0.0,0.0,0.0,0.0,0.0,0.0,0.0,0.0
1185699492,8,1571.0,1579.0,1574.0,1561.0,1545.0,1537.0,1541.0,1556.0,0.0,0.0,0.0,0.0,0.0,0.0,0.0,0.0
1185747292,8,1575.0,1567.0,1571.0,1556.0,1560.0,1551.0,1564.0,1562.0,0.0,0.0,0.0,0.0,0.0,0.0,0.0,0.0
1185791466,8,1575.0,1537.0,1550.0,1535.0,1572.0,1568.0,1597.0,1570.0,0.0,0.0,0.0,0.0,0.0,0.0,0.0,0.0
1185835301,8,1554.0,1512.0,1510.0,1530.0,1579.0,1609.0,1623.0,1592.0,0.0,0.0,0.0,0.0,0.0,0.0,0.0,0.0
1185875302,8,1547.0,1497.0,1487.0,1524.0,1586.0,1636.0,1646.0,1609.0,0.0,0.0,0.0,0.0,0.0,0.0,0.0,0.0
1185919432,8,1531.0,1493.0,1496.0,1528.0,1581.0,1613.0,1616.0,1577.0,0.0,0.0,0.0,0.0,0.0,0.0,0.0,0.0
1185959461,8,1515.0,1489.0,1505.0,1524.0,1564.0,1574.0,1575.0,1539.0,0.0,0.0,0.0,0.0,0.0,0.0,0.0,0.0
1186003326,8,1491.0,1480.0,1497.0,1523.0,1551.0,1557.0,1545.0,1514.0,0.0,0.0,0.0,0.0,0.0,0.0,0.0,0.0
1186047398,8,1493.0,1460.0,1479.0,1496.0,1544.0,1552.0,1558.0,1516.0,0.0,0.0,0.0,0.0,0.0,0.0,0.0,0.0
1186091309,8,1480.0,1443.0,1485.0,1483.0,1537.0,1516.0,1531.0,1476.0,0.0,0.0,0.0,0.0,0.0,0.0,0.0,0.0
1186131293,8,1486.0,1443.0,1486.0,1462.0,1512.0,1481.0,1512.0,1462.0,0.0,0.0,0.0,0.0,0.0,0.0,0.0,0.0
1186175389,8,1489.0,1441.0,1479.0,1443.0,1493.0,1461.0,1503.0,1458.0,0.0,0.0,0.0,0.0,0.0,0.0,0.0,0.0
1186215385,8,1482.0,1439.0,1485.0,1444.0,1488.0,1444.0,1485.0,1440.0,0.0,0.0,0.0,0.0,0.0,0.0,0.0,0.0
1186259382,8,1489.0,1442.0,1483.0,1432.0,1475.0,1431.0,1481.0,1441.0,0.0,0.0,0.0,0.0,0.0,0.0,0.0,0.0
1186303447,8,1480.0,1434.0,1480.0,1434.0,1481.0,1434.0,1480.0,1433.0,0.0,0.0,0.0,0.0,0.0,0.0,0.0,0.0
1186343416,8,1475.0,1438.0,1491.0,1446.0,1485.0,1431.0,1469.0,1424.0,0.0,0.0,0.0,0.0,0.0,0.0,0.0,0.0
1186387415,8,1473.0,1442.0,1494.0,1448.0,1481.0,1424.0,1460.0,1418.0,0.0,0.0,0.0,0.0,0.0,0.0,0.0,0.0
1186427381,8,1476.0,1438.0,1491.0,1442.0,1481.0,1423.0,1465.0,1420.0,0.0,0.0,0.0,0.0,0.0,0.0,0.0,0.0
1186467302,8,1467.0,1426.0,1481.0,1441.0,1488.0,1437.0,1475.0,1422.0,0.0,0.0,0.0,0.0,0.0,0.0,0.0,0.0
1186511439,8,1468.0,1426.0,1479.0,1440.0,1489.0,1439.0,1478.0,1425.0,0.0,0.0,0.0,0.0,0.0,0.0,0.0,0.0
1186551332,8,1476.0,1429.0,1480.0,1433.0,1482.0,1432.0,1478.0,1427.0,0.0,0.0,0.0,0.0,0.0,0.0,0.0,0.0
1186595438,8,1479.0,1436.0,1485.0,1438.0,1482.0,1432.0,1476.0,1430.0,0.0,0.0,0.0,0.0,0.0,0.0,0.0,0.0
1186639415,8,1476.0,1438.0,1484.0,1442.0,1482.0,1436.0,1475.0,1432.0,0.0,0.0,0.0,0.0,0.0,0.0,0.0,0.0
1186679340,8,1476.0,1440.0,1482.0,1441.0,1479.0,1434.0,1473.0,1433.0,0.0,0.0,0.0,0.0,0.0,0.0,0.0,0.0
1186719309,8,1479.0,1444.0,1489.0,1445.0,1480.0,1432.0,1471.0,1432.0,0.0,0.0,0.0,0.0,0.0,0.0,0.0,0.0
1186763441,8,1484.0,1447.0,1491.0,1445.0,1480.0,1433.0,1473.0,1435.0,0.0,0.0,0.0,0.0,0.0,0.0,0.0,0.0
1186803461,8,1478.0,1442.0,1487.0,1447.0,1485.0,1440.0,1477.0,1435.0,0.0,0.0,0.0,0.0,0.0,0.0,0.0,0.0
1186847419,8,1479.0,1441.0,1483.0,1444.0,1483.0,1441.0,1479.0,1439.0,0.0,0.0,0.0,0.0,0.0,0.0,0.0,0.0
1186887298,8,1484.0,1444.0,1487.0,1444.0,1484.0,1440.0,1481.0,1440.0,0.0,0.0,0.0,0.0,0.0,0.0,0.0,0.0
1186931408,8,1483.0,1444.0,1488.0,1445.0,1485.0,1440.0,1481.0,1438.0,0.0,0.0,0.0,0.0,0.0,0.0,0.0,0.0
1186975360,8,1485.0,1442.0,1486.0,1443.0,1485.0,1441.0,1484.0,1440.0,0.0,0.0,0.0,0.0,0.0,0.0,0.0,0.0
1187015303,8,1485.0,1442.0,1484.0,1442.0,1485.0,1444.0,1486.0,1444.0,0.0,0.0,0.0,0.0,0.0,0.0,0.0,0.0
1187055310,8,1485.0,1442.0,1483.0,1443.0,1486.0,1445.0,1487.0,1445.0,0.0,0.0,0.0,0.0,0.0,0.0,0.0,0.0
1187099419,8,1487.0,1442.0,1485.0,1441.0,1486.0,1444.0,1489.0,1445.0,0.0,0.0,0.0,0.0,0.0,0.0,0.0,0.0
1187143482,8,1489.0,1443.0,1484.0,1441.0,1487.0,1446.0,1491.0,1448.0,0.0,0.0,0.0,0.0,0.0,0.0,0.0,0.0
1187183453,8,1490.0,1443.0,1484.0,1442.0,1488.0,1449.0,1494.0,1451.0,0.0,0.0,0.0,0.0,0.0,0.0,0.0,0.0
1187223441,8,1491.0,1442.0,1482.0,1439.0,1487.0,1449.0,1496.0,1452.0,0.0,0.0,0.0,0.0,0.0,0.0,0.0,0.0
1187267433,8,1488.0,1445.0,1485.0,1446.0,1489.0,1451.0,1492.0,1450.0,0.0,0.0,0.0,0.0,0.0,0.0,0.0,0.0
1187307410,8,1488.0,1442.0,1488.0,1447.0,1494.0,1451.0,1494.0,1446.0,0.0,0.0,0.0,0.0,0.0,0.0,0.0,0.0
1187351319,8,1488.0,1444.0,1493.0,1452.0,1498.0,1452.0,1493.0,1445.0,0.0,0.0,0.0,0.0,0.0,0.0,0.0,0.0
1187391293,8,1484.0,1443.0,1493.0,1455.0,1500.0,1453.0,1491.0,1441.0,0.0,0.0,0.0,0.0,0.0,0.0,0.0,0.0
1187435414,8,1487.0,1445.0,1494.0,1453.0,1498.0,1451.0,1491.0,1443.0,0.0,0.0,0.0,0.0,0.0,0.0,0.0,0.0
1187479485,8,1489.0,1444.0,1493.0,1450.0,1497.0,1449.0,1493.0,1444.0,0.0,0.0,0.0,0.0,0.0,0.0,0.0,0.0
1187519313,8,1490.0,1445.0,1492.0,1448.0,1494.0,1448.0,1491.0,1444.0,0.0,0.0,0.0,0.0,0.0,0.0,0.0,0.0
1187563494,8,1492.0,1442.0,1493.0,1444.0,1496.0,1446.0,1495.0,1444.0,0.0,0.0,0.0,0.0,0.0,0.0,0.0,0.0
1187603481,8,1492.0,1445.0,1495.0,1449.0,1498.0,1450.0,1496.0,1446.0,0.0,0.0,0.0,0.0,0.0,0.0,0.0,0.0
1187647461,8,1489.0,1443.0,1493.0,1450.0,1500.0,1452.0,1495.0,1444.0,0.0,0.0,0.0,0.0,0.0,0.0,0.0,0.0
1187687316,8,1489.0,1441.0,1491.0,1448.0,1499.0,1451.0,1496.0,1444.0,0.0,0.0,0.0,0.0,0.0,0.0,0.0,0.0
1187731462,8,1485.0,1442.0,1492.0,1452.0,1499.0,1452.0,1492.0,1442.0,0.0,0.0,0.0,0.0,0.0,0.0,0.0,0.0
1187771417,8,1486.0,1443.0,1493.0,1454.0,1502.0,1454.0,1494.0,1443.0,0.0,0.0,0.0,0.0,0.0,0.0,0.0,0.0
1187815408,8,1485.0,1445.0,1495.0,1458.0,1503.0,1457.0,1493.0,1444.0,0.0,0.0,0.0,0.0,0.0,0.0,0.0,0.0
1187855315,8,1486.0,1447.0,1494.0,1456.0,1500.0,1454.0,1492.0,1445.0,0.0,0.0,0.0,0.0,0.0,0.0,0.0,0.0
1187895301,8,1488.0,1445.0,1490.0,1451.0,1495.0,1453.0,1493.0,1448.0,0.0,0.0,0.0,0.0,0.0,0.0,0.0,0.0
1187939411,8,1489.0,1449.0,1494.0,1455.0,1498.0,1455.0,1493.0,1449.0,0.0,0.0,0.0,0.0,0.0,0.0,0.0,0.0
1187983448,8,1488.0,1449.0,1492.0,1456.0,1498.0,1457.0,1494.0,1451.0,0.0,0.0,0.0,0.0,0.0,0.0,0.0,0.0
1188023323,8,1488.0,1452.0,1495.0,1461.0,1501.0,1461.0,1495.0,1452.0,0.0,0.0,0.0,0.0,0.0,0.0,0.0,0.0
1188067453,8,1486.0,1450.0,1493.0,1461.0,1502.0,1463.0,1496.0,1452.0,0.0,0.0,0.0,0.0,0.0,0.0,0.0,0.0
1188107328,8,1487.0,1451.0,1493.0,1460.0,1500.0,1460.0,1494.0,1451.0,0.0,0.0,0.0,0.0,0.0,0.0,0.0,0.0
1188151415,8,1485.0,1448.0,1491.0,1460.0,1501.0,1464.0,1496.0,1452.0,0.0,0.0,0.0,0.0,0.0,0.0,0.0,0.0
1188191471,8,1488.0,1446.0,1492.0,1455.0,1501.0,1460.0,1498.0,1450.0,0.0,0.0,0.0,0.0,0.0,0.0,0.0,0.0
1188231303,8,1488.0,1449.0,1493.0,1460.0,1503.0,1463.0,1498.0,1453.0,0.0,0.0,0.0,0.0,0.0,0.0,0.0,0.0
1188275441,8,1487.0,1446.0,1493.0,1459.0,1505.0,1463.0,1499.0,1451.0,0.0,0.0,0.0,0.0,0.0,0.0,0.0,0.0
1188319440,8,1487.0,1448.0,1495.0,1462.0,1506.0,1464.0,1498.0,1450.0,0.0,0.0,0.0,0.0,0.0,0.0,0.0,0.0
1188359321,8,1487.0,1446.0,1493.0,1458.0,1504.0,1462.0,1498.0,1449.0,0.0,0.0,0.0,0.0,0.0,0.0,0.0,0.0
1188403477,8,1487.0,1449.0,1496.0,1462.0,1506.0,1463.0,1497.0,1450.0,0.0,0.0,0.0,0.0,0.0,0.0,0.0,0.0
1188443444,8,1485.0,1444.0,1493.0,1459.0,1506.0,1462.0,1498.0,1448.0,0.0,0.0,0.0,0.0,0.0,0.0,0.0,0.0
1188483460,8,1488.0,1447.0,1495.0,1459.0,1505.0,1462.0,1498.0,1450.0,0.0,0.0,0.0,0.0,0.0,0.0,0.0,0.0
1188527314,8,1486.0,1450.0,1498.0,1465.0,1509.0,1465.0,1497.0,1450.0,0.0,0.0,0.0,0.0,0.0,0.0,0.0,0.0
1188567305,8,1485.0,1447.0,1493.0,1462.0,1506.0,1465.0,1497.0,1450.0,0.0,0.0,0.0,0.0,0.0,0.0,0.0,0.0
1188611417,8,1486.0,1447.0,1494.0,1463.0,1508.0,1468.0,1501.0,1452.0,0.0,0.0,0.0,0.0,0.0,0.0,0.0,0.0
1188651412,8,1485.0,1446.0,1492.0,1461.0,1507.0,1467.0,1501.0,1452.0,0.0,0.0,0.0,0.0,0.0,0.0,0.0,0.0
1188695415,8,1486.0,1445.0,1490.0,1459.0,1506.0,1468.0,1502.0,1454.0,0.0,0.0,0.0,0.0,0.0,0.0,0.0,0.0
1188735297,8,1488.0,1446.0,1491.0,1459.0,1506.0,1467.0,1503.0,1454.0,0.0,0.0,0.0,0.0,0.0,0.0,0.0,0.0
1188779386,8,1489.0,1445.0,1492.0,1458.0,1507.0,1467.0,1504.0,1454.0,0.0,0.0,0.0,0.0,0.0,0.0,0.0,0.0
1188819325,8,1488.0,1446.0,1490.0,1458.0,1505.0,1467.0,1503.0,1455.0,0.0,0.0,0.0,0.0,0.0,0.0,0.0,0.0
1188859415,8,1489.0,1444.0,1487.0,1453.0,1502.0,1465.0,1504.0,1456.0,0.0,0.0,0.0,0.0,0.0,0.0,0.0,0.0
1188903329,8,1488.0,1446.0,1488.0,1455.0,1502.0,1465.0,1502.0,1455.0,0.0,0.0,0.0,0.0,0.0,0.0,0.0,0.0
1188947399,8,1489.0,1448.0,1490.0,1457.0,1502.0,1466.0,1502.0,1456.0,0.0,0.0,0.0,0.0,0.0,0.0,0.0,0.0
1188987297,8,1491.0,1447.0,1492.0,1457.0,1505.0,1465.0,1503.0,1455.0,0.0,0.0,0.0,0.0,0.0,0.0,0.0,0.0
1189031327,8,1491.0,1446.0,1489.0,1455.0,1502.0,1464.0,1503.0,1456.0,0.0,0.0,0.0,0.0,0.0,0.0,0.0,0.0
1189071384,8,1490.0,1450.0,1492.0,1458.0,1503.0,1465.0,1501.0,1457.0,0.0,0.0,0.0,0.0,0.0,0.0,0.0,0.0
1189115332,8,1491.0,1447.0,1489.0,1453.0,1499.0,1462.0,1502.0,1456.0,0.0,0.0,0.0,0.0,0.0,0.0,0.0,0.0
1189155291,8,1491.0,1447.0,1487.0,1452.0,1498.0,1462.0,1502.0,1457.0,0.0,0.0,0.0,0.0,0.0,0.0,0.0,0.0
1189195289,8,1490.0,1445.0,1487.0,1451.0,1498.0,1461.0,1501.0,1455.0,0.0,0.0,0.0,0.0,0.0,0.0,0.0,0.0
1189235282,8,1491.0,1447.0,1490.0,1454.0,1501.0,1462.0,1501.0,1455.0,0.0,0.0,0.0,0.0,0.0,0.0,0.0,0.0
1189279327,8,1491.0,1447.0,1492.0,1455.0,1503.0,1462.0,1502.0,1454.0,0.0,0.0,0.0,0.0,0.0,0.0,0.0,0.0
1189319324,8,1491.0,1446.0,1490.0,1453.0,1500.0,1461.0,1502.0,1454.0,0.0,0.0,0.0,0.0,0.0,0.0,0.0,0.0
1189363322,8,1489.0,1446.0,1491.0,1455.0,1502.0,1462.0,1501.0,1453.0,0.0,0.0,0.0,0.0,0.0,0.0,0.0,0.0
1189403312,8,1487.0,1441.0,1485.0,1451.0,1501.0,1464.0,1503.0,1454.0,0.0,0.0,0.0,0.0,0.0,0.0,0.0,0.0
1189447420,8,1486.0,1442.0,1485.0,1452.0,1500.0,1463.0,1501.0,1454.0,0.0,0.0,0.0,0.0,0.0,0.0,0.0,0.0
1189487628,8,1487.0,1446.0,1488.0,1457.0,1504.0,1467.0,1503.0,1456.0,0.0,0.0,0.0,0.0,0.0,0.0,0.0,0.0
1189531297,8,1486.0,1446.0,1487.0,1457.0,1501.0,1466.0,1500.0,1455.0,0.0,0.0,0.0,0.0,0.0,0.0,0.0,0.0
1189575429,8,1488.0,1443.0,1487.0,1452.0,1501.0,1464.0,1503.0,1455.0,0.0,0.0,0.0,0.0,0.0,0.0,0.0,0.0
1189619294,8,1489.0,1444.0,1488.0,1453.0,1502.0,1464.0,1503.0,1454.0,0.0,0.0,0.0,0.0,0.0,0.0,0.0,0.0
1189659324,8,1486.0,1443.0,1487.0,1454.0,1501.0,1464.0,1501.0,1453.0,0.0,0.0,0.0,0.0,0.0,0.0,0.0,0.0
1189703439,8,1486.0,1447.0,1491.0,1458.0,1502.0,1463.0,1498.0,1452.0,0.0,0.0,0.0,0.0,0.0,0.0,0.0,0.0
1189743433,8,1485.0,1445.0,1486.0,1454.0,1498.0,1462.0,1497.0,1453.0,0.0,0.0,0.0,0.0,0.0,0.0,0.0,0.0
1189787290,8,1487.0,1448.0,1488.0,1456.0,1498.0,1461.0,1496.0,1454.0,0.0,0.0,0.0,0.0,0.0,0.0,0.0,0.0
1189827302,8,1484.0,1448.0,1488.0,1459.0,1500.0,1465.0,1496.0,1454.0,0.0,0.0,0.0,0.0,0.0,0.0,0.0,0.0
1189871413,8,1485.0,1448.0,1487.0,1456.0,1498.0,1463.0,1497.0,1455.0,0.0,0.0,0.0,0.0,0.0,0.0,0.0,0.0
1189911421,8,1484.0,1449.0,1487.0,1458.0,1497.0,1463.0,1494.0,1455.0,0.0,0.0,0.0,0.0,0.0,0.0,0.0,0.0
1189955304,8,1483.0,1446.0,1484.0,1456.0,1496.0,1464.0,1495.0,1454.0,0.0,0.0,0.0,0.0,0.0,0.0,0.0,0.0
1189995282,8,1482.0,1445.0,1481.0,1453.0,1493.0,1463.0,1495.0,1455.0,0.0,0.0,0.0,0.0,0.0,0.0,0.0,0.0
1190036269,8,1481.0,1443.0,1480.0,1453.0,1495.0,1465.0,1497.0,1455.0,0.0,0.0,0.0,0.0,0.0,0.0,0.0,0.0
1190080887,8,1481.0,1441.0,1479.0,1451.0,1496.0,1465.0,1498.0,1455.0,0.0,0.0,0.0,0.0,0.0,0.0,0.0,0.0
1190121057,8,1481.0,1442.0,1481.0,1454.0,1497.0,1465.0,1497.0,1454.0,0.0,0.0,0.0,0.0,0.0,0.0,0.0,0.0
1190164895,8,1480.0,1443.0,1481.0,1455.0,1497.0,1466.0,1497.0,1454.0,0.0,0.0,0.0,0.0,0.0,0.0,0.0,0.0
1190205051,8,1480.0,1440.0,1478.0,1451.0,1496.0,1465.0,1498.0,1454.0,0.0,0.0,0.0,0.0,0.0,0.0,0.0,0.0
1190248914,8,1481.0,1443.0,1480.0,1453.0,1495.0,1463.0,1495.0,1454.0,0.0,0.0,0.0,0.0,0.0,0.0,0.0,0.0
1190293021,8,1484.0,1447.0,1481.0,1453.0,1492.0,1463.0,1495.0,1457.0,0.0,0.0,0.0,0.0,0.0,0.0,0.0,0.0
1190336894,8,1484.0,1445.0,1478.0,1449.0,1489.0,1461.0,1495.0,1457.0,0.0,0.0,0.0,0.0,0.0,0.0,0.0,0.0
1190380988,8,1482.0,1444.0,1477.0,1448.0,1489.0,1460.0,1494.0,1456.0,0.0,0.0,0.0,0.0,0.0,0.0,0.0,0.0
1190420928,8,1484.0,1444.0,1478.0,1448.0,1490.0,1460.0,1496.0,1457.0,0.0,0.0,0.0,0.0,0.0,0.0,0.0,0.0
1190464894,8,1481.0,1442.0,1477.0,1448.0,1490.0,1460.0,1494.0,1454.0,0.0,0.0,0.0,0.0,0.0,0.0,0.0,0.0
1190504896,8,1484.0,1444.0,1482.0,1452.0,1494.0,1462.0,1496.0,1455.0,0.0,0.0,0.0,0.0,0.0,0.0,0.0,0.0
1190544917,8,1483.0,1447.0,1483.0,1454.0,1493.0,1462.0,1494.0,1455.0,0.0,0.0,0.0,0.0,0.0,0.0,0.0,0.0
1190584921,8,1483.0,1446.0,1481.0,1453.0,1492.0,1462.0,1494.0,1455.0,0.0,0.0,0.0,0.0,0.0,0.0,0.0,0.0
1190628882,8,1483.0,1444.0,1480.0,1451.0,1493.0,1463.0,1497.0,1456.0,0.0,0.0,0.0,0.0,0.0,0.0,0.0,0.0
1190672925,8,1484.0,1445.0,1481.0,1452.0,1495.0,1464.0,1498.0,1456.0,0.0,0.0,0.0,0.0,0.0,0.0,0.0,0.0
1190716939,8,1484.0,1444.0,1480.0,1451.0,1493.0,1463.0,1497.0,1456.0,0.0,0.0,0.0,0.0,0.0,0.0,0.0,0.0
1190756899,8,1486.0,1445.0,1484.0,1452.0,1496.0,1463.0,1499.0,1456.0,0.0,0.0,0.0,0.0,0.0,0.0,0.0,0.0
1190800898,8,1486.0,1446.0,1483.0,1451.0,1494.0,1461.0,1497.0,1456.0,0.0,0.0,0.0,0.0,0.0,0.0,0.0,0.0
1190840923,8,1486.0,1448.0,1483.0,1452.0,1493.0,1461.0,1496.0,1457.0,0.0,0.0,0.0,0.0,0.0,0.0,0.0,0.0
1190884906,8,1487.0,1446.0,1483.0,1449.0,1492.0,1459.0,1496.0,1455.0,0.0,0.0,0.0,0.0,0.0,0.0,0.0,0.0
1190924901,8,1487.0,1444.0,1479.0,1447.0,1491.0,1461.0,1499.0,1458.0,0.0,0.0,0.0,0.0,0.0,0.0,0.0,0.0
1190968910,8,1488.0,1440.0,1479.0,1443.0,1492.0,1458.0,1500.0,1455.0,0.0,0.0,0.0,0.0,0.0,0.0,0.0,0.0
1191008928,8,1488.0,1442.0,1478.0,1443.0,1490.0,1459.0,1501.0,1458.0,0.0,0.0,0.0,0.0,0.0,0.0,0.0,0.0
1191052906,8,1487.0,1439.0,1477.0,1442.0,1490.0,1458.0,1500.0,1456.0,0.0,0.0,0.0,0.0,0.0,0.0,0.0,0.0
1191093049,8,1490.0,1441.0,1480.0,1443.0,1493.0,1459.0,1503.0,1457.0,0.0,0.0,0.0,0.0,0.0,0.0,0.0,0.0
1191136897,8,1485.0,1441.0,1481.0,1447.0,1495.0,1461.0,1499.0,1454.0,0.0,0.0,0.0,0.0,0.0,0.0,0.0,0.0
1191176917,8,1487.0,1443.0,1481.0,1447.0,1492.0,1459.0,1498.0,1455.0,0.0,0.0,0.0,0.0,0.0,0.0,0.0,0.0
1191220899,8,1483.0,1443.0,1481.0,1450.0,1493.0,1460.0,1495.0,1454.0,0.0,0.0,0.0,0.0,0.0,0.0,0.0,0.0
1191260908,8,1488.0,1441.0,1480.0,1444.0,1493.0,1459.0,1500.0,1455.0,0.0,0.0,0.0,0.0,0.0,0.0,0.0,0.0
1191300898,8,1488.0,1441.0,1483.0,1447.0,1496.0,1460.0,1501.0,1454.0,0.0,0.0,0.0,0.0,0.0,0.0,0.0,0.0
1191344940,8,1487.0,1442.0,1484.0,1449.0,1497.0,1461.0,1500.0,1454.0,0.0,0.0,0.0,0.0,0.0,0.0,0.0,0.0
1191388882,8,1484.0,1440.0,1480.0,1448.0,1496.0,1462.0,1499.0,1453.0,0.0,0.0,0.0,0.0,0.0,0.0,0.0,0.0
1191428883,8,1486.0,1440.0,1481.0,1446.0,1494.0,1458.0,1499.0,1453.0,0.0,0.0,0.0,0.0,0.0,0.0,0.0,0.0
1191473054,8,1485.0,1438.0,1481.0,1445.0,1496.0,1459.0,1500.0,1451.0,0.0,0.0,0.0,0.0,0.0,0.0,0.0,0.0
1191513013,8,1488.0,1437.0,1480.0,1442.0,1494.0,1458.0,1503.0,1454.0,0.0,0.0,0.0,0.0,0.0,0.0,0.0,0.0
1191556912,8,1485.0,1437.0,1481.0,1445.0,1496.0,1459.0,1500.0,1451.0,0.0,0.0,0.0,0.0,0.0,0.0,0.0,0.0
1191596895,8,1487.0,1436.0,1484.0,1445.0,1500.0,1458.0,1502.0,1449.0,0.0,0.0,0.0,0.0,0.0,0.0,0.0,0.0
1191640915,8,1482.0,1439.0,1485.0,1451.0,1500.0,1460.0,1497.0,1448.0,0.0,0.0,0.0,0.0,0.0,0.0,0.0,0.0
1191681017,8,1485.0,1440.0,1483.0,1449.0,1497.0,1460.0,1498.0,1451.0,0.0,0.0,0.0,0.0,0.0,0.0,0.0,0.0
1191724897,8,1484.0,1441.0,1484.0,1451.0,1498.0,1461.0,1498.0,1451.0,0.0,0.0,0.0,0.0,0.0,0.0,0.0,0.0
1191764897,8,1484.0,1439.0,1483.0,1447.0,1496.0,1458.0,1498.0,1450.0,0.0,0.0,0.0,0.0,0.0,0.0,0.0,0.0
1191804887,8,1488.0,1441.0,1485.0,1448.0,1498.0,1459.0,1501.0,1452.0,0.0,0.0,0.0,0.0,0.0,0.0,0.0,0.0
1191849006,8,1485.0,1441.0,1483.0,1450.0,1498.0,1462.0,1500.0,1453.0,0.0,0.0,0.0,0.0,0.0,0.0,0.0,0.0
1191888918,8,1486.0,1442.0,1483.0,1449.0,1496.0,1460.0,1499.0,1453.0,0.0,0.0,0.0,0.0,0.0,0.0,0.0,0.0
1191929047,8,1486.0,1442.0,1483.0,1448.0,1496.0,1459.0,1499.0,1453.0,0.0,0.0,0.0,0.0,0.0,0.0,0.0,0.0
1191972889,8,1486.0,1438.0,1479.0,1445.0,1495.0,1460.0,1501.0,1454.0,0.0,0.0,0.0,0.0,0.0,0.0,0.0,0.0
1192017020,8,1484.0,1436.0,1478.0,1444.0,1495.0,1461.0,1502.0,1453.0,0.0,0.0,0.0,0.0,0.0,0.0,0.0,0.0
1192057029,8,1484.0,1440.0,1479.0,1449.0,1497.0,1464.0,1501.0,1455.0,0.0,0.0,0.0,0.0,0.0,0.0,0.0,0.0
1192100896,8,1482.0,1440.0,1480.0,1452.0,1498.0,1465.0,1499.0,1453.0,0.0,0.0,0.0,0.0,0.0,0.0,0.0,0.0
1192140889,8,1484.0,1440.0,1481.0,1449.0,1497.0,1462.0,1500.0,1454.0,0.0,0.0,0.0,0.0,0.0,0.0,0.0,0.0
1192184928,8,1481.0,1443.0,1481.0,1454.0,1497.0,1466.0,1497.0,1454.0,0.0,0.0,0.0,0.0,0.0,0.0,0.0,0.0
1192224921,8,1485.0,1443.0,1480.0,1449.0,1493.0,1461.0,1498.0,1455.0,0.0,0.0,0.0,0.0,0.0,0.0,0.0,0.0
1192264945,8,1486.0,1444.0,1483.0,1452.0,1496.0,1463.0,1499.0,1456.0,0.0,0.0,0.0,0.0,0.0,0.0,0.0,0.0
1192308887,8,1485.0,1446.0,1484.0,1454.0,1497.0,1463.0,1497.0,1455.0,0.0,0.0,0.0,0.0,0.0,0.0,0.0,0.0
1192353020,8,1482.0,1445.0,1481.0,1456.0,1497.0,1468.0,1498.0,1457.0,0.0,0.0,0.0,0.0,0.0,0.0,0.0,0.0
1192392934,8,1483.0,1448.0,1484.0,1457.0,1496.0,1465.0,1495.0,1456.0,0.0,0.0,0.0,0.0,0.0,0.0,0.0,0.0
1192436892,8,1481.0,1447.0,1480.0,1456.0,1493.0,1466.0,1494.0,1458.0,0.0,0.0,0.0,0.0,0.0,0.0,0.0,0.0
1192476901,8,1483.0,1449.0,1481.0,1455.0,1492.0,1464.0,1494.0,1458.0,0.0,0.0,0.0,0.0,0.0,0.0,0.0,0.0
1192516909,8,1484.0,1449.0,1482.0,1455.0,1493.0,1464.0,1495.0,1457.0,0.0,0.0,0.0,0.0,0.0,0.0,0.0,0.0
1192557056,8,1481.0,1452.0,1485.0,1461.0,1495.0,1466.0,1491.0,1456.0,0.0,0.0,0.0,0.0,0.0,0.0,0.0,0.0
1192600895,8,1483.0,1451.0,1483.0,1458.0,1493.0,1465.0,1493.0,1457.0,0.0,0.0,0.0,0.0,0.0,0.0,0.0,0.0
1192641037,8,1483.0,1451.0,1483.0,1457.0,1492.0,1464.0,1492.0,1457.0,0.0,0.0,0.0,0.0,0.0,0.0,0.0,0.0
1192685051,8,1484.0,1448.0,1481.0,1454.0,1492.0,1464.0,1495.0,1458.0,0.0,0.0,0.0,0.0,0.0,0.0,0.0,0.0
1192725037,8,1483.0,1446.0,1480.0,1453.0,1493.0,1465.0,1496.0,1458.0,0.0,0.0,0.0,0.0,0.0,0.0,0.0,0.0
1192768889,8,1484.0,1445.0,1480.0,1452.0,1493.0,1464.0,1498.0,1458.0,0.0,0.0,0.0,0.0,0.0,0.0,0.0,0.0
1192812913,8,1486.0,1446.0,1482.0,1453.0,1496.0,1465.0,1499.0,1458.0,0.0,0.0,0.0,0.0,0.0,0.0,0.0,0.0
1192853090,8,1486.0,1446.0,1484.0,1453.0,1496.0,1463.0,1498.0,1456.0,0.0,0.0,0.0,0.0,0.0,0.0,0.0,0.0
1192893057,8,1489.0,1447.0,1486.0,1452.0,1497.0,1462.0,1499.0,1456.0,0.0,0.0,0.0,0.0,0.0,0.0,0.0,0.0
1192936890,8,1489.0,1449.0,1488.0,1455.0,1497.0,1462.0,1498.0,1456.0,0.0,0.0,0.0,0.0,0.0,0.0,0.0,0.0
1192980911,8,1490.0,1451.0,1490.0,1456.0,1498.0,1462.0,1498.0,1457.0,0.0,0.0,0.0,0.0,0.0,0.0,0.0,0.0
1193024890,8,1490.0,1449.0,1487.0,1454.0,1496.0,1462.0,1499.0,1457.0,0.0,0.0,0.0,0.0,0.0,0.0,0.0,0.0
1193064898,8,1491.0,1450.0,1487.0,1452.0,1495.0,1460.0,1499.0,1458.0,0.0,0.0,0.0,0.0,0.0,0.0,0.0,0.0
1193108990,8,1490.0,1447.0,1484.0,1448.0,1493.0,1459.0,1499.0,1457.0,0.0,0.0,0.0,0.0,0.0,0.0,0.0,0.0
1193149119,8,1493.0,1446.0,1486.0,1447.0,1496.0,1459.0,1503.0,1457.0,0.0,0.0,0.0,0.0,0.0,0.0,0.0,0.0
1193192889,8,1491.0,1443.0,1484.0,1446.0,1496.0,1460.0,1503.0,1456.0,0.0,0.0,0.0,0.0,0.0,0.0,0.0,0.0
1193232889,8,1492.0,1445.0,1487.0,1450.0,1500.0,1462.0,1505.0,1457.0,0.0,0.0,0.0,0.0,0.0,0.0,0.0,0.0
1193276993,8,1489.0,1446.0,1489.0,1455.0,1501.0,1464.0,1501.0,1455.0,0.0,0.0,0.0,0.0,0.0,0.0,0.0,0.0
1193316928,8,1490.0,1447.0,1488.0,1452.0,1498.0,1461.0,1500.0,1455.0,0.0,0.0,0.0,0.0,0.0,0.0,0.0,0.0
1193360900,8,1489.0,1447.0,1489.0,1455.0,1500.0,1463.0,1500.0,1455.0,0.0,0.0,0.0,0.0,0.0,0.0,0.0,0.0
1193404983,8,1490.0,1448.0,1489.0,1455.0,1500.0,1463.0,1501.0,1456.0,0.0,0.0,0.0,0.0,0.0,0.0,0.0,0.0
1193444918,8,1491.0,1444.0,1487.0,1450.0,1500.0,1462.0,1504.0,1457.0,0.0,0.0,0.0,0.0,0.0,0.0,0.0,0.0
1193488893,8,1493.0,1444.0,1487.0,1449.0,1499.0,1461.0,1505.0,1457.0,0.0,0.0,0.0,0.0,0.0,0.0,0.0,0.0
1193528903,8,1493.0,1446.0,1490.0,1452.0,1501.0,1462.0,1503.0,1456.0,0.0,0.0,0.0,0.0,0.0,0.0,0.0,0.0
1193572920,8,1493.0,1447.0,1491.0,1452.0,1500.0,1459.0,1502.0,1454.0,0.0,0.0,0.0,0.0,0.0,0.0,0.0,0.0
1193612917,8,1493.0,1447.0,1491.0,1452.0,1501.0,1460.0,1502.0,1454.0,0.0,0.0,0.0,0.0,0.0,0.0,0.0,0.0
1193656892,8,1492.0,1450.0,1492.0,1454.0,1498.0,1458.0,1498.0,1454.0,0.0,0.0,0.0,0.0,0.0,0.0,0.0,0.0
1193696900,8,1492.0,1450.0,1491.0,1454.0,1498.0,1459.0,1499.0,1455.0,0.0,0.0,0.0,0.0,0.0,0.0,0.0,0.0
1193741004,8,1493.0,1451.0,1490.0,1453.0,1496.0,1459.0,1499.0,1457.0,0.0,0.0,0.0,0.0,0.0,0.0,0.0,0.0
1193781024,8,1494.0,1451.0,1495.0,1455.0,1500.0,1458.0,1499.0,1455.0,0.0,0.0,0.0,0.0,0.0,0.0,0.0,0.0
1193824898,8,1494.0,1449.0,1490.0,1453.0,1498.0,1461.0,1502.0,1458.0,0.0,0.0,0.0,0.0,0.0,0.0,0.0,0.0
1193864898,8,1492.0,1450.0,1490.0,1455.0,1499.0,1462.0,1501.0,1457.0,0.0,0.0,0.0,0.0,0.0,0.0,0.0,0.0
1193908929,8,1494.0,1448.0,1489.0,1453.0,1500.0,1463.0,1504.0,1459.0,0.0,0.0,0.0,0.0,0.0,0.0,0.0,0.0
1193949014,8,1490.0,1448.0,1486.0,1453.0,1497.0,1464.0,1501.0,1459.0,0.0,0.0,0.0,0.0,0.0,0.0,0.0,0.0
1193988928,8,1492.0,1446.0,1486.0,1450.0,1498.0,1463.0,1503.0,1458.0,0.0,0.0,0.0,0.0,0.0,0.0,0.0,0.0
1194032896,8,1491.0,1446.0,1486.0,1451.0,1498.0,1464.0,1504.0,1459.0,0.0,0.0,0.0,0.0,0.0,0.0,0.0,0.0
1194077007,8,1491.0,1447.0,1486.0,1452.0,1499.0,1465.0,1504.0,1459.0,0.0,0.0,0.0,0.0,0.0,0.0,0.0,0.0
1194117023,8,1492.0,1449.0,1489.0,1455.0,1501.0,1466.0,1504.0,1460.0,0.0,0.0,0.0,0.0,0.0,0.0,0.0,0.0
1194160905,8,1491.0,1451.0,1488.0,1456.0,1498.0,1466.0,1501.0,1461.0,0.0,0.0,0.0,0.0,0.0,0.0,0.0,0.0
1194200891,8,1492.0,1453.0,1489.0,1458.0,1498.0,1466.0,1500.0,1462.0,0.0,0.0,0.0,0.0,0.0,0.0,0.0,0.0
1194245022,8,1490.0,1451.0,1487.0,1456.0,1497.0,1465.0,1499.0,1460.0,0.0,0.0,0.0,0.0,0.0,0.0,0.0,0.0
1194285039,8,1492.0,1452.0,1487.0,1455.0,1495.0,1465.0,1500.0,1462.0,0.0,0.0,0.0,0.0,0.0,0.0,0.0,0.0
1194328895,8,1490.0,1448.0,1485.0,1453.0,1497.0,1464.0,1501.0,1459.0,0.0,0.0,0.0,0.0,0.0,0.0,0.0,0.0
1194368895,8,1493.0,1450.0,1484.0,1450.0,1493.0,1462.0,1502.0,1462.0,0.0,0.0,0.0,0.0,0.0,0.0,0.0,0.0
1194412914,8,1491.0,1451.0,1486.0,1453.0,1495.0,1463.0,1500.0,1461.0,0.0,0.0,0.0,0.0,0.0,0.0,0.0,0.0
1194454547,8,1492.0,1451.0,1489.0,1455.0,1497.0,1463.0,1501.0,1459.0,0.0,0.0,0.0,0.0,0.0,0.0,0.0,0.0
1194494606,8,1492.0,1452.0,1490.0,1456.0,1498.0,1463.0,1500.0,1459.0,0.0,0.0,0.0,0.0,0.0,0.0,0.0,0.0
1194538652,8,1493.0,1456.0,1496.0,1462.0,1502.0,1464.0,1499.0,1458.0,0.0,0.0,0.0,0.0,0.0,0.0,0.0,0.0
1194582625,8,1494.0,1457.0,1495.0,1462.0,1501.0,1466.0,1501.0,1461.0,0.0,0.0,0.0,0.0,0.0,0.0,0.0,0.0
1194622509,8,1493.0,1458.0,1495.0,1464.0,1501.0,1467.0,1499.0,1461.0,0.0,0.0,0.0,0.0,0.0,0.0,0.0,0.0
1194666683,8,1494.0,1455.0,1492.0,1458.0,1498.0,1463.0,1499.0,1461.0,0.0,0.0,0.0,0.0,0.0,0.0,0.0,0.0
1194706658,8,1493.0,1455.0,1491.0,1459.0,1498.0,1464.0,1499.0,1461.0,0.0,0.0,0.0,0.0,0.0,0.0,0.0,0.0
1194746513,8,1491.0,1454.0,1492.0,1460.0,1500.0,1465.0,1500.0,1459.0,0.0,0.0,0.0,0.0,0.0,0.0,0.0,0.0
1194790657,8,1492.0,1452.0,1490.0,1456.0,1498.0,1463.0,1500.0,1459.0,0.0,0.0,0.0,0.0,0.0,0.0,0.0,0.0
1194830521,8,1491.0,1454.0,1492.0,1461.0,1501.0,1466.0,1499.0,1459.0,0.0,0.0,0.0,0.0,0.0,0.0,0.0,0.0
1194874594,8,1491.0,1452.0,1492.0,1458.0,1499.0,1463.0,1498.0,1457.0,0.0,0.0,0.0,0.0,0.0,0.0,0.0,0.0
1194914487,8,1490.0,1454.0,1492.0,1460.0,1498.0,1464.0,1497.0,1458.0,0.0,0.0,0.0,0.0,0.0,0.0,0.0,0.0
1194954499,8,1490.0,1452.0,1490.0,1458.0,1498.0,1464.0,1498.0,1458.0,0.0,0.0,0.0,0.0,0.0,0.0,0.0,0.0
1194998512,8,1489.0,1452.0,1491.0,1458.0,1498.0,1462.0,1496.0,1456.0,0.0,0.0,0.0,0.0,0.0,0.0,0.0,0.0
1195038522,8,1489.0,1453.0,1493.0,1462.0,1502.0,1465.0,1498.0,1456.0,0.0,0.0,0.0,0.0,0.0,0.0,0.0,0.0
1195082592,8,1488.0,1452.0,1492.0,1461.0,1501.0,1465.0,1497.0,1456.0,0.0,0.0,0.0,0.0,0.0,0.0,0.0,0.0
1195122500,8,1487.0,1454.0,1493.0,1464.0,1501.0,1466.0,1495.0,1456.0,0.0,0.0,0.0,0.0,0.0,0.0,0.0,0.0
1195166585,8,1486.0,1453.0,1491.0,1462.0,1499.0,1466.0,1495.0,1457.0,0.0,0.0,0.0,0.0,0.0,0.0,0.0,0.0
1195206582,8,1485.0,1453.0,1491.0,1464.0,1500.0,1466.0,1495.0,1456.0,0.0,0.0,0.0,0.0,0.0,0.0,0.0,0.0
1195250501,8,1485.0,1451.0,1488.0,1460.0,1499.0,1466.0,1496.0,1457.0,0.0,0.0,0.0,0.0,0.0,0.0,0.0,0.0
1195294636,8,1484.0,1448.0,1485.0,1458.0,1498.0,1465.0,1496.0,1456.0,0.0,0.0,0.0,0.0,0.0,0.0,0.0,0.0
1195334529,8,1485.0,1450.0,1487.0,1459.0,1498.0,1465.0,1497.0,1456.0,0.0,0.0,0.0,0.0,0.0,0.0,0.0,0.0
1195378647,8,1485.0,1448.0,1487.0,1458.0,1499.0,1466.0,1497.0,1456.0,0.0,0.0,0.0,0.0,0.0,0.0,0.0,0.0
1195418508,8,1486.0,1448.0,1488.0,1458.0,1499.0,1464.0,1497.0,1455.0,0.0,0.0,0.0,0.0,0.0,0.0,0.0,0.0
1195462626,8,1488.0,1449.0,1491.0,1459.0,1501.0,1463.0,1497.0,1454.0,0.0,0.0,0.0,0.0,0.0,0.0,0.0,0.0
1195502606,8,1487.0,1449.0,1488.0,1457.0,1498.0,1464.0,1497.0,1456.0,0.0,0.0,0.0,0.0,0.0,0.0,0.0,0.0
1195546618,8,1489.0,1451.0,1491.0,1459.0,1500.0,1464.0,1498.0,1456.0,0.0,0.0,0.0,0.0,0.0,0.0,0.0,0.0
1195586490,8,1487.0,1450.0,1488.0,1457.0,1497.0,1462.0,1496.0,1455.0,0.0,0.0,0.0,0.0,0.0,0.0,0.0,0.0
1195626486,8,1489.0,1452.0,1491.0,1459.0,1499.0,1463.0,1497.0,1456.0,0.0,0.0,0.0,0.0,0.0,0.0,0.0,0.0
1195666519,8,1489.0,1451.0,1489.0,1457.0,1498.0,1464.0,1498.0,1458.0,0.0,0.0,0.0,0.0,0.0,0.0,0.0,0.0
1195710625,8,1490.0,1453.0,1491.0,1459.0,1497.0,1462.0,1496.0,1457.0,0.0,0.0,0.0,0.0,0.0,0.0,0.0,0.0
1195754512,8,1492.0,1455.0,1492.0,1459.0,1497.0,1463.0,1498.0,1459.0,0.0,0.0,0.0,0.0,0.0,0.0,0.0,0.0
1195798652,8,1493.0,1457.0,1492.0,1459.0,1497.0,1464.0,1498.0,1461.0,0.0,0.0,0.0,0.0,0.0,0.0,0.0,0.0
1195838528,8,1490.0,1455.0,1489.0,1459.0,1496.0,1465.0,1497.0,1461.0,0.0,0.0,0.0,0.0,0.0,0.0,0.0,0.0
1195882643,8,1491.0,1454.0,1487.0,1457.0,1495.0,1465.0,1498.0,1462.0,0.0,0.0,0.0,0.0,0.0,0.0,0.0,0.0
1195926695,8,1492.0,1452.0,1488.0,1455.0,1496.0,1463.0,1499.0,1460.0,0.0,0.0,0.0,0.0,0.0,0.0,0.0,0.0
1195966680,8,1493.0,1451.0,1488.0,1453.0,1496.0,1462.0,1501.0,1460.0,0.0,0.0,0.0,0.0,0.0,0.0,0.0,0.0
1196006518,8,1493.0,1451.0,1489.0,1454.0,1498.0,1463.0,1502.0,1460.0,0.0,0.0,0.0,0.0,0.0,0.0,0.0,0.0
1196050624,8,1494.0,1454.0,1491.0,1457.0,1498.0,1464.0,1501.0,1461.0,0.0,0.0,0.0,0.0,0.0,0.0,0.0,0.0
1196090501,8,1493.0,1455.0,1491.0,1458.0,1497.0,1463.0,1499.0,1460.0,0.0,0.0,0.0,0.0,0.0,0.0,0.0,0.0
1196134657,8,1493.0,1456.0,1493.0,1461.0,1499.0,1465.0,1499.0,1460.0,0.0,0.0,0.0,0.0,0.0,0.0,0.0,0.0
1196174559,8,1493.0,1456.0,1492.0,1459.0,1497.0,1462.0,1497.0,1460.0,0.0,0.0,0.0,0.0,0.0,0.0,0.0,0.0
1196218623,8,1489.0,1455.0,1491.0,1461.0,1498.0,1465.0,1496.0,1459.0,0.0,0.0,0.0,0.0,0.0,0.0,0.0,0.0
1196258514,8,1493.0,1451.0,1489.0,1455.0,1497.0,1463.0,1501.0,1460.0,0.0,0.0,0.0,0.0,0.0,0.0,0.0,0.0
1196298620,8,1493.0,1456.0,1492.0,1460.0,1499.0,1466.0,1500.0,1461.0,0.0,0.0,0.0,0.0,0.0,0.0,0.0,0.0
1196338527,8,1492.0,1455.0,1492.0,1459.0,1498.0,1464.0,1498.0,1460.0,0.0,0.0,0.0,0.0,0.0,0.0,0.0,0.0
1196382498,8,1493.0,1457.0,1492.0,1461.0,1498.0,1466.0,1499.0,1463.0,0.0,0.0,0.0,0.0,0.0,0.0,0.0,0.0
1196426626,8,1491.0,1454.0,1489.0,1459.0,1499.0,1467.0,1500.0,1461.0,0.0,0.0,0.0,0.0,0.0,0.0,0.0,0.0
1196466514,8,1492.0,1453.0,1487.0,1456.0,1496.0,1467.0,1501.0,1464.0,0.0,0.0,0.0,0.0,0.0,0.0,0.0,0.0
1196510495,8,1489.0,1451.0,1485.0,1456.0,1497.0,1467.0,1501.0,1462.0,0.0,0.0,0.0,0.0,0.0,0.0,0.0,0.0
1196550495,8,1491.0,1452.0,1484.0,1454.0,1494.0,1467.0,1502.0,1465.0,0.0,0.0,0.0,0.0,0.0,0.0,0.0,0.0
1196594498,8,1490.0,1453.0,1485.0,1457.0,1496.0,1468.0,1501.0,1464.0,0.0,0.0,0.0,0.0,0.0,0.0,0.0,0.0
1196634520,8,1490.0,1452.0,1485.0,1456.0,1496.0,1467.0,1501.0,1463.0,0.0,0.0,0.0,0.0,0.0,0.0,0.0,0.0
1196678516,8,1490.0,1454.0,1488.0,1460.0,1498.0,1469.0,1500.0,1463.0,0.0,0.0,0.0,0.0,0.0,0.0,0.0,0.0
1196718505,8,1489.0,1454.0,1488.0,1461.0,1499.0,1469.0,1499.0,1462.0,0.0,0.0,0.0,0.0,0.0,0.0,0.0,0.0
1196762515,8,1491.0,1457.0,1491.0,1464.0,1501.0,1470.0,1500.0,1463.0,0.0,0.0,0.0,0.0,0.0,0.0,0.0,0.0
1196802628,8,1490.0,1456.0,1488.0,1461.0,1497.0,1469.0,1498.0,1464.0,0.0,0.0,0.0,0.0,0.0,0.0,0.0,0.0
1196846493,8,1492.0,1457.0,1490.0,1461.0,1498.0,1469.0,1500.0,1465.0,0.0,0.0,0.0,0.0,0.0,0.0,0.0,0.0
1196886494,8,1490.0,1454.0,1486.0,1458.0,1496.0,1468.0,1500.0,1464.0,0.0,0.0,0.0,0.0,0.0,0.0,0.0,0.0
1196930626,8,1491.0,1452.0,1486.0,1455.0,1496.0,1467.0,1502.0,1463.0,0.0,0.0,0.0,0.0,0.0,0.0,0.0,0.0
1196970618,8,1491.0,1449.0,1486.0,1454.0,1498.0,1466.0,1503.0,1461.0,0.0,0.0,0.0,0.0,0.0,0.0,0.0,0.0
1197014488,8,1492.0,1449.0,1485.0,1452.0,1496.0,1465.0,1503.0,1461.0,0.0,0.0,0.0,0.0,0.0,0.0,0.0,0.0
1197054504,8,1491.0,1451.0,1488.0,1456.0,1498.0,1466.0,1502.0,1461.0,0.0,0.0,0.0,0.0,0.0,0.0,0.0,0.0
1197098522,8,1493.0,1453.0,1490.0,1456.0,1497.0,1463.0,1500.0,1461.0,0.0,0.0,0.0,0.0,0.0,0.0,0.0,0.0
1197138616,8,1493.0,1454.0,1492.0,1459.0,1500.0,1465.0,1501.0,1460.0,0.0,0.0,0.0,0.0,0.0,0.0,0.0,0.0
1197182485,8,1491.0,1454.0,1491.0,1458.0,1497.0,1464.0,1498.0,1460.0,0.0,0.0,0.0,0.0,0.0,0.0,0.0,0.0
1197222494,8,1492.0,1455.0,1491.0,1460.0,1498.0,1465.0,1499.0,1460.0,0.0,0.0,0.0,0.0,0.0,0.0,0.0,0.0
1197266625,8,1490.0,1453.0,1489.0,1458.0,1497.0,1465.0,1499.0,1460.0,0.0,0.0,0.0,0.0,0.0,0.0,0.0,0.0
1197310615,8,1491.0,1452.0,1488.0,1457.0,1498.0,1466.0,1501.0,1461.0,0.0,0.0,0.0,0.0,0.0,0.0,0.0,0.0
1197350501,8,1489.0,1450.0,1485.0,1455.0,1496.0,1466.0,1501.0,1461.0,0.0,0.0,0.0,0.0,0.0,0.0,0.0,0.0
1197394654,8,1490.0,1450.0,1483.0,1454.0,1496.0,1468.0,1503.0,1464.0,0.0,0.0,0.0,0.0,0.0,0.0,0.0,0.0
1197434510,8,1489.0,1447.0,1482.0,1454.0,1498.0,1469.0,1504.0,1463.0,0.0,0.0,0.0,0.0,0.0,0.0,0.0,0.0
1197478493,8,1490.0,1449.0,1485.0,1455.0,1498.0,1469.0,1504.0,1463.0,0.0,0.0,0.0,0.0,0.0,0.0,0.0,0.0
1197522685,8,1488.0,1450.0,1484.0,1456.0,1497.0,1468.0,1501.0,1461.0,0.0,0.0,0.0,0.0,0.0,0.0,0.0,0.0
1197566588,8,1487.0,1450.0,1485.0,1458.0,1498.0,1469.0,1500.0,1461.0,0.0,0.0,0.0,0.0,0.0,0.0,0.0,0.0
1197606629,8,1488.0,1450.0,1487.0,1459.0,1500.0,1468.0,1500.0,1459.0,0.0,0.0,0.0,0.0,0.0,0.0,0.0,0.0
1197650604,8,1487.0,1449.0,1489.0,1459.0,1502.0,1468.0,1501.0,1458.0,0.0,0.0,0.0,0.0,0.0,0.0,0.0,0.0
1197690662,8,1487.0,1450.0,1486.0,1458.0,1497.0,1466.0,1498.0,1459.0,0.0,0.0,0.0,0.0,0.0,0.0,0.0,0.0
1197734791,8,1487.0,1449.0,1487.0,1458.0,1500.0,1468.0,1500.0,1459.0,0.0,0.0,0.0,0.0,0.0,0.0,0.0,0.0
1197774594,8,1486.0,1446.0,1484.0,1454.0,1497.0,1465.0,1499.0,1458.0,0.0,0.0,0.0,0.0,0.0,0.0,0.0,0.0
1197818620,8,1488.0,1448.0,1486.0,1456.0,1499.0,1467.0,1501.0,1459.0,0.0,0.0,0.0,0.0,0.0,0.0,0.0,0.0
1197858635,8,1488.0,1448.0,1486.0,1455.0,1498.0,1464.0,1500.0,1457.0,0.0,0.0,0.0,0.0,0.0,0.0,0.0,0.0
1197902589,8,1490.0,1451.0,1489.0,1457.0,1500.0,1466.0,1501.0,1459.0,0.0,0.0,0.0,0.0,0.0,0.0,0.0,0.0
1197942607,8,1492.0,1449.0,1490.0,1455.0,1501.0,1464.0,1502.0,1457.0,0.0,0.0,0.0,0.0,0.0,0.0,0.0,0.0
1197986627,8,1493.0,1452.0,1491.0,1457.0,1501.0,1465.0,1503.0,1460.0,0.0,0.0,0.0,0.0,0.0,0.0,0.0,0.0
1198026639,8,1493.0,1452.0,1490.0,1457.0,1500.0,1466.0,1503.0,1461.0,0.0,0.0,0.0,0.0,0.0,0.0,0.0,0.0
1198070604,8,1495.0,1450.0,1490.0,1453.0,1500.0,1464.0,1506.0,1460.0,0.0,0.0,0.0,0.0,0.0,0.0,0.0,0.0
1198110649,8,1495.0,1450.0,1489.0,1452.0,1498.0,1463.0,1504.0,1461.0,0.0,0.0,0.0,0.0,0.0,0.0,0.0,0.0
1198154788,8,1496.0,1448.0,1490.0,1449.0,1498.0,1459.0,1504.0,1458.0,0.0,0.0,0.0,0.0,0.0,0.0,0.0,0.0
1198194662,8,1496.0,1447.0,1493.0,1452.0,1503.0,1461.0,1505.0,1455.0,0.0,0.0,0.0,0.0,0.0,0.0,0.0,0.0
1198238608,8,1496.0,1447.0,1493.0,1451.0,1502.0,1460.0,1505.0,1456.0,0.0,0.0,0.0,0.0,0.0,0.0,0.0,0.0
1198278627,8,1498.0,1450.0,1499.0,1455.0,1505.0,1458.0,1504.0,1454.0,0.0,0.0,0.0,0.0,0.0,0.0,0.0,0.0
1198322658,8,1499.0,1452.0,1499.0,1455.0,1503.0,1458.0,1504.0,1455.0,0.0,0.0,0.0,0.0,0.0,0.0,0.0,0.0
1198362707,8,1499.0,1450.0,1498.0,1451.0,1502.0,1455.0,1503.0,1454.0,0.0,0.0,0.0,0.0,0.0,0.0,0.0,0.0
1198406621,8,1499.0,1447.0,1497.0,1449.0,1503.0,1456.0,1505.0,1453.0,0.0,0.0,0.0,0.0,0.0,0.0,0.0,0.0
1198446643,8,1499.0,1446.0,1498.0,1450.0,1505.0,1457.0,1507.0,1452.0,0.0,0.0,0.0,0.0,0.0,0.0,0.0,0.0
1198490677,8,1500.0,1443.0,1498.0,1447.0,1507.0,1455.0,1508.0,1450.0,0.0,0.0,0.0,0.0,0.0,0.0,0.0,0.0
1198530706,8,1498.0,1444.0,1500.0,1452.0,1508.0,1457.0,1507.0,1449.0,0.0,0.0,0.0,0.0,0.0,0.0,0.0,0.0
1198574610,8,1498.0,1447.0,1504.0,1456.0,1512.0,1458.0,1506.0,1448.0,0.0,0.0,0.0,0.0,0.0,0.0,0.0,0.0
1198614617,8,1499.0,1445.0,1499.0,1451.0,1508.0,1457.0,1507.0,1450.0,0.0,0.0,0.0,0.0,0.0,0.0,0.0,0.0
1198658643,8,1498.0,1446.0,1500.0,1455.0,1511.0,1462.0,1509.0,1452.0,0.0,0.0,0.0,0.0,0.0,0.0,0.0,0.0
1198698702,8,1498.0,1446.0,1499.0,1455.0,1510.0,1461.0,1509.0,1452.0,0.0,0.0,0.0,0.0,0.0,0.0,0.0,0.0
1198742612,8,1498.0,1445.0,1497.0,1454.0,1510.0,1463.0,1510.0,1455.0,0.0,0.0,0.0,0.0,0.0,0.0,0.0,0.0
1198782646,8,1498.0,1448.0,1500.0,1457.0,1511.0,1463.0,1508.0,1454.0,0.0,0.0,0.0,0.0,0.0,0.0,0.0,0.0
1198826638,8,1498.0,1445.0,1496.0,1452.0,1506.0,1461.0,1508.0,1454.0,0.0,0.0,0.0,0.0,0.0,0.0,0.0,0.0
1198868279,8,1496.0,1443.0,1492.0,1449.0,1504.0,1460.0,1508.0,1454.0,0.0,0.0,0.0,0.0,0.0,0.0,0.0,0.0
1198908334,8,1497.0,1444.0,1492.0,1449.0,1503.0,1459.0,1507.0,1455.0,0.0,0.0,0.0,0.0,0.0,0.0,0.0,0.0
1198952118,8,1495.0,1444.0,1491.0,1448.0,1501.0,1458.0,1505.0,1454.0,0.0,0.0,0.0,0.0,0.0,0.0,0.0,0.0
1198992110,8,1495.0,1444.0,1493.0,1450.0,1503.0,1459.0,1505.0,1453.0,0.0,0.0,0.0,0.0,0.0,0.0,0.0,0.0
1199036239,8,1496.0,1448.0,1496.0,1454.0,1505.0,1461.0,1505.0,1455.0,0.0,0.0,0.0,0.0,0.0,0.0,0.0,0.0
1199076140,8,1495.0,1448.0,1493.0,1453.0,1502.0,1461.0,1504.0,1456.0,0.0,0.0,0.0,0.0,0.0,0.0,0.0,0.0
1199116126,8,1493.0,1446.0,1490.0,1451.0,1501.0,1461.0,1504.0,1456.0,0.0,0.0,0.0,0.0,0.0,0.0,0.0,0.0
1199156271,8,1494.0,1446.0,1493.0,1453.0,1504.0,1462.0,1505.0,1455.0,0.0,0.0,0.0,0.0,0.0,0.0,0.0,0.0
1199200100,8,1492.0,1444.0,1489.0,1450.0,1501.0,1461.0,1505.0,1455.0,0.0,0.0,0.0,0.0,0.0,0.0,0.0,0.0
1199244203,8,1494.0,1442.0,1490.0,1449.0,1504.0,1461.0,1508.0,1454.0,0.0,0.0,0.0,0.0,0.0,0.0,0.0,0.0
1199288232,8,1492.0,1443.0,1492.0,1452.0,1505.0,1461.0,1505.0,1452.0,0.0,0.0,0.0,0.0,0.0,0.0,0.0,0.0
1199328159,8,1494.0,1447.0,1495.0,1455.0,1505.0,1461.0,1504.0,1453.0,0.0,0.0,0.0,0.0,0.0,0.0,0.0,0.0
1199368157,8,1494.0,1445.0,1494.0,1453.0,1505.0,1460.0,1504.0,1452.0,0.0,0.0,0.0,0.0,0.0,0.0,0.0,0.0
1199412128,8,1492.0,1447.0,1496.0,1456.0,1505.0,1459.0,1501.0,1450.0,0.0,0.0,0.0,0.0,0.0,0.0,0.0,0.0
1199452109,8,1493.0,1447.0,1495.0,1455.0,1504.0,1460.0,1502.0,1452.0,0.0,0.0,0.0,0.0,0.0,0.0,0.0,0.0
1199496127,8,1492.0,1445.0,1494.0,1454.0,1505.0,1460.0,1503.0,1451.0,0.0,0.0,0.0,0.0,0.0,0.0,0.0,0.0
1199536102,8,1492.0,1447.0,1495.0,1456.0,1505.0,1461.0,1502.0,1452.0,0.0,0.0,0.0,0.0,0.0,0.0,0.0,0.0
1199580147,8,1490.0,1443.0,1492.0,1455.0,1507.0,1463.0,1505.0,1452.0,0.0,0.0,0.0,0.0,0.0,0.0,0.0,0.0
1199624094,8,1491.0,1444.0,1493.0,1455.0,1507.0,1464.0,1505.0,1452.0,0.0,0.0,0.0,0.0,0.0,0.0,0.0,0.0
1199664099,8,1489.0,1443.0,1492.0,1456.0,1507.0,1465.0,1505.0,1452.0,0.0,0.0,0.0,0.0,0.0,0.0,0.0,0.0
1199708245,8,1489.0,1446.0,1493.0,1458.0,1506.0,1464.0,1502.0,1452.0,0.0,0.0,0.0,0.0,0.0,0.0,0.0,0.0
1199748258,8,1490.0,1445.0,1494.0,1458.0,1507.0,1465.0,1503.0,1452.0,0.0,0.0,0.0,0.0,0.0,0.0,0.0,0.0
1199792088,8,1490.0,1446.0,1494.0,1457.0,1507.0,1464.0,1503.0,1452.0,0.0,0.0,0.0,0.0,0.0,0.0,0.0,0.0
1199832098,8,1489.0,1447.0,1495.0,1461.0,1509.0,1466.0,1503.0,1452.0,0.0,0.0,0.0,0.0,0.0,0.0,0.0,0.0
1199876148,8,1489.0,1445.0,1493.0,1458.0,1508.0,1466.0,1504.0,1453.0,0.0,0.0,0.0,0.0,0.0,0.0,0.0,0.0
1199916232,8,1488.0,1444.0,1492.0,1457.0,1507.0,1465.0,1503.0,1451.0,0.0,0.0,0.0,0.0,0.0,0.0,0.0,0.0
1199960116,8,1489.0,1442.0,1491.0,1453.0,1505.0,1462.0,1504.0,1451.0,0.0,0.0,0.0,0.0,0.0,0.0,0.0,0.0
1200000100,8,1489.0,1440.0,1492.0,1454.0,1509.0,1464.0,1506.0,1450.0,0.0,0.0,0.0,0.0,0.0,0.0,0.0,0.0
1200044137,8,1488.0,1442.0,1492.0,1456.0,1508.0,1465.0,1504.0,1451.0,0.0,0.0,0.0,0.0,0.0,0.0,0.0,0.0
1200084120,8,1487.0,1443.0,1492.0,1459.0,1509.0,1467.0,1504.0,1451.0,0.0,0.0,0.0,0.0,0.0,0.0,0.0,0.0
1200128157,8,1487.0,1444.0,1493.0,1459.0,1508.0,1466.0,1502.0,1451.0,0.0,0.0,0.0,0.0,0.0,0.0,0.0,0.0
1200168284,8,1487.0,1444.0,1491.0,1458.0,1506.0,1466.0,1502.0,1452.0,0.0,0.0,0.0,0.0,0.0,0.0,0.0,0.0
1200212128,8,1488.0,1440.0,1487.0,1452.0,1505.0,1465.0,1506.0,1452.0,0.0,0.0,0.0,0.0,0.0,0.0,0.0,0.0
1200252114,8,1491.0,1443.0,1493.0,1455.0,1507.0,1463.0,1505.0,1452.0,0.0,0.0,0.0,0.0,0.0,0.0,0.0,0.0
1200296218,8,1490.0,1441.0,1490.0,1452.0,1505.0,1463.0,1506.0,1452.0,0.0,0.0,0.0,0.0,0.0,0.0,0.0,0.0
1200336241,8,1491.0,1442.0,1493.0,1453.0,1507.0,1462.0,1505.0,1451.0,0.0,0.0,0.0,0.0,0.0,0.0,0.0,0.0
1200380106,8,1491.0,1443.0,1493.0,1454.0,1506.0,1462.0,1504.0,1451.0,0.0,0.0,0.0,0.0,0.0,0.0,0.0,0.0
1200420094,8,1492.0,1442.0,1493.0,1452.0,1506.0,1461.0,1505.0,1451.0,0.0,0.0,0.0,0.0,0.0,0.0,0.0,0.0
1200464143,8,1490.0,1444.0,1494.0,1455.0,1506.0,1460.0,1502.0,1449.0,0.0,0.0,0.0,0.0,0.0,0.0,0.0,0.0
1200504129,8,1489.0,1442.0,1495.0,1455.0,1508.0,1460.0,1502.0,1447.0,0.0,0.0,0.0,0.0,0.0,0.0,0.0,0.0
1200548258,8,1490.0,1444.0,1499.0,1458.0,1511.0,1461.0,1502.0,1446.0,0.0,0.0,0.0,0.0,0.0,0.0,0.0,0.0
1200588146,8,1486.0,1442.0,1495.0,1458.0,1509.0,1462.0,1501.0,1446.0,0.0,0.0,0.0,0.0,0.0,0.0,0.0,0.0
1200628290,8,1485.0,1441.0,1494.0,1457.0,1507.0,1460.0,1498.0,1445.0,0.0,0.0,0.0,0.0,0.0,0.0,0.0,0.0
1200672241,8,1487.0,1440.0,1494.0,1455.0,1508.0,1460.0,1501.0,1445.0,0.0,0.0,0.0,0.0,0.0,0.0,0.0,0.0
1200712291,8,1486.0,1441.0,1496.0,1458.0,1511.0,1462.0,1502.0,1445.0,0.0,0.0,0.0,0.0,0.0,0.0,0.0,0.0
1200756098,8,1486.0,1440.0,1493.0,1456.0,1510.0,1463.0,1503.0,1447.0,0.0,0.0,0.0,0.0,0.0,0.0,0.0,0.0
1200796098,8,1487.0,1441.0,1493.0,1455.0,1507.0,1461.0,1501.0,1447.0,0.0,0.0,0.0,0.0,0.0,0.0,0.0,0.0
1200840254,8,1487.0,1439.0,1492.0,1454.0,1508.0,1462.0,1503.0,1447.0,0.0,0.0,0.0,0.0,0.0,0.0,0.0,0.0
1200880132,8,1486.0,1437.0,1491.0,1453.0,1508.0,1462.0,1504.0,1446.0,0.0,0.0,0.0,0.0,0.0,0.0,0.0,0.0
1200924114,8,1486.0,1441.0,1492.0,1457.0,1509.0,1465.0,1504.0,1449.0,0.0,0.0,0.0,0.0,0.0,0.0,0.0,0.0
1200968273,8,1487.0,1442.0,1491.0,1456.0,1507.0,1465.0,1503.0,1451.0,0.0,0.0,0.0,0.0,0.0,0.0,0.0,0.0
1201008315,8,1488.0,1442.0,1488.0,1454.0,1504.0,1465.0,1504.0,1454.0,0.0,0.0,0.0,0.0,0.0,0.0,0.0,0.0
1201052114,8,1487.0,1439.0,1485.0,1449.0,1502.0,1463.0,1504.0,1453.0,0.0,0.0,0.0,0.0,0.0,0.0,0.0,0.0
1201092118,8,1487.0,1436.0,1481.0,1446.0,1501.0,1464.0,1507.0,1454.0,0.0,0.0,0.0,0.0,0.0,0.0,0.0,0.0
1201132101,8,1486.0,1438.0,1485.0,1451.0,1505.0,1466.0,1507.0,1453.0,0.0,0.0,0.0,0.0,0.0,0.0,0.0,0.0
1201176138,8,1485.0,1436.0,1483.0,1450.0,1505.0,1466.0,1506.0,1452.0,0.0,0.0,0.0,0.0,0.0,0.0,0.0,0.0
1201216119,8,1484.0,1435.0,1481.0,1449.0,1504.0,1467.0,1507.0,1453.0,0.0,0.0,0.0,0.0,0.0,0.0,0.0,0.0
1201260103,8,1483.0,1438.0,1482.0,1453.0,1504.0,1469.0,1505.0,1455.0,0.0,0.0,0.0,0.0,0.0,0.0,0.0,0.0
1201300107,8,1482.0,1439.0,1480.0,1453.0,1501.0,1469.0,1503.0,1456.0,0.0,0.0,0.0,0.0,0.0,0.0,0.0,0.0
1201344222,8,1481.0,1442.0,1479.0,1455.0,1499.0,1471.0,1501.0,1458.0,0.0,0.0,0.0,0.0,0.0,0.0,0.0,0.0
1201384273,8,1482.0,1442.0,1481.0,1456.0,1502.0,1472.0,1503.0,1458.0,0.0,0.0,0.0,0.0,0.0,0.0,0.0,0.0
1201428146,8,1480.0,1441.0,1477.0,1455.0,1500.0,1473.0,1503.0,1459.0,0.0,0.0,0.0,0.0,0.0,0.0,0.0,0.0
1201468294,8,1479.0,1445.0,1478.0,1459.0,1499.0,1474.0,1500.0,1460.0,0.0,0.0,0.0,0.0,0.0,0.0,0.0,0.0
1201512126,8,1476.0,1444.0,1476.0,1459.0,1498.0,1475.0,1498.0,1460.0,0.0,0.0,0.0,0.0,0.0,0.0,0.0,0.0
1201552135,8,1479.0,1445.0,1477.0,1458.0,1498.0,1473.0,1499.0,1460.0,0.0,0.0,0.0,0.0,0.0,0.0,0.0,0.0
1201596089,8,1477.0,1447.0,1478.0,1460.0,1496.0,1472.0,1495.0,1458.0,0.0,0.0,0.0,0.0,0.0,0.0,0.0,0.0
1201636076,8,1480.0,1447.0,1480.0,1459.0,1497.0,1471.0,1497.0,1459.0,0.0,0.0,0.0,0.0,0.0,0.0,0.0,0.0
1201676157,8,1480.0,1451.0,1485.0,1466.0,1502.0,1474.0,1497.0,1459.0,0.0,0.0,0.0,0.0,0.0,0.0,0.0,0.0
1201716223,8,1476.0,1448.0,1483.0,1465.0,1500.0,1472.0,1493.0,1455.0,0.0,0.0,0.0,0.0,0.0,0.0,0.0,0.0
1201760244,8,1476.0,1449.0,1487.0,1469.0,1504.0,1473.0,1493.0,1453.0,0.0,0.0,0.0,0.0,0.0,0.0,0.0,0.0
1201800252,8,1479.0,1447.0,1486.0,1463.0,1501.0,1469.0,1495.0,1453.0,0.0,0.0,0.0,0.0,0.0,0.0,0.0,0.0
1201844124,8,1478.0,1448.0,1489.0,1466.0,1503.0,1469.0,1493.0,1451.0,0.0,0.0,0.0,0.0,0.0,0.0,0.0,0.0
1201884270,8,1483.0,1448.0,1491.0,1462.0,1503.0,1464.0,1495.0,1450.0,0.0,0.0,0.0,0.0,0.0,0.0,0.0,0.0
1201928311,8,1484.0,1449.0,1496.0,1466.0,1507.0,1464.0,1494.0,1448.0,0.0,0.0,0.0,0.0,0.0,0.0,0.0,0.0
1201968301,8,1484.0,1449.0,1497.0,1467.0,1509.0,1466.0,1495.0,1448.0,0.0,0.0,0.0,0.0,0.0,0.0,0.0,0.0
1202012129,8,1486.0,1451.0,1499.0,1467.0,1509.0,1465.0,1496.0,1448.0,0.0,0.0,0.0,0.0,0.0,0.0,0.0,0.0
1202052245,8,1486.0,1451.0,1500.0,1467.0,1510.0,1465.0,1496.0,1448.0,0.0,0.0,0.0,0.0,0.0,0.0,0.0,0.0
1202096238,8,1486.0,1448.0,1498.0,1465.0,1510.0,1465.0,1498.0,1448.0,0.0,0.0,0.0,0.0,0.0,0.0,0.0,0.0
1202136376,8,1487.0,1449.0,1502.0,1468.0,1515.0,1466.0,1500.0,1447.0,0.0,0.0,0.0,0.0,0.0,0.0,0.0,0.0
1202180215,8,1489.0,1447.0,1502.0,1466.0,1516.0,1466.0,1502.0,1447.0,0.0,0.0,0.0,0.0,0.0,0.0,0.0,0.0
1202220224,8,1488.0,1447.0,1500.0,1466.0,1514.0,1468.0,1502.0,1449.0,0.0,0.0,0.0,0.0,0.0,0.0,0.0,0.0
1202264155,8,1488.0,1444.0,1499.0,1463.0,1516.0,1468.0,1506.0,1448.0,0.0,0.0,0.0,0.0,0.0,0.0,0.0,0.0
1202304221,8,1489.0,1442.0,1496.0,1461.0,1516.0,1469.0,1508.0,1450.0,0.0,0.0,0.0,0.0,0.0,0.0,0.0,0.0
1202348253,8,1490.0,1443.0,1499.0,1462.0,1516.0,1468.0,1507.0,1449.0,0.0,0.0,0.0,0.0,0.0,0.0,0.0,0.0
1202388269,8,1490.0,1446.0,1501.0,1466.0,1519.0,1470.0,1507.0,1450.0,0.0,0.0,0.0,0.0,0.0,0.0,0.0,0.0
1202432121,8,1490.0,1447.0,1499.0,1465.0,1516.0,1470.0,1506.0,1452.0,0.0,0.0,0.0,0.0,0.0,0.0,0.0,0.0
1202472250,8,1493.0,1451.0,1498.0,1463.0,1510.0,1468.0,1505.0,1456.0,0.0,0.0,0.0,0.0,0.0,0.0,0.0,0.0
1202516257,8,1492.0,1450.0,1494.0,1461.0,1507.0,1469.0,1505.0,1459.0,0.0,0.0,0.0,0.0,0.0,0.0,0.0,0.0
1202556273,8,1493.0,1448.0,1492.0,1458.0,1507.0,1469.0,1508.0,1459.0,0.0,0.0,0.0,0.0,0.0,0.0,0.0,0.0
1202600133,8,1486.0,1443.0,1488.0,1459.0,1507.0,1471.0,1506.0,1456.0,0.0,0.0,0.0,0.0,0.0,0.0,0.0,0.0
1202640133,8,1486.0,1447.0,1491.0,1464.0,1510.0,1474.0,1504.0,1456.0,0.0,0.0,0.0,0.0,0.0,0.0,0.0,0.0
1202684273,8,1482.0,1447.0,1490.0,1468.0,1511.0,1476.0,1502.0,1455.0,0.0,0.0,0.0,0.0,0.0,0.0,0.0,0.0
1202724256,8,1482.0,1449.0,1489.0,1465.0,1506.0,1473.0,1500.0,1457.0,0.0,0.0,0.0,0.0,0.0,0.0,0.0,0.0
1202768303,8,1481.0,1454.0,1491.0,1472.0,1506.0,1475.0,1496.0,1458.0,0.0,0.0,0.0,0.0,0.0,0.0,0.0,0.0
1202808311,8,1482.0,1455.0,1487.0,1467.0,1500.0,1474.0,1496.0,1461.0,0.0,0.0,0.0,0.0,0.0,0.0,0.0,0.0
1202852246,8,1481.0,1460.0,1489.0,1474.0,1501.0,1476.0,1492.0,1462.0,0.0,0.0,0.0,0.0,0.0,0.0,0.0,0.0
1202892280,8,1485.0,1462.0,1490.0,1471.0,1499.0,1475.0,1494.0,1465.0,0.0,0.0,0.0,0.0,0.0,0.0,0.0,0.0
1202936135,8,1484.0,1460.0,1484.0,1469.0,1497.0,1478.0,1496.0,1469.0,0.0,0.0,0.0,0.0,0.0,0.0,0.0,0.0
1202976214,8,1486.0,1461.0,1484.0,1469.0,1496.0,1480.0,1498.0,1472.0,0.0,0.0,0.0,0.0,0.0,0.0,0.0,0.0
1203020280,8,1486.0,1458.0,1478.0,1464.0,1494.0,1481.0,1503.0,1476.0,0.0,0.0,0.0,0.0,0.0,0.0,0.0,0.0
1203060267,8,1483.0,1458.0,1475.0,1467.0,1495.0,1487.0,1503.0,1478.0,0.0,0.0,0.0,0.0,0.0,0.0,0.0,0.0
1203104145,8,1482.0,1456.0,1475.0,1468.0,1498.0,1489.0,1505.0,1477.0,0.0,0.0,0.0,0.0,0.0,0.0,0.0,0.0
1203144128,8,1475.0,1455.0,1472.0,1472.0,1499.0,1493.0,1503.0,1476.0,0.0,0.0,0.0,0.0,0.0,0.0,0.0,0.0
1203188299,8,1474.0,1456.0,1474.0,1476.0,1503.0,1496.0,1502.0,1475.0,0.0,0.0,0.0,0.0,0.0,0.0,0.0,0.0
1203228314,8,1469.0,1454.0,1468.0,1474.0,1498.0,1496.0,1498.0,1475.0,0.0,0.0,0.0,0.0,0.0,0.0,0.0,0.0
1203269828,8,1468.0,1452.0,1465.0,1472.0,1496.0,1495.0,1498.0,1475.0,0.0,0.0,0.0,0.0,0.0,0.0,0.0,0.0
1203313693,8,1470.0,1457.0,1468.0,1475.0,1495.0,1495.0,1497.0,1477.0,0.0,0.0,0.0,0.0,0.0,0.0,0.0,0.0
1203353700,8,1472.0,1457.0,1465.0,1471.0,1492.0,1495.0,1499.0,1481.0,0.0,0.0,0.0,0.0,0.0,0.0,0.0,0.0
1203397828,8,1471.0,1456.0,1464.0,1471.0,1491.0,1495.0,1499.0,1481.0,0.0,0.0,0.0,0.0,0.0,0.0,0.0,0.0
1203437714,8,1472.0,1457.0,1463.0,1469.0,1490.0,1494.0,1499.0,1481.0,0.0,0.0,0.0,0.0,0.0,0.0,0.0,0.0
1203481690,8,1470.0,1453.0,1461.0,1467.0,1489.0,1494.0,1499.0,1480.0,0.0,0.0,0.0,0.0,0.0,0.0,0.0,0.0
1203521710,8,1472.0,1451.0,1459.0,1464.0,1490.0,1495.0,1503.0,1481.0,0.0,0.0,0.0,0.0,0.0,0.0,0.0,0.0
1203565825,8,1468.0,1444.0,1457.0,1463.0,1494.0,1497.0,1506.0,1479.0,0.0,0.0,0.0,0.0,0.0,0.0,0.0,0.0
1203605786,8,1468.0,1440.0,1453.0,1457.0,1491.0,1494.0,1506.0,1478.0,0.0,0.0,0.0,0.0,0.0,0.0,0.0,0.0
1203649703,8,1469.0,1442.0,1456.0,1458.0,1493.0,1493.0,1506.0,1477.0,0.0,0.0,0.0,0.0,0.0,0.0,0.0,0.0
1203689696,8,1475.0,1445.0,1457.0,1456.0,1490.0,1492.0,1508.0,1481.0,0.0,0.0,0.0,0.0,0.0,0.0,0.0,0.0
1203733721,8,1477.0,1446.0,1459.0,1453.0,1488.0,1487.0,1507.0,1479.0,0.0,0.0,0.0,0.0,0.0,0.0,0.0,0.0
1203773789,8,1478.0,1446.0,1461.0,1453.0,1488.0,1484.0,1506.0,1478.0,0.0,0.0,0.0,0.0,0.0,0.0,0.0,0.0
1203817706,8,1479.0,1446.0,1463.0,1452.0,1489.0,1482.0,1506.0,1476.0,0.0,0.0,0.0,0.0,0.0,0.0,0.0,0.0
1203857703,8,1481.0,1442.0,1462.0,1448.0,1490.0,1481.0,1509.0,1475.0,0.0,0.0,0.0,0.0,0.0,0.0,0.0,0.0
1203901797,8,1479.0,1439.0,1461.0,1447.0,1490.0,1480.0,1508.0,1473.0,0.0,0.0,0.0,0.0,0.0,0.0,0.0,0.0
1203941937,8,1481.0,1438.0,1463.0,1444.0,1490.0,1476.0,1507.0,1470.0,0.0,0.0,0.0,0.0,0.0,0.0,0.0,0.0
1203985698,8,1483.0,1439.0,1467.0,1444.0,1491.0,1473.0,1507.0,1467.0,0.0,0.0,0.0,0.0,0.0,0.0,0.0,0.0
1204025684,8,1481.0,1434.0,1464.0,1442.0,1493.0,1474.0,1510.0,1466.0,0.0,0.0,0.0,0.0,0.0,0.0,0.0,0.0
1204069792,8,1480.0,1436.0,1466.0,1445.0,1493.0,1475.0,1507.0,1466.0,0.0,0.0,0.0,0.0,0.0,0.0,0.0,0.0
1204109729,8,1481.0,1438.0,1469.0,1448.0,1495.0,1475.0,1507.0,1465.0,0.0,0.0,0.0,0.0,0.0,0.0,0.0,0.0
1204153713,8,1483.0,1436.0,1467.0,1445.0,1494.0,1475.0,1510.0,1467.0,0.0,0.0,0.0,0.0,0.0,0.0,0.0,0.0
1204193689,8,1484.0,1440.0,1468.0,1447.0,1494.0,1477.0,1510.0,1469.0,0.0,0.0,0.0,0.0,0.0,0.0,0.0,0.0
1204237824,8,1484.0,1433.0,1466.0,1442.0,1496.0,1475.0,1514.0,1467.0,0.0,0.0,0.0,0.0,0.0,0.0,0.0,0.0
1204277823,8,1482.0,1436.0,1465.0,1443.0,1492.0,1474.0,1509.0,1467.0,0.0,0.0,0.0,0.0,0.0,0.0,0.0,0.0
1204321697,8,1483.0,1437.0,1471.0,1445.0,1494.0,1470.0,1507.0,1462.0,0.0,0.0,0.0,0.0,0.0,0.0,0.0,0.0
1204361696,8,1484.0,1436.0,1470.0,1445.0,1496.0,1472.0,1510.0,1464.0,0.0,0.0,0.0,0.0,0.0,0.0,0.0,0.0
1204405808,8,1487.0,1440.0,1472.0,1444.0,1492.0,1468.0,1507.0,1465.0,0.0,0.0,0.0,0.0,0.0,0.0,0.0,0.0
1204445714,8,1487.0,1441.0,1477.0,1448.0,1497.0,1469.0,1507.0,1463.0,0.0,0.0,0.0,0.0,0.0,0.0,0.0,0.0
1204489708,8,1487.0,1437.0,1476.0,1444.0,1497.0,1467.0,1508.0,1459.0,0.0,0.0,0.0,0.0,0.0,0.0,0.0,0.0
1204529714,8,1485.0,1438.0,1479.0,1451.0,1502.0,1471.0,1508.0,1459.0,0.0,0.0,0.0,0.0,0.0,0.0,0.0,0.0
1204573817,8,1487.0,1438.0,1478.0,1448.0,1501.0,1470.0,1509.0,1460.0,0.0,0.0,0.0,0.0,0.0,0.0,0.0,0.0
1204613811,8,1484.0,1439.0,1478.0,1450.0,1500.0,1471.0,1507.0,1459.0,0.0,0.0,0.0,0.0,0.0,0.0,0.0,0.0
1204657688,8,1485.0,1441.0,1480.0,1452.0,1501.0,1470.0,1506.0,1459.0,0.0,0.0,0.0,0.0,0.0,0.0,0.0,0.0
1204697698,8,1484.0,1441.0,1477.0,1453.0,1501.0,1474.0,1508.0,1462.0,0.0,0.0,0.0,0.0,0.0,0.0,0.0,0.0
1204741819,8,1483.0,1442.0,1478.0,1455.0,1501.0,1474.0,1506.0,1461.0,0.0,0.0,0.0,0.0,0.0,0.0,0.0,0.0
1204781812,8,1484.0,1443.0,1478.0,1455.0,1502.0,1476.0,1508.0,1464.0,0.0,0.0,0.0,0.0,0.0,0.0,0.0,0.0
1204825690,8,1485.0,1439.0,1476.0,1451.0,1501.0,1474.0,1510.0,1463.0,0.0,0.0,0.0,0.0,0.0,0.0,0.0,0.0
1204865707,8,1484.0,1441.0,1479.0,1457.0,1507.0,1480.0,1511.0,1464.0,0.0,0.0,0.0,0.0,0.0,0.0,0.0,0.0
1204909828,8,1482.0,1439.0,1478.0,1456.0,1506.0,1478.0,1510.0,1462.0,0.0,0.0,0.0,0.0,0.0,0.0,0.0,0.0
1204949742,8,1479.0,1440.0,1476.0,1460.0,1507.0,1483.0,1509.0,1463.0,0.0,0.0,0.0,0.0,0.0,0.0,0.0,0.0
1204993692,8,1476.0,1442.0,1479.0,1465.0,1508.0,1484.0,1506.0,1461.0,0.0,0.0,0.0,0.0,0.0,0.0,0.0,0.0
1205033698,8,1473.0,1441.0,1474.0,1465.0,1508.0,1489.0,1507.0,1464.0,0.0,0.0,0.0,0.0,0.0,0.0,0.0,0.0
1205077832,8,1472.0,1443.0,1473.0,1468.0,1507.0,1491.0,1506.0,1466.0,0.0,0.0,0.0,0.0,0.0,0.0,0.0,0.0
1205117737,8,1471.0,1442.0,1470.0,1466.0,1505.0,1491.0,1506.0,1467.0,0.0,0.0,0.0,0.0,0.0,0.0,0.0,0.0
1205161706,8,1470.0,1440.0,1467.0,1463.0,1504.0,1492.0,1507.0,1468.0,0.0,0.0,0.0,0.0,0.0,0.0,0.0,0.0
1205201716,8,1472.0,1442.0,1469.0,1464.0,1502.0,1490.0,1505.0,1468.0,0.0,0.0,0.0,0.0,0.0,0.0,0.0,0.0
1205245846,8,1474.0,1443.0,1470.0,1464.0,1502.0,1489.0,1506.0,1469.0,0.0,0.0,0.0,0.0,0.0,0.0,0.0,0.0
1205285710,8,1474.0,1447.0,1471.0,1466.0,1500.0,1488.0,1503.0,1469.0,0.0,0.0,0.0,0.0,0.0,0.0,0.0,0.0
1205329714,8,1475.0,1452.0,1476.0,1469.0,1500.0,1485.0,1499.0,1468.0,0.0,0.0,0.0,0.0,0.0,0.0,0.0,0.0
1205369717,8,1476.0,1452.0,1475.0,1469.0,1500.0,1487.0,1501.0,1470.0,0.0,0.0,0.0,0.0,0.0,0.0,0.0,0.0
1205413686,8,1477.0,1453.0,1475.0,1469.0,1499.0,1487.0,1501.0,1471.0,0.0,0.0,0.0,0.0,0.0,0.0,0.0,0.0
1205453689,8,1476.0,1452.0,1474.0,1469.0,1499.0,1488.0,1502.0,1472.0,0.0,0.0,0.0,0.0,0.0,0.0,0.0,0.0
1205497712,8,1476.0,1450.0,1471.0,1466.0,1499.0,1490.0,1504.0,1474.0,0.0,0.0,0.0,0.0,0.0,0.0,0.0,0.0
1205537813,8,1479.0,1451.0,1473.0,1466.0,1499.0,1487.0,1504.0,1473.0,0.0,0.0,0.0,0.0,0.0,0.0,0.0,0.0
1205581688,8,1481.0,1449.0,1476.0,1463.0,1500.0,1484.0,1506.0,1470.0,0.0,0.0,0.0,0.0,0.0,0.0,0.0,0.0
1205621684,8,1481.0,1448.0,1476.0,1463.0,1502.0,1484.0,1506.0,1469.0,0.0,0.0,0.0,0.0,0.0,0.0,0.0,0.0
1205665700,8,1483.0,1450.0,1483.0,1465.0,1504.0,1480.0,1504.0,1465.0,0.0,0.0,0.0,0.0,0.0,0.0,0.0,0.0
1205705814,8,1485.0,1449.0,1483.0,1464.0,1506.0,1482.0,1508.0,1467.0,0.0,0.0,0.0,0.0,0.0,0.0,0.0,0.0
1205749683,8,1485.0,1450.0,1484.0,1465.0,1506.0,1481.0,1506.0,1466.0,0.0,0.0,0.0,0.0,0.0,0.0,0.0,0.0
1205789709,8,1488.0,1451.0,1485.0,1465.0,1508.0,1483.0,1510.0,1469.0,0.0,0.0,0.0,0.0,0.0,0.0,0.0,0.0
1205833709,8,1488.0,1447.0,1482.0,1460.0,1507.0,1482.0,1512.0,1468.0,0.0,0.0,0.0,0.0,0.0,0.0,0.0,0.0
1205873814,8,1487.0,1449.0,1483.0,1465.0,1510.0,1486.0,1514.0,1470.0,0.0,0.0,0.0,0.0,0.0,0.0,0.0,0.0
1205917695,8,1488.0,1447.0,1481.0,1460.0,1506.0,1483.0,1514.0,1470.0,0.0,0.0,0.0,0.0,0.0,0.0,0.0,0.0
1205957690,8,1485.0,1449.0,1481.0,1464.0,1506.0,1485.0,1511.0,1470.0,0.0,0.0,0.0,0.0,0.0,0.0,0.0,0.0
1206001825,8,1487.0,1453.0,1484.0,1465.0,1504.0,1481.0,1507.0,1469.0,0.0,0.0,0.0,0.0,0.0,0.0,0.0,0.0
1206041808,8,1489.0,1452.0,1483.0,1461.0,1501.0,1479.0,1508.0,1470.0,0.0,0.0,0.0,0.0,0.0,0.0,0.0,0.0
1206085700,8,1490.0,1455.0,1486.0,1463.0,1502.0,1478.0,1507.0,1469.0,0.0,0.0,0.0,0.0,0.0,0.0,0.0,0.0
1206125703,8,1490.0,1454.0,1483.0,1463.0,1502.0,1481.0,1509.0,1473.0,0.0,0.0,0.0,0.0,0.0,0.0,0.0,0.0
1206169722,8,1490.0,1451.0,1481.0,1458.0,1500.0,1479.0,1510.0,1472.0,0.0,0.0,0.0,0.0,0.0,0.0,0.0,0.0
1206209817,8,1491.0,1453.0,1480.0,1458.0,1499.0,1479.0,1510.0,1474.0,0.0,0.0,0.0,0.0,0.0,0.0,0.0,0.0
1206253696,8,1491.0,1452.0,1480.0,1456.0,1498.0,1477.0,1509.0,1472.0,0.0,0.0,0.0,0.0,0.0,0.0,0.0,0.0
1206293694,8,1494.0,1449.0,1479.0,1453.0,1499.0,1478.0,1514.0,1473.0,0.0,0.0,0.0,0.0,0.0,0.0,0.0,0.0
1206337798,8,1491.0,1453.0,1481.0,1458.0,1498.0,1477.0,1508.0,1472.0,0.0,0.0,0.0,0.0,0.0,0.0,0.0,0.0
1206381692,8,1492.0,1453.0,1482.0,1459.0,1501.0,1479.0,1510.0,1473.0,0.0,0.0,0.0,0.0,0.0,0.0,0.0,0.0
1206425729,8,1491.0,1451.0,1483.0,1459.0,1502.0,1478.0,1511.0,1471.0,0.0,0.0,0.0,0.0,0.0,0.0,0.0,0.0
1206465795,8,1491.0,1450.0,1481.0,1458.0,1502.0,1479.0,1511.0,1471.0,0.0,0.0,0.0,0.0,0.0,0.0,0.0,0.0
1206509724,8,1488.0,1454.0,1485.0,1464.0,1503.0,1479.0,1506.0,1469.0,0.0,0.0,0.0,0.0,0.0,0.0,0.0,0.0
1206549968,8,1490.0,1452.0,1482.0,1459.0,1500.0,1477.0,1508.0,1470.0,0.0,0.0,0.0,0.0,0.0,0.0,0.0,0.0
1206593785,8,1489.0,1452.0,1482.0,1461.0,1501.0,1479.0,1507.0,1470.0,0.0,0.0,0.0,0.0,0.0,0.0,0.0,0.0
1206633785,8,1487.0,1453.0,1482.0,1463.0,1501.0,1479.0,1505.0,1469.0,0.0,0.0,0.0,0.0,0.0,0.0,0.0,0.0
1206677709,8,1485.0,1448.0,1478.0,1459.0,1501.0,1481.0,1508.0,1470.0,0.0,0.0,0.0,0.0,0.0,0.0,0.0,0.0
1206717691,8,1485.0,1450.0,1479.0,1461.0,1501.0,1481.0,1507.0,1470.0,0.0,0.0,0.0,0.0,0.0,0.0,0.0,0.0
1206761800,8,1485.0,1450.0,1480.0,1461.0,1501.0,1480.0,1506.0,1469.0,0.0,0.0,0.0,0.0,0.0,0.0,0.0,0.0
1206801785,8,1483.0,1449.0,1478.0,1461.0,1500.0,1479.0,1504.0,1467.0,0.0,0.0,0.0,0.0,0.0,0.0,0.0,0.0
1206845688,8,1481.0,1452.0,1481.0,1466.0,1501.0,1480.0,1501.0,1466.0,0.0,0.0,0.0,0.0,0.0,0.0,0.0,0.0
1206885692,8,1481.0,1451.0,1479.0,1464.0,1499.0,1479.0,1500.0,1466.0,0.0,0.0,0.0,0.0,0.0,0.0,0.0,0.0
1206929836,8,1481.0,1452.0,1479.0,1465.0,1499.0,1480.0,1501.0,1467.0,0.0,0.0,0.0,0.0,0.0,0.0,0.0,0.0
1206969818,8,1482.0,1451.0,1477.0,1460.0,1495.0,1477.0,1500.0,1468.0,0.0,0.0,0.0,0.0,0.0,0.0,0.0,0.0
1207013697,8,1482.0,1451.0,1476.0,1458.0,1493.0,1475.0,1500.0,1468.0,0.0,0.0,0.0,0.0,0.0,0.0,0.0,0.0
1207053694,8,1486.0,1450.0,1474.0,1454.0,1491.0,1475.0,1504.0,1471.0,0.0,0.0,0.0,0.0,0.0,0.0,0.0,0.0
1207097827,8,1485.0,1447.0,1473.0,1452.0,1491.0,1473.0,1503.0,1468.0,0.0,0.0,0.0,0.0,0.0,0.0,0.0,0.0
1207137808,8,1485.0,1447.0,1474.0,1453.0,1494.0,1475.0,1505.0,1469.0,0.0,0.0,0.0,0.0,0.0,0.0,0.0,0.0
1207181698,8,1485.0,1448.0,1475.0,1453.0,1493.0,1474.0,1503.0,1468.0,0.0,0.0,0.0,0.0,0.0,0.0,0.0,0.0
1207221696,8,1486.0,1448.0,1476.0,1455.0,1495.0,1475.0,1505.0,1469.0,0.0,0.0,0.0,0.0,0.0,0.0,0.0,0.0
1207265823,8,1487.0,1450.0,1477.0,1455.0,1494.0,1474.0,1505.0,1469.0,0.0,0.0,0.0,0.0,0.0,0.0,0.0,0.0
1207305723,8,1489.0,1450.0,1479.0,1456.0,1496.0,1475.0,1506.0,1469.0,0.0,0.0,0.0,0.0,0.0,0.0,0.0,0.0
1207345813,8,1487.0,1449.0,1477.0,1454.0,1493.0,1472.0,1504.0,1468.0,0.0,0.0,0.0,0.0,0.0,0.0,0.0,0.0
1207389705,8,1488.0,1452.0,1479.0,1457.0,1495.0,1475.0,1504.0,1470.0,0.0,0.0,0.0,0.0,0.0,0.0,0.0,0.0
1207433746,8,1488.0,1450.0,1478.0,1455.0,1495.0,1474.0,1506.0,1470.0,0.0,0.0,0.0,0.0,0.0,0.0,0.0,0.0
1207473830,8,1487.0,1447.0,1475.0,1451.0,1493.0,1471.0,1504.0,1467.0,0.0,0.0,0.0,0.0,0.0,0.0,0.0,0.0
1207517726,8,1487.0,1446.0,1477.0,1451.0,1494.0,1471.0,1505.0,1466.0,0.0,0.0,0.0,0.0,0.0,0.0,0.0,0.0
1207557696,8,1489.0,1445.0,1475.0,1448.0,1493.0,1470.0,1507.0,1467.0,0.0,0.0,0.0,0.0,0.0,0.0,0.0,0.0
1207601724,8,1488.0,1446.0,1477.0,1450.0,1494.0,1470.0,1505.0,1466.0,0.0,0.0,0.0,0.0,0.0,0.0,0.0,0.0
1207642652,8,1490.0,1446.0,1478.0,1449.0,1495.0,1470.0,1507.0,1466.0,0.0,0.0,0.0,0.0,0.0,0.0,0.0,0.0
1207683517,8,1489.0,1445.0,1478.0,1450.0,1496.0,1471.0,1507.0,1466.0,0.0,0.0,0.0,0.0,0.0,0.0,0.0,0.0
1207727426,8,1490.0,1445.0,1478.0,1449.0,1495.0,1469.0,1506.0,1465.0,0.0,0.0,0.0,0.0,0.0,0.0,0.0,0.0
1207767413,8,1490.0,1446.0,1480.0,1452.0,1499.0,1472.0,1508.0,1466.0,0.0,0.0,0.0,0.0,0.0,0.0,0.0,0.0
1207811470,8,1490.0,1444.0,1480.0,1449.0,1497.0,1470.0,1508.0,1465.0,0.0,0.0,0.0,0.0,0.0,0.0,0.0,0.0
1207851435,8,1490.0,1445.0,1481.0,1450.0,1498.0,1469.0,1507.0,1463.0,0.0,0.0,0.0,0.0,0.0,0.0,0.0,0.0
1207895422,8,1491.0,1444.0,1483.0,1450.0,1499.0,1467.0,1507.0,1461.0,0.0,0.0,0.0,0.0,0.0,0.0,0.0,0.0
1207935436,8,1491.0,1439.0,1478.0,1444.0,1498.0,1468.0,1511.0,1463.0,0.0,0.0,0.0,0.0,0.0,0.0,0.0,0.0
1207979421,8,1490.0,1442.0,1479.0,1447.0,1497.0,1467.0,1507.0,1462.0,0.0,0.0,0.0,0.0,0.0,0.0,0.0,0.0
1208019419,8,1489.0,1442.0,1478.0,1447.0,1496.0,1467.0,1506.0,1462.0,0.0,0.0,0.0,0.0,0.0,0.0,0.0,0.0
1208063435,8,1490.0,1443.0,1480.0,1447.0,1497.0,1467.0,1507.0,1462.0,0.0,0.0,0.0,0.0,0.0,0.0,0.0,0.0
1208103423,8,1488.0,1442.0,1481.0,1449.0,1498.0,1466.0,1505.0,1460.0,0.0,0.0,0.0,0.0,0.0,0.0,0.0,0.0
1208147439,8,1489.0,1440.0,1480.0,1446.0,1498.0,1466.0,1508.0,1460.0,0.0,0.0,0.0,0.0,0.0,0.0,0.0,0.0
1208187410,8,1488.0,1441.0,1480.0,1448.0,1498.0,1466.0,1505.0,1459.0,0.0,0.0,0.0,0.0,0.0,0.0,0.0,0.0
1208231394,8,1486.0,1441.0,1481.0,1451.0,1499.0,1467.0,1505.0,1458.0,0.0,0.0,0.0,0.0,0.0,0.0,0.0,0.0
1208271414,8,1487.0,1439.0,1478.0,1445.0,1496.0,1464.0,1505.0,1458.0,0.0,0.0,0.0,0.0,0.0,0.0,0.0,0.0
1208315437,8,1486.0,1442.0,1482.0,1450.0,1499.0,1465.0,1503.0,1456.0,0.0,0.0,0.0,0.0,0.0,0.0,0.0,0.0
1208355459,8,1488.0,1440.0,1478.0,1446.0,1496.0,1465.0,1505.0,1459.0,0.0,0.0,0.0,0.0,0.0,0.0,0.0,0.0
1208399392,8,1486.0,1442.0,1479.0,1450.0,1497.0,1468.0,1504.0,1460.0,0.0,0.0,0.0,0.0,0.0,0.0,0.0,0.0
1208439392,8,1488.0,1443.0,1480.0,1450.0,1498.0,1468.0,1505.0,1461.0,0.0,0.0,0.0,0.0,0.0,0.0,0.0,0.0
1208483481,8,1484.0,1438.0,1476.0,1448.0,1499.0,1470.0,1507.0,1460.0,0.0,0.0,0.0,0.0,0.0,0.0,0.0,0.0
1208523464,8,1486.0,1440.0,1475.0,1447.0,1496.0,1470.0,1507.0,1463.0,0.0,0.0,0.0,0.0,0.0,0.0,0.0,0.0
1208567423,8,1487.0,1439.0,1476.0,1447.0,1497.0,1470.0,1508.0,1462.0,0.0,0.0,0.0,0.0,0.0,0.0,0.0,0.0
1208607420,8,1488.0,1438.0,1473.0,1443.0,1495.0,1468.0,1509.0,1464.0,0.0,0.0,0.0,0.0,0.0,0.0,0.0,0.0
1208651464,8,1485.0,1440.0,1476.0,1447.0,1496.0,1468.0,1505.0,1461.0,0.0,0.0,0.0,0.0,0.0,0.0,0.0,0.0
1208691468,8,1488.0,1439.0,1474.0,1444.0,1494.0,1468.0,1508.0,1464.0,0.0,0.0,0.0,0.0,0.0,0.0,0.0,0.0
1208735444,8,1487.0,1440.0,1474.0,1446.0,1494.0,1469.0,1507.0,1463.0,0.0,0.0,0.0,0.0,0.0,0.0,0.0,0.0
1208775416,8,1486.0,1440.0,1476.0,1447.0,1495.0,1468.0,1506.0,1462.0,0.0,0.0,0.0,0.0,0.0,0.0,0.0,0.0
1208819448,8,1486.0,1437.0,1473.0,1444.0,1496.0,1469.0,1508.0,1462.0,0.0,0.0,0.0,0.0,0.0,0.0,0.0,0.0
1208859457,8,1486.0,1439.0,1476.0,1446.0,1496.0,1468.0,1507.0,1461.0,0.0,0.0,0.0,0.0,0.0,0.0,0.0,0.0
1208903487,8,1485.0,1440.0,1475.0,1447.0,1496.0,1469.0,1506.0,1462.0,0.0,0.0,0.0,0.0,0.0,0.0,0.0,0.0
1208943461,8,1487.0,1440.0,1474.0,1444.0,1492.0,1466.0,1505.0,1462.0,0.0,0.0,0.0,0.0,0.0,0.0,0.0,0.0
1208987462,8,1487.0,1442.0,1477.0,1448.0,1495.0,1467.0,1504.0,1461.0,0.0,0.0,0.0,0.0,0.0,0.0,0.0,0.0
1209027471,8,1487.0,1440.0,1474.0,1444.0,1492.0,1466.0,1505.0,1462.0,0.0,0.0,0.0,0.0,0.0,0.0,0.0,0.0
1209071449,8,1486.0,1442.0,1476.0,1447.0,1493.0,1468.0,1504.0,1463.0,0.0,0.0,0.0,0.0,0.0,0.0,0.0,0.0
1209111515,8,1488.0,1440.0,1474.0,1443.0,1492.0,1466.0,1506.0,1463.0,0.0,0.0,0.0,0.0,0.0,0.0,0.0,0.0
1209155481,8,1489.0,1438.0,1472.0,1440.0,1491.0,1465.0,1508.0,1464.0,0.0,0.0,0.0,0.0,0.0,0.0,0.0,0.0
1209195448,8,1488.0,1441.0,1475.0,1444.0,1493.0,1466.0,1506.0,1463.0,0.0,0.0,0.0,0.0,0.0,0.0,0.0,0.0
1209239453,8,1486.0,1439.0,1473.0,1444.0,1494.0,1469.0,1508.0,1463.0,0.0,0.0,0.0,0.0,0.0,0.0,0.0,0.0
1209279466,8,1488.0,1438.0,1472.0,1441.0,1493.0,1466.0,1508.0,1463.0,0.0,0.0,0.0,0.0,0.0,0.0,0.0,0.0
1209323502,8,1485.0,1439.0,1476.0,1448.0,1497.0,1469.0,1507.0,1461.0,0.0,0.0,0.0,0.0,0.0,0.0,0.0,0.0
1209363496,8,1484.0,1436.0,1471.0,1442.0,1492.0,1466.0,1505.0,1461.0,0.0,0.0,0.0,0.0,0.0,0.0,0.0,0.0
1209407471,8,1485.0,1438.0,1474.0,1445.0,1495.0,1468.0,1507.0,1461.0,0.0,0.0,0.0,0.0,0.0,0.0,0.0,0.0
1209447464,8,1486.0,1438.0,1470.0,1440.0,1490.0,1466.0,1505.0,1463.0,0.0,0.0,0.0,0.0,0.0,0.0,0.0,0.0
1209491488,8,1487.0,1436.0,1470.0,1439.0,1491.0,1465.0,1507.0,1462.0,0.0,0.0,0.0,0.0,0.0,0.0,0.0,0.0
1209531476,8,1487.0,1435.0,1472.0,1440.0,1494.0,1466.0,1509.0,1461.0,0.0,0.0,0.0,0.0,0.0,0.0,0.0,0.0
1209575463,8,1485.0,1436.0,1471.0,1442.0,1493.0,1467.0,1507.0,1462.0,0.0,0.0,0.0,0.0,0.0,0.0,0.0,0.0
1209615440,8,1490.0,1440.0,1476.0,1442.0,1493.0,1463.0,1507.0,1461.0,0.0,0.0,0.0,0.0,0.0,0.0,0.0,0.0
1209659469,8,1487.0,1442.0,1477.0,1447.0,1494.0,1467.0,1504.0,1462.0,0.0,0.0,0.0,0.0,0.0,0.0,0.0,0.0
