timestamp,baro_alt_meter,baro_temp_celcius,baro_pressure_pa,rho
1184860423,46.1349,48.6,100772.09,1.1973392
1184871655,45.63286,48.6,100778.09,1.1974105
1184885115,46.385918,48.6,100769.09,1.1973035
1184908867,45.799324,48.61,100776.09,1.1973867
1184920591,45.968433,48.61,100774.086,1.1973629
1184935181,46.050346,48.61,100773.09,1.1973511
1184960504,45.968433,48.61,100774.086,1.1973629
1184972902,45.299927,48.61,100782.09,1.197458
1184984739,46.1349,48.61,100772.09,1.1973392
1185008707,45.799324,48.6,100776.09,1.1973867
1185021997,45.968433,48.6,100774.086,1.1973629
1185036008,46.050346,48.6,100773.09,1.1973511
1185061231,45.968433,48.61,100774.086,1.1973629
1185072794,45.799324,48.61,100776.09,1.1973867
1185087463,45.88388,48.61,100775.086,1.1973747
1185112592,45.799324,48.6,100776.09,1.1973867
1185124726,46.1349,48.6,100772.09,1.1973392
1185136589,45.968433,48.6,100774.086,1.1973629
1185160789,46.1349,48.61,100772.09,1.1973392
1185172893,45.63286,48.61,100778.09,1.1974105
1185184602,45.71741,48.61,100777.09,1.1973985
1185208774,45.71741,48.6,100777.09,1.1973985
1185221981,45.38184,48.6,100781.086,1.197446
1185232480,45.38184,48.6,100781.086,1.197446
1185256603,45.799324,48.61,100776.09,1.1973867
1185268992,45.71741,48.61,100777.09,1.1973985
1185280831,45.466393,48.61,100780.09,1.1974342
1185304724,45.968433,48.61,100774.086,1.1973629
1185317293,45.548306,48.61,100779.09,1.1974224
1185328789,46.050346,48.61,100773.09,1.1973511
1185356816,46.050346,48.6,100773.09,1.1973511
1185368599,45.63286,48.6,100778.09,1.1974105
1185380750,46.050346,48.6,100773.09,1.1973511
1185404613,45.88388,48.61,100775.086,1.1973747
1185416789,45.799324,48.61,100776.09,1.1973867
1185428858,45.88388,48.61,100775.086,1.1973747
1185453013,46.21945,48.61,100771.09,1.1973273
1185464601,45.968433,48.61,100774.086,1.1973629
1185476814,45.63286,48.61,100778.09,1.1974105
1185501073,45.968433,48.61,100774.086,1.1973629
1185512486,45.63286,48.61,100778.09,1.1974105
1185524644,45.968433,48.61,100774.086,1.1973629
1185551316,45.799324,48.61,100776.09,1.1973867
1185565385,45.968433,48.61,100774.086,1.1973629
1185576746,45.71741,48.61,100777.09,1.1973985
1185600630,45.968433,48.61,100774.086,1.1973629
1185614007,45.63286,48.61,100778.09,1.1974105
1185626169,45.799324,48.61,100776.09,1.1973867
1185654339,45.63286,48.61,100778.09,1.1974105
1185666011,45.968433,48.61,100774.086,1.1973629
1185678398,46.301365,48.61,100770.09,1.1973155
1185702310,45.88388,48.6,100775.086,1.1973747
1185713842,45.799324,48.6,100776.09,1.1973867
1185726643,45.88388,48.6,100775.086,1.1973747
1185753123,45.71741,48.61,100777.09,1.1973985
1185766666,45.968433,48.61,100774.086,1.1973629
1185778724,46.050346,48.61,100773.09,1.1973511
1185801953,45.548306,48.6,100779.09,1.1974224
1185814446,45.88388,48.6,100775.086,1.1973747
1185825981,46.1349,48.6,100772.09,1.1973392
1185850688,45.88388,48.6,100775.086,1.1973747
1185862794,45.799324,48.6,100776.09,1.1973867
1185874757,46.301365,48.6,100770.09,1.1973155
1185898853,46.718853,48.61,100765.09,1.197256
1185910848,46.552387,48.61,100767.09,1.1972798
1185921954,46.718853,48.61,100765.09,1.197256
1185949416,46.301365,48.61,100770.09,1.1973155
1185961342,46.1349,48.61,100772.09,1.1973392
1185973653,46.803406,48.61,100764.09,1.1972442
1185998792,48.058506,48.6,100749.086,1.1970658
1186009968,47.05443,48.6,100761.09,1.1972085
1186022390,46.88796,48.6,100763.09,1.1972322
1186046301,46.803406,48.61,100764.09,1.1972442
1186058056,47.05443,48.61,100761.09,1.1972085
1186070761,46.63694,48.61,100766.09,1.1972679
1186094743,46.718853,48.61,100765.09,1.197256
1186106046,46.385918,48.61,100769.09,1.1973035
1186118516,46.63694,48.61,100766.09,1.1972679
1186142650,45.799324,48.6,100776.09,1.1973867
1186154056,46.1349,48.6,100772.09,1.1973392
1186166863,45.968433,48.6,100774.086,1.1973629
1186190646,45.63286,48.61,100778.09,1.1974105
1186202653,45.130817,48.61,100784.09,1.1974818
1186214762,44.797886,48.61,100788.09,1.1975293
1186238756,46.803406,48.61,100764.09,1.1972442
1186250371,46.972515,48.61,100762.086,1.1972203
1186262608,46.63694,48.61,100766.09,1.1972679
1186288860,46.972515,48.61,100762.086,1.1972203
1186302473,47.05443,48.61,100761.09,1.1972085
1186314661,47.474556,48.61,100756.086,1.1971489
1186338052,47.807487,48.61,100752.09,1.1971016
1186350838,47.220894,48.61,100759.09,1.1971847
1186362673,47.722935,48.61,100753.09,1.1971134
1186386731,47.39,48.61,100757.09,1.197161
1186398767,47.39,48.61,100757.09,1.197161
1186410793,47.39,48.61,100757.09,1.197161
1186434729,46.718853,48.61,100765.09,1.197256
1186446648,47.05443,48.61,100761.09,1.1972085
1186458764,47.305447,48.61,100758.09,1.1971729
1186482660,47.474556,48.61,100756.086,1.1971489
1186494877,47.305447,48.61,100758.09,1.1971729
1186505966,47.13898,48.61,100760.09,1.1971966
1186530661,47.39,48.61,100757.09,1.197161
1186542847,47.64102,48.61,100754.09,1.1971253
1186554753,47.05443,48.61,100761.09,1.1972085
1186578715,47.05443,48.61,100761.09,1.1972085
1186593130,47.05443,48.61,100761.09,1.1972085
1186605264,47.474556,48.61,100756.086,1.1971489
1186630364,47.64102,48.61,100754.09,1.1971253
1186641926,47.39,48.61,100757.09,1.197161
1186654603,47.89204,48.61,100751.09,1.1970897
1186678655,47.220894,48.61,100759.09,1.1971847
1186690682,47.220894,48.61,100759.09,1.1971847
1186702771,47.220894,48.61,100759.09,1.1971847
1186726766,47.220894,48.61,100759.09,1.1971847
1186738833,47.05443,48.61,100761.09,1.1972085
1186750757,46.88796,48.61,100763.09,1.1972322
1186774675,46.803406,48.61,100764.09,1.1972442
1186786736,46.972515,48.61,100762.086,1.1972203
1186798331,46.63694,48.61,100766.09,1.1972679
1186822355,47.474556,48.61,100756.086,1.1971489
1186834013,46.972515,48.61,100762.086,1.1972203
1186846332,46.972515,48.61,100762.086,1.1972203
1186870443,47.474556,48.61,100756.086,1.1971489
1186882708,46.63694,48.61,100766.09,1.1972679
1186894704,46.972515,48.61,100762.086,1.1972203
1186918764,46.718853,48.61,100765.09,1.197256
1186930705,46.552387,48.61,100767.09,1.1972798
1186942771,46.63694,48.61,100766.09,1.1972679
1186966701,47.13898,48.61,100760.09,1.1971966
1186978863,46.385918,48.61,100769.09,1.1973035
1186990423,46.803406,48.61,100764.09,1.1972442
1187014427,47.220894,48.61,100759.09,1.1971847
1187025982,47.220894,48.61,100759.09,1.1971847
1187038507,46.803406,48.61,100764.09,1.1972442
1187062758,46.803406,48.61,100764.09,1.1972442
1187074747,46.718853,48.61,100765.09,1.197256
1187086737,47.13898,48.61,100760.09,1.1971966
1187110411,46.972515,48.61,100762.086,1.1972203
1187122153,47.05443,48.61,100761.09,1.1972085
1187136788,46.803406,48.61,100764.09,1.1972442
1187161893,46.88796,48.61,100763.09,1.1972322
1187174684,46.972515,48.61,100762.086,1.1972203
1187185973,46.972515,48.61,100762.086,1.1972203
1187210402,46.972515,48.61,100762.086,1.1972203
1187222483,46.972515,48.61,100762.086,1.1972203
1187234722,46.803406,48.61,100764.09,1.1972442
1187258177,47.305447,48.61,100758.09,1.1971729
1187270812,47.474556,48.61,100756.086,1.1971489
1187282639,46.972515,48.61,100762.086,1.1972203
1187309378,47.39,48.61,100757.09,1.197161
1187321027,46.88796,48.61,100763.09,1.1972322
1187336921,47.220894,48.61,100759.09,1.1971847
1187362124,47.05443,48.61,100761.09,1.1972085
1187374339,47.39,48.61,100757.09,1.197161
1187385992,47.13898,48.61,100760.09,1.1971966
1187410084,47.05443,48.61,100761.09,1.1972085
1187422227,47.220894,48.61,100759.09,1.1971847
1187433946,47.220894,48.61,100759.09,1.1971847
1187457999,46.552387,48.61,100767.09,1.1972798
1187470505,47.39,48.61,100757.09,1.197161
1187482250,47.220894,48.61,100759.09,1.1971847
1187506756,47.474556,48.61,100756.086,1.1971489
1187518759,47.39,48.61,100757.09,1.197161
1187529965,47.474556,48.61,100756.086,1.1971489
1187553925,47.220894,48.61,100759.09,1.1971847
1187566678,47.64102,48.61,100754.09,1.1971253
1187578150,47.64102,48.61,100754.09,1.1971253
1187601978,46.88796,48.61,100763.09,1.1972322
1187614644,47.39,48.61,100757.09,1.197161
1187626856,47.39,48.61,100757.09,1.197161
1187650043,46.803406,48.61,100764.09,1.1972442
1187662499,47.474556,48.61,100756.086,1.1971489
1187674786,47.305447,48.61,100758.09,1.1971729
1187697979,47.39,48.61,100757.09,1.197161
1187710861,47.39,48.61,100757.09,1.197161
1187722776,47.220894,48.61,100759.09,1.1971847
1187746848,47.64102,48.61,100754.09,1.1971253
1187758480,47.305447,48.61,100758.09,1.1971729
1187769981,47.474556,48.61,100756.086,1.1971489
1187794019,47.556465,48.61,100755.09,1.1971372
1187806481,47.220894,48.61,100759.09,1.1971847
1187818736,47.474556,48.61,100756.086,1.1971489
1187842756,47.722935,48.61,100753.09,1.1971134
1187854821,47.305447,48.61,100758.09,1.1971729
1187866785,46.972515,48.61,100762.086,1.1972203
1187890806,47.39,48.62,100757.086,1.1971608
1187902850,47.305447,48.62,100758.086,1.1971728
1187914732,47.474556,48.62,100756.08,1.1971489
1187938696,47.474556,48.61,100756.086,1.1971489
1187950880,47.474556,48.61,100756.086,1.1971489
1187961968,47.807487,48.61,100752.09,1.1971016
1187986742,47.556465,48.62,100755.086,1.1971371
1187998843,47.556465,48.62,100755.086,1.1971371
1188010088,47.64102,48.62,100754.086,1.1971252
1188033968,47.474556,48.61,100756.086,1.1971489
1188046453,47.973953,48.61,100750.086,1.1970776
1188057974,47.973953,48.61,100750.086,1.1970776
1188082203,47.13898,48.61,100760.09,1.1971966
1188094855,47.807487,48.61,100752.09,1.1971016
1188106749,47.807487,48.61,100752.09,1.1971016
1188130651,47.722935,48.61,100753.09,1.1971134
1188142871,47.807487,48.61,100752.09,1.1971016
1188153920,48.39144,48.61,100745.09,1.1970184
1188178743,47.556465,48.62,100755.086,1.1971371
1188192822,47.807487,48.62,100752.086,1.1971015
1188205274,47.556465,48.62,100755.086,1.1971371
1188230379,47.722935,48.61,100753.09,1.1971134
1188241842,48.058506,48.61,100749.086,1.1970658
1188254651,47.722935,48.61,100753.09,1.1971134
1188278645,47.807487,48.61,100752.09,1.1971016
1188290054,47.474556,48.61,100756.086,1.1971489
1188302625,47.807487,48.61,100752.09,1.1971016
1188326647,47.64102,48.61,100754.09,1.1971253
1188338653,48.143063,48.61,100748.09,1.197054
1188350762,47.807487,48.61,100752.09,1.1971016
1188374824,47.89204,48.61,100751.09,1.1970897
1188386767,48.058506,48.61,100749.086,1.1970658
1188398649,48.143063,48.61,100748.09,1.197054
1188422507,47.807487,48.62,100752.086,1.1971015
1188433999,47.556465,48.62,100755.086,1.1971371
1188446647,47.807487,48.62,100752.086,1.1971015
1188470739,47.973953,48.61,100750.086,1.1970776
1188482747,48.224976,48.61,100747.09,1.1970421
1188494763,47.89204,48.61,100751.09,1.1970897
1188518515,48.645103,48.62,100742.086,1.1969826
1188530743,48.143063,48.62,100748.086,1.1970539
1188545104,47.807487,48.62,100752.086,1.1971015
1188570158,47.973953,48.61,100750.086,1.1970776
1188582853,48.39144,48.61,100745.09,1.1970184
1188594737,48.143063,48.61,100748.09,1.197054
1188618735,48.058506,48.61,100749.086,1.1970658
1188630805,48.81157,48.61,100740.09,1.196959
1188642643,48.058506,48.61,100749.086,1.1970658
1188666824,48.39144,48.61,100745.09,1.1970184
1188678812,48.143063,48.61,100748.09,1.197054
1188690061,48.727016,48.61,100741.09,1.1969708
1188714752,48.143063,48.62,100748.086,1.1970539
1188728913,47.64102,48.62,100754.086,1.1971252
1188742363,48.058506,48.62,100749.08,1.1970657
1188766335,48.143063,48.61,100748.09,1.197054
1188777851,48.058506,48.61,100749.086,1.1970658
1188790758,48.39144,48.61,100745.09,1.1970184
1188814225,48.39144,48.61,100745.09,1.1970184
1188825874,47.973953,48.61,100750.086,1.1970776
1188838048,48.475994,48.61,100744.09,1.1970065
1188863041,48.30953,48.61,100746.09,1.1970303
1188874766,48.30953,48.61,100746.09,1.1970303
1188889101,48.560547,48.61,100743.086,1.1969945
1188913974,48.39144,48.61,100745.09,1.1970184
1188926467,48.058506,48.61,100749.086,1.1970658
1188938769,48.058506,48.61,100749.086,1.1970658
1188962730,48.30953,48.61,100746.09,1.1970303
1188976799,48.475994,48.61,100744.09,1.1970065
1188989274,48.645103,48.61,100742.09,1.1969827
1189013564,47.807487,48.61,100752.09,1.1971016
1189025880,48.560547,48.61,100743.086,1.1969945
1189038462,49.1445,48.61,100736.09,1.1969115
1189062706,48.560547,48.61,100743.086,1.1969945
1189074058,48.475994,48.61,100744.09,1.1970065
1189086454,48.224976,48.61,100747.09,1.1970421
1189110449,47.64102,48.61,100754.09,1.1971253
1189121870,48.143063,48.61,100748.09,1.197054
1189136825,48.727016,48.61,100741.09,1.1969708
1189161968,48.560547,48.62,100743.08,1.1969944
1189174905,48.224976,48.62,100747.086,1.197042
1189186837,48.727016,48.62,100741.086,1.1969707
1189209998,48.645103,48.61,100742.09,1.1969827
1189222774,48.143063,48.61,100748.09,1.197054
1189234788,48.978035,48.61,100738.09,1.1969352
1189258762,47.89204,48.61,100751.09,1.1970897
1189270793,48.645103,48.61,100742.09,1.1969827
1189282772,48.39144,48.61,100745.09,1.1970184
1189306758,48.560547,48.61,100743.086,1.1969945
1189318465,48.39144,48.61,100745.09,1.1970184
1189330088,49.062588,48.61,100737.086,1.1969233
1189354888,48.224976,48.61,100747.09,1.1970421
1189366750,48.727016,48.61,100741.09,1.1969708
1189378777,49.229053,48.61,100735.09,1.1968995
1189401836,48.560547,48.62,100743.08,1.1969944
1189414514,48.30953,48.62,100746.086,1.1970302
1189426815,48.978035,48.62,100738.086,1.196935
1189450733,48.475994,48.61,100744.09,1.1970065
1189465150,48.893482,48.61,100739.09,1.1969471
1189477413,48.058506,48.61,100749.086,1.1970658
1189502228,48.978035,48.61,100738.09,1.1969352
1189513999,48.81157,48.61,100740.09,1.196959
1189526798,48.81157,48.61,100740.09,1.196959
1189550750,48.645103,48.61,100742.09,1.1969827
1189562760,48.81157,48.61,100740.09,1.196959
1189574821,48.560547,48.61,100743.086,1.1969945
1189598669,48.81157,48.61,100740.09,1.196959
1189610754,48.727016,48.61,100741.09,1.1969708
1189622455,48.727016,48.61,100741.09,1.1969708
1189646650,48.896122,48.62,100739.086,1.196947
1189658040,48.560547,48.62,100743.08,1.1969944
1189670621,49.147144,48.62,100736.086,1.1969113
1189694417,49.229053,48.62,100735.086,1.1968994
1189705966,48.978035,48.62,100738.086,1.196935
1189718590,48.727016,48.62,100741.086,1.1969707
1189742738,48.727016,48.62,100741.086,1.1969707
1189754189,48.727016,48.62,100741.086,1.1969707
1189766419,48.896122,48.62,100739.086,1.196947
1189790167,49.062588,48.61,100737.086,1.1969233
1189801956,49.395523,48.61,100733.09,1.1968758
1189814643,49.480076,48.61,100732.09,1.1968639
1189838322,49.062588,48.61,100737.086,1.1969233
1189850098,49.395523,48.61,100733.09,1.1968758
1189862700,49.229053,48.61,100735.09,1.1968995
1189887020,48.896122,48.62,100739.086,1.196947
1189897953,48.978035,48.62,100738.086,1.196935
1189910683,48.475994,48.62,100744.086,1.1970063
1189937038,48.81157,48.62,100740.086,1.1969589
1189949932,48.81157,48.62,100740.086,1.1969589
1189961951,48.560547,48.62,100743.08,1.1969944
1189989250,48.896122,48.62,100739.086,1.196947
1190001968,49.480076,48.62,100732.086,1.1968638
1190014330,49.398163,48.62,100733.086,1.1968757
1190038654,49.395523,48.61,100733.09,1.1968758
1190051779,49.480076,48.61,100732.09,1.1968639
1190063659,49.64654,48.61,100730.09,1.1968402
1190087562,49.56463,48.61,100731.086,1.196852
1190100237,49.897564,48.61,100727.09,1.1968045
1190111685,49.395523,48.61,100733.09,1.1968758
1190135686,49.56463,48.61,100731.086,1.196852
1190148551,49.229053,48.61,100735.09,1.1968995
1190159742,49.395523,48.61,100733.09,1.1968758
1190183676,49.480076,48.61,100732.09,1.1968639
1190196051,48.978035,48.61,100738.09,1.1969352
1190207649,48.727016,48.61,100741.09,1.1969708
1190231678,49.731094,48.62,100729.086,1.1968281
1190244070,49.398163,48.62,100733.086,1.1968757
1190255645,49.062588,48.62,100737.08,1.1969231
1190279677,49.731094,48.61,100729.09,1.1968282
1190292062,49.31361,48.61,100734.09,1.1968877
1190303692,48.978035,48.61,100738.09,1.1969352
1190327771,49.398163,48.62,100733.086,1.1968757
1190342703,49.31361,48.62,100734.086,1.1968876
1190356372,48.978035,48.62,100738.086,1.196935
1190379965,49.56463,48.61,100731.086,1.196852
1190391797,49.480076,48.61,100732.09,1.1968639
1190404017,49.897564,48.61,100727.09,1.1968045
1190427935,49.649185,48.62,100730.086,1.19684
1190439657,49.398163,48.62,100733.086,1.1968757
1190452013,49.062588,48.62,100737.08,1.1969231
1190476274,49.31361,48.61,100734.09,1.1968877
1190487664,49.897564,48.61,100727.09,1.1968045
1190500459,49.56463,48.61,100731.086,1.196852
1190524130,49.480076,48.61,100732.09,1.1968639
1190535734,49.81565,48.61,100728.09,1.1968163
1190550177,49.897564,48.61,100727.09,1.1968045
1190574672,50.31769,48.61,100722.09,1.196745
1190587545,49.31361,48.61,100734.09,1.1968877
1190599742,49.81565,48.61,100728.09,1.1968163
1190623419,49.31361,48.62,100734.086,1.1968876
1190636477,49.56463,48.62,100731.08,1.1968518
1190647673,49.900204,48.62,100727.086,1.1968044
1190671656,49.731094,48.62,100729.086,1.1968281
1190684399,49.147144,48.62,100736.086,1.1969113
1190696127,49.731094,48.62,100729.086,1.1968281
1190719804,49.229053,48.61,100735.09,1.1968995
1190732114,50.151226,48.61,100724.086,1.1967688
1190743663,49.731094,48.61,100729.09,1.1968282
1190769173,49.649185,48.62,100730.086,1.19684
1190780609,49.56463,48.62,100731.08,1.1968518
1190792587,50.151226,48.62,100724.08,1.1967686
1190818838,50.151226,48.61,100724.086,1.1967688
1190831628,49.731094,48.61,100729.09,1.1968282
1190843795,49.731094,48.61,100729.09,1.1968282
1190867956,49.147144,48.62,100736.086,1.1969113
1190879615,50.233135,48.62,100723.086,1.1967568
1190894480,49.398163,48.62,100733.086,1.1968757
1190919578,49.897564,48.61,100727.09,1.1968045
1190934740,50.56607,48.61,100719.09,1.1967094
1190947419,50.484158,48.61,100720.09,1.1967213
1190972510,50.233135,48.61,100723.09,1.196757
1190983650,50.06667,48.61,100725.086,1.1967807
1190996056,50.06667,48.61,100725.086,1.1967807
1191019925,49.982117,48.61,100726.09,1.1967926
1191031641,50.233135,48.61,100723.09,1.196757
1191043936,49.897564,48.61,100727.09,1.1968045
1191068357,50.484158,48.61,100720.09,1.1967213
1191079776,49.56463,48.61,100731.086,1.196852
1191092016,50.3996,48.61,100721.09,1.1967332
1191116288,50.151226,48.61,100724.086,1.1967688
1191127718,50.31769,48.61,100722.09,1.196745
1191142712,49.81565,48.61,100728.09,1.1968163
1191167725,49.395523,48.61,100733.09,1.1968758
1191180381,50.233135,48.61,100723.09,1.196757
1191191815,50.3996,48.61,100721.09,1.1967332
1191215682,50.31769,48.62,100722.086,1.196745
1191228434,50.151226,48.62,100724.08,1.1967686
1191239649,50.56871,48.62,100719.086,1.1967094
1191263716,50.31769,48.61,100722.09,1.196745
1191278762,50.3996,48.61,100721.09,1.1967332
1191292043,50.31769,48.61,100722.09,1.196745
1191316015,49.982117,48.61,100726.09,1.1967926
1191327788,49.81565,48.61,100728.09,1.1968163
1191340242,50.650623,48.61,100718.086,1.1966975
1191364365,50.484158,48.61,100720.09,1.1967213
1191375680,49.81565,48.61,100728.09,1.1968163
1191387933,50.31769,48.61,100722.09,1.196745
1191411967,50.06667,48.61,100725.086,1.1967807
1191423708,50.650623,48.61,100718.086,1.1966975
1191435947,50.3996,48.61,100721.09,1.1967332
1191462399,50.650623,48.61,100718.086,1.1966975
1191475302,50.233135,48.61,100723.09,1.196757
1191486680,49.64654,48.61,100730.09,1.1968402
1191511713,51.155308,48.62,100712.08,1.1966261
1191526652,49.900204,48.62,100727.086,1.1968044
1191540052,50.402245,48.62,100721.086,1.1967331
1191563928,50.233135,48.61,100723.09,1.196757
1191575731,50.56607,48.61,100719.09,1.1967094
1191587946,50.484158,48.61,100720.09,1.1967213
1191612143,50.9862,48.61,100714.09,1.19665
1191623671,50.650623,48.61,100718.086,1.1966975
1191635923,49.731094,48.61,100729.09,1.1968282
1191660442,50.735176,48.61,100717.09,1.1966857
1191671651,50.31769,48.61,100722.09,1.196745
1191684274,50.31769,48.61,100722.09,1.196745
1191708163,50.650623,48.61,100718.086,1.1966975
1191719746,50.90164,48.61,100715.09,1.196662
1191732244,51.237217,48.61,100711.09,1.1966144
1191755985,50.650623,48.61,100718.086,1.1966975
1191767651,50.56607,48.61,100719.09,1.1967094
1191780053,50.90164,48.61,100715.09,1.196662
1191804033,50.3996,48.61,100721.09,1.1967332
1191815636,50.650623,48.61,100718.086,1.1966975
1191827713,50.9862,48.61,100714.09,1.19665
1191852042,50.819733,48.62,100716.086,1.1966738
1191863721,50.9862,48.62,100714.086,1.1966499
1191876491,50.484158,48.62,100720.086,1.1967212
1191901163,50.484158,48.61,100720.09,1.1967213
1191911688,51.07075,48.61,100713.09,1.1966381
1191926438,50.819733,48.61,100716.09,1.1966738
1191951597,51.07075,48.61,100713.09,1.1966381
1191964227,50.90164,48.61,100715.09,1.196662
1191975690,50.56607,48.61,100719.09,1.1967094
1191999666,50.653267,48.62,100718.08,1.1966974
1192012252,50.735176,48.62,100717.086,1.1966856
1192023655,50.904285,48.62,100715.086,1.1966618
1192047677,51.403683,48.61,100709.09,1.1965907
1192062503,51.48824,48.61,100708.09,1.1965787
1192075239,51.237217,48.61,100711.09,1.1966144
1192100365,50.735176,48.61,100717.09,1.1966857
1192111708,51.07075,48.61,100713.09,1.1966381
1192126437,50.819733,48.61,100716.09,1.1966738
1192151616,50.9862,48.61,100714.09,1.19665
1192163772,51.321774,48.61,100710.09,1.1966025
1192175755,51.321774,48.61,100710.09,1.1966025
1192199648,50.904285,48.62,100715.086,1.1966618
1192211808,51.155308,48.62,100712.08,1.1966261
1192223646,50.653267,48.62,100718.08,1.1966974
1192247649,51.48824,48.61,100708.09,1.1965787
1192260256,50.735176,48.61,100717.09,1.1966857
1192271632,51.07075,48.61,100713.09,1.1966381
1192295667,50.9862,48.61,100714.09,1.19665
1192308057,51.321774,48.61,100710.09,1.1966025
1192319690,51.07075,48.61,100713.09,1.1966381
1192348222,51.321774,48.62,100710.086,1.1966025
1192359704,51.406326,48.62,100709.086,1.1965905
1192372338,50.9862,48.62,100714.086,1.1966499
1192396274,51.321774,48.61,100710.09,1.1966025
1192407717,51.48824,48.61,100708.09,1.1965787
1192420282,50.735176,48.61,100717.09,1.1966857
1192443983,51.237217,48.62,100711.086,1.1966143
1192455715,51.406326,48.62,100709.086,1.1965905
1192468011,50.904285,48.62,100715.086,1.1966618
1192492015,50.735176,48.61,100717.09,1.1966857
1192503723,51.654705,48.61,100706.086,1.1965549
1192516094,51.152664,48.61,100712.086,1.1966262
1192540018,51.48824,48.62,100708.086,1.1965786
1192551672,50.9862,48.62,100714.086,1.1966499
1192563941,51.237217,48.62,100711.086,1.1966143
1192588159,51.155308,48.62,100712.08,1.1966261
1192599677,51.823814,48.62,100704.086,1.1965312
1192613224,51.406326,48.62,100709.086,1.1965905
1192636221,51.155308,48.62,100712.08,1.1966261
1192647735,51.07075,48.62,100713.086,1.1966381
1192660358,51.237217,48.62,100711.086,1.1966143
1192684097,51.07075,48.62,100713.086,1.1966381
1192696059,51.406326,48.62,100709.086,1.1965905
1192708091,51.572792,48.62,100707.086,1.1965668
1192732297,51.739258,48.62,100705.086,1.196543
1192743677,51.65735,48.62,100706.08,1.1965548
1192755810,51.65735,48.62,100706.08,1.1965548
1192779928,51.739258,48.62,100705.086,1.196543
1192791774,51.48824,48.62,100708.086,1.1965786
1192804032,52.074833,48.62,100701.086,1.1964955
1192827789,51.65735,48.62,100706.08,1.1965548
1192839647,51.155308,48.62,100712.08,1.1966261
1192851992,51.739258,48.62,100705.086,1.196543
1192876134,51.48824,48.62,100708.086,1.1965786
1192887810,51.65735,48.62,100706.08,1.1965548
1192902181,51.572792,48.62,100707.086,1.1965668
1192927446,51.572792,48.62,100707.086,1.1965668
1192942761,51.406326,48.62,100709.086,1.1965905
1192954986,51.905724,48.62,100703.086,1.1965193
1192979975,51.321774,48.62,100710.086,1.1966025
1192991623,51.65735,48.62,100706.08,1.1965548
1193003919,52.15939,48.62,100700.08,1.1964835
1193027810,51.654705,48.61,100706.086,1.1965549
1193039656,52.2413,48.61,100699.086,1.1964717
1193052165,51.99028,48.61,100702.09,1.1965075
1193076012,51.654705,48.61,100706.086,1.1965549
1193087670,51.905724,48.61,100703.09,1.1965194
1193099936,51.321774,48.61,100710.09,1.1966025
1193124251,52.407764,48.61,100697.09,1.1964481
1193135672,51.48824,48.61,100708.09,1.1965787
1193150451,51.321774,48.61,100710.09,1.1966025
1193175573,51.654705,48.61,100706.086,1.1965549
1193188162,51.48824,48.61,100708.09,1.1965787
1193199698,52.49232,48.61,100696.09,1.1964362
1193226970,51.82117,48.61,100704.09,1.1965312
1193239529,52.15939,48.61,100700.086,1.1964836
1193252015,52.15939,48.61,100700.086,1.1964836
1193276270,52.74334,48.61,100693.086,1.1964004
1193287721,52.074833,48.61,100701.09,1.1964955
1193300313,51.48824,48.61,100708.09,1.1965787
1193323940,51.82117,48.61,100704.09,1.1965312
1193335757,52.49232,48.61,100696.09,1.1964362
1193347787,51.905724,48.61,100703.09,1.1965194
1193371803,52.325855,48.62,100698.086,1.1964599
1193383679,51.739258,48.62,100705.086,1.196543
1193395847,52.2413,48.62,100699.08,1.1964716
1193419942,51.572792,48.62,100707.086,1.1965668
1193431687,52.325855,48.62,100698.086,1.1964599
1193443955,52.2413,48.62,100699.08,1.1964716
1193467928,51.823814,48.62,100704.086,1.1965312
1193479755,52.325855,48.62,100698.086,1.1964599
1193491949,51.99028,48.62,100702.086,1.1965073
1193515915,52.15939,48.62,100700.08,1.1964835
1193527648,52.2413,48.62,100699.08,1.1964716
1193542818,52.827896,48.62,100692.086,1.1963886
1193570730,51.99028,48.62,100702.086,1.1965073
1193582483,51.905724,48.62,100703.086,1.1965193
1193595932,52.15939,48.62,100700.08,1.1964835
1193619909,51.99028,48.62,100702.086,1.1965073
1193631685,52.074833,48.62,100701.086,1.1964955
1193643681,52.325855,48.62,100698.086,1.1964599
1193668268,52.325855,48.61,100698.09,1.1964599
1193679656,52.658787,48.61,100694.09,1.1964124
1193694487,52.576874,48.61,100695.09,1.1964242
1193719533,52.410408,48.62,100697.086,1.196448
1193731823,52.74334,48.62,100693.08,1.1964003
1193743658,52.325855,48.62,100698.086,1.1964599
1193770865,52.410408,48.62,100697.086,1.196448
1193783446,52.658787,48.62,100694.086,1.1964123
1193795979,52.74334,48.62,100693.08,1.1964003
1193819804,52.325855,48.61,100698.09,1.1964599
1193831629,52.576874,48.61,100695.09,1.1964242
1193843929,52.827896,48.61,100692.09,1.1963886
1193868219,52.325855,48.61,100698.09,1.1964599
1193879653,52.325855,48.61,100698.09,1.1964599
1193891928,52.99436,48.61,100690.09,1.1963649
1193915999,52.410408,48.62,100697.086,1.196448
1193927682,52.410408,48.62,100697.086,1.196448
1193942678,52.49232,48.62,100696.086,1.196436
1193967820,52.658787,48.61,100694.09,1.1964124
1193980470,52.909805,48.61,100691.09,1.1963768
1193991916,52.99436,48.61,100690.09,1.1963649
1194015597,52.99436,48.62,100690.086,1.1963648
1194028496,52.909805,48.62,100691.086,1.1963767
1194039729,52.49232,48.62,100696.086,1.196436
1194064597,52.99436,48.61,100690.09,1.1963649
1194076618,52.909805,48.61,100691.09,1.1963768
1194087912,52.74334,48.61,100693.086,1.1964004
1194111648,52.658787,48.61,100694.09,1.1964124
1194126360,52.325855,48.61,100698.09,1.1964599
1194139974,52.827896,48.61,100692.09,1.1963886
1194164025,52.74334,48.61,100693.086,1.1964004
1194175659,53.160828,48.61,100688.09,1.1963412
1194187935,53.078915,48.61,100689.09,1.196353
1194211939,52.576874,48.61,100695.09,1.1964242
1194223685,53.24538,48.61,100687.086,1.1963291
1194235982,53.160828,48.61,100688.09,1.1963412
1194262379,53.163467,48.62,100688.086,1.196341
1194274946,52.827896,48.62,100692.086,1.1963886
1194286642,53.66551,48.62,100682.086,1.1962698
1194310675,52.658787,48.62,100694.086,1.1964123
1194323636,52.909805,48.62,100691.086,1.1963767
1194335700,53.078915,48.62,100689.086,1.196353
1194359650,52.99436,48.61,100690.09,1.1963649
1194372358,53.329937,48.61,100686.09,1.1963173
1194383699,52.99436,48.61,100690.09,1.1963649
1194407646,53.160828,48.61,100688.09,1.1963412
1194420436,53.078915,48.61,100689.09,1.196353
1194432315,53.160828,48.61,100688.09,1.1963412
1194457267,52.49232,48.61,100696.09,1.1964362
1194470036,52.909805,48.61,100691.09,1.1963768
1194481294,53.411846,48.61,100685.09,1.1963055
1194505173,52.909805,48.62,100691.086,1.1963767
1194518130,53.24538,48.62,100687.08,1.196329
1194529672,52.410408,48.62,100697.086,1.196448
1194557595,53.831978,48.62,100680.086,1.196246
1194569223,53.66551,48.62,100682.086,1.1962698
1194581558,53.24538,48.62,100687.08,1.196329
1194605534,52.909805,48.62,100691.086,1.1963767
1194617162,52.99436,48.62,100690.086,1.1963648
1194629595,52.827896,48.62,100692.086,1.1963886
1194654124,53.580956,48.62,100683.086,1.1962817
1194665665,53.24538,48.62,100687.08,1.196329
1194677928,53.41449,48.62,100685.086,1.1963054
1194701622,53.831978,48.62,100680.086,1.196246
1194713194,53.74742,48.62,100681.08,1.1962577
1194725593,52.827896,48.62,100692.086,1.1963886
1194752222,53.496403,48.62,100684.086,1.1962935
1194765126,53.41449,48.62,100685.086,1.1963054
1194777170,53.41449,48.62,100685.086,1.1963054
1194801636,52.909805,48.62,100691.086,1.1963767
1194813662,53.831978,48.62,100680.086,1.196246
1194825643,53.580956,48.62,100683.086,1.1962817
1194849709,53.496403,48.61,100684.09,1.1962936
1194861697,53.998444,48.61,100678.09,1.1962223
1194873355,53.831978,48.61,100680.09,1.196246
1194897662,53.496403,48.62,100684.086,1.1962935
1194910034,53.329937,48.62,100686.086,1.1963173
1194921163,53.580956,48.62,100683.086,1.1962817
1194949542,53.580956,48.62,100683.086,1.1962817
1194961630,54.082996,48.62,100677.086,1.1962104
1194973643,53.24538,48.62,100687.08,1.196329
1194997831,53.329937,48.61,100686.09,1.1963173
1195009690,53.913887,48.61,100679.09,1.1962342
1195021617,54.334015,48.61,100674.086,1.1961746
1195045504,53.66287,48.61,100682.09,1.1962699
1195057194,53.913887,48.61,100679.09,1.1962342
1195069658,53.913887,48.61,100679.09,1.1962342
1195093693,54.082996,48.62,100677.086,1.1962104
1195105637,53.580956,48.62,100683.086,1.1962817
1195117745,53.41449,48.62,100685.086,1.1963054
1195141579,53.831978,48.62,100680.086,1.196246
1195153684,53.91653,48.62,100679.086,1.1962341
1195165525,53.91653,48.62,100679.086,1.1962341
1195189543,54.16491,48.62,100676.086,1.1961985
1195201438,53.91653,48.62,100679.086,1.1962341
1195213522,53.831978,48.62,100680.086,1.196246
1195237553,53.998444,48.62,100678.086,1.1962222
1195249620,54.252106,48.62,100675.08,1.1961864
1195261696,53.580956,48.62,100683.086,1.1962817
1195288375,54.500484,48.62,100672.086,1.1961509
1195300727,54.334015,48.62,100674.08,1.1961746
1195313179,53.74742,48.62,100681.08,1.1962577
1195337198,53.91653,48.62,100679.086,1.1962341
1195349818,54.082996,48.62,100677.086,1.1962104
1195361621,54.334015,48.62,100674.08,1.1961746
1195385255,54.16491,48.61,100676.09,1.1961986
1195398179,54.249462,48.61,100675.086,1.1961865
1195409754,54.500484,48.61,100672.09,1.196151
1195433264,54.415928,48.61,100673.09,1.1961629
1195446075,54.415928,48.61,100673.09,1.1961629
1195457199,54.082996,48.61,100677.09,1.1962104
1195485542,53.831978,48.62,100680.086,1.196246
1195497282,54.252106,48.62,100675.08,1.1961864
1195509630,53.998444,48.62,100678.086,1.1962222
1195536385,54.585037,48.61,100671.09,1.1961391
1195549537,54.751503,48.61,100669.09,1.1961154
1195561624,54.751503,48.61,100669.09,1.1961154
1195585155,54.500484,48.61,100672.09,1.196151
1195597415,54.500484,48.61,100672.09,1.196151
1195609357,54.500484,48.61,100672.09,1.196151
1195633167,53.998444,48.62,100678.086,1.1962222
1195645667,54.252106,48.62,100675.08,1.1961864
1195657214,54.334015,48.62,100674.08,1.1961746
1195684468,54.66959,48.62,100670.086,1.1961272
1195697206,53.998444,48.62,100678.086,1.1962222
1195709627,53.998444,48.62,100678.086,1.1962222
1195733856,54.66695,48.61,100670.09,1.1961273
1195745657,54.66695,48.61,100670.09,1.1961273
1195757981,54.91797,48.61,100667.09,1.1960917
1195781697,54.082996,48.62,100677.086,1.1962104
1195793071,54.585037,48.62,100671.086,1.196139
1195805968,54.751503,48.62,100669.086,1.1961153
1195829667,54.66959,48.62,100670.086,1.1961272
1195841616,53.74742,48.62,100681.08,1.1962577
1195853668,54.836056,48.62,100668.08,1.1961033
1195877657,54.66959,48.62,100670.086,1.1961272
1195889624,54.836056,48.62,100668.08,1.1961033
1195901862,55.002525,48.62,100666.086,1.1960796
1195925819,55.08708,48.62,100665.086,1.1960677
1195937209,54.082996,48.62,100677.086,1.1962104
1195950008,54.836056,48.62,100668.08,1.1961033
1195973849,55.08708,48.62,100665.086,1.1960677
1195985651,55.002525,48.62,100666.086,1.1960796
1195997850,54.585037,48.62,100671.086,1.196139
1196021694,54.751503,48.62,100669.086,1.1961153
1196033233,54.41857,48.62,100673.086,1.1961628
1196045670,55.08708,48.62,100665.086,1.1960677
1196069694,54.751503,48.62,100669.086,1.1961153
1196081750,55.338097,48.62,100662.08,1.196032
1196093640,54.66959,48.62,100670.086,1.1961272
1196117573,55.08708,48.62,100665.086,1.1960677
1196129129,54.836056,48.62,100668.08,1.1961033
1196141657,55.08708,48.62,100665.086,1.1960677
1196165969,55.002525,48.62,100666.086,1.1960796
1196177315,54.920612,48.62,100667.086,1.1960915
1196189839,54.920612,48.62,100667.086,1.1960915
1196213811,55.253544,48.62,100663.086,1.196044
1196225168,55.422653,48.62,100661.086,1.1960202
1196239878,55.338097,48.62,100662.08,1.196032
1196265283,55.08708,48.62,100665.086,1.1960677
1196278816,54.500484,48.62,100672.086,1.1961509
1196289545,54.500484,48.62,100672.086,1.1961509
1196313682,54.585037,48.62,100671.086,1.196139
1196326110,55.58912,48.62,100659.086,1.1959964
1196337688,55.338097,48.62,100662.08,1.196032
1196361707,55.67367,48.62,100658.086,1.1959846
1196374238,55.08708,48.62,100665.086,1.1960677
1196385181,54.920612,48.62,100667.086,1.1960915
1196409640,55.422653,48.62,100661.086,1.1960202
1196421982,55.58912,48.62,100659.086,1.1959964
1196433142,55.338097,48.62,100662.08,1.196032
1196457647,56.09116,48.62,100653.086,1.1959251
1196470226,55.08708,48.62,100665.086,1.1960677
1196481684,55.507206,48.62,100660.086,1.1960083
1196505697,54.920612,48.62,100667.086,1.1960915
1196518142,55.338097,48.62,100662.08,1.196032
1196529224,55.507206,48.62,100660.086,1.1960083
1196553660,54.920612,48.62,100667.086,1.1960915
1196566078,55.507206,48.62,100660.086,1.1960083
1196577650,55.67367,48.62,100658.086,1.1959846
1196601839,55.755585,48.62,100657.086,1.1959727
1196613924,55.755585,48.62,100657.086,1.1959727
1196625645,56.257626,48.62,100651.086,1.1959014
1196649847,55.17163,48.62,100664.086,1.1960559
1196661985,55.338097,48.62,100662.08,1.196032
1196673266,55.67367,48.62,100658.086,1.1959846
1196697662,55.924694,48.62,100655.086,1.195949
1196710081,55.755585,48.62,100657.086,1.1959727
1196721119,55.338097,48.62,100662.08,1.196032
1196745659,56.009247,48.62,100654.086,1.195937
1196757649,55.422653,48.62,100661.086,1.1960202
1196769699,55.924694,48.62,100655.086,1.195949
1196793732,56.009247,48.62,100654.086,1.195937
1196805836,55.840137,48.62,100656.08,1.1959608
1196817163,55.755585,48.62,100657.086,1.1959727
1196841649,56.175713,48.62,100652.086,1.1959133
1196853989,55.58912,48.62,100659.086,1.1959964
1196865376,55.924694,48.62,100655.086,1.195949
1196889662,55.924694,48.62,100655.086,1.195949
1196901702,55.840137,48.62,100656.08,1.1959608
1196913654,55.755585,48.62,100657.086,1.1959727
1196937742,55.840137,48.62,100656.08,1.1959608
1196949648,56.175713,48.62,100652.086,1.1959133
1196961161,55.58912,48.62,100659.086,1.1959964
1196985620,55.67367,48.62,100658.086,1.1959846
1196997926,56.09116,48.62,100653.086,1.1959251
1197009253,56.34218,48.62,100650.08,1.1958895
1197033648,55.58912,48.629997,100659.08,1.1959964
1197045952,55.67367,48.629997,100658.08,1.1959845
1197057710,56.344822,48.629997,100650.07,1.1958894
1197085841,56.257626,48.62,100651.086,1.1959014
1197097647,56.34218,48.62,100650.08,1.1958895
1197111930,56.508644,48.62,100648.086,1.1958658
1197137078,56.34218,48.62,100650.08,1.1958895
1197149967,56.09116,48.62,100653.086,1.1959251
1197161637,56.009247,48.62,100654.086,1.195937
1197185655,55.755585,48.61,100657.09,1.1959728
1197197726,56.928776,48.61,100643.086,1.1958064
1197209657,56.5932,48.61,100647.09,1.195854
1197233160,56.09116,48.62,100653.086,1.1959251
1197245875,56.34218,48.62,100650.08,1.1958895
1197257672,56.257626,48.62,100651.086,1.1959014
1197281720,56.257626,48.62,100651.086,1.1959014
1197293838,56.257626,48.62,100651.086,1.1959014
1197305696,56.508644,48.62,100648.086,1.1958658
1197329714,56.09116,48.62,100653.086,1.1959251
1197341640,56.508644,48.62,100648.086,1.1958658
1197353140,56.175713,48.62,100652.086,1.1959133
1197377206,56.175713,48.62,100652.086,1.1959133
1197389661,57.09524,48.62,100641.086,1.1957825
1197401675,56.508644,48.62,100648.086,1.1958658
1197428450,56.426735,48.62,100649.08,1.1958776
1197441146,56.508644,48.62,100648.086,1.1958658
1197453589,56.508644,48.62,100648.086,1.1958658
1197477831,56.76231,48.62,100645.086,1.1958301
1197489715,56.928776,48.62,100643.08,1.1958063
1197502182,56.5932,48.62,100647.086,1.1958538
1197525971,56.508644,48.62,100648.086,1.1958658
1197537678,57.26435,48.62,100639.086,1.1957588
1197552041,56.508644,48.62,100648.086,1.1958658
1197577181,56.76231,48.62,100645.086,1.1958301
1197589696,56.175713,48.62,100652.086,1.1959133
1197601692,56.257626,48.62,100651.086,1.1959014
1197625651,57.179794,48.62,100640.086,1.1957707
1197637732,56.508644,48.62,100648.086,1.1958658
1197649120,56.677753,48.62,100646.086,1.195842
1197673674,56.34218,48.62,100650.08,1.1958895
1197686159,57.01333,48.62,100642.086,1.1957945
1197697704,56.928776,48.62,100643.08,1.1958063
1197721706,57.01333,48.62,100642.086,1.1957945
1197736261,56.257626,48.62,100651.086,1.1959014
1197752065,56.928776,48.62,100643.08,1.1958063
1197777695,56.76231,48.62,100645.086,1.1958301
1197789655,57.01333,48.62,100642.086,1.1957945
1197801659,56.677753,48.62,100646.086,1.195842
1197825042,57.09524,48.62,100641.086,1.1957825
1197837258,56.677753,48.62,100646.086,1.195842
1197849153,57.09524,48.62,100641.086,1.1957825
1197873666,57.26435,48.62,100639.086,1.1957588
1197886178,57.179794,48.62,100640.086,1.1957707
1197897991,57.01333,48.62,100642.086,1.1957945
1197921061,57.179794,48.62,100640.086,1.1957707
1197936235,57.26435,48.62,100639.086,1.1957588
1197948830,56.508644,48.62,100648.086,1.1958658
1197973562,57.26435,48.62,100639.086,1.1957588
1197985392,57.09524,48.62,100641.086,1.1957825
1197997563,57.681835,48.62,100634.086,1.1956995
1198021621,57.179794,48.62,100640.086,1.1957707
1198033023,57.430817,48.62,100637.08,1.195735
1198045343,56.84422,48.62,100644.086,1.1958182
1198069577,57.179794,48.62,100640.086,1.1957707
1198081117,57.34626,48.62,100638.086,1.1957469
1198093663,57.26435,48.62,100639.086,1.1957588
1198117702,57.597282,48.62,100635.086,1.1957113
1198129370,57.935497,48.62,100631.08,1.1956637
1198144272,57.597282,48.62,100635.086,1.1957113
1198169264,57.681835,48.62,100634.086,1.1956995
1198181732,57.34626,48.62,100638.086,1.1957469
1198193072,56.84422,48.62,100644.086,1.1958182
1198217657,57.597282,48.62,100635.086,1.1957113
1198232000,57.597282,48.62,100635.086,1.1957113
1198245559,57.681835,48.62,100634.086,1.1956995
1198270051,57.26435,48.62,100639.086,1.1957588
1198281655,57.26435,48.62,100639.086,1.1957588
1198293655,57.34626,48.62,100638.086,1.1957469
1198317708,57.850945,48.62,100632.086,1.1956756
1198329831,57.26435,48.62,100639.086,1.1957588
1198341629,57.935497,48.62,100631.08,1.1956637
1198365664,57.850945,48.62,100632.086,1.1956756
1198377678,57.766388,48.62,100633.086,1.1956875
1198389666,57.766388,48.62,100633.086,1.1956875
1198413938,58.183876,48.62,100628.086,1.1956282
1198425655,57.850945,48.62,100632.086,1.1956756
1198437649,58.01741,48.62,100630.086,1.1956519
1198461522,58.01741,48.629997,100630.08,1.1956518
1198473277,57.597282,48.629997,100635.08,1.1957113
1198485690,57.597282,48.629997,100635.08,1.1957113
1198509514,57.766388,48.62,100633.086,1.1956875
1198521644,58.183876,48.62,100628.086,1.1956282
1198533836,58.183876,48.62,100628.086,1.1956282
1198557656,57.766388,48.629997,100633.08,1.1956874
1198569226,57.766388,48.629997,100633.08,1.1956874
1198581625,58.101963,48.629997,100629.08,1.19564
1198605578,57.935497,48.62,100631.08,1.1956637
1198617063,58.183876,48.62,100628.086,1.1956282
1198629974,58.43754,48.62,100625.08,1.1955924
1198654070,58.101963,48.629997,100629.08,1.19564
1198665839,58.101963,48.629997,100629.08,1.19564
1198677644,58.01741,48.629997,100630.08,1.1956518
1198701918,58.183876,48.62,100628.086,1.1956282
1198713655,58.26843,48.62,100627.086,1.1956162
1198725976,58.352985,48.62,100626.086,1.1956043
1198752020,57.935497,48.629997,100631.07,1.1956636
1198766120,57.935497,48.629997,100631.07,1.1956636
1198777655,58.183876,48.629997,100628.08,1.195628
1198801678,57.766388,48.62,100633.086,1.1956875
1198813751,58.099323,48.62,100629.086,1.19564
1198825644,57.850945,48.62,100632.086,1.1956756
1198850845,58.51945,48.62,100624.08,1.1955805
1198863660,58.183876,48.62,100628.086,1.1956282
1198875672,58.51945,48.62,100624.08,1.1955805
1198899657,58.43754,48.62,100625.08,1.1955924
1198911648,57.681835,48.62,100634.086,1.1956995
1198923704,58.43754,48.62,100625.08,1.1955924
1198950252,58.601364,48.62,100623.086,1.1955687
1198961913,58.43754,48.62,100625.08,1.1955924
1198974155,58.51945,48.62,100624.08,1.1955805
1198999144,58.685917,48.62,100622.086,1.1955569
1199011114,58.685917,48.62,100622.086,1.1955569
1199022992,58.43754,48.62,100625.08,1.1955924
1199047117,58.601364,48.62,100623.086,1.1955687
1199058871,58.01741,48.62,100630.086,1.1956519
1199071288,58.601364,48.62,100623.086,1.1955687
1199097670,58.685917,48.62,100622.086,1.1955569
1199111005,58.93958,48.62,100619.086,1.1955212
1199122797,58.855026,48.62,100620.086,1.195533
1199147653,58.855026,48.62,100620.086,1.195533
1199161596,58.01741,48.62,100630.086,1.1956519
1199174098,58.01741,48.62,100630.086,1.1956519
1199199223,59.187958,48.62,100616.086,1.1954856
1199210814,58.855026,48.62,100620.086,1.195533
1199222890,58.93958,48.62,100619.086,1.1955212
1199247435,58.51945,48.62,100624.08,1.1955805
1199258768,59.187958,48.62,100616.086,1.1954856
1199271224,58.77047,48.62,100621.086,1.195545
1199295138,58.77047,48.62,100621.086,1.195545
1199306880,59.021492,48.62,100618.08,1.1955092
1199319216,59.021492,48.62,100618.08,1.1955092
1199343536,58.685917,48.62,100622.086,1.1955569
1199354860,58.352985,48.62,100626.086,1.1956043
1199367559,58.77047,48.62,100621.086,1.195545
1199391453,58.685917,48.62,100622.086,1.1955569
1199402769,58.93958,48.62,100619.086,1.1955212
1199415447,58.601364,48.62,100623.086,1.1955687
1199439251,58.855026,48.62,100620.086,1.195533
1199450876,59.021492,48.62,100618.08,1.1955092
1199465553,59.021492,48.62,100618.08,1.1955092
1199490912,58.685917,48.62,100622.086,1.1955569
1199503255,58.93958,48.62,100619.086,1.1955212
1199514794,59.021492,48.62,100618.08,1.1955092
1199539686,58.93958,48.62,100619.086,1.1955212
1199553549,59.357067,48.62,100614.086,1.1954618
1199567143,58.685917,48.62,100622.086,1.1955569
1199591122,59.357067,48.62,100614.086,1.1954618
1199602866,58.77047,48.62,100621.086,1.195545
1199615203,59.187958,48.62,100616.086,1.1954856
1199639623,59.523533,48.62,100612.08,1.1954379
1199651728,59.859108,48.62,100608.086,1.1953905
1199663517,59.187958,48.62,100616.086,1.1954856
1199689829,58.77047,48.62,100621.086,1.195545
1199702061,58.685917,48.62,100622.086,1.1955569
1199714829,59.187958,48.62,100616.086,1.1954856
1199738830,59.357067,48.62,100614.086,1.1954618
1199753853,59.187958,48.62,100616.086,1.1954856
1199767229,59.77455,48.62,100609.086,1.1954024
1199791144,58.852383,48.61,100620.09,1.1955332
1199802809,59.187958,48.61,100616.09,1.1954856
1199814881,59.187958,48.61,100616.09,1.1954856
1199839135,59.021492,48.62,100618.08,1.1955092
1199851261,58.93958,48.62,100619.086,1.1955212
1199863407,59.438976,48.62,100613.086,1.19545
1199887156,59.357067,48.62,100614.086,1.1954618
1199898784,59.523533,48.62,100612.08,1.1954379
1199911240,60.110126,48.62,100605.086,1.1953548
1199938017,59.357067,48.62,100614.086,1.1954618
1199950743,59.438976,48.62,100613.086,1.19545
1199963171,59.27251,48.62,100615.086,1.1954737
1199987655,59.941017,48.62,100607.086,1.1953787
1199999664,59.187958,48.62,100616.086,1.1954856
1200010843,59.608086,48.62,100611.086,1.1954261
1200034861,59.941017,48.62,100607.086,1.1953787
1200047604,59.77455,48.62,100609.086,1.1954024
1200058874,59.438976,48.62,100613.086,1.19545
1200083642,59.357067,48.62,100614.086,1.1954618
1200095658,59.692642,48.62,100610.086,1.1954143
1200107644,59.859108,48.62,100608.086,1.1953905
1200135426,59.859108,48.62,100608.086,1.1953905
1200146728,59.187958,48.62,100616.086,1.1954856
1200159604,59.77455,48.62,100609.086,1.1954024
1200183447,60.110126,48.62,100605.086,1.1953548
1200194775,60.530254,48.62,100600.08,1.1952953
1200207218,59.941017,48.62,100607.086,1.1953787
1200231252,59.77455,48.62,100609.086,1.1954024
1200242956,60.110126,48.62,100605.086,1.1953548
1200255224,59.859108,48.62,100608.086,1.1953905
1200281714,59.77455,48.62,100609.086,1.1954024
1200294743,60.110126,48.62,100605.086,1.1953548
1200306925,59.859108,48.62,100608.086,1.1953905
1200335162,60.530254,48.62,100600.08,1.1952953
1200346801,59.692642,48.62,100610.086,1.1954143
1200359251,60.110126,48.62,100605.086,1.1953548
1200383415,59.859108,48.62,100608.086,1.1953905
1200394854,59.692642,48.62,100610.086,1.1954143
1200407331,60.028214,48.62,100606.08,1.1953666
1200431295,59.438976,48.62,100613.086,1.19545
1200442748,59.859108,48.62,100608.086,1.1953905
1200455157,60.612167,48.62,100599.08,1.1952834
1200479269,59.859108,48.62,100608.086,1.1953905
1200491141,60.194683,48.62,100604.086,1.195343
1200503290,60.36115,48.62,100602.086,1.1953192
1200527553,60.110126,48.62,100605.086,1.1953548
1200539642,59.523533,48.62,100612.08,1.1954379
1200551595,60.612167,48.62,100599.08,1.1952834
1200575223,60.36115,48.62,100602.086,1.1953192
1200586803,60.36115,48.62,100602.086,1.1953192
1200601596,60.36115,48.62,100602.086,1.1953192
1200626766,59.859108,48.629997,100608.08,1.1953903
1200639287,60.279236,48.629997,100603.08,1.195331
1200650783,59.94366,48.629997,100607.08,1.1953785
1200675651,59.859108,48.62,100608.086,1.1953905
1200689883,60.4457,48.62,100601.086,1.1953074
1200702051,60.028214,48.62,100606.08,1.1953666
1200726210,60.781277,48.62,100597.086,1.1952598
1200737933,60.36115,48.62,100602.086,1.1953192
1200753864,60.530254,48.62,100600.08,1.1952953
1200778860,60.530254,48.62,100600.08,1.1952953
1200791297,61.11685,48.62,100593.08,1.1952121
1200802786,60.781277,48.62,100597.086,1.1952598
1200826824,60.947742,48.62,100595.086,1.1952361
1200839225,60.36115,48.62,100602.086,1.1953192
1200850761,60.86319,48.62,100596.086,1.1952479
1200875688,60.530254,48.62,100600.08,1.1952953
1200889615,60.612167,48.62,100599.08,1.1952834
1200901983,60.194683,48.62,100604.086,1.195343
1200926362,60.947742,48.62,100595.086,1.1952361
1200937611,60.530254,48.62,100600.08,1.1952953
1200950311,60.86319,48.62,100596.086,1.1952479
1200975454,61.19876,48.62,100592.086,1.1952004
1200986742,61.032295,48.62,100594.086,1.1952242
1200999438,60.530254,48.62,100600.08,1.1952953
1201023457,60.86319,48.62,100596.086,1.1952479
1201034767,60.279236,48.62,100603.086,1.1953311
1201047650,60.781277,48.62,100597.086,1.1952598
1201071666,60.86319,48.62,100596.086,1.1952479
1201082866,61.19876,48.62,100592.086,1.1952004
1201095556,60.947742,48.62,100595.086,1.1952361
1201119735,60.947742,48.62,100595.086,1.1952361
1201130785,61.11685,48.62,100593.08,1.1952121
1201143431,60.194683,48.62,100604.086,1.195343
1201167333,60.781277,48.62,100597.086,1.1952598
1201178737,60.781277,48.62,100597.086,1.1952598
1201191459,61.11685,48.62,100593.08,1.1952121
1201215291,60.612167,48.62,100599.08,1.1952834
1201226844,61.36523,48.62,100590.086,1.1951766
1201239358,61.19876,48.62,100592.086,1.1952004
1201263454,61.19876,48.62,100592.086,1.1952004
1201275678,61.032295,48.62,100594.086,1.1952242
1201287743,60.86319,48.62,100596.086,1.1952479
1201311677,61.534336,48.629997,100588.08,1.1951528
1201323611,61.11685,48.629997,100593.07,1.1952121
1201337814,61.19876,48.629997,100592.08,1.1952003
1201361799,61.36523,48.62,100590.086,1.1951766
1201374322,60.86319,48.62,100596.086,1.1952479
1201385858,61.11685,48.62,100593.08,1.1952121
1201410789,61.36523,48.62,100590.086,1.1951766
1201423539,60.947742,48.62,100595.086,1.1952361
1201434791,60.947742,48.62,100595.086,1.1952361
1201458886,61.449783,48.629997,100589.08,1.1951647
1201473926,60.86319,48.629997,100596.08,1.1952478
1201487445,60.696724,48.629997,100598.08,1.1952716
1201511138,61.19876,48.62,100592.086,1.1952004
1201522760,60.947742,48.62,100595.086,1.1952361
1201535318,61.36523,48.62,100590.086,1.1951766
1201561533,61.449783,48.62,100589.086,1.1951647
1201575137,61.7008,48.62,100586.086,1.195129
1201586719,62.371952,48.62,100578.086,1.195034
1201610819,61.86991,48.62,100584.086,1.1951053
1201623006,61.19876,48.62,100592.086,1.1952004
1201634642,61.7008,48.62,100586.086,1.195129
1201658767,62.120934,48.62,100581.08,1.1950696
1201672440,61.618893,48.62,100587.08,1.1951408
1201686125,61.7008,48.62,100586.086,1.195129
1201710135,61.449783,48.62,100589.086,1.1951647
1201722762,61.78536,48.62,100585.086,1.1951172
1201735258,61.7008,48.62,100586.086,1.195129
1201759682,62.202843,48.629997,100580.08,1.1950577
1201771700,61.86991,48.629997,100584.08,1.1951052
1201783708,61.78536,48.629997,100585.08,1.1951171
1201807689,61.36523,48.62,100590.086,1.1951766
1201818768,62.371952,48.62,100578.086,1.195034
1201831142,61.449783,48.62,100589.086,1.1951647
1201855447,62.202843,48.629997,100580.08,1.1950577
1201866779,61.283318,48.629997,100591.08,1.1951884
1201879547,62.120934,48.629997,100581.07,1.1950696
1201902947,61.534336,48.62,100588.086,1.1951529
1201914838,61.78536,48.62,100585.086,1.1951172
1201927009,62.371952,48.62,100578.086,1.195034
1201951438,62.036377,48.629997,100582.08,1.1950815
1201963654,62.2874,48.629997,100579.08,1.1950458
1201977636,62.202843,48.629997,100580.08,1.1950577
1202002748,62.120934,48.62,100581.08,1.1950696
1202015218,61.86991,48.62,100584.086,1.1951053
1202026862,62.202843,48.62,100580.086,1.1950577
1202051647,62.036377,48.62,100582.086,1.1950816
1202063683,61.951824,48.62,100583.086,1.1950934
1202074767,62.2874,48.62,100579.086,1.195046
1202098751,62.202843,48.629997,100580.08,1.1950577
1202111219,62.036377,48.629997,100582.08,1.1950815
1202122765,62.45651,48.629997,100577.08,1.1950221
1202151434,62.707527,48.62,100574.08,1.1949865
1202162758,62.538418,48.62,100576.086,1.1950103
1202175438,62.622974,48.62,100575.08,1.1949983
1202199450,62.371952,48.62,100578.086,1.195034
1202211721,62.707527,48.62,100574.08,1.1949865
1202223669,62.202843,48.62,100580.086,1.1950577
1202247040,62.120934,48.62,100581.08,1.1950696
1202258885,62.873993,48.62,100572.086,1.1949627
1202271257,63.209568,48.62,100568.08,1.1949152
1202295420,62.2874,48.629997,100579.08,1.1950458
1202306744,62.873993,48.629997,100572.08,1.1949626
1202319260,62.79208,48.629997,100573.08,1.1949745
1202345912,62.707527,48.629997,100574.07,1.1949863
1202359247,62.79208,48.629997,100573.08,1.1949745
1202370886,62.54106,48.629997,100576.08,1.1950102
1202394885,62.95855,48.629997,100571.08,1.1949508
1202407245,61.954468,48.629997,100583.08,1.1950934
1202418662,62.2874,48.629997,100579.08,1.1950458
1202442687,62.120934,48.629997,100581.07,1.1950696
1202455453,63.125015,48.629997,100569.08,1.194927
1202466800,63.125015,48.629997,100569.08,1.194927
1202494167,62.622974,48.629997,100575.07,1.1949983
1202506751,62.202843,48.629997,100580.08,1.1950577
1202519269,62.873993,48.629997,100572.08,1.1949626
1202545832,62.873993,48.62,100572.086,1.1949627
1202558068,62.873993,48.62,100572.086,1.1949627
1202570768,63.627056,48.62,100563.086,1.1948558
1202594887,62.538418,48.62,100576.086,1.1950103
1202607453,62.78944,48.62,100573.086,1.1949747
1202618750,62.707527,48.62,100574.08,1.1949865
1202642760,63.460587,48.62,100565.086,1.1948795
1202655231,62.78944,48.62,100573.086,1.1949747
1202666817,62.873993,48.62,100572.086,1.1949627
1202691152,62.95855,48.62,100571.086,1.1949508
1202703392,62.95855,48.62,100571.086,1.1949508
1202714905,63.627056,48.62,100563.086,1.1948558
1202738752,63.376034,48.62,100566.086,1.1948915
1202751448,63.209568,48.62,100568.08,1.1949152
1202762903,63.04046,48.62,100570.086,1.194939
1202786849,63.29412,48.629997,100567.08,1.1949033
1202799706,62.45651,48.629997,100577.08,1.1950221
1202811651,62.95855,48.629997,100571.08,1.1949508
1202835664,62.707527,48.629997,100574.07,1.1949863
1202847664,63.29412,48.629997,100567.08,1.1949033
1202858775,63.209568,48.629997,100568.07,1.194915
1202882889,63.376034,48.629997,100566.08,1.1948913
1202895763,63.04046,48.629997,100570.08,1.1949389
1202907701,63.29412,48.629997,100567.08,1.1949033
1202931655,63.29148,48.62,100567.086,1.1949034
1202943637,63.71161,48.62,100562.08,1.1948439
1202954799,63.545143,48.62,100564.086,1.1948677
1202978756,63.376034,48.629997,100566.08,1.1948913
1202991689,63.629696,48.629997,100563.08,1.1948557
1203003647,62.95855,48.629997,100571.08,1.1949508
1203026750,63.376034,48.629997,100566.08,1.1948913
1203039474,63.376034,48.629997,100566.08,1.1948913
1203050792,63.376034,48.629997,100566.08,1.1948913
1203074848,63.629696,48.629997,100563.08,1.1948557
1203087483,63.460587,48.629997,100565.08,1.1948795
1203098735,63.545143,48.629997,100564.08,1.1948676
1203122817,62.95855,48.629997,100571.08,1.1949508
1203137592,63.629696,48.629997,100563.08,1.1948557
1203151466,63.125015,48.629997,100569.08,1.194927
1203177634,63.209568,48.629997,100568.07,1.194915
1203191137,63.714252,48.629997,100562.07,1.1948438
1203202837,63.629696,48.629997,100563.08,1.1948557
1203226798,63.627056,48.62,100563.086,1.1948558
1203239135,63.71161,48.62,100562.08,1.1948439
1203252819,63.376034,48.62,100566.086,1.1948915
1203277030,63.79616,48.629997,100561.08,1.194832
1203288728,63.962627,48.629997,100559.08,1.1948082
1203300619,63.460587,48.629997,100565.08,1.1948795
1203324655,63.962627,48.62,100559.086,1.1948082
1203336594,64.04718,48.62,100558.086,1.1947964
1203348912,63.962627,48.62,100559.086,1.1948082
1203372959,63.878075,48.62,100560.086,1.1948202
1203384615,63.29148,48.62,100567.086,1.1949034
1203396908,63.460587,48.62,100565.086,1.1948795
1203420729,64.04718,48.629997,100558.08,1.1947963
1203432698,63.79616,48.629997,100561.08,1.194832
1203444727,64.2982,48.629997,100555.08,1.1947607
1203468835,63.629696,48.629997,100563.08,1.1948557
1203480612,64.46467,48.629997,100553.08,1.194737
1203492726,63.962627,48.629997,100559.08,1.1948082
1203516825,63.88072,48.629997,100560.08,1.19482
1203528719,63.962627,48.629997,100559.08,1.1948082
1203540773,64.21629,48.629997,100556.07,1.1947725
1203564738,64.13174,48.629997,100557.08,1.1947844
1203576780,64.38276,48.629997,100554.08,1.1947488
1203588901,63.79616,48.629997,100561.08,1.194832
1203613270,64.2982,48.629997,100555.08,1.1947607
1203624716,64.2982,48.629997,100555.08,1.1947607
1203636915,64.13174,48.629997,100557.08,1.1947844
1203661298,63.88072,48.629997,100560.08,1.19482
1203672729,63.962627,48.629997,100559.08,1.1948082
1203685053,64.80289,48.629997,100549.07,1.1946893
1203709076,64.13174,48.629997,100557.08,1.1947844
1203720789,64.38276,48.629997,100554.08,1.1947488
1203732863,64.21629,48.629997,100556.07,1.1947725
1203757020,64.46467,48.629997,100553.08,1.194737
1203768602,64.38276,48.629997,100554.08,1.1947488
1203780927,64.2982,48.629997,100555.08,1.1947607
1203805049,64.13174,48.629997,100557.08,1.1947844
1203816604,64.46467,48.629997,100553.08,1.194737
1203828751,64.71833,48.629997,100550.07,1.1947012
1203852589,64.21629,48.629997,100556.07,1.1947725
1203864727,64.2982,48.629997,100555.08,1.1947607
1203876931,64.13174,48.629997,100557.08,1.1947844
1203900852,64.80289,48.629997,100549.07,1.1946893
1203912713,64.63378,48.629997,100551.08,1.1947131
1203926990,64.63378,48.629997,100551.08,1.1947131
1203956791,63.88072,48.629997,100560.08,1.19482
1203968738,64.63378,48.629997,100551.08,1.1947131
1203980912,64.884796,48.629997,100548.08,1.1946775
1204004735,64.2982,48.62,100555.086,1.1947608
1204016743,64.46467,48.62,100553.086,1.194737
1204028789,64.2982,48.62,100555.086,1.1947608
1204052754,65.220375,48.62,100544.086,1.19463
1204064714,64.213646,48.62,100556.08,1.1947726
1204076872,64.549225,48.62,100552.086,1.1947252
1204101066,64.46467,48.629997,100553.08,1.194737
1204112607,64.46467,48.629997,100553.08,1.194737
1204124795,65.05391,48.629997,100546.08,1.1946537
1204151328,65.13582,48.629997,100545.08,1.1946418
1204165358,64.884796,48.629997,100548.08,1.1946775
1204176724,64.13174,48.629997,100557.08,1.1947844
1204200738,64.96935,48.62,100547.086,1.1946657
1204212862,64.96935,48.62,100547.086,1.1946657
1204224773,65.05126,48.62,100546.086,1.1946539
1204248452,64.71833,48.62,100550.08,1.1947013
1204261323,65.47139,48.62,100541.086,1.1945944
1204272714,65.13582,48.62,100545.086,1.194642
1204296616,64.96935,48.629997,100547.08,1.1946657
1204309216,65.47139,48.629997,100541.08,1.1945944
1204320595,64.549225,48.629997,100552.08,1.194725
1204344727,64.213646,48.62,100556.08,1.1947726
1204356918,65.63786,48.62,100539.086,1.1945707
1204368716,65.220375,48.62,100544.086,1.19463
1204392774,65.304924,48.629997,100543.07,1.194618
1204404935,65.220375,48.629997,100544.08,1.19463
1204416363,64.71833,48.629997,100550.07,1.1947012
1204440450,64.96935,48.629997,100547.08,1.1946657
1204452864,64.63378,48.629997,100551.08,1.1947131
1204464711,64.71833,48.629997,100550.07,1.1947012
1204488797,65.304924,48.629997,100543.07,1.194618
1204503422,65.13582,48.629997,100545.08,1.1946418
1204516727,65.72241,48.629997,100538.08,1.1945587
1204543611,65.47139,48.62,100541.086,1.1945944
1204556722,65.63786,48.62,100539.086,1.1945707
1204568767,65.63786,48.62,100539.086,1.1945707
1204592721,64.549225,48.62,100552.086,1.1947252
1204604911,65.13582,48.62,100545.086,1.194642
1204616448,65.63786,48.62,100539.086,1.1945707
1204640705,65.220375,48.629997,100544.08,1.19463
1204653025,65.47139,48.629997,100541.08,1.1945944
1204664495,65.47139,48.629997,100541.08,1.1945944
1204688704,65.38684,48.629997,100542.08,1.1946062
1204701248,65.63786,48.629997,100539.08,1.1945705
1204712596,66.05799,48.629997,100534.08,1.1945112
1204736755,65.891525,48.629997,100536.08,1.1945349
1204751451,65.304924,48.629997,100543.07,1.194618
1204765109,65.72241,48.629997,100538.08,1.1945587
1204788705,65.47139,48.629997,100541.08,1.1945944
1204800609,65.63786,48.629997,100539.08,1.1945705
1204812735,65.973434,48.629997,100535.08,1.1945231
1204836789,65.973434,48.629997,100535.08,1.1945231
1204848721,65.304924,48.629997,100543.07,1.194618
1204860730,65.80697,48.629997,100537.07,1.1945467
1204884839,65.55595,48.629997,100540.08,1.1945825
1204896807,65.891525,48.629997,100536.08,1.1945349
1204911163,65.973434,48.629997,100535.08,1.1945231
1204936253,66.05799,48.629997,100534.08,1.1945112
1204948900,65.891525,48.629997,100536.08,1.1945349
1204960792,65.55595,48.629997,100540.08,1.1945825
1204984397,65.891525,48.629997,100536.08,1.1945349
1204996860,65.80697,48.629997,100537.07,1.1945467
1205008594,66.309006,48.629997,100531.07,1.1944754
1205032370,65.47139,48.629997,100541.08,1.1945944
1205045018,66.309006,48.629997,100531.07,1.1944754
1205056587,65.891525,48.629997,100536.08,1.1945349
1205080599,65.891525,48.629997,100536.08,1.1945349
1205093279,66.47547,48.629997,100529.08,1.1944517
1205104760,66.22446,48.629997,100532.08,1.1944873
1205128379,65.973434,48.629997,100535.08,1.1945231
1205143421,66.56003,48.629997,100528.08,1.1944399
1205157048,66.47547,48.629997,100529.08,1.1944517
1205181061,65.973434,48.629997,100535.08,1.1945231
1205192642,66.22446,48.629997,100532.08,1.1944873
1205204758,66.56003,48.629997,100528.08,1.1944399
1205228865,65.973434,48.629997,100535.08,1.1945231
1205240351,66.05799,48.629997,100534.08,1.1945112
1205252745,65.973434,48.629997,100535.08,1.1945231
1205276755,66.56003,48.629997,100528.08,1.1944399
1205288886,65.891525,48.629997,100536.08,1.1945349
1205301017,66.644585,48.629997,100527.08,1.194428
1205325160,66.309006,48.629997,100531.07,1.1944754
1205336595,66.14254,48.629997,100533.08,1.1944993
1205348896,66.56003,48.629997,100528.08,1.1944399
1205372864,66.644585,48.629997,100527.08,1.194428
1205384620,66.56003,48.629997,100528.08,1.1944399
1205396892,66.14254,48.629997,100533.08,1.1944993
1205420914,65.973434,48.629997,100535.08,1.1945231
1205433182,66.81105,48.629997,100525.07,1.1944041
1205444819,65.891525,48.629997,100536.08,1.1945349
1205469181,66.39356,48.64,100530.07,1.1944635
