timestamp,rollspeed,pitchspeed,yawspeed,q[0],q[1],q[2],q[3],delta_q_reset[0],delta_q_reset[1],delta_q_reset[2],delta_q_reset[3],quat_reset_counter
1184732700,-0.0010514744,-0.001123162,-0.00091472967,-0.9978224,0.0017113286,-0.0069353404,0.06556944,0.09776278,-0.00055258215,0.015079263,-0.9950954,1
1184857543,0.0017206725,-0.0025013052,-0.00027938292,-0.9978245,0.0017486598,-0.0069221393,0.06553907,0.09776278,-0.00055258215,0.015079263,-0.9950954,1
1184898430,0.0003549885,-0.00012829714,0.00094708893,-0.9978253,0.0017500835,-0.006929365,0.06552485,0.09776278,-0.00055258215,0.015079263,-0.9950954,1
1184942213,-0.0016882792,-0.00070833415,-0.0015651975,-0.9978246,0.0017686812,-0.006923573,0.06553799,0.09776278,-0.00055258215,0.015079263,-0.9950954,1
1184982299,0.0010599177,-0.0016750861,-0.0021958398,-0.99782336,0.0017687815,-0.006920777,0.06555677,0.09776278,-0.00055258215,0.015079263,-0.9950954,1
1185026361,-0.0010724422,-0.002717588,0.00018045201,-0.9978238,0.0017759344,-0.006915077,0.06555117,0.09776278,-0.00055258215,0.015079263,-0.9950954,1
1185066330,0.059996042,0.0070399307,-0.0012615719,-0.9978228,0.0016827851,-0.0069274916,0.06556594,0.09776278,-0.00055258215,0.015079263,-0.9950954,1
1185110192,-0.08811516,0.045310564,-0.032473426,-0.9978238,0.0018874216,-0.0070224134,0.06553552,0.09776278,-0.00055258215,0.015079263,-0.9950954,1
1185154322,-0.07640414,-0.041988775,0.020685546,-0.9978398,0.0018785823,-0.006960618,0.06529728,0.09776278,-0.00055258215,0.015079263,-0.9950954,1
1185194166,-0.09330104,0.011779888,0.01714894,-0.997827,0.0024828871,-0.0071228617,0.065455504,0.09776278,-0.00055258215,0.015079263,-0.9950954,1
1185234354,0.0007066224,0.0836041,-0.041282814,-0.9978436,0.0029461225,-0.0075886846,0.065129444,0.09776278,-0.00055258215,0.015079263,-0.9950954,1
1185278383,-0.018276751,-0.01891967,0.056847334,-0.9978177,0.003670892,-0.007911272,0.065451555,0.09776278,-0.00055258215,0.015079263,-0.9950954,1
1185318354,0.0074726,0.018176412,-0.039018095,-0.9977806,0.003571484,-0.008260177,0.065976545,0.09776278,-0.00055258215,0.015079263,-0.9950954,1
1185362210,0.038138926,-0.0053913016,-0.023209294,-0.99779963,0.00295454,-0.0077926,0.06577669,0.09776278,-0.00055258215,0.015079263,-0.9950954,1
1185406275,0.049238272,-0.020485055,0.027396563,-0.99783367,0.0020817588,-0.006947031,0.06538723,0.09776278,-0.00055258215,0.015079263,-0.9950954,1
1185446191,0.021630486,-0.023081088,0.005706838,-0.99783653,0.0015278731,-0.0063535697,0.0654189,0.09776278,-0.00055258215,0.015079263,-0.9950954,1
1185486276,-0.021531925,0.00037896447,0.009641286,-0.9978441,0.0013224164,-0.0061633224,0.06532557,0.09776278,-0.00055258215,0.015079263,-0.9950954,1
1185530415,-0.026354173,0.027515145,0.005180812,-0.9978513,0.0017162734,-0.0062435027,0.06519995,0.09776278,-0.00055258215,0.015079263,-0.9950954,1
1185570364,-0.041060355,0.024371436,-0.007759542,-0.99785393,0.0023813292,-0.0066670547,0.06509614,0.09776278,-0.00055258215,0.015079263,-0.9950954,1
1185611000,-0.035024874,0.029101135,0.012905204,-0.99785334,0.0030467042,-0.0072129415,0.06501977,0.09776278,-0.00055258215,0.015079263,-0.9950954,1
1185651756,-0.0053685084,0.024562517,-0.001762906,-0.9978424,0.003619135,-0.0076662865,0.06510616,0.09776278,-0.00055258215,0.015079263,-0.9950954,1
1185695949,-0.023433402,0.003115192,0.0033417908,-0.99783885,0.0038637863,-0.007962658,0.06511036,0.09776278,-0.00055258215,0.015079263,-0.9950954,1
1185747815,-0.1110265,0.023462236,0.009615594,-0.9978435,0.0054486874,-0.008141178,0.06490343,0.09776278,-0.00055258215,0.015079263,-0.9950954,1
1185792007,-0.4981101,-0.06880258,0.01778607,-0.997836,0.011909923,-0.008046282,0.06416219,0.09776278,-0.00055258215,0.015079263,-0.9950954,1
1185835862,-0.5578538,0.022659983,-0.06291859,-0.9976145,0.024702782,-0.008416089,0.06390941,0.09776278,-0.00055258215,0.015079263,-0.9950954,1
1185876005,-0.7738267,-0.0100055225,-0.073323846,-0.9970446,0.04179607,-0.008928507,0.06383963,0.09776278,-0.00055258215,0.015079263,-0.9950954,1
1185919923,-0.851174,-0.11899399,0.08364813,-0.9961878,0.058847696,-0.010454826,0.06354193,0.09776278,-0.00055258215,0.015079263,-0.9950954,1
1185960241,0.037608378,0.11391588,-0.007803825,-0.9957356,0.065541334,-0.013301445,0.06354643,0.09776278,-0.00055258215,0.015079263,-0.9950954,1
1186003848,0.01862527,0.137216,-0.025092596,-0.9956805,0.06493849,-0.017913722,0.06389385,0.09776278,-0.00055258215,0.015079263,-0.9950954,1
1186047994,-0.07513363,0.051410995,0.05925353,-0.9956813,0.06372463,-0.022332016,0.06371205,0.09776278,-0.00055258215,0.015079263,-0.9950954,1
1186091802,-0.07935795,0.10936433,0.009069887,-0.995559,0.064459436,-0.026910806,0.063112795,0.09776278,-0.00055258215,0.015079263,-0.9950954,1
1186131778,0.074948184,-0.04779636,0.02488646,-0.99565375,0.063084975,-0.029019458,0.062062208,0.09776278,-0.00055258215,0.015079263,-0.9950954,1
1186175789,0.474225,-0.054123446,0.04128584,-0.9960693,0.05710548,-0.02978789,0.06080897,0.09776278,-0.00055258215,0.015079263,-0.9950954,1
1186215946,0.64742607,-0.1897067,0.04815582,-0.99666005,0.04719343,-0.029302036,0.059857447,0.09776278,-0.00055258215,0.015079263,-0.9950954,1
1186259801,0.7923761,0.13466266,-0.039221052,-0.9972971,0.034347534,-0.027254784,0.058957007,0.09776278,-0.00055258215,0.015079263,-0.9950954,1
1186303942,0.5092108,0.14632449,0.020884618,-0.9976985,0.024902843,-0.025309049,0.05776679,0.09776278,-0.00055258215,0.015079263,-0.9950954,1
1186343903,0.34697455,0.12321941,0.06306736,-0.9979224,0.01716452,-0.025133582,0.0567862,0.09776278,-0.00055258215,0.015079263,-0.9950954,1
1186387938,0.55081815,0.23351553,0.002380312,-0.9980873,0.00686286,-0.025219852,0.056025118,0.09776278,-0.00055258215,0.015079263,-0.9950954,1
1186427796,0.3073198,-0.04009279,0.045132812,-0.99817985,-0.0019097388,-0.02421419,0.055199742,0.09776278,-0.00055258215,0.015079263,-0.9950954,1
1186467765,0.2097829,0.0149279665,0.04023422,-0.9981896,-0.008081874,-0.024127893,0.054497212,0.09776278,-0.00055258215,0.015079263,-0.9950954,1
1186511915,0.07872453,0.005215248,0.058192067,-0.99818057,-0.012194506,-0.024410317,0.053767763,0.09776278,-0.00055258215,0.015079263,-0.9950954,1
1186551788,0.38393766,-0.07837362,-0.0017879441,-0.99818003,-0.016062396,-0.023458926,0.05318213,0.09776278,-0.00055258215,0.015079263,-0.9950954,1
1186596033,0.11486911,-0.32918328,0.022599567,-0.99818784,-0.020300692,-0.020956485,0.052629143,0.09776278,-0.00055258215,0.015079263,-0.9950954,1
1186639772,0.069441475,-0.13137315,-0.0072038863,-0.9981668,-0.023936525,-0.018892044,0.052279193,0.09776278,-0.00055258215,0.015079263,-0.9950954,1
1186679935,0.2446657,-0.06582429,-0.038838264,-0.9981367,-0.026791286,-0.0169371,0.052140936,0.09776278,-0.00055258215,0.015079263,-0.9950954,1
1186719806,0.10060391,-0.23257302,0.040090516,-0.99809456,-0.029836494,-0.014909913,0.051910244,0.09776278,-0.00055258215,0.015079263,-0.9950954,1
1186764031,0.27721563,-0.1898197,-0.0033991481,-0.9979969,-0.03404215,-0.012439972,0.051850926,0.09776278,-0.00055258215,0.015079263,-0.9950954,1
1186803987,-0.052923903,-0.07260747,0.05723892,-0.99796075,-0.03596315,-0.010618947,0.051655393,0.09776278,-0.00055258215,0.015079263,-0.9950954,1
1186847921,0.1162177,-0.015324483,0.0010769066,-0.99793655,-0.037105203,-0.009101235,0.051604383,0.09776278,-0.00055258215,0.015079263,-0.9950954,1
1186887776,-0.16642076,-0.3222155,0.040020578,-0.9979434,-0.037577804,-0.0071424334,0.05143771,0.09776278,-0.00055258215,0.015079263,-0.9950954,1
1186931950,0.037531722,-0.15561844,0.01254974,-0.99792254,-0.038534157,-0.0053740717,0.051350143,0.09776278,-0.00055258215,0.015079263,-0.9950954,1
1186975809,0.26430628,-0.026683345,-0.033254616,-0.9979211,-0.03881341,-0.003954957,0.05129639,0.09776278,-0.00055258215,0.015079263,-0.9950954,1
1187015918,-0.05304315,-0.09329949,0.045523845,-0.99797523,-0.037689824,-0.0025383248,0.051172707,0.09776278,-0.00055258215,0.015079263,-0.9950954,1
1187055814,-0.078909405,-0.1797597,0.044157036,-0.99800736,-0.03686951,-0.0011809801,0.051191997,0.09776278,-0.00055258215,0.015079263,-0.9950954,1
1187099969,-0.0033218116,-0.23061909,0.03627141,-0.9980332,-0.036149856,0.00018442678,0.051213503,0.09776278,-0.00055258215,0.015079263,-0.9950954,1
1187143778,0.032549273,-0.15772088,-0.04159378,-0.99807376,-0.034886092,0.0014464376,0.0512801,0.09776278,-0.00055258215,0.015079263,-0.9950954,1
1187183920,0.13243404,-0.054179333,0.015821703,-0.9981253,-0.033317745,0.0023781317,0.051284797,0.09776278,-0.00055258215,0.015079263,-0.9950954,1
1187223973,-0.017002111,0.0072413255,-0.00445772,-0.9981748,-0.031525634,0.0036647609,0.051380668,0.09776278,-0.00055258215,0.015079263,-0.9950954,1
1187267956,0.042553812,-0.0023325365,-0.040029503,-0.9981995,-0.030385796,0.0043936376,0.0515291,0.09776278,-0.00055258215,0.015079263,-0.9950954,1
1187311818,-0.06890842,-0.0045008976,-0.037717853,-0.9982398,-0.028961116,0.004352011,0.05157218,0.09776278,-0.00055258215,0.015079263,-0.9950954,1
1187351912,-0.08355082,-0.210064,0.004950906,-0.99827677,-0.027802406,0.0038212575,0.051535938,0.09776278,-0.00055258215,0.015079263,-0.9950954,1
1187395819,-0.22156231,-0.11017247,0.034313038,-0.9983151,-0.02668348,0.0024621743,0.051466934,0.09776278,-0.00055258215,0.015079263,-0.9950954,1
1187436114,0.07946865,0.110096835,0.026961617,-0.99832326,-0.026417097,0.0010560415,0.051495716,0.09776278,-0.00055258215,0.015079263,-0.9950954,1
1187475861,0.009340142,-0.041405387,-0.042802032,-0.9983414,-0.025637157,0.0004153134,0.05154611,0.09776278,-0.00055258215,0.015079263,-0.9950954,1
1187519931,-0.14739169,-0.13002661,-0.024436772,-0.9983625,-0.024932047,-0.00016400292,0.051486995,0.09776278,-0.00055258215,0.015079263,-0.9950954,1
1187559778,-0.03860308,-0.1723993,0.029083634,-0.9983706,-0.024797916,-0.00060626736,0.051388957,0.09776278,-0.00055258215,0.015079263,-0.9950954,1
1187604091,-0.29815957,-0.17074051,0.05949502,-0.9983908,-0.024069253,-0.00063531596,0.051342614,0.09776278,-0.00055258215,0.015079263,-0.9950954,1
1187647907,-0.021579077,0.21912585,0.02198906,-0.9984013,-0.023483284,-0.0012124219,0.05140047,0.09776278,-0.00055258215,0.015079263,-0.9950954,1
1187687938,-0.005893985,0.09918201,-0.011586147,-0.9984208,-0.022486499,-0.0012785906,0.051465996,0.09776278,-0.00055258215,0.015079263,-0.9950954,1
1187731852,0.10502857,0.27550817,-0.042259797,-0.99843013,-0.02158859,-0.0022910926,0.051633913,0.09776278,-0.00055258215,0.015079263,-0.9950954,1
1187771955,-0.055205017,0.06692182,0.004914156,-0.99844676,-0.020525066,-0.0029173444,0.051714785,0.09776278,-0.00055258215,0.015079263,-0.9950954,1
1187815922,-0.022068143,0.13739735,-0.052151453,-0.9984446,-0.019610371,-0.0038277314,0.052048914,0.09776278,-0.00055258215,0.015079263,-0.9950954,1
1187855954,0.10824975,0.32212856,-0.008277404,-0.9984461,-0.018836623,-0.0042498,0.052272372,0.09776278,-0.00055258215,0.015079263,-0.9950954,1
1187895800,0.10153161,0.089465305,-0.045245245,-0.9984505,-0.017817445,-0.0039214743,0.05257163,0.09776278,-0.00055258215,0.015079263,-0.9950954,1
1187939970,0.054102134,-0.002574226,-0.02153943,-0.9984483,-0.016909376,-0.0037692077,0.052923296,0.09776278,-0.00055258215,0.015079263,-0.9950954,1
1187979768,-0.09266873,-0.07494131,-0.0057701715,-0.99845207,-0.015758324,-0.0035569014,0.053222924,0.09776278,-0.00055258215,0.015079263,-0.9950954,1
1188019829,0.0381664,0.13210343,-0.04526729,-0.9984431,-0.014881695,-0.0033854514,0.05365163,0.09776278,-0.00055258215,0.015079263,-0.9950954,1
1188060035,0.24056043,0.10002081,-0.054818116,-0.9984395,-0.013911254,-0.0030200053,0.054000728,0.09776278,-0.00055258215,0.015079263,-0.9950954,1
1188103838,0.08940241,-0.028317988,-0.04724013,-0.9984347,-0.0127684865,-0.0029837003,0.054372568,0.09776278,-0.00055258215,0.015079263,-0.9950954,1
1188144017,-0.018129958,-0.118585974,-0.03938273,-0.9984335,-0.011437203,-0.0032076,0.054677423,0.09776278,-0.00055258215,0.015079263,-0.9950954,1
1188187765,-0.12375863,-0.18392825,-0.016392972,-0.9984305,-0.010292528,-0.003460455,0.054943144,0.09776278,-0.00055258215,0.015079263,-0.9950954,1
1188231817,-0.3584018,-0.11055036,0.051567387,-0.99843013,-0.008910928,-0.003733878,0.055173367,0.09776278,-0.00055258215,0.015079263,-0.9950954,1
1188275941,-0.2263716,0.04178997,-0.0002734721,-0.99842036,-0.00792118,-0.004169838,0.055468045,0.09776278,-0.00055258215,0.015079263,-0.9950954,1
1188319906,-0.13905352,0.026360815,0.0032432268,-0.99841374,-0.007087056,-0.004516889,0.05567381,0.09776278,-0.00055258215,0.015079263,-0.9950954,1
1188359908,0.11936573,0.21030971,-0.052148804,-0.9984004,-0.0066281585,-0.0047670407,0.05594721,0.09776278,-0.00055258215,0.015079263,-0.9950954,1
1188403971,-0.0109994225,-0.04227989,-0.007337737,-0.9983975,-0.005778064,-0.0047599687,0.056092747,0.09776278,-0.00055258215,0.015079263,-0.9950954,1
1188443911,0.07533511,0.17639545,-0.08028011,-0.9983899,-0.0050931606,-0.0050096773,0.05627324,0.09776278,-0.00055258215,0.015079263,-0.9950954,1
1188484000,0.006565446,0.19444233,-0.018375557,-0.99838686,-0.004434038,-0.0050622453,0.056377918,0.09776278,-0.00055258215,0.015079263,-0.9950954,1
1188527918,-0.21678527,-0.043363392,-0.010053198,-0.99838114,-0.00337204,-0.004808269,0.05657387,0.09776278,-0.00055258215,0.015079263,-0.9950954,1
1188567781,0.08912058,0.1996344,-0.0065395366,-0.99837035,-0.0027884115,-0.0049274475,0.05678644,0.09776278,-0.00055258215,0.015079263,-0.9950954,1
1188611795,-0.05104629,-0.09591159,-0.0048825205,-0.9983632,-0.0014835018,-0.0044751847,0.056997757,0.09776278,-0.00055258215,0.015079263,-0.9950954,1
1188651782,-0.10303934,0.032343335,-0.04513618,-0.998351,-0.00024607746,-0.0043302975,0.057240564,0.09776278,-0.00055258215,0.015079263,-0.9950954,1
1188695913,-0.23197211,-0.15107489,-0.011658254,-0.99834216,0.0010014063,-0.0038458356,0.057421803,0.09776278,-0.00055258215,0.015079263,-0.9950954,1
1188735736,0.027650345,0.012399895,-0.034288947,-0.9983294,0.0016321434,-0.0036265305,0.0576421,0.09776278,-0.00055258215,0.015079263,-0.9950954,1
1188779808,-0.101726785,-0.13131401,-0.010151382,-0.998322,0.0026907208,-0.0027465285,0.057779208,0.09776278,-0.00055258215,0.015079263,-0.9950954,1
1188819669,-0.036632773,0.09100723,-0.0019307954,-0.9983112,0.0032594842,-0.0023209942,0.05795517,0.09776278,-0.00055258215,0.015079263,-0.9950954,1
1188859903,0.036412627,0.12997785,-0.018783534,-0.9983005,0.0036879403,-0.0015571971,0.058139298,0.09776278,-0.00055258215,0.015079263,-0.9950954,1
1188903801,-0.023686772,0.08646187,-0.059541382,-0.99828565,0.0041807084,-0.0007584501,0.05837664,0.09776278,-0.00055258215,0.015079263,-0.9950954,1
1188947805,-0.21833284,-0.1587034,-0.03279306,-0.9982727,0.0044751973,0.00014282113,0.0585791,0.09776278,-0.00055258215,0.015079263,-0.9950954,1
1188988076,-0.16901083,-0.23658967,-0.0020132707,-0.9982668,0.004507862,0.00086283474,0.05867175,0.09776278,-0.00055258215,0.015079263,-0.9950954,1
1189031787,0.0432358,-0.19567788,0.0027691273,-0.9982559,0.004269052,0.0015916381,0.05885833,0.09776278,-0.00055258215,0.015079263,-0.9950954,1
1189071789,-0.29966918,-0.2115185,0.03903534,-0.998246,0.004191956,0.002177091,0.059014246,0.09776278,-0.00055258215,0.015079263,-0.9950954,1
1189115771,-0.014544528,-0.0108881425,0.07687177,-0.9982405,0.0035075448,0.0027307568,0.05912949,0.09776278,-0.00055258215,0.015079263,-0.9950954,1
1189155745,-0.05626429,-0.119280964,-0.00017727987,-0.99822617,0.0031088842,0.003498685,0.059353426,0.09776278,-0.00055258215,0.015079263,-0.9950954,1
1189195754,-0.18201756,-0.1557993,-0.011042208,-0.9982192,0.0027491408,0.004000731,0.059454564,0.09776278,-0.00055258215,0.015079263,-0.9950954,1
1189239729,0.18563019,0.07858186,-0.030041644,-0.99821395,0.0018571351,0.004193336,0.059563663,0.09776278,-0.00055258215,0.015079263,-0.9950954,1
1189283948,0.26409075,0.09108915,-0.06928506,-0.9982063,0.0011718834,0.004308414,0.059701815,0.09776278,-0.00055258215,0.015079263,-0.9950954,1
1189327886,-0.104895815,-0.18834502,0.010514009,-0.9982024,0.00092546287,0.0044260826,0.05976324,0.09776278,-0.00055258215,0.015079263,-0.9950954,1
1189367923,-0.016184514,-0.09339644,0.0024570543,-0.9981976,0.00049611495,0.0039970414,0.059877258,0.09776278,-0.00055258215,0.015079263,-0.9950954,1
1189411780,0.041235104,0.021921124,-0.03134745,-0.9981908,0.00032052738,0.0034865327,0.06002285,0.09776278,-0.00055258215,0.015079263,-0.9950954,1
1189451903,-0.103219494,-0.13544771,0.035943385,-0.9981873,0.0006905679,0.0032959967,0.06009125,0.09776278,-0.00055258215,0.015079263,-0.9950954,1
1189491911,0.046136923,-0.045576654,0.0042796545,-0.99817705,0.0009152896,0.0028415017,0.060280114,0.09776278,-0.00055258215,0.015079263,-0.9950954,1
1189531833,-0.007881552,-0.1363906,0.0151127,-0.9981671,0.0011670545,0.0022394059,0.06046718,0.09776278,-0.00055258215,0.015079263,-0.9950954,1
1189575982,-0.11414598,-0.26885188,0.010865081,-0.99815977,0.0015227653,0.002091992,0.060584262,0.09776278,-0.00055258215,0.015079263,-0.9950954,1
1189619776,0.044004254,-0.079820395,-0.014742988,-0.9981493,0.0013643078,0.0014087389,0.060781118,0.09776278,-0.00055258215,0.015079263,-0.9950954,1
1189659878,0.09193661,0.08686269,-0.057947095,-0.9981374,0.0012818092,0.0007778785,0.0609873,0.09776278,-0.00055258215,0.015079263,-0.9950954,1
1189703923,0.08119254,0.15387623,-0.017195942,-0.99812835,0.0008156612,-4.3922897e-05,0.061149508,0.09776278,-0.00055258215,0.015079263,-0.9950954,1
1189744003,0.23888656,0.083027616,-0.08310777,-0.9981131,0.00032620793,-0.00039310943,0.061401166,0.09776278,-0.00055258215,0.015079263,-0.9950954,1
1189787755,0.035373934,-0.02406397,-0.014680729,-0.998102,-7.387103e-05,-0.0009646356,0.06157534,0.09776278,-0.00055258215,0.015079263,-0.9950954,1
1189827811,0.08095671,-0.17064935,-0.033208627,-0.9980862,-0.0005226988,-0.0014686466,0.061818905,0.09776278,-0.00055258215,0.015079263,-0.9950954,1
1189871910,-0.03900083,-0.17485109,0.017733999,-0.99807274,-0.0008671919,-0.001865687,0.062021893,0.09776278,-0.00055258215,0.015079263,-0.9950954,1
1189911910,0.05857943,0.03702934,-0.013000409,-0.9980507,-0.0015377109,-0.0023882703,0.062344674,0.09776278,-0.00055258215,0.015079263,-0.9950954,1
1189955886,-0.16413909,0.035564914,0.023874205,-0.99803615,-0.0016284309,-0.0025870171,0.06256661,0.09776278,-0.00055258215,0.015079263,-0.9950954,1
1189995747,0.020673154,-0.065507226,-0.04091631,-0.9980163,-0.0020333324,-0.0026589048,0.0628676,0.09776278,-0.00055258215,0.015079263,-0.9950954,1
1190037118,0.1412871,-0.067850865,-0.059987426,-0.9979983,-0.002248983,-0.0029524984,0.06313321,0.09776278,-0.00055258215,0.015079263,-0.9950954,1
1190081535,-0.1964688,-0.1606406,0.009978247,-0.9979858,-0.0019791978,-0.0032370952,0.06332553,0.09776278,-0.00055258215,0.015079263,-0.9950954,1
1190121561,0.043560613,-0.046010792,0.014861388,-0.9979701,-0.0023635582,-0.00384506,0.06352514,0.09776278,-0.00055258215,0.015079263,-0.9950954,1
1190165529,-0.0893801,-0.095626324,-0.027298372,-0.9979531,-0.0020826333,-0.00407008,0.063786685,0.09776278,-0.00055258215,0.015079263,-0.9950954,1
1190205519,0.4559225,0.31186566,-0.056183547,-0.9979359,-0.002398962,-0.004656772,0.06400545,0.09776278,-0.00055258215,0.015079263,-0.9950954,1
1190249512,0.13938378,0.1038267,-0.02096201,-0.9979245,-0.0022242353,-0.0046536783,0.06418968,0.09776278,-0.00055258215,0.015079263,-0.9950954,1
1190293662,0.011484521,-0.035766337,-0.004243712,-0.997912,-0.0024415872,-0.0042875293,0.064401366,0.09776278,-0.00055258215,0.015079263,-0.9950954,1
1190337411,0.048365332,0.1878043,0.008581176,-0.99790186,-0.0028767453,-0.0040181414,0.06455545,0.09776278,-0.00055258215,0.015079263,-0.9950954,1
1190381532,0.16823058,0.3322356,0.0368222,-0.997894,-0.0035017496,-0.003699794,0.064665906,0.09776278,-0.00055258215,0.015079263,-0.9950954,1
1190421387,0.0051218793,0.008706715,-0.009244614,-0.9978859,-0.003968374,-0.002870799,0.06480639,0.09776278,-0.00055258215,0.015079263,-0.9950954,1
1190465512,0.302575,0.32634258,-0.072466314,-0.9978663,-0.0050455737,-0.0030951153,0.06502312,0.09776278,-0.00055258215,0.015079263,-0.9950954,1
1190505402,-0.00087457895,-0.036645055,-0.010318796,-0.9978632,-0.005459908,-0.0028708035,0.06504649,0.09776278,-0.00055258215,0.015079263,-0.9950954,1
1190545548,-0.22218573,-0.042207032,0.06279666,-0.99785495,-0.005917574,-0.0029616961,0.06512953,0.09776278,-0.00055258215,0.015079263,-0.9950954,1
1190585819,0.11400534,-0.070265554,0.014018499,-0.99784267,-0.0067270366,-0.0029377965,0.06524006,0.09776278,-0.00055258215,0.015079263,-0.9950954,1
1190629408,0.00458437,-0.12097533,-0.041933477,-0.99783266,-0.0070085274,-0.002994252,0.065359965,0.09776278,-0.00055258215,0.015079263,-0.9950954,1
1190673625,0.08040858,0.076596014,-0.05418466,-0.9978251,-0.0073492364,-0.0033411663,0.065422274,0.09776278,-0.00055258215,0.015079263,-0.9950954,1
1190717382,0.24182461,0.24729162,-0.043672614,-0.997822,-0.007407969,-0.0034249346,0.06545691,0.09776278,-0.00055258215,0.015079263,-0.9950954,1
1190757521,-0.14095072,-0.1308377,-0.009906192,-0.9978318,-0.006921161,-0.0028724505,0.06538787,0.09776278,-0.00055258215,0.015079263,-0.9950954,1
1190801365,-0.100333616,0.017132927,0.04334954,-0.99783754,-0.006865848,-0.0027132807,0.065312885,0.09776278,-0.00055258215,0.015079263,-0.9950954,1
1190841507,0.02771688,-0.03859228,0.0031142698,-0.9978363,-0.007057014,-0.0022524598,0.06532972,0.09776278,-0.00055258215,0.015079263,-0.9950954,1
1190885388,-0.11323304,0.0691963,0.0799676,-0.9978458,-0.0068930616,-0.0020073494,0.06520971,0.09776278,-0.00055258215,0.015079263,-0.9950954,1
1190925403,0.075867765,0.007194761,0.00016331745,-0.997847,-0.0069793817,-0.0013273088,0.06519799,0.09776278,-0.00055258215,0.015079263,-0.9950954,1
1190969513,0.09659768,0.22900453,0.040580537,-0.99786043,-0.0068686362,-0.0011049899,0.06500938,0.09776278,-0.00055258215,0.015079263,-0.9950954,1
1191013568,-0.046174534,0.09974022,-0.019014997,-0.99786854,-0.006387853,-0.00048825252,0.064942166,0.09776278,-0.00055258215,0.015079263,-0.9950954,1
1191053580,0.19752885,0.25533393,-0.030263547,-0.9978732,-0.006351627,-0.000113660906,0.06487571,0.09776278,-0.00055258215,0.015079263,-0.9950954,1
1191093647,0.067403965,0.099079005,0.017366963,-0.99788505,-0.0059071467,0.00045344795,0.06473397,0.09776278,-0.00055258215,0.015079263,-0.9950954,1
1191137378,0.25515008,0.36949414,-0.052427717,-0.9978843,-0.0057380823,0.00041960445,0.064761564,0.09776278,-0.00055258215,0.015079263,-0.9950954,1
1191181599,-0.13747962,-0.05696787,0.011193687,-0.99789125,-0.0051767766,0.00078273256,0.06469674,0.09776278,-0.00055258215,0.015079263,-0.9950954,1
1191225374,-0.09618519,-0.12295459,0.03325759,-0.99789494,-0.0049693277,0.00081902096,0.06465596,0.09776278,-0.00055258215,0.015079263,-0.9950954,1
1191265657,-0.013961706,0.03805507,-0.014497468,-0.9978962,-0.0048157508,0.0006705604,0.06464961,0.09776278,-0.00055258215,0.015079263,-0.9950954,1
1191309346,0.05714804,-0.019890863,0.022978548,-0.9979075,-0.0046713613,0.00049597956,0.06448834,0.09776278,-0.00055258215,0.015079263,-0.9950954,1
1191349416,-0.13544036,-0.16496398,0.028539572,-0.99791664,-0.004111883,0.00029214929,0.06438513,0.09776278,-0.00055258215,0.015079263,-0.9950954,1
1191393563,0.16868281,0.014624104,-0.017612927,-0.99791604,-0.0044750473,-0.00041195037,0.064370155,0.09776278,-0.00055258215,0.015079263,-0.9950954,1
1191433633,-0.28932738,-0.13895682,0.07572151,-0.9979306,-0.0039868564,-0.0008103232,0.06417144,0.09776278,-0.00055258215,0.015079263,-0.9950954,1
1191477563,0.2122146,0.042989507,-0.010690078,-0.9979274,-0.0046491055,-0.0017191237,0.06415829,0.09776278,-0.00055258215,0.015079263,-0.9950954,1
1191517527,0.016640212,0.13403794,-0.012035697,-0.99793404,-0.0044363113,-0.002269726,0.06405384,0.09776278,-0.00055258215,0.015079263,-0.9950954,1
1191561395,0.03951123,-0.022352103,0.0016475134,-0.9979367,-0.0046163737,-0.0029731293,0.06396981,0.09776278,-0.00055258215,0.015079263,-0.9950954,1
1191601593,-0.10663089,-0.10843844,0.027342808,-0.9979473,-0.004500178,-0.00354617,0.06378507,0.09776278,-0.00055258215,0.015079263,-0.9950954,1
1191645368,-0.006787427,-0.18554768,0.01713436,-0.99794465,-0.0049661007,-0.0043688063,0.06374012,0.09776278,-0.00055258215,0.015079263,-0.9950954,1
1191685594,-0.11024672,-0.17644057,0.061951835,-0.9979497,-0.00489526,-0.00507568,0.06361344,0.09776278,-0.00055258215,0.015079263,-0.9950954,1
1191729547,0.14067101,-0.058906823,0.009584833,-0.9979477,-0.0052177487,-0.0056077023,0.063574955,0.09776278,-0.00055258215,0.015079263,-0.9950954,1
1191769621,-0.04775524,-0.0984067,0.08594599,-0.99794894,-0.005113,-0.0059358063,0.06353385,0.09776278,-0.00055258215,0.015079263,-0.9950954,1
1191813389,0.1265996,0.011748251,0.021020563,-0.9979466,-0.0052667265,-0.00620684,0.063532315,0.09776278,-0.00055258215,0.015079263,-0.9950954,1
1191853631,0.017267708,-0.092328854,0.034091428,-0.9979529,-0.004929409,-0.0063380487,0.06344778,0.09776278,-0.00055258215,0.015079263,-0.9950954,1
1191897408,0.38806877,0.1559761,-0.08923347,-0.99794227,-0.005235282,-0.0068663284,0.06353571,0.09776278,-0.00055258215,0.015079263,-0.9950954,1
1191937821,-0.10862962,-0.01965961,0.083621226,-0.997952,-0.0045864573,-0.00704949,0.06341339,0.09776278,-0.00055258215,0.015079263,-0.9950954,1
1191981357,0.36854398,0.22704348,-0.061332185,-0.99793476,-0.0050389343,-0.00754584,0.06359253,0.09776278,-0.00055258215,0.015079263,-0.9950954,1
1192021392,0.068877265,0.001071509,0.010081394,-0.99794006,-0.0044486444,-0.007520286,0.0635563,0.09776278,-0.00055258215,0.015079263,-0.9950954,1
1192065444,0.18630734,0.03136439,-0.04402501,-0.997923,-0.0044431104,-0.007925165,0.06377507,0.09776278,-0.00055258215,0.015079263,-0.9950954,1
1192105595,-0.12702054,-0.2087049,0.06541462,-0.99792033,-0.0039460813,-0.008254415,0.063807085,0.09776278,-0.00055258215,0.015079263,-0.9950954,1
1192149389,0.054823298,-0.13648735,-0.0074001355,-0.9979028,-0.0041082725,-0.008706227,0.06401042,0.09776278,-0.00055258215,0.015079263,-0.9950954,1
1192189634,-0.10785912,-0.1646657,0.047433477,-0.99789023,-0.0040170043,-0.009311198,0.06412678,0.09776278,-0.00055258215,0.015079263,-0.9950954,1
1192233597,0.05033277,-0.07842502,-0.016831072,-0.9978731,-0.004151254,-0.009597719,0.064343035,0.09776278,-0.00055258215,0.015079263,-0.9950954,1
1192273609,0.13723342,0.017221844,0.05955814,-0.9978573,-0.0043263827,-0.009961004,0.06452141,0.09776278,-0.00055258215,0.015079263,-0.9950954,1
1192317387,0.17477024,0.124888755,-0.017174771,-0.9978343,-0.004630729,-0.010244117,0.064808846,0.09776278,-0.00055258215,0.015079263,-0.9950954,1
1192357515,-0.08785135,-0.13797723,0.017483007,-0.997824,-0.004412435,-0.0102397725,0.064984456,0.09776278,-0.00055258215,0.015079263,-0.9950954,1
1192401370,0.2586643,0.04579888,-0.05564937,-0.9977949,-0.005088633,-0.010766771,0.06529541,0.09776278,-0.00055258215,0.015079263,-0.9950954,1
1192441587,-0.11512723,-0.17960842,0.052338652,-0.9977844,-0.0049359645,-0.011023112,0.0654262,0.09776278,-0.00055258215,0.015079263,-0.9950954,1
1192485412,-0.03889467,-0.18671824,-0.012304079,-0.9977571,-0.00542622,-0.011235277,0.065766804,0.09776278,-0.00055258215,0.015079263,-0.9950954,1
1192525566,0.3159021,0.25798243,0.01975635,-0.99773145,-0.006074826,-0.011937352,0.06597497,0.09776278,-0.00055258215,0.015079263,-0.9950954,1
1192569379,0.28715938,0.12687325,-0.016428452,-0.99770623,-0.006446853,-0.012162024,0.066278614,0.09776278,-0.00055258215,0.015079263,-0.9950954,1
1192609570,-0.11751343,-0.123858616,0.019609783,-0.997703,-0.006051567,-0.012032618,0.066388644,0.09776278,-0.00055258215,0.015079263,-0.9950954,1
1192653562,0.044827797,-0.13360208,0.0042370204,-0.9976817,-0.006456331,-0.0122462,0.06663208,0.09776278,-0.00055258215,0.015079263,-0.9950954,1
1192693636,-0.31588218,-0.2622937,0.04185359,-0.99767727,-0.006006773,-0.012398769,0.06671166,0.09776278,-0.00055258215,0.015079263,-0.9950954,1
1192737384,-0.20555775,-0.2968253,0.037448917,-0.99766845,-0.0059935856,-0.012408632,0.066842645,0.09776278,-0.00055258215,0.015079263,-0.9950954,1
1192777506,-0.052936666,-0.03257426,0.010337989,-0.9976569,-0.0059461547,-0.012729453,0.06695868,0.09776278,-0.00055258215,0.015079263,-0.9950954,1
1192821375,-0.024909202,-0.1602565,0.08565351,-0.9976663,-0.0054276977,-0.012504607,0.06690545,0.09776278,-0.00055258215,0.015079263,-0.9950954,1
1192861526,-0.19873561,-0.10950304,0.054451585,-0.9976735,-0.0046493574,-0.012272259,0.06689826,0.09776278,-0.00055258215,0.015079263,-0.9950954,1
1192905609,-0.026649518,-0.06523031,0.040573668,-0.9976824,-0.004543902,-0.011994733,0.06682403,0.09776278,-0.00055258215,0.015079263,-0.9950954,1
1192945652,-0.2155197,-0.074781656,0.042504236,-0.99769366,-0.00404693,-0.011563598,0.066764496,0.09776278,-0.00055258215,0.015079263,-0.9950954,1
1192989382,0.095829144,-0.081085935,-0.0013203664,-0.9977025,-0.0042967033,-0.011151494,0.066686265,0.09776278,-0.00055258215,0.015079263,-0.9950954,1
1193029485,-0.08419128,-0.122156404,0.04239753,-0.9977239,-0.0038132432,-0.010634203,0.06647892,0.09776278,-0.00055258215,0.015079263,-0.9950954,1
1193073612,0.07860412,-0.19249545,0.036876436,-0.99773675,-0.00402753,-0.010062679,0.06636151,0.09776278,-0.00055258215,0.015079263,-0.9950954,1
1193113561,-0.016320767,0.042802535,0.0042444887,-0.9977478,-0.0035522927,-0.009618019,0.06628929,0.09776278,-0.00055258215,0.015079263,-0.9950954,1
1193157359,0.17508379,0.07987192,0.009119785,-0.9977656,-0.003419387,-0.008932169,0.06612427,0.09776278,-0.00055258215,0.015079263,-0.9950954,1
1193197401,-0.057289287,-0.12645914,0.0060628788,-0.99779123,-0.0024781476,-0.007842555,0.065916926,0.09776278,-0.00055258215,0.015079263,-0.9950954,1
1193241388,0.093423925,-0.0759014,0.003248312,-0.9978095,-0.0019862417,-0.0072189146,0.065728396,0.09776278,-0.00055258215,0.015079263,-0.9950954,1
1193281479,-0.019596543,-0.24239808,0.022276415,-0.997828,-0.0010570743,-0.006730736,0.0655199,0.09776278,-0.00055258215,0.015079263,-0.9950954,1
1193325555,-0.09335188,-0.265206,0.028979069,-0.997846,-0.00013622818,-0.0061680456,0.06530942,0.09776278,-0.00055258215,0.015079263,-0.9950954,1
1193365511,0.011430799,-0.08021812,0.060283385,-0.99785405,0.00028759506,-0.0062401355,0.06517987,0.09776278,-0.00055258215,0.015079263,-0.9950954,1
1193409368,0.10824246,0.066112906,-0.0019356207,-0.9978627,0.00088553515,-0.0060100323,0.06506352,0.09776278,-0.00055258215,0.015079263,-0.9950954,1
1193449400,0.2416666,0.120539725,-0.0149970185,-0.9978718,0.0014185149,-0.0057552457,0.064936414,0.09776278,-0.00055258215,0.015079263,-0.9950954,1
1193493546,0.054615587,0.06238415,-0.008200792,-0.9978821,0.002120666,-0.0053408453,0.06479371,0.09776278,-0.00055258215,0.015079263,-0.9950954,1
1193533555,0.15341063,0.033956,-0.027324356,-0.99788874,0.0023770528,-0.005007976,0.064709716,0.09776278,-0.00055258215,0.015079263,-0.9950954,1
1193577341,-0.122355275,-0.072640814,-0.022212544,-0.99789315,0.00265649,-0.0046676816,0.06465773,0.09776278,-0.00055258215,0.015079263,-0.9950954,1
1193617381,-0.16387045,-0.26568058,-0.002950957,-0.9979038,0.0026242235,-0.0043447637,0.06451534,0.09776278,-0.00055258215,0.015079263,-0.9950954,1
1193661374,-0.31725568,-0.2551373,0.037694406,-0.9979109,0.0026603774,-0.00415277,0.06441704,0.09776278,-0.00055258215,0.015079263,-0.9950954,1
1193701516,-0.0045062657,-0.055996783,0.023653982,-0.9979151,0.0021875098,-0.0040875287,0.064375475,0.09776278,-0.00055258215,0.015079263,-0.9950954,1
1193745503,-0.03263742,0.1786434,0.041350774,-0.9979201,0.0021956651,-0.0039994954,0.06430153,0.09776278,-0.00055258215,0.015079263,-0.9950954,1
1193789368,0.10048288,0.21722779,0.008153946,-0.9979216,0.0020134184,-0.003935428,0.06428888,0.09776278,-0.00055258215,0.015079263,-0.9950954,1
1193833549,-0.05730772,-0.022661015,0.01788242,-0.99792,0.0021049057,-0.003694795,0.06432556,0.09776278,-0.00055258215,0.015079263,-0.9950954,1
1193873499,-0.02448955,0.08196862,-0.05245911,-0.99791205,0.0023482775,-0.0036855605,0.064439476,0.09776278,-0.00055258215,0.015079263,-0.9950954,1
1193917539,0.014866447,-0.12977135,-0.02347576,-0.9979095,0.0025000505,-0.0036112792,0.064478576,0.09776278,-0.00055258215,0.015079263,-0.9950954,1
1193957582,-0.052415073,-0.13955446,-0.012312502,-0.99790514,0.0029775747,-0.0038898434,0.06450829,0.09776278,-0.00055258215,0.015079263,-0.9950954,1
1194001510,0.10726473,-0.09254952,-0.008800668,-0.9979008,0.0032789004,-0.0040823817,0.06454953,0.09776278,-0.00055258215,0.015079263,-0.9950954,1
1194045498,0.023587357,-0.050240725,-0.010741605,-0.99789345,0.003883138,-0.004161872,0.064623564,0.09776278,-0.00055258215,0.015079263,-0.9950954,1
1194085545,0.05445785,0.032410074,0.044080853,-0.99788684,0.004113064,-0.004496334,0.06468964,0.09776278,-0.00055258215,0.015079263,-0.9950954,1
1194125507,0.030493507,-0.051751222,0.027371723,-0.9978774,0.004478028,-0.004471443,0.0648132,0.09776278,-0.00055258215,0.015079263,-0.9950954,1
1194169520,0.25709793,0.09303696,-0.01836451,-0.9978663,0.0044662193,-0.0044686184,0.06498484,0.09776278,-0.00055258215,0.015079263,-0.9950954,1
1194213548,-0.12982939,-0.11213418,0.007972513,-0.9978561,0.004881495,-0.0042316774,0.06512832,0.09776278,-0.00055258215,0.015079263,-0.9950954,1
1194257506,-0.028553413,0.07609696,0.006560862,-0.99784666,0.004620439,-0.0043479134,0.06528227,0.09776278,-0.00055258215,0.015079263,-0.9950954,1
1194301562,0.020402292,0.23360851,0.02150669,-0.99784166,0.004351839,-0.004416739,0.065372676,0.09776278,-0.00055258215,0.015079263,-0.9950954,1
1194341488,0.028667703,0.17312542,0.025567507,-0.9978384,0.0040531196,-0.0041045807,0.06546232,0.09776278,-0.00055258215,0.015079263,-0.9950954,1
1194385678,0.13923188,0.24629633,-0.018422205,-0.9978293,0.0035067394,-0.0041814204,0.06562789,0.09776278,-0.00055258215,0.015079263,-0.9950954,1
1194425412,0.14497481,0.13713107,-0.012197264,-0.9978263,0.0028845645,-0.0040564435,0.06571228,0.09776278,-0.00055258215,0.015079263,-0.9950954,1
1194467145,0.14069161,0.21111941,-0.013348265,-0.9978246,0.0022378461,-0.004188572,0.06575416,0.09776278,-0.00055258215,0.015079263,-0.9950954,1
1194511123,-0.15143268,-0.16915056,0.02242985,-0.9978245,0.0020093336,-0.0038923535,0.06578226,0.09776278,-0.00055258215,0.015079263,-0.9950954,1
1194555240,-0.013536422,-0.23237959,0.027261287,-0.9978226,0.0012168594,-0.0040082834,0.06582277,0.09776278,-0.00055258215,0.015079263,-0.9950954,1
1194598965,-0.056115106,-0.23623607,0.030383378,-0.9978236,0.0007830456,-0.0039372216,0.06581951,0.09776278,-0.00055258215,0.015079263,-0.9950954,1
1194639125,0.1574545,0.08586589,0.020053964,-0.99781334,-0.00013485119,-0.004797455,0.06592146,0.09776278,-0.00055258215,0.015079263,-0.9950954,1
1194682989,-0.110515,0.033044517,0.026519474,-0.9978108,-0.00044759567,-0.0051909424,0.06592883,0.09776278,-0.00055258215,0.015079263,-0.9950954,1
1194723227,0.13468836,0.054459255,0.0024667673,-0.997801,-0.0012715302,-0.005636659,0.066029415,0.09776278,-0.00055258215,0.015079263,-0.9950954,1
1194766981,0.047188975,0.07841689,-0.043020733,-0.997788,-0.0018212429,-0.0063746427,0.06614418,0.09776278,-0.00055258215,0.015079263,-0.9950954,1
1194807064,0.09923647,-0.054298356,-0.039454862,-0.99778223,-0.0021606982,-0.0068213567,0.066177614,0.09776278,-0.00055258215,0.015079263,-0.9950954,1
1194850989,-0.054644197,-0.020280102,-0.01323218,-0.9977685,-0.0025761614,-0.0076386803,0.06627997,0.09776278,-0.00055258215,0.015079263,-0.9950954,1
1194891037,-0.12750703,-0.13127892,-0.047365136,-0.99775827,-0.002729161,-0.008177149,0.0663647,0.09776278,-0.00055258215,0.015079263,-0.9950954,1
1194931131,-0.011697585,0.052928105,-0.007896437,-0.9977467,-0.003156111,-0.008972632,0.066416785,0.09776278,-0.00055258215,0.015079263,-0.9950954,1
1194975166,-0.14177696,-0.015128676,-0.0077306936,-0.99773556,-0.0034176698,-0.009513694,0.06649497,0.09776278,-0.00055258215,0.015079263,-0.9950954,1
1195014969,0.022557769,-0.04452359,-0.06446067,-0.9977229,-0.0036567177,-0.009925856,0.066611364,0.09776278,-0.00055258215,0.015079263,-0.9950954,1
1195059218,0.085405216,0.10078974,-0.024594873,-0.99771315,-0.0038818447,-0.010690112,0.06662751,0.09776278,-0.00055258215,0.015079263,-0.9950954,1
1195102949,0.0034974068,0.22459877,0.02203475,-0.9977043,-0.0038445927,-0.011447993,0.066635065,0.09776278,-0.00055258215,0.015079263,-0.9950954,1
1195143190,-0.17407404,-0.0485027,0.059047032,-0.9977009,-0.0037097733,-0.011686556,0.06665199,0.09776278,-0.00055258215,0.015079263,-0.9950954,1
1195186964,-0.09816341,0.070566766,0.015532791,-0.99768436,-0.0037721428,-0.012404161,0.06676751,0.09776278,-0.00055258215,0.015079263,-0.9950954,1
1195227199,-0.016356267,0.13727815,0.02117121,-0.9976741,-0.003908528,-0.012846623,0.066828616,0.09776278,-0.00055258215,0.015079263,-0.9950954,1
1195270973,0.12801176,0.15212712,0.00935328,-0.99766284,-0.0040086037,-0.01333669,0.066895336,0.09776278,-0.00055258215,0.015079263,-0.9950954,1
1195311153,-0.014309149,0.06830552,0.018846024,-0.9976635,-0.0035485066,-0.013374573,0.06690372,0.09776278,-0.00055258215,0.015079263,-0.9950954,1
1195355203,0.28211126,0.26053804,-0.025773413,-0.9976537,-0.0037939027,-0.013750739,0.06696115,0.09776278,-0.00055258215,0.015079263,-0.9950954,1
1195395128,0.020984363,0.045758747,0.0023370162,-0.997661,-0.0032922006,-0.013457185,0.0669373,0.09776278,-0.00055258215,0.015079263,-0.9950954,1
1195438965,0.20420799,0.21984236,-0.031116772,-0.9976595,-0.0034090749,-0.013487837,0.06694839,0.09776278,-0.00055258215,0.015079263,-0.9950954,1
1195479160,0.058446024,-0.05729662,-0.02357614,-0.9976717,-0.0033043418,-0.012957028,0.066876404,0.09776278,-0.00055258215,0.015079263,-0.9950954,1
1195523248,-0.075534284,0.011906156,-0.012994411,-0.9976757,-0.0031781942,-0.012621513,0.066886686,0.09776278,-0.00055258215,0.015079263,-0.9950954,1
1195563287,0.14676449,0.114814065,0.034126338,-0.9976863,-0.0035672467,-0.012240698,0.066779874,0.09776278,-0.00055258215,0.015079263,-0.9950954,1
1195603141,-0.0068056267,-0.078722246,-0.013454547,-0.9976932,-0.003500466,-0.011433329,0.066823445,0.09776278,-0.00055258215,0.015079263,-0.9950954,1
1195647176,0.014069688,0.052630577,0.016266545,-0.9976999,-0.0038420511,-0.010806516,0.06680853,0.09776278,-0.00055258215,0.015079263,-0.9950954,1
1195687193,0.0013328046,-0.23021299,-0.024708461,-0.997707,-0.0040955595,-0.009874647,0.06683132,0.09776278,-0.00055258215,0.015079263,-0.9950954,1
1195731165,-0.19661202,-0.20534736,0.013490153,-0.997719,-0.0040390226,-0.0090437075,0.06677523,0.09776278,-0.00055258215,0.015079263,-0.9950954,1
1195775010,-0.13414189,-0.09984874,-0.06557139,-0.99772084,-0.004122459,-0.008169021,0.066854626,0.09776278,-0.00055258215,0.015079263,-0.9950954,1
1195815122,-0.09337818,0.0007859599,0.046499427,-0.9977304,-0.004284943,-0.007601142,0.066769056,0.09776278,-0.00055258215,0.015079263,-0.9950954,1
1195859009,0.21592882,0.1845493,-0.042718768,-0.997725,-0.00449255,-0.0071538216,0.066883534,0.09776278,-0.00055258215,0.015079263,-0.9950954,1
1195899166,-0.09971039,0.14666736,0.00024296735,-0.9977284,-0.004263703,-0.0065143504,0.066913426,0.09776278,-0.00055258215,0.015079263,-0.9950954,1
1195939141,-0.043432202,-0.024031416,-0.0002595522,-0.9977357,-0.004499376,-0.0058579477,0.066850714,0.09776278,-0.00055258215,0.015079263,-0.9950954,1
1195983187,0.06427875,0.15051824,-0.07731913,-0.9977289,-0.004658536,-0.0057704225,0.06694922,0.09776278,-0.00055258215,0.015079263,-0.9950954,1
1196023189,0.04902026,-0.020819742,-0.0041920734,-0.9977412,-0.0046498016,-0.0052720015,0.06680611,0.09776278,-0.00055258215,0.015079263,-0.9950954,1
1196067172,0.07380301,0.061785705,-0.039077733,-0.9977367,-0.0049176333,-0.0051525445,0.066865295,0.09776278,-0.00055258215,0.015079263,-0.9950954,1
1196107158,-0.091837,0.13107532,-0.02984738,-0.9977362,-0.00516205,-0.0050515807,0.06685999,0.09776278,-0.00055258215,0.015079263,-0.9950954,1
1196151038,-0.029344495,0.11719756,-0.014889879,-0.9977364,-0.0054365993,-0.0050097564,0.0668392,0.09776278,-0.00055258215,0.015079263,-0.9950954,1
1196191175,0.040761147,0.21474013,-0.042516924,-0.99772984,-0.00596084,-0.0049786856,0.06689523,0.09776278,-0.00055258215,0.015079263,-0.9950954,1
1196235060,-0.15325046,-0.0521257,0.040019963,-0.9977373,-0.00585511,-0.0048001637,0.06680523,0.09776278,-0.00055258215,0.015079263,-0.9950954,1
1196275179,0.14913471,0.18718357,-0.053856876,-0.99773324,-0.0061086696,-0.0049763797,0.06683042,0.09776278,-0.00055258215,0.015079263,-0.9950954,1
1196318996,-0.058936417,-0.018413257,-0.0004517226,-0.9977413,-0.0057982053,-0.004785918,0.06675329,0.09776278,-0.00055258215,0.015079263,-0.9950954,1
1196359155,-0.28777343,-0.11545985,0.030936064,-0.99774563,-0.0056418907,-0.0047048815,0.06670631,0.09776278,-0.00055258215,0.015079263,-0.9950954,1
1196403180,-0.15438409,-0.20908214,0.06403433,-0.997747,-0.005696928,-0.0045623654,0.06669161,0.09776278,-0.00055258215,0.015079263,-0.9950954,1
1196443003,-0.08619935,-0.041967884,0.012978058,-0.99774337,-0.0057097757,-0.0047838865,0.06672924,0.09776278,-0.00055258215,0.015079263,-0.9950954,1
1196487190,0.06443533,-0.10980971,0.011136119,-0.99774325,-0.0058636623,-0.0047767926,0.06671845,0.09776278,-0.00055258215,0.015079263,-0.9950954,1
1196527172,0.09548102,0.099094,-0.039833106,-0.9977401,-0.005624899,-0.00485552,0.066779286,0.09776278,-0.00055258215,0.015079263,-0.9950954,1
1196571034,0.35004997,0.18260974,-0.031919897,-0.9977339,-0.0058985134,-0.005006383,0.06683666,0.09776278,-0.00055258215,0.015079263,-0.9950954,1
1196611114,-0.110842854,-0.06919649,0.021292303,-0.99773765,-0.0052123205,-0.0046813274,0.06686284,0.09776278,-0.00055258215,0.015079263,-0.9950954,1
1196655198,0.117106915,-0.009718431,0.02629779,-0.99773145,-0.005311532,-0.0046837,0.066947885,0.09776278,-0.00055258215,0.015079263,-0.9950954,1
1196695179,0.086905405,-0.14065881,-0.029258423,-0.9977234,-0.005199119,-0.004743803,0.06707032,0.09776278,-0.00055258215,0.015079263,-0.9950954,1
1196739180,0.08194372,-0.108037405,-0.005960064,-0.9977234,-0.00497846,-0.0046783877,0.06709349,0.09776278,-0.00055258215,0.015079263,-0.9950954,1
1196779005,-0.0045924895,-0.21866256,0.008008275,-0.9977208,-0.0049414216,-0.0049864035,0.067112595,0.09776278,-0.00055258215,0.015079263,-0.9950954,1
1196819163,-0.15814959,-0.17800474,0.093454644,-0.99772125,-0.0048602372,-0.005186971,0.06709645,0.09776278,-0.00055258215,0.015079263,-0.9950954,1
1196863200,0.14477755,0.037144847,0.050248314,-0.99771297,-0.0052972096,-0.005506342,0.067160115,0.09776278,-0.00055258215,0.015079263,-0.9950954,1
1196907162,-0.028276552,0.005762778,0.009228835,-0.9977136,-0.005211717,-0.0056109573,0.067149155,0.09776278,-0.00055258215,0.015079263,-0.9950954,1
1196951165,-0.24591759,0.00081483833,0.036411364,-0.99771297,-0.0051913713,-0.0061352174,0.067114435,0.09776278,-0.00055258215,0.015079263,-0.9950954,1
1196991195,-0.025678355,0.047456823,0.008393231,-0.9977111,-0.005514406,-0.00653292,0.06707907,0.09776278,-0.00055258215,0.015079263,-0.9950954,1
1197035177,0.059873782,0.16990103,-0.010970784,-0.9977054,-0.0058732354,-0.007277419,0.06705578,0.09776278,-0.00055258215,0.015079263,-0.9950954,1
1197075260,-0.13558133,-0.029143605,-0.007564237,-0.99771,-0.0057342346,-0.007549529,0.066970095,0.09776278,-0.00055258215,0.015079263,-0.9950954,1
1197119171,0.00272437,0.16496693,-0.01542746,-0.9977073,-0.00614807,-0.008303038,0.0668839,0.09776278,-0.00055258215,0.015079263,-0.9950954,1
1197159195,-0.24483009,-0.11224513,0.05139376,-0.99771714,-0.00623188,-0.00843154,0.06671284,0.09776278,-0.00055258215,0.015079263,-0.9950954,1
1197202979,0.03490029,0.14536163,0.033439867,-0.9977107,-0.0067194533,-0.009221962,0.06665739,0.09776278,-0.00055258215,0.015079263,-0.9950954,1
1197243060,-0.1920269,-0.08200738,-0.001464792,-0.9977059,-0.0069218543,-0.009695475,0.066642255,0.09776278,-0.00055258215,0.015079263,-0.9950954,1
1197286978,0.13636814,0.16842705,-0.045153696,-0.9976894,-0.0073774094,-0.0107645895,0.06667446,0.09776278,-0.00055258215,0.015079263,-0.9950954,1
1197327208,0.13862813,0.30774862,-0.021864247,-0.9976819,-0.0075573935,-0.011606583,0.06662653,0.09776278,-0.00055258215,0.015079263,-0.9950954,1
1197371009,0.052640684,0.30409572,-0.03413089,-0.99766773,-0.007414304,-0.012633741,0.06666823,0.09776278,-0.00055258215,0.015079263,-0.9950954,1
1197411161,0.12780544,0.34729826,-0.023649871,-0.9976649,-0.007059326,-0.013001732,0.06667857,0.09776278,-0.00055258215,0.015079263,-0.9950954,1
1197455222,-0.011793748,0.25683102,-0.01611431,-0.9976577,-0.006341315,-0.013509566,0.066757165,0.09776278,-0.00055258215,0.015079263,-0.9950954,1
1197495228,0.067962095,0.14129744,-0.046044677,-0.99765474,-0.005960483,-0.013799645,0.066777356,0.09776278,-0.00055258215,0.015079263,-0.9950954,1
1197538994,-0.036157407,-0.04742143,-0.0018548958,-0.99765813,-0.0055250353,-0.013933358,0.06673522,0.09776278,-0.00055258215,0.015079263,-0.9950954,1
1197579187,-0.0033859424,0.07828395,-0.01762524,-0.9976474,-0.0056721615,-0.014377242,0.066788495,0.09776278,-0.00055258215,0.015079263,-0.9950954,1
1197618959,-0.0027425643,0.2085034,0.003990846,-0.99764264,-0.0060186745,-0.014678223,0.06676391,0.09776278,-0.00055258215,0.015079263,-0.9950954,1
1197659091,-0.20275974,-0.14381011,-0.00511177,-0.99764836,-0.0059538,-0.014463401,0.0667313,0.09776278,-0.00055258215,0.015079263,-0.9950954,1
1197702996,-0.09045163,0.09381566,0.013181623,-0.99764115,-0.006392698,-0.015058651,0.06666877,0.09776278,-0.00055258215,0.015079263,-0.9950954,1
1197747122,0.027155524,0.17463572,0.0127932215,-0.99763864,-0.0065575913,-0.015399647,0.06661066,0.09776278,-0.00055258215,0.015079263,-0.9950954,1
1197790988,-0.018424021,-0.009414876,-0.0135548655,-0.99764097,-0.006706726,-0.015372803,0.06656737,0.09776278,-0.00055258215,0.015079263,-0.9950954,1
1197831018,-0.018447768,0.10323454,-0.030431692,-0.99764836,-0.0066960608,-0.015273438,0.066481024,0.09776278,-0.00055258215,0.015079263,-0.9950954,1
1197875017,-0.16970047,-0.13849862,-0.0019609788,-0.99766284,-0.006662143,-0.014877113,0.06635647,0.09776278,-0.00055258215,0.015079263,-0.9950954,1
1197915052,-0.000554502,0.03444443,-0.021863643,-0.99767065,-0.0068761464,-0.014779334,0.066239715,0.09776278,-0.00055258215,0.015079263,-0.9950954,1
1197958939,0.007867643,-0.18610372,-0.0020512498,-0.9976931,-0.006876755,-0.014199092,0.06602754,0.09776278,-0.00055258215,0.015079263,-0.9950954,1
1197999061,-0.046015266,0.0018580984,0.0074905315,-0.99770516,-0.006812073,-0.0140074445,0.065892614,0.09776278,-0.00055258215,0.015079263,-0.9950954,1
1198042958,0.052459247,-0.096504815,0.05734617,-0.9977333,-0.006920657,-0.0132438345,0.06561318,0.09776278,-0.00055258215,0.015079263,-0.9950954,1
1198083226,-0.17070857,-0.12973258,0.0433136,-0.99775314,-0.006749361,-0.012566525,0.06546277,0.09776278,-0.00055258215,0.015079263,-0.9950954,1
1198127140,0.16305408,0.03298772,0.039419394,-0.9977698,-0.007321682,-0.012061218,0.06524125,0.09776278,-0.00055258215,0.015079263,-0.9950954,1
1198167163,0.00029990263,-0.17535347,0.022845889,-0.9977911,-0.007409911,-0.011567883,0.06499514,0.09776278,-0.00055258215,0.015079263,-0.9950954,1
1198210946,0.12765625,-0.104627475,-0.023250556,-0.9978014,-0.007898806,-0.01159063,0.06477373,0.09776278,-0.00055258215,0.015079263,-0.9950954,1
1198251173,0.2508848,0.042130243,-0.006720643,-0.9978094,-0.008317724,-0.012186172,0.06448882,0.09776278,-0.00055258215,0.015079263,-0.9950954,1
1198295163,-0.14480165,-0.14467736,2.3645902e-05,-0.9978307,-0.008397522,-0.012089591,0.064166844,0.09776278,-0.00055258215,0.015079263,-0.9950954,1
1198335139,0.051514722,0.016981972,0.018498514,-0.9978412,-0.009041043,-0.012311977,0.06387339,0.09776278,-0.00055258215,0.015079263,-0.9950954,1
1198379225,-0.00437936,0.031774797,0.01644734,-0.99786407,-0.009257996,-0.012254469,0.063494466,0.09776278,-0.00055258215,0.015079263,-0.9950954,1
1198419155,-0.07695229,-0.16639718,0.011576501,-0.997888,-0.0092731435,-0.012043396,0.063155346,0.09776278,-0.00055258215,0.015079263,-0.9950954,1
1198463018,0.045602962,0.0956518,0.044472884,-0.9979079,-0.009607966,-0.012502393,0.062699944,0.09776278,-0.00055258215,0.015079263,-0.9950954,1
1198503059,-0.21931833,-0.08437455,0.08094367,-0.9979313,-0.009518342,-0.012611805,0.062317893,0.09776278,-0.00055258215,0.015079263,-0.9950954,1
1198547137,-0.07911175,0.10709215,-0.007877885,-0.99794143,-0.0095882695,-0.013105896,0.062043358,0.09776278,-0.00055258215,0.015079263,-0.9950954,1
1198587032,0.25492677,0.29609382,0.016748447,-0.99795765,-0.009787386,-0.01332042,0.06170465,0.09776278,-0.00055258215,0.015079263,-0.9950954,1
1198631147,0.1335289,0.14491946,0.00095912645,-0.9979797,-0.009338442,-0.013276446,0.061425533,0.09776278,-0.00055258215,0.015079263,-0.9950954,1
1198671058,0.0008927379,0.12186016,-0.06266524,-0.9980014,-0.008353423,-0.013032828,0.061267417,0.09776278,-0.00055258215,0.015079263,-0.9950954,1
1198715086,-0.22855534,-0.20668483,0.021409232,-0.9980349,-0.00721123,-0.012444047,0.060987685,0.09776278,-0.00055258215,0.015079263,-0.9950954,1
1198755249,-0.27346852,-0.23621468,0.010106703,-0.9980492,-0.0064857565,-0.012180521,0.06088824,0.09776278,-0.00055258215,0.015079263,-0.9950954,1
1198798963,-0.09253386,-0.25273913,0.025826054,-0.9980671,-0.005817135,-0.011551629,0.06078521,0.09776278,-0.00055258215,0.015079263,-0.9950954,1
1198840736,0.054661497,-0.0051221102,0.011152545,-0.9980705,-0.0053080083,-0.011297181,0.060824152,0.09776278,-0.00055258215,0.015079263,-0.9950954,1
1198880716,-0.13918988,-0.14245616,0.030196076,-0.99808204,-0.004524517,-0.010611352,0.060821652,0.09776278,-0.00055258215,0.015079263,-0.9950954,1
1198924831,0.05883202,0.06138395,-0.037214465,-0.9980808,-0.004107645,-0.010158636,0.060949586,0.09776278,-0.00055258215,0.015079263,-0.9950954,1
1198964739,0.05164796,-0.13001461,-0.025631798,-0.9980879,-0.0035971848,-0.009491178,0.06097314,0.09776278,-0.00055258215,0.015079263,-0.9950954,1
1199008887,-0.19922039,-0.2901548,0.025580864,-0.9980943,-0.002722145,-0.008772549,0.061020628,0.09776278,-0.00055258215,0.015079263,-0.9950954,1
1199048875,0.14554429,0.07423952,-0.012588674,-0.998089,-0.0023152386,-0.008662577,0.061139733,0.09776278,-0.00055258215,0.015079263,-0.9950954,1
1199092813,-0.14087903,-0.09300469,0.055079143,-0.99809176,-0.0016594828,-0.008023218,0.061203483,0.09776278,-0.00055258215,0.015079263,-0.9950954,1
1199136780,0.118909925,0.21006782,0.016207537,-0.9980803,-0.0015777884,-0.008078204,0.06138416,0.09776278,-0.00055258215,0.015079263,-0.9950954,1
1199176821,0.18142298,0.18670383,-0.029763782,-0.99807286,-0.0013105543,-0.0076987534,0.061559785,0.09776278,-0.00055258215,0.015079263,-0.9950954,1
1199220575,-0.00885354,0.16907024,-0.06935809,-0.9980602,-0.00085281936,-0.00759212,0.061786685,0.09776278,-0.00055258215,0.015079263,-0.9950954,1
1199264731,-0.26653114,-0.21388291,0.012977857,-0.998059,-0.00016140257,-0.0071441815,0.061866507,0.09776278,-0.00055258215,0.015079263,-0.9950954,1
1199304733,-0.17818764,-0.083083324,-0.06537125,-0.9980491,0.00016283907,-0.00726852,0.062011342,0.09776278,-0.00055258215,0.015079263,-0.9950954,1
1199348724,-0.07857306,-0.1169634,0.0056336215,-0.9980475,0.00041534734,-0.00723463,0.062038057,0.09776278,-0.00055258215,0.015079263,-0.9950954,1
1199388729,-0.32173717,-0.21880758,-0.0014736749,-0.9980424,0.0005384604,-0.0072227577,0.062121365,0.09776278,-0.00055258215,0.015079263,-0.9950954,1
1199432586,0.21270135,0.0920066,0.009615444,-0.9980353,-0.00014741613,-0.0075885956,0.062192652,0.09776278,-0.00055258215,0.015079263,-0.9950954,1
1199472614,0.017199503,-0.030302651,0.0015756973,-0.99802893,-0.00019141378,-0.0075574378,0.06229838,0.09776278,-0.00055258215,0.015079263,-0.9950954,1
1199516774,0.25300142,0.17265752,-0.046512615,-0.99801886,-0.0007909353,-0.007691393,0.062439088,0.09776278,-0.00055258215,0.015079263,-0.9950954,1
1199556732,0.19289774,0.10618058,0.015492049,-0.99801844,-0.00091964746,-0.007585561,0.062457528,0.09776278,-0.00055258215,0.015079263,-0.9950954,1
1199600702,0.051813655,-0.12422354,-0.020765167,-0.99801135,-0.0009758873,-0.0071428968,0.06262102,0.09776278,-0.00055258215,0.015079263,-0.9950954,1
1199640731,0.032376,-0.0056221206,0.026822766,-0.99800843,-0.0009243789,-0.0071925195,0.06266273,0.09776278,-0.00055258215,0.015079263,-0.9950954,1
1199684727,0.07341872,-0.050219107,-0.020662889,-0.99800116,-0.0009619987,-0.006895943,0.06281082,0.09776278,-0.00055258215,0.015079263,-0.9950954,1
1199724720,0.027158758,-0.10905737,0.035943855,-0.99799925,-0.0008760931,-0.0065236543,0.06288175,0.09776278,-0.00055258215,0.015079263,-0.9950954,1
1199768770,-0.018338121,0.0012376606,0.0034560447,-0.9979942,-0.0008569343,-0.0062583443,0.0629906,0.09776278,-0.00055258215,0.015079263,-0.9950954,1
1199808729,0.12009443,-0.17769402,-0.020324534,-0.9979878,-0.0010550227,-0.00586964,0.06312578,0.09776278,-0.00055258215,0.015079263,-0.9950954,1
1199852803,-0.0079280455,-0.14146905,0.010708071,-0.99798626,-0.0011374928,-0.0055919155,0.063172914,0.09776278,-0.00055258215,0.015079263,-0.9950954,1
1199892756,0.23983538,0.08680305,-0.032150324,-0.99797267,-0.0015711472,-0.0057213055,0.06336672,0.09776278,-0.00055258215,0.015079263,-0.9950954,1
1199937024,-0.13202114,-0.027872698,-0.029594809,-0.997965,-0.0015525486,-0.005580893,0.06350217,0.09776278,-0.00055258215,0.015079263,-0.9950954,1
1199976731,-0.044951342,-0.037730515,-0.042784534,-0.9979606,-0.0017698143,-0.0052458593,0.06359152,0.09776278,-0.00055258215,0.015079263,-0.9950954,1
1200020725,-0.10044743,-0.04607526,-0.037567146,-0.9979536,-0.0019806167,-0.0051446515,0.06370463,0.09776278,-0.00055258215,0.015079263,-0.9950954,1
1200060825,-0.057236556,-0.23818469,-0.032414075,-0.99795413,-0.001973158,-0.004817036,0.06372255,0.09776278,-0.00055258215,0.015079263,-0.9950954,1
1200104558,-0.08955546,-0.025718722,0.021046782,-0.9979512,-0.0017887057,-0.0048538386,0.06377034,0.09776278,-0.00055258215,0.015079263,-0.9950954,1
1200144616,-0.056677256,-0.027620474,-0.010426999,-0.99794424,-0.0019680557,-0.0046627154,0.06388851,0.09776278,-0.00055258215,0.015079263,-0.9950954,1
1200188814,0.13951617,0.21874818,0.035486422,-0.9979398,-0.0022147673,-0.0045148437,0.063960105,0.09776278,-0.00055258215,0.015079263,-0.9950954,1
1200228817,-0.0047436208,-0.005007824,-0.0021476434,-0.9979413,-0.0020741087,-0.0036032493,0.06400047,0.09776278,-0.00055258215,0.015079263,-0.9950954,1
1200272729,0.1672296,0.21139628,-0.038831796,-0.9979366,-0.0026853972,-0.0031696125,0.06407197,0.09776278,-0.00055258215,0.015079263,-0.9950954,1
1200312573,0.08324834,-0.020445526,0.03124679,-0.99794465,-0.0030785683,-0.002158785,0.063972026,0.09776278,-0.00055258215,0.015079263,-0.9950954,1
1200356756,0.014208229,-0.08661694,0.032553434,-0.9979457,-0.0037699675,-0.0013110518,0.06394137,0.09776278,-0.00055258215,0.015079263,-0.9950954,1
1200396769,0.014283037,0.005773181,0.025640834,-0.9979437,-0.004500194,-0.00074869976,0.063934214,0.09776278,-0.00055258215,0.015079263,-0.9950954,1
1200440608,0.20138115,0.2203075,0.020724108,-0.99793965,-0.00565081,-0.0002993383,0.06390935,0.09776278,-0.00055258215,0.015079263,-0.9950954,1
1200480734,-0.082678914,0.03303934,0.037320264,-0.9979409,-0.0059859813,0.00055449165,0.06385828,0.09776278,-0.00055258215,0.015079263,-0.9950954,1
1200524762,0.05917468,0.1885061,-0.009516689,-0.9979374,-0.0068970006,0.0006922518,0.063819505,0.09776278,-0.00055258215,0.015079263,-0.9950954,1
1200564783,0.04953733,-0.060738154,0.018995317,-0.9979401,-0.0075405,0.0009733448,0.063700676,0.09776278,-0.00055258215,0.015079263,-0.9950954,1
1200608781,-0.13714485,-0.10496873,-0.0108764395,-0.99794066,-0.0077238614,0.0010843016,0.06366755,0.09776278,-0.00055258215,0.015079263,-0.9950954,1
1200648748,0.1695767,0.26022097,0.031987607,-0.9979418,-0.008429356,0.00072495727,0.063566715,0.09776278,-0.00055258215,0.015079263,-0.9950954,1
1200692841,0.018803187,0.20826662,-0.0615703,-0.9979352,-0.008674494,0.00071594707,0.06363729,0.09776278,-0.00055258215,0.015079263,-0.9950954,1
1200732514,0.012540563,0.14245248,-0.07695613,-0.9979351,-0.008904944,0.0009035439,0.063604206,0.09776278,-0.00055258215,0.015079263,-0.9950954,1
1200776610,0.020205822,0.10716988,-0.08257552,-0.99793434,-0.008928835,0.00089162926,0.06361251,0.09776278,-0.00055258215,0.015079263,-0.9950954,1
1200816706,0.006205285,0.18369472,-0.036893137,-0.9979376,-0.008956322,0.00087191904,0.063558005,0.09776278,-0.00055258215,0.015079263,-0.9950954,1
1200860761,-0.2361759,0.031191178,0.048622813,-0.99794763,-0.0083826855,0.0012878537,0.06347179,0.09776278,-0.00055258215,0.015079263,-0.9950954,1
1200900879,0.15031987,0.1786988,-0.04441997,-0.99793667,-0.00846075,0.0016280472,0.06362732,0.09776278,-0.00055258215,0.015079263,-0.9950954,1
1200944727,-0.094669074,-0.051429987,-0.025538275,-0.9979392,-0.0076790918,0.002328992,0.063664064,0.09776278,-0.00055258215,0.015079263,-0.9950954,1
1200984716,-0.09682247,0.010989651,0.007758517,-0.9979374,-0.0072909123,0.002732147,0.06372221,0.09776278,-0.00055258215,0.015079263,-0.9950954,1
1201028785,-0.12459606,-0.061197303,-0.032972552,-0.997932,-0.0066663786,0.0036329455,0.06382925,0.09776278,-0.00055258215,0.015079263,-0.9950954,1
1201068802,0.04956413,0.15474585,0.0071038697,-0.9979238,-0.006349803,0.00429139,0.06394842,0.09776278,-0.00055258215,0.015079263,-0.9950954,1
1201112733,0.100592315,0.05898989,-0.052363098,-0.9979119,-0.00573386,0.0051724743,0.06412693,0.09776278,-0.00055258215,0.015079263,-0.9950954,1
1201152618,0.10077563,0.2174812,-0.085409686,-0.99790335,-0.004977384,0.005722026,0.06427685,0.09776278,-0.00055258215,0.015079263,-0.9950954,1
1201196745,-0.1435878,-0.07756069,-0.06702482,-0.9978962,-0.0040378203,0.0064386614,0.06438541,0.09776278,-0.00055258215,0.015079263,-0.9950954,1
1201236617,0.08680077,0.048325453,-0.059052918,-0.9978868,-0.003850223,0.006520701,0.06453523,0.09776278,-0.00055258215,0.015079263,-0.9950954,1
1201280741,-0.0709067,-0.07364976,-0.04901449,-0.997876,-0.0030247245,0.0068322932,0.06471343,0.09776278,-0.00055258215,0.015079263,-0.9950954,1
1201320732,0.0843721,0.15673922,0.0054156105,-0.99786156,-0.0029076114,0.006547671,0.06496879,0.09776278,-0.00055258215,0.015079263,-0.9950954,1
1201364858,0.043349605,0.23141314,-0.05697772,-0.9978371,-0.0024728272,0.0064575966,0.0653702,0.09776278,-0.00055258215,0.015079263,-0.9950954,1
1201404619,0.07852683,0.14958729,-0.059859157,-0.9978108,-0.0023630017,0.006640553,0.06575775,0.09776278,-0.00055258215,0.015079263,-0.9950954,1
1201448780,0.12941855,0.18883672,-0.13215981,-0.9977797,-0.0023527208,0.0063202493,0.06625933,0.09776278,-0.00055258215,0.015079263,-0.9950954,1
1201488826,0.3050447,0.225112,-0.06041149,-0.9977607,-0.0025795288,0.0058942367,0.066574164,0.09776278,-0.00055258215,0.015079263,-0.9950954,1
1201532613,0.24584574,0.18109436,-0.11466685,-0.997725,-0.0029178453,0.005378063,0.06713832,0.09776278,-0.00055258215,0.015079263,-0.9950954,1
1201572738,0.07536292,0.025569271,-0.002211678,-0.99770224,-0.0034693477,0.0049138097,0.067484826,0.09776278,-0.00055258215,0.015079263,-0.9950954,1
1201616719,0.18295223,0.1455084,-0.05126779,-0.9976648,-0.0046310984,0.004233482,0.06801225,0.09776278,-0.00055258215,0.015079263,-0.9950954,1
1201656709,-0.056654863,-0.07696787,0.06809534,-0.9976426,-0.005511297,0.003813547,0.068296336,0.09776278,-0.00055258215,0.015079263,-0.9950954,1
1201700813,0.26804823,0.32517013,-0.013160027,-0.9976079,-0.007133189,0.0026206432,0.06870897,0.09776278,-0.00055258215,0.015079263,-0.9950954,1
1201740713,-0.24071321,-0.17160401,0.054021925,-0.9975885,-0.00769241,0.002280699,0.068940245,0.09776278,-0.00055258215,0.015079263,-0.9950954,1
1201784690,0.0052567944,0.10676943,-0.0013244472,-0.99755687,-0.009298581,0.00068567257,0.069235146,0.09776278,-0.00055258215,0.015079263,-0.9950954,1
1201824734,-0.064551786,-0.17894632,-0.010538867,-0.99754095,-0.010296659,-0.00012491591,0.069326095,0.09776278,-0.00055258215,0.015079263,-0.9950954,1
1201868835,-0.06603417,-0.16163337,0.009281568,-0.9975295,-0.011497621,-0.0014098855,0.06928809,0.09776278,-0.00055258215,0.015079263,-0.9950954,1
