timestamp,ref_timestamp,ref_lat,ref_lon,x,y,z,delta_xy[0],delta_xy[1],delta_z,vx,vy,vz,z_deriv,delta_vxy[0],delta_vxy[1],delta_vz,ax,ay,az,yaw,ref_alt,dist_bottom,dist_bottom_rate,eph,epv,evh,evv,vxy_max,vz_max,hagl_min,hagl_max,xy_valid,z_valid,v_xy_valid,v_z_valid,xy_reset_counter,z_reset_counter,vxy_reset_counter,vz_reset_counter,xy_global,z_global,dist_bottom_valid
1184938402,23430021,37.1024694,-76.3883658,7.094977,-7.2717037,2.0611799,0.00047478138,0.002704866,0.0,0.06772954,0.09457706,-0.005280725,-0.0122647025,-0.018912507,-0.01135617,0.065236606,0.0060059824,0.018451681,0.009589353,-0.13119853,-0.3826561,0.11687541,0.005280725,0.25587058,0.23362418,0.1398326,0.09355586,inf,inf,inf,inf,1,1,1,1,2,0,2,2,1,1,0
1185038443,23430021,37.1024694,-76.3883658,7.1000013,-7.2614455,2.053193,0.00047478138,0.002704866,0.0,0.06955714,0.09429064,-0.009168483,-0.022337627,-0.018912507,-0.01135617,0.065236606,0.44062895,0.9692806,-0.12387752,-0.13119882,-0.3826561,0.124862194,0.009168483,0.26579097,0.23540112,0.14389151,0.09423633,inf,inf,inf,inf,1,1,1,1,2,0,2,2,1,1,0
1185142303,23430021,37.1024694,-76.3883658,7.1055975,-7.2507544,2.0457287,0.00047478138,0.002704866,0.0,0.070266955,0.09669728,-0.021590171,-0.03938262,-0.018912507,-0.01135617,0.065236606,-0.8162473,-0.6365885,-0.9678497,-0.13103928,-0.3826561,0.1323266,0.021590171,0.25567105,0.23371832,0.13975404,0.09359917,inf,inf,inf,inf,1,1,1,1,2,0,2,2,1,1,0
1185242331,23430021,37.1024694,-76.3883658,7.110915,-7.241146,2.0403855,0.00047478138,0.002704866,0.0,0.049876228,0.08857344,-0.011958554,-0.031533726,-0.018912507,-0.01135617,0.065236606,0.8915818,1.4042655,0.22891393,-0.13094833,-0.3826561,0.1376698,0.011958554,0.2668141,0.23466456,0.1443298,0.09407766,inf,inf,inf,inf,1,1,1,1,2,0,2,2,1,1,0
1185346329,23430021,37.1024694,-76.3883658,7.117617,-7.2309437,2.034632,0.00047478138,0.002704866,0.0,0.06694089,0.09399673,-0.013279714,-0.034679037,-0.018912507,-0.01135617,0.065236606,-1.2832936,0.37099653,0.19346637,-0.1315193,-0.3826561,0.14342332,0.013279714,0.25643563,0.23452368,0.1400648,0.09379932,inf,inf,inf,inf,1,1,1,1,2,0,2,2,1,1,0
1185450307,23430021,37.1024694,-76.3883658,7.1256366,-7.219398,2.032642,0.00047478138,0.002704866,0.0,0.07179937,0.100279056,-0.014356754,-0.033498812,-0.018912507,-0.01135617,0.065236606,0.008535013,0.37998402,-0.04676186,-0.13092794,-0.3826561,0.1454134,0.014356754,0.26761225,0.23547289,0.14462546,0.094278626,inf,inf,inf,inf,1,1,1,1,2,0,2,2,1,1,0
1185550500,23430021,37.1024694,-76.3883658,7.1330757,-7.208705,2.0340793,0.00047478138,0.002704866,0.0,0.06521849,0.10979788,-0.011445815,-0.025537359,-0.018912507,-0.01135617,0.065236606,0.19247332,-0.9803096,-0.14723527,-0.13031675,-0.3826561,0.14397597,0.011445815,0.25625622,0.23476778,0.13993944,0.0938483,inf,inf,inf,inf,1,1,1,1,2,0,2,2,1,1,0
1185651756,23430021,37.1024694,-76.3883658,7.138475,-7.198342,2.033972,0.00047478138,0.002704866,0.0,0.07774805,0.1110675,-0.01278914,-0.02389953,-0.018912507,-0.01135617,0.065236606,-0.37970364,1.1891506,0.12550585,-0.13037014,-0.3826561,0.14408326,0.01278914,0.26741755,0.23570377,0.14452504,0.09432351,inf,inf,inf,inf,1,1,1,1,2,0,2,2,1,1,0
1185755971,23430021,37.1024694,-76.3883658,7.1443744,-7.187316,2.03342,0.00047478138,0.002704866,0.0,0.08109712,0.1043543,-0.022693297,-0.031259842,-0.018912507,-0.01135617,0.065236606,0.06260182,0.21169126,-0.2617375,-0.12982969,-0.3826561,0.1446352,0.022693297,0.25693288,0.23394534,0.14022547,0.09366944,inf,inf,inf,inf,1,1,1,1,2,0,2,2,1,1,0
1185859713,23430021,37.1024694,-76.3883658,7.151055,-7.175757,2.0313456,0.00047478138,0.002704866,0.0,0.07830261,0.10892295,-0.008374686,-0.013848378,-0.018912507,-0.01135617,0.065236606,-2.7557302,-1.0566889,-1.5210062,-0.12841672,-0.3826561,0.14670968,0.008374686,0.26830542,0.23498544,0.14485875,0.09415803,inf,inf,inf,inf,1,1,1,1,2,0,2,2,1,1,0
1185960241,23430021,37.1024694,-76.3883658,7.1557837,-7.176342,2.0200615,0.00047478138,0.002704866,0.0,0.03076012,-0.2027546,-0.2713621,-0.2757141,-0.018912507,-0.01135617,0.065236606,1.9716144,-5.9389815,-2.310773,-0.12867036,-0.3826561,0.1579938,0.2713621,0.2571726,0.23426554,0.14046474,0.09372828,inf,inf,inf,inf,1,1,1,1,2,0,2,2,1,1,0
1186063978,23430021,37.1024694,-76.3883658,7.156075,-7.2126694,1.9789156,0.00047478138,0.002704866,0.0,-0.034380533,-0.36073038,-0.5533195,-0.5580008,-0.018912507,-0.01135617,0.065236606,-1.5287094,-0.14497218,-5.6196246,-0.13014145,-0.3826561,0.19913971,0.5533195,0.26838824,0.23519343,0.14507176,0.09419845,inf,inf,inf,inf,1,1,1,1,2,0,2,2,1,1,0
1186163982,23430021,37.1024694,-76.3883658,7.1543455,-7.243028,1.9022458,0.00047478138,0.002704866,0.0,-0.039041687,-0.37898198,-0.7754902,-0.7870905,-0.018912507,-0.01135617,0.065236606,-3.4062467,-2.932747,-6.4105415,-0.12582675,-0.3826561,0.27580953,0.7754902,0.2580914,0.23504254,0.14226012,0.0939318,inf,inf,inf,inf,1,1,1,1,2,0,2,2,1,1,0
1186264003,23430021,37.1024694,-76.3883658,7.1492305,-7.289787,1.796264,0.00047478138,0.002704866,0.0,-0.10096967,-0.53215486,-0.92128265,-0.9508393,-0.018912507,-0.01135617,0.065236606,1.5004022,-0.11758228,3.349202,-0.11941748,-0.3826561,0.38179123,0.92128265,0.26856652,0.23538917,0.14742607,0.094235644,inf,inf,inf,inf,1,1,1,1,2,0,2,2,1,1,0
1186367805,23430021,37.1024694,-76.3883658,7.1402016,-7.3422656,1.6747086,0.00047478138,0.002704866,0.0,-0.12717712,-0.5474123,-0.96413463,-1.0129029,-0.018912507,-0.01135617,0.065236606,-1.0598215,-1.2867858,2.5847337,-0.11331357,-0.3826561,0.5033467,0.96413463,0.2582876,0.23524041,0.14398962,0.093967,inf,inf,inf,inf,1,1,1,1,2,0,2,2,1,1,0
1186467765,23430021,37.1024694,-76.3883658,7.125257,-7.3989577,1.5649308,0.00047478138,0.002704866,0.0,-0.16507639,-0.5479124,-0.97611594,-1.031348,-0.018912507,-0.01135617,0.065236606,0.034826834,-0.8322787,0.57820517,-0.10875199,-0.3826561,0.6131245,0.97611594,0.26976234,0.23455243,0.14886391,0.09406461,inf,inf,inf,inf,1,1,1,1,2,0,2,2,1,1,0
1186567984,23430021,37.1024694,-76.3883658,7.107573,-7.454018,1.4419314,0.00047478138,0.002704866,0.0,-0.2148818,-0.5507335,-0.9658716,-1.0401437,-0.018912507,-0.01135617,0.065236606,-2.4918017,0.50511396,-1.9512548,-0.10533223,-0.3826561,0.7361239,0.9658716,0.25854337,0.23385888,0.14423421,0.093655646,inf,inf,inf,inf,1,1,1,1,2,0,2,2,1,1,0
1186671914,23430021,37.1024694,-76.3883658,7.0858436,-7.5082774,1.3039597,0.00047478138,0.002704866,0.0,-0.22100048,-0.48945484,-0.9534441,-1.0561864,-0.018912507,-0.01135617,0.065236606,1.3348773,-1.0185199,1.448556,-0.10339664,-0.3826561,0.87409556,0.9534441,0.27004027,0.23480767,0.14889161,0.09413427,inf,inf,inf,inf,1,1,1,1,2,0,2,2,1,1,0
1186771903,23430021,37.1024694,-76.3883658,7.063482,-7.557079,1.1668234,0.00047478138,0.002704866,0.0,-0.25591502,-0.45315972,-0.92710656,-1.0594667,-0.018912507,-0.01135617,0.065236606,-0.7767142,0.5212002,-1.8270695,-0.1029321,-0.3826561,1.0112319,0.92710656,0.2595113,0.23468944,0.14410853,0.09386722,inf,inf,inf,inf,1,1,1,1,2,0,2,2,1,1,0
1186875931,23430021,37.1024694,-76.3883658,7.041146,-7.601956,1.0274135,0.00047478138,0.002704866,0.0,-0.25501314,-0.3839934,-0.91313624,-1.0723393,-0.018912507,-0.01135617,0.065236606,-2.6698592,2.6648402,-0.11473248,-0.102434255,-0.3826561,1.1506418,0.91313624,0.2710344,0.23562996,0.14859548,0.094337165,inf,inf,inf,inf,1,1,1,1,2,0,2,2,1,1,0
1186979953,23430021,37.1024694,-76.3883658,7.020138,-7.6429567,0.8937899,0.00047478138,0.002704866,0.0,-0.23649108,-0.31928074,-0.9130079,-1.0910951,-0.018912507,-0.01135617,0.065236606,-0.978431,-1.6318911,0.09265795,-0.10220757,-0.3826561,1.2842654,0.9130079,0.26055548,0.23388806,0.14394528,0.093690254,inf,inf,inf,inf,1,1,1,1,2,0,2,2,1,1,0
1187079926,23430021,37.1024694,-76.3883658,7.0020037,-7.676094,0.7766336,0.00047478138,0.002704866,0.0,-0.22089094,-0.25978056,-0.8977111,-1.0825841,-0.018912507,-0.01135617,0.065236606,1.0140836,0.7849787,-1.6765623,-0.10248544,-0.3826561,1.4014217,0.8977111,0.2711958,0.23426771,0.14810295,0.09401216,inf,inf,inf,inf,1,1,1,1,2,0,2,2,1,1,0
1187183920,23430021,37.1024694,-76.3883658,6.986896,-7.7044353,0.66902053,0.00047478138,0.002704866,0.0,-0.18804763,-0.18772802,-0.87492645,-1.052551,-0.018912507,-0.01135617,0.065236606,1.5301713,-0.68502325,1.9701432,-0.10271639,-0.3826561,1.5090348,0.87492645,0.26067743,0.23416595,0.14354861,0.093748294,inf,inf,inf,inf,1,1,1,1,2,0,2,2,1,1,0
1187284001,23430021,37.1024694,-76.3883658,6.9756308,-7.7263107,0.57637835,0.00047478138,0.002704866,0.0,-0.17118208,-0.14692894,-0.861548,-1.0237472,-0.018912507,-0.01135617,0.065236606,-0.6544368,-1.1400506,-0.11085036,-0.10325138,-0.3826561,1.601677,0.861548,0.27221057,0.23513594,0.1480162,0.0942281,inf,inf,inf,inf,1,1,1,1,2,0,2,2,1,1,0
1187383938,23430021,37.1024694,-76.3883658,6.9648304,-7.7414207,0.49152398,0.00047478138,0.002704866,0.0,-0.14985432,-0.09540641,-0.8614732,-1.0049454,-0.018912507,-0.01135617,0.065236606,-2.1312573,1.3772835,-2.2612176,-0.103217065,-0.3826561,1.6865313,0.8614732,0.2607514,0.2344729,0.1431193,0.093819804,inf,inf,inf,inf,1,1,1,1,2,0,2,2,1,1,0
1187487944,23430021,37.1024694,-76.3883658,6.9545,-7.7515707,0.40708598,0.00047478138,0.002704866,0.0,-0.124298565,-0.040213283,-0.8616972,-0.98370457,-0.018912507,-0.01135617,0.065236606,0.5691519,-0.7916697,2.0728562,-0.10299276,-0.3826561,1.7709693,0.8616972,0.27226138,0.23545845,0.14770257,0.09430787,inf,inf,inf,inf,1,1,1,1,2,0,2,2,1,1,0
1187587798,23430021,37.1024694,-76.3883658,6.9469843,-7.7559056,0.32778704,0.00047478138,0.002704866,0.0,-0.10743464,-0.008465103,-0.8620372,-0.9639625,-0.018912507,-0.01135617,0.065236606,1.2740399,-0.990184,-0.14159198,-0.102750145,-0.3826561,1.8502682,0.8620372,0.26165372,0.23373534,0.14324242,0.09367369,inf,inf,inf,inf,1,1,1,1,2,0,2,2,1,1,0
1187687938,23430021,37.1024694,-76.3883658,6.9399304,-7.755499,0.25063837,0.00047478138,0.002704866,0.0,-0.10988958,0.042196967,-0.84796834,-0.9313258,-0.018912507,-0.01135617,0.065236606,-3.0469391,2.3042595,-2.6629603,-0.10289462,-0.3826561,1.9274169,0.84796834,0.27228642,0.23412623,0.14744231,0.094000414,inf,inf,inf,inf,1,1,1,1,2,0,2,2,1,1,0
1187791773,23430021,37.1024694,-76.3883658,6.932385,-7.753237,0.17109106,0.00047478138,0.002704866,0.0,-0.09078277,0.07366023,-0.8494456,-0.91522586,-0.018912507,-0.01135617,0.065236606,-0.041907907,-0.7999286,1.6172806,-0.10368805,-0.3826561,2.0069642,0.8494456,0.26142058,0.23403418,0.14291228,0.09374451,inf,inf,inf,inf,1,1,1,1,2,0,2,2,1,1,0
1187892010,23430021,37.1024694,-76.3883658,6.925116,-7.74943,0.097741626,0.00047478138,0.002704866,0.0,-0.0796917,0.104078546,-0.85967046,-0.9075969,-0.018912507,-0.01135617,0.065236606,-0.038722564,2.9145682,0.5580724,-0.10486538,-0.3826561,2.0803137,0.85967046,0.27292886,0.23501486,0.14744793,0.09423083,inf,inf,inf,inf,1,1,1,1,2,0,2,2,1,1,0
1187995792,23430021,37.1024694,-76.3883658,6.9242263,-7.743491,0.024576738,0.00047478138,0.002704866,0.0,-0.06812751,0.12290073,-0.83994466,-0.86922276,-0.018912507,-0.01135617,0.065236606,1.1234138,-1.7959824,0.16191967,-0.106703535,-0.3826561,2.1534786,0.83994466,0.26230517,0.2333311,0.14309998,0.093613766,inf,inf,inf,inf,1,1,1,1,2,0,2,2,1,1,0
1188099815,23430021,37.1024694,-76.3883658,6.9246674,-7.73465,-0.04442957,0.00047478138,0.002704866,0.0,-0.060190566,0.15547267,-0.8358199,-0.84511894,-0.018912507,-0.01135617,0.065236606,0.07866417,2.998172,0.77655804,-0.10851855,-0.3826561,2.2224848,0.8358199,0.2738458,0.2343187,0.14762904,0.094102,inf,inf,inf,inf,1,1,1,1,2,0,2,2,1,1,0
1188199796,23430021,37.1024694,-76.3883658,6.9241633,-7.723433,-0.11010922,0.00047478138,0.002704866,0.0,-0.052219674,0.16099383,-0.8178068,-0.81006193,-0.018912507,-0.01135617,0.065236606,1.5413097,-1.8579304,-0.65223783,-0.110121585,-0.3826561,2.2881646,0.8178068,0.26230717,0.23368801,0.14288452,0.093710564,inf,inf,inf,inf,1,1,1,1,2,0,2,2,1,1,0
1188304035,23430021,37.1024694,-76.3883658,6.9230156,-7.7096553,-0.17983417,0.00047478138,0.002704866,0.0,-0.05034373,0.17875607,-0.81522435,-0.79340005,-0.018912507,-0.01135617,0.065236606,0.050657887,1.9101979,-5.193805,-0.11130252,-0.3826561,2.3578894,0.81522435,0.27383628,0.23469058,0.14745827,0.09420382,inf,inf,inf,inf,1,1,1,1,2,0,2,2,1,1,0
1188403971,23430021,37.1024694,-76.3883658,6.9160895,-7.692827,-0.2482901,0.00047478138,0.002704866,0.0,-0.044964373,0.18258135,-0.81873304,-0.7864039,-0.018912507,-0.01135617,0.065236606,2.983201,-1.01632,4.877032,-0.11219169,-0.3826561,2.4263453,0.81873304,0.26316044,0.23462312,0.14316168,0.09396082,inf,inf,inf,inf,1,1,1,1,2,0,2,2,1,1,0
1188503980,23430021,37.1024694,-76.3883658,6.9082346,-7.6745157,-0.31741896,0.00047478138,0.002704866,0.0,-0.047102828,0.18942326,-0.8198862,-0.77864164,-0.018912507,-0.01135617,0.065236606,-0.8062451,0.52659893,-1.2689888,-0.11296065,-0.3826561,2.4954743,0.8198862,0.27381542,0.23503889,0.14740829,0.094293654,inf,inf,inf,inf,1,1,1,1,2,0,2,2,1,1,0
1188607938,23430021,37.1024694,-76.3883658,6.9003153,-7.6582084,-0.39090142,0.00047478138,0.002704866,0.0,-0.055604678,0.1887155,-0.8114959,-0.7639229,-0.018912507,-0.01135617,0.065236606,-1.6183956,0.56998885,-1.369671,-0.11402379,-0.3826561,2.5689566,0.8114959,0.26301724,0.23335919,0.14294767,0.09367141,inf,inf,inf,inf,1,1,1,1,2,0,2,2,1,1,0
1188707883,23430021,37.1024694,-76.3883658,6.8932176,-7.6433544,-0.46136707,0.00047478138,0.002704866,0.0,-0.045198157,0.17580618,-0.82519704,-0.7721539,-0.018912507,-0.01135617,0.065236606,0.64537853,-1.2985531,-0.95649487,-0.115125485,-0.3826561,2.6394224,0.82519704,0.27456275,0.23435172,0.14755362,0.0941575,inf,inf,inf,inf,1,1,1,1,2,0,2,2,1,1,0
1188807709,23430021,37.1024694,-76.3883658,6.888249,-7.63135,-0.53545165,0.00047478138,0.002704866,0.0,-0.03852618,0.1670387,-0.82273114,-0.76774824,-0.018912507,-0.01135617,0.065236606,1.3168144,0.3699965,0.8557205,-0.1158362,-0.3826561,2.713507,0.82273114,0.26288167,0.23372309,0.14279053,0.09376157,inf,inf,inf,inf,1,1,1,1,2,0,2,2,1,1,0
1188911816,23430021,37.1024694,-76.3883658,6.884015,-7.620123,-0.61577064,0.00047478138,0.002704866,0.0,-0.03233966,0.14562054,-0.838605,-0.78465706,-0.018912507,-0.01135617,0.065236606,0.16937394,-0.006505512,1.2741059,-0.11662705,-0.3826561,2.7938259,0.838605,0.27441084,0.23472215,0.14732751,0.09424767,inf,inf,inf,inf,1,1,1,1,2,0,2,2,1,1,0
1189011996,23430021,37.1024694,-76.3883658,6.878814,-7.6118975,-0.6899182,0.00047478138,0.002704866,0.0,-0.031950396,0.13306083,-0.8217844,-0.76526946,-0.018912507,-0.01135617,0.065236606,-0.22073536,-0.8414199,-3.418521,-0.117657974,-0.3826561,2.8679736,0.8217844,0.26362193,0.23464336,0.14296845,0.09399376,inf,inf,inf,inf,1,1,1,1,2,0,2,2,1,1,0
1189115771,23430021,37.1024694,-76.3883658,6.8743634,-7.6039586,-0.76734436,0.00047478138,0.002704866,0.0,-0.016187273,0.112635925,-0.8464549,-0.7867084,-0.018912507,-0.01135617,0.065236606,0.116550535,2.8217351,-1.6236559,-0.11830958,-0.3826561,2.9453998,0.8464549,0.27517876,0.23401733,0.14756498,0.09409799,inf,inf,inf,inf,1,1,1,1,2,0,2,2,1,1,0
1189219779,23430021,37.1024694,-76.3883658,6.8706913,-7.594155,-0.84496444,0.00047478138,0.002704866,0.0,-0.00016099692,0.08803206,-0.8475389,-0.78455204,-0.018912507,-0.01135617,0.065236606,0.6740707,-1.8905838,-3.7620673,-0.11906979,-0.3826561,3.0230198,0.8475389,0.26449302,0.23392616,0.14331827,0.0938426,inf,inf,inf,inf,1,1,1,1,2,0,2,2,1,1,0
1189319942,23430021,37.1024694,-76.3883658,6.8691287,-7.585341,-0.92021734,0.00047478138,0.002704866,0.0,0.013215737,0.08602351,-0.8498068,-0.78398645,-0.018912507,-0.01135617,0.065236606,1.3690393,0.10005876,2.8330026,-0.1195212,-0.3826561,3.0982726,0.8498068,0.27518415,0.23432258,0.14757006,0.09416109,inf,inf,inf,inf,1,1,1,1,2,0,2,2,1,1,0
1189423921,23430021,37.1024694,-76.3883658,6.86627,-7.5780725,-0.99669206,0.00047478138,0.002704866,0.0,0.030163435,0.068239115,-0.85362864,-0.7837045,-0.018912507,-0.01135617,0.065236606,1.3183559,-2.9851575,3.3794062,-0.12014477,-0.3826561,3.1747475,0.85362864,0.2644948,0.23424065,0.14331107,0.09390933,inf,inf,inf,inf,1,1,1,1,2,0,2,2,1,1,0
1189523982,23430021,37.1024694,-76.3883658,6.865627,-7.571794,-1.0681325,0.00047478138,0.002704866,0.0,0.033881914,0.069148205,-0.8485268,-0.7731132,-0.018912507,-0.01135617,0.065236606,-2.2541401,0.29198053,-3.2915528,-0.12083946,-0.3826561,3.2461877,0.8485268,0.27609754,0.23522554,0.1478865,0.09438586,inf,inf,inf,inf,1,1,1,1,2,0,2,2,1,1,0
1189623948,23430021,37.1024694,-76.3883658,6.866766,-7.5662045,-1.1410918,0.00047478138,0.002704866,0.0,0.05044264,0.054600008,-0.85308886,-0.7733129,-0.018912507,-0.01135617,0.065236606,-1.3704187,-0.71204346,-1.3798941,-0.1218416,-0.3826561,3.319147,0.85308886,0.26449558,0.23458013,0.14328468,0.093985446,inf,inf,inf,inf,1,1,1,1,2,0,2,2,1,1,0
1189727902,23430021,37.1024694,-76.3883658,6.869832,-7.561507,-1.2174379,0.00047478138,0.002704866,0.0,0.05894516,0.05349941,-0.8544803,-0.77105564,-0.018912507,-0.01135617,0.065236606,-2.1536043,1.084919,1.1961663,-0.122627325,-0.3826561,3.395493,0.8544803,0.25442538,0.23447825,0.13919629,0.0937148,inf,inf,inf,inf,1,1,1,1,2,0,2,2,1,1,0
1189827811,23430021,37.1024694,-76.3883658,6.874407,-7.561703,-1.2909851,0.00047478138,0.002704866,0.0,0.076043166,0.03243931,-0.87772024,-0.7912042,-0.018912507,-0.01135617,0.065236606,0.81352454,-2.9053085,1.1109316,-0.12371554,-0.3826561,3.4690404,0.87772024,0.26549065,0.2338431,0.14374174,0.09382611,inf,inf,inf,inf,1,1,1,1,2,0,2,2,1,1,0
1189927884,23430021,37.1024694,-76.3883658,6.880266,-7.5612917,-1.3658879,0.00047478138,0.002704866,0.0,0.07812473,0.022458073,-0.87961245,-0.7903136,-0.018912507,-0.01135617,0.065236606,0.3164867,-0.18973371,-0.07289654,-0.124845654,-0.3826561,3.5439432,0.87961245,0.27622834,0.23424444,0.14798519,0.09414508,inf,inf,inf,inf,1,1,1,1,2,0,2,2,1,1,0
1190032598,23430021,37.1024694,-76.3883658,6.8825574,-7.563612,-1.4469233,0.00047478138,0.002704866,0.0,0.08601133,0.013161449,-0.886917,-0.79729474,-0.018912507,-0.01135617,0.065236606,4.991791,-1.4713137,5.0673532,-0.12608996,-0.3826561,3.6249785,0.886917,0.2654741,0.23417117,0.14375547,0.09389718,inf,inf,inf,inf,1,1,1,1,2,0,2,2,1,1,0
1190133626,23430021,37.1024694,-76.3883658,6.8860126,-7.5652213,-1.5263866,0.00047478138,0.002704866,0.0,0.08058195,0.010827846,-0.8866246,-0.79781336,-0.018912507,-0.01135617,0.065236606,0.872593,-1.9302746,1.4715121,-0.12727098,-0.3826561,3.704442,0.8866246,0.27712944,0.23516163,0.14835554,0.09437366,inf,inf,inf,inf,1,1,1,1,2,0,2,2,1,1,0
1190233638,23430021,37.1024694,-76.3883658,6.8888006,-7.5695972,-1.6041712,0.00047478138,0.002704866,0.0,0.07602211,0.019381678,-0.8764263,-0.7872668,-0.018912507,-0.01135617,0.065236606,-1.6171715,0.3593837,-3.04525,-0.12833233,-0.3826561,3.7822266,0.8764263,0.26594776,0.23490052,0.14392026,0.094098836,inf,inf,inf,inf,1,1,1,1,2,0,2,2,1,1,0
1190337411,23430021,37.1024694,-76.3883658,6.8925943,-7.5730157,-1.6938189,0.00047478138,0.002704866,0.0,0.07328311,0.008578782,-0.8889113,-0.80651516,-0.018912507,-0.01135617,0.065236606,-2.0103998,1.1240067,-3.6494617,-0.12918042,-0.3826561,3.8718743,0.8889113,0.25561264,0.23320836,0.13970093,0.093459144,inf,inf,inf,inf,1,1,1,1,2,0,2,2,1,1,0
1190441518,23430021,37.1024694,-76.3883658,6.8889637,-7.5770855,-1.7818177,0.00047478138,0.002704866,0.0,0.08128559,0.00092577527,-0.88735205,-0.80916476,-0.018912507,-0.01135617,0.065236606,2.9799316,-1.3837726,3.0589416,-0.12980577,-0.3826561,3.959873,0.88735205,0.2667385,0.23419555,0.14423722,0.093945324,inf,inf,inf,inf,1,1,1,1,2,0,2,2,1,1,0
1190541506,23430021,37.1024694,-76.3883658,6.887583,-7.5795655,-1.8636231,0.00047478138,0.002704866,0.0,0.08283205,0.0030695715,-0.8895457,-0.8121161,-0.018912507,-0.01135617,0.065236606,0.019521475,-1.1810852,-1.507408,-0.13056326,-0.3826561,4.0416784,0.8895457,0.25565967,0.2335405,0.13974078,0.09352865,inf,inf,inf,inf,1,1,1,1,2,0,2,2,1,1,0
1190645509,23430021,37.1024694,-76.3883658,6.8829226,-7.580341,-1.9461477,0.00047478138,0.002704866,0.0,0.074099995,0.0135523975,-0.88099086,-0.8026812,-0.018912507,-0.01135617,0.065236606,-1.8422612,0.2009003,0.07990605,-0.13082588,-0.3826561,4.1242027,0.88099086,0.2667919,0.2345128,0.14426164,0.0940081,inf,inf,inf,inf,1,1,1,1,2,0,2,2,1,1,0
1190745389,23430021,37.1024694,-76.3883658,6.8809824,-7.580008,-2.0265648,0.00047478138,0.002704866,0.0,0.079707146,0.016009033,-0.878762,-0.8011948,-0.018912507,-0.01135617,0.065236606,-1.8187872,0.4544722,-3.4167345,-0.13093531,-0.3826561,4.2046204,0.878762,0.25629836,0.2344138,0.13994916,0.093734756,inf,inf,inf,inf,1,1,1,1,2,0,2,2,1,1,0
1190849363,23430021,37.1024694,-76.3883658,6.876031,-7.5769687,-2.1126785,0.00047478138,0.002704866,0.0,0.085514225,0.02320005,-0.8893586,-0.81395197,-0.018912507,-0.01135617,0.065236606,-0.35240498,1.0336012,1.606941,-0.13069598,-0.3826561,4.290734,0.8893586,0.26745424,0.23378913,0.14445221,0.093844734,inf,inf,inf,inf,1,1,1,1,2,0,2,2,1,1,0
1190953564,23430021,37.1024694,-76.3883658,6.8727303,-7.5732837,-2.195869,0.00047478138,0.002704866,0.0,0.08372596,0.022914745,-0.89877826,-0.8219463,-0.018912507,-0.01135617,0.065236606,-2.0053456,1.9653354,0.39793754,-0.1302229,-0.3826561,4.3739243,0.89877826,0.25719407,0.23371422,0.14032373,0.093586534,inf,inf,inf,inf,1,1,1,1,2,0,2,2,1,1,0
1191057408,23430021,37.1024694,-76.3883658,6.868652,-7.5689936,-2.27976,0.00047478138,0.002704866,0.0,0.09687086,0.026010673,-0.8950406,-0.8173843,-0.018912507,-0.01135617,0.065236606,2.9018393,-1.5107458,4.504252,-0.12985584,-0.3826561,4.457815,0.8950406,0.2684013,0.23468582,0.14489171,0.09406369,inf,inf,inf,inf,1,1,1,1,2,0,2,2,1,1,0
1191157571,23430021,37.1024694,-76.3883658,6.868568,-7.5647907,-2.3632355,0.00047478138,0.002704866,0.0,0.10386736,0.03027844,-0.9044647,-0.82829905,-0.018912507,-0.01135617,0.065236606,-2.6379755,0.8581523,-0.17058529,-0.12950844,-0.3826561,4.5412908,0.9044647,0.25713032,0.23399317,0.14029445,0.09363271,inf,inf,inf,inf,1,1,1,1,2,0,2,2,1,1,0
1191261544,23430021,37.1024694,-76.3883658,6.869462,-7.560253,-2.453627,0.00047478138,0.002704866,0.0,0.105205216,0.03364101,-0.9052594,-0.833809,-0.018912507,-0.01135617,0.065236606,-2.781177,0.53421825,-1.1249905,-0.12933208,-0.3826561,4.6316824,0.9052594,0.2683342,0.23494145,0.14483324,0.09410122,inf,inf,inf,inf,1,1,1,1,2,0,2,2,1,1,0
1191361556,23430021,37.1024694,-76.3883658,6.872367,-7.555969,-2.5390475,0.00047478138,0.002704866,0.0,0.1238155,0.029941425,-0.9073538,-0.8385581,-0.018912507,-0.01135617,0.065236606,0.9412262,2.0271058,-0.6238669,-0.12890586,-0.3826561,4.717103,0.9073538,0.25803632,0.23482683,0.14072986,0.0938284,inf,inf,inf,inf,1,1,1,1,2,0,2,2,1,1,0
1191461548,23430021,37.1024694,-76.3883658,6.8771234,-7.551795,-2.6258442,0.00047478138,0.002704866,0.0,0.131542,0.033246048,-0.9042908,-0.8385735,-0.018912507,-0.01135617,0.065236606,2.524083,0.12733525,2.978328,-0.12839305,-0.3826561,4.8039,0.9042908,0.2684054,0.23521234,0.14497273,0.0941486,inf,inf,inf,inf,1,1,1,1,2,0,2,2,1,1,0
1191565831,23430021,37.1024694,-76.3883658,6.8847218,-7.5477586,-2.7135124,0.00047478138,0.002704866,0.0,0.13910286,0.021424266,-0.9114641,-0.8463812,-0.018912507,-0.01135617,0.065236606,-0.70111406,-0.23268098,-1.4462093,-0.12781222,-0.3826561,4.8915677,0.9114641,0.25786158,0.23507656,0.14060679,0.093863145,inf,inf,inf,inf,1,1,1,1,2,0,2,2,1,1,0
1191665537,23430021,37.1024694,-76.3883658,6.8932056,-7.543913,-2.7954156,0.00047478138,0.002704866,0.0,0.12904635,0.027953317,-0.9070543,-0.8402606,-0.018912507,-0.01135617,0.065236606,-1.1261997,1.8906475,-0.8216605,-0.12733589,-0.3826561,4.9734707,0.9070543,0.26910222,0.23440221,0.14516445,0.09395528,inf,inf,inf,inf,1,1,1,1,2,0,2,2,1,1,0
1191765507,23430021,37.1024694,-76.3883658,6.902407,-7.5407505,-2.8765535,0.00047478138,0.002704866,0.0,0.13104859,0.033154223,-0.9081876,-0.8381354,-0.018912507,-0.01135617,0.065236606,-0.7001463,-0.8560138,-0.63837355,-0.12743683,-0.3826561,5.054609,0.9081876,0.25770277,0.23530723,0.14051181,0.09389313,inf,inf,inf,inf,1,1,1,1,2,0,2,2,1,1,0
1191869550,23430021,37.1024694,-76.3883658,6.909584,-7.5391164,-2.9610488,0.00047478138,0.002704866,0.0,0.12984297,0.03571693,-0.91087866,-0.83804345,-0.018912507,-0.01135617,0.065236606,-2.3566585,0.59521127,-1.0509212,-0.12704629,-0.3826561,5.139104,0.91087866,0.26893485,0.2346158,0.1451161,0.093979515,inf,inf,inf,inf,1,1,1,1,2,0,2,2,1,1,0
1191969510,23430021,37.1024694,-76.3883658,6.9187555,-7.5372286,-3.0434704,0.00047478138,0.002704866,0.0,0.1335986,0.020172004,-0.92550015,-0.8517952,-0.018912507,-0.01135617,0.065236606,1.0649811,-2.3729625,2.2913494,-0.12704794,-0.3826561,5.2215257,0.92550015,0.25864494,0.23448884,0.14098322,0.09370636,inf,inf,inf,inf,1,1,1,1,2,0,2,2,1,1,0
1192073855,23430021,37.1024694,-76.3883658,6.9303336,-7.5349703,-3.1316547,0.00047478138,0.002704866,0.0,0.1265813,0.03102123,-0.91947883,-0.84690076,-0.018912507,-0.01135617,0.065236606,1.3379316,1.6767151,-0.50430256,-0.12754484,-0.3826561,5.30971,0.91947883,0.26993266,0.23543873,0.14560772,0.09417629,inf,inf,inf,inf,1,1,1,1,2,0,2,2,1,1,0
1192177584,23430021,37.1024694,-76.3883658,6.942562,-7.5324855,-3.222421,0.00047478138,0.002704866,0.0,0.1270249,0.02184898,-0.9328402,-0.8632919,-0.018912507,-0.01135617,0.065236606,0.32418495,-1.0669069,0.20486948,-0.12830928,-0.3826561,5.4004765,0.9328402,0.25958368,0.2337117,0.14138916,0.0935364,inf,inf,inf,inf,1,1,1,1,2,0,2,2,1,1,0
1192281548,23430021,37.1024694,-76.3883658,6.954955,-7.529766,-3.3155122,0.00047478138,0.002704866,0.0,0.11342883,0.02510015,-0.92742985,-0.86234486,-0.018912507,-0.01135617,0.065236606,-0.78695107,-0.7932873,-1.9036202,-0.12942898,-0.3826561,5.4935675,0.92742985,0.27093086,0.23464972,0.1460202,0.094000615,inf,inf,inf,inf,1,1,1,1,2,0,2,2,1,1,0
1192381565,23430021,37.1024694,-76.3883658,6.9660544,-7.5251603,-3.406974,0.00047478138,0.002704866,0.0,0.11086676,0.025413115,-0.9426518,-0.8824353,-0.018912507,-0.01135617,0.065236606,2.111309,0.37668893,0.12626493,-0.13034967,-0.3826561,5.5850296,0.9426518,0.25967023,0.23395406,0.1414769,0.09357988,inf,inf,inf,inf,1,1,1,1,2,0,2,2,1,1,0
1192485412,23430021,37.1024694,-76.3883658,6.9767494,-7.5191283,-3.5009475,0.00047478138,0.002704866,0.0,0.104933426,0.026662217,-0.94076127,-0.8835922,-0.018912507,-0.01135617,0.065236606,2.8156464,-2.445174,6.1466384,-0.13153067,-0.3826561,5.679003,0.94076127,0.27102432,0.23490043,0.14606097,0.09404832,inf,inf,inf,inf,1,1,1,1,2,0,2,2,1,1,0
1192585576,23430021,37.1024694,-76.3883658,6.986208,-7.511308,-3.5916672,0.00047478138,0.002704866,0.0,0.08778311,0.03316284,-0.935602,-0.8812479,-0.018912507,-0.01135617,0.065236606,-0.7632967,-2.615202,-5.793135,-0.13276374,-0.3826561,5.7697225,0.935602,0.26060393,0.23476818,0.14187437,0.0937765,inf,inf,inf,inf,1,1,1,1,2,0,2,2,1,1,0
1192689544,23430021,37.1024694,-76.3883658,6.9951153,-7.502781,-3.685343,0.00047478138,0.002704866,0.0,0.071266584,0.04251049,-0.9360436,-0.8829946,-0.018912507,-0.01135617,0.065236606,-1.0121225,-0.59793085,-5.78099,-0.13355659,-0.3826561,5.8633986,0.9360436,0.2720089,0.23570365,0.1465044,0.09423986,inf,inf,inf,inf,1,1,1,1,2,0,2,2,1,1,0
1192793603,23430021,37.1024694,-76.3883658,7.0007324,-7.4912157,-3.7780502,0.00047478138,0.002704866,0.0,0.06844569,0.04063885,-0.9569626,-0.90381336,-0.018912507,-0.01135617,0.065236606,1.4307474,-1.2276542,1.1522396,-0.13389577,-0.3826561,5.956105,0.9569626,0.26128617,0.23395392,0.14209834,0.09359127,inf,inf,inf,inf,1,1,1,1,2,0,2,2,1,1,0
1192893606,23430021,37.1024694,-76.3883658,7.0040145,-7.478756,-3.8652074,0.00047478138,0.002704866,0.0,0.052040398,0.05555994,-0.93777376,-0.88236296,-0.018912507,-0.01135617,0.065236606,-0.7983993,-0.47034562,-1.5582535,-0.13371682,-0.3826561,6.0432625,0.93777376,0.27182212,0.23432755,0.14636357,0.09390733,inf,inf,inf,inf,1,1,1,1,2,0,2,2,1,1,0
1192997401,23430021,37.1024694,-76.3883658,7.001422,-7.463374,-3.9572473,0.00047478138,0.002704866,0.0,0.03526137,0.05459301,-0.9591094,-0.90286744,-0.018912507,-0.01135617,0.065236606,-0.8483277,0.35867965,-3.0885158,-0.13331485,-0.3826561,6.1353025,0.9591094,0.26126024,0.2342252,0.1421086,0.09364752,inf,inf,inf,inf,1,1,1,1,2,0,2,2,1,1,0
1193097382,23430021,37.1024694,-76.3883658,6.996494,-7.448344,-4.0452194,0.00047478138,0.002704866,0.0,0.026426151,0.066129215,-0.94387585,-0.8860372,-0.018912507,-0.01135617,0.065236606,1.1961868,2.884253,-2.765702,-0.13267365,-0.3826561,6.2232747,0.94387585,0.27269125,0.23518544,0.14674702,0.094121784,inf,inf,inf,inf,1,1,1,1,2,0,2,2,1,1,0
1193197401,23430021,37.1024694,-76.3883658,6.991307,-7.4307275,-4.1312413,0.00047478138,0.002704866,0.0,0.022737812,0.06007201,-0.9546454,-0.892503,-0.018912507,-0.01135617,0.065236606,1.9727907,-2.5364783,4.9150333,-0.13190272,-0.3826561,6.3092966,0.9546454,0.2613513,0.23449095,0.14224932,0.093705535,inf,inf,inf,inf,1,1,1,1,2,0,2,2,1,1,0
1193301502,23430021,37.1024694,-76.3883658,6.986554,-7.413588,-4.2237816,0.00047478138,0.002704866,0.0,0.006193873,0.06259359,-0.96126324,-0.89839137,-0.018912507,-0.01135617,0.065236606,-2.3323174,0.22638321,-1.1514322,-0.13101679,-0.3826561,6.401837,0.96126324,0.2727987,0.23544094,0.14682221,0.094174966,inf,inf,inf,inf,1,1,1,1,2,0,2,2,1,1,0
1193401408,23430021,37.1024694,-76.3883658,6.979819,-7.3960347,-4.3095455,0.00047478138,0.002704866,0.0,0.008158961,0.061894037,-0.964503,-0.8976483,-0.018912507,-0.01135617,0.065236606,-1.0176407,0.7722346,-1.6186582,-0.13040578,-0.3826561,6.487601,0.964503,0.2622991,0.23533069,0.14267498,0.093916275,inf,inf,inf,inf,1,1,1,1,2,0,2,2,1,1,0
1193501523,23430021,37.1024694,-76.3883658,6.974769,-7.3819222,-4.400004,0.00047478138,0.002704866,0.0,0.01672606,0.04201938,-0.9867592,-0.9198562,-0.018912507,-0.01135617,0.065236606,1.8952401,1.2978421,3.3758466,-0.12950994,-0.3826561,6.578059,0.9867592,0.27289367,0.23569459,0.14694849,0.09422877,inf,inf,inf,inf,1,1,1,1,2,0,2,2,1,1,0
1193605405,23430021,37.1024694,-76.3883658,6.9680457,-7.366825,-4.495941,0.00047478138,0.002704866,0.0,0.007967836,0.0306695,-0.9952704,-0.92964536,-0.018912507,-0.01135617,0.065236606,-1.3314862,-1.6892096,-2.4991972,-0.12924194,-0.3826561,6.6739964,0.9952704,0.2622589,0.23394929,0.14264329,0.09358699,inf,inf,inf,inf,1,1,1,1,2,0,2,2,1,1,0
1193705401,23430021,37.1024694,-76.3883658,6.962398,-7.354572,-4.588143,0.00047478138,0.002704866,0.0,0.011770819,0.0317059,-0.98831594,-0.92329025,-0.018912507,-0.01135617,0.065236606,0.6421117,1.1905063,0.011204924,-0.12882638,-0.3826561,6.766198,0.98831594,0.27375957,0.234896,0.14731055,0.09405558,inf,inf,inf,inf,1,1,1,1,2,0,2,2,1,1,0
1193809544,23430021,37.1024694,-76.3883658,6.9586797,-7.3432584,-4.683858,0.00047478138,0.002704866,0.0,0.020375488,0.010919192,-0.99795866,-0.9326742,-0.018912507,-0.01135617,0.065236606,0.9745484,-2.6146383,-0.06600435,-0.12868226,-0.3826561,6.861913,0.99795866,0.26296544,0.23476407,0.14294152,0.093786195,inf,inf,inf,inf,1,1,1,1,2,0,2,2,1,1,0
1193913398,23430021,37.1024694,-76.3883658,6.95675,-7.334703,-4.779879,0.00047478138,0.002704866,0.0,0.017377954,0.013624668,-0.9888139,-0.92349416,-0.018912507,-0.01135617,0.065236606,0.6005696,0.34844208,-1.7408804,-0.12897207,-0.3826561,6.9579344,0.9888139,0.2745002,0.23570058,0.14760374,0.09425002,inf,inf,inf,inf,1,1,1,1,2,0,2,2,1,1,0
1194013538,23430021,37.1024694,-76.3883658,6.955177,-7.3290005,-4.8775015,0.00047478138,0.002704866,0.0,0.028320761,-0.0132074505,-1.009823,-0.948903,-0.018912507,-0.01135617,0.065236606,3.5591679,-1.2924927,3.7504168,-0.12921666,-0.3826561,7.055557,1.009823,0.2629515,0.23498195,0.1429508,0.09382675,inf,inf,inf,inf,1,1,1,1,2,0,2,2,1,1,0
1194117529,23430021,37.1024694,-76.3883658,6.9547534,-7.325896,-4.97886,0.00047478138,0.002704866,0.0,0.022507435,-0.026254442,-1.0117906,-0.9544278,-0.018912507,-0.01135617,0.065236606,-0.13872457,-0.8352405,1.2809427,-0.1297369,-0.3826561,7.156915,1.0117906,0.27448642,0.2359061,0.1475297,0.09428648,inf,inf,inf,inf,1,1,1,1,2,0,2,2,1,1,0
1194217411,23430021,37.1024694,-76.3883658,6.95599,-7.3220367,-5.0789733,0.00047478138,0.002704866,0.0,0.026995717,-0.036369726,-1.0073025,-0.95524865,-0.018912507,-0.01135617,0.065236606,0.16382928,0.0011332054,-4.661272,-0.13049528,-0.3826561,7.2570286,1.0073025,0.2638064,0.2341472,0.1433132,0.09364415,inf,inf,inf,inf,1,1,1,1,2,0,2,2,1,1,0
1194317407,23430021,37.1024694,-76.3883658,6.958361,-7.321375,-5.1799984,0.00047478138,0.002704866,0.0,0.034032203,-0.044479314,-1.0060058,-0.95844233,-0.018912507,-0.01135617,0.065236606,3.1440172,-0.42886877,2.9868033,-0.13095866,-0.3826561,7.3580537,1.0060058,0.2744767,0.23613256,0.14758569,0.09433242,inf,inf,inf,inf,1,1,1,1,2,0,2,2,1,1,0
1194421536,23430021,37.1024694,-76.3883658,6.9626436,-7.3221645,-5.285299,0.00047478138,0.002704866,0.0,0.040381692,-0.06722058,-1.033635,-0.990083,-0.018912507,-0.01135617,0.065236606,0.5275965,-0.7125595,0.7907952,-0.1314893,-0.3826561,7.463354,1.033635,0.26379815,0.23435353,0.1432741,0.09368343,inf,inf,inf,inf,1,1,1,1,2,0,2,2,1,1,0
1194523175,23430021,37.1024694,-76.3883658,6.967701,-7.3253427,-5.389548,0.00047478138,0.002704866,0.0,0.04295979,-0.06412894,-1.0112476,-0.9720528,-0.018912507,-0.01135617,0.065236606,1.5823915,-0.069289975,-2.4192548,-0.13186379,-0.3826561,7.567603,1.0112476,0.27537918,0.23527777,0.14793225,0.09414416,inf,inf,inf,inf,1,1,1,1,2,0,2,2,1,1,0
1194627120,23430021,37.1024694,-76.3883658,6.971993,-7.32793,-5.4971595,0.00047478138,0.002704866,0.0,0.055252157,-0.08484104,-1.0431274,-1.0083109,-0.018912507,-0.01135617,0.065236606,0.4211012,-0.1075896,1.3470461,-0.13183708,-0.3826561,7.675215,1.0431274,0.26483515,0.23526348,0.14373685,0.093900956,inf,inf,inf,inf,1,1,1,1,2,0,2,2,1,1,0
1194727144,23430021,37.1024694,-76.3883658,6.976766,-7.33255,-5.597334,0.00047478138,0.002704866,0.0,0.048441395,-0.08472285,-1.03277,-0.99791384,-0.018912507,-0.01135617,0.065236606,-0.37956038,-0.23057796,-3.0273004,-0.13217507,-0.3826561,7.775389,1.03277,0.27555963,0.23563175,0.1479737,0.09421592,inf,inf,inf,inf,1,1,1,1,2,0,2,2,1,1,0
1194830963,23430021,37.1024694,-76.3883658,6.980293,-7.3360395,-5.7036166,0.00047478138,0.002704866,0.0,0.054412875,-0.090009235,-1.0577846,-1.0238482,-0.018912507,-0.01135617,0.065236606,1.2281563,0.9165835,0.47174552,-0.13236749,-0.3826561,7.881672,1.0577846,0.26468015,0.23547702,0.14367424,0.09394338,inf,inf,inf,inf,1,1,1,1,2,0,2,2,1,1,0
1194931131,23430021,37.1024694,-76.3883658,6.9839635,-7.340349,-5.805922,0.00047478138,0.002704866,0.0,0.047988508,-0.087712325,-1.0539157,-1.0199612,-0.018912507,-0.01135617,0.065236606,-0.20166087,-1.3314292,0.060530826,-0.13289066,-0.3826561,7.9839773,1.0539157,0.25457942,0.23371732,0.13950582,0.09329525,inf,inf,inf,inf,1,1,1,1,2,0,2,2,1,1,0
1195035165,23430021,37.1024694,-76.3883658,6.989726,-7.345581,-5.9143043,0.00047478138,0.002704866,0.0,0.04267954,-0.08419006,-1.0591633,-1.0260732,-0.018912507,-0.01135617,0.065236606,0.7544033,0.64164495,-0.88796145,-0.13316914,-0.3826561,8.09236,1.0591633,0.26566952,0.23464964,0.14415933,0.09377204,inf,inf,inf,inf,1,1,1,1,2,0,2,2,1,1,0
1195139004,23430021,37.1024694,-76.3883658,6.994329,-7.351455,-6.025071,0.00047478138,0.002704866,0.0,0.03715895,-0.08519474,-1.0859565,-1.0549626,-0.018912507,-0.01135617,0.065236606,0.31159422,-1.5339833,-2.146429,-0.13357773,-0.3826561,8.203127,1.0859565,0.2555079,0.23451954,0.13997571,0.09350324,inf,inf,inf,inf,1,1,1,1,2,0,2,2,1,1,0
1195242960,23430021,37.1024694,-76.3883658,6.9961605,-7.3559985,-6.1380806,0.00047478138,0.002704866,0.0,0.01961422,-0.080164835,-1.0814816,-1.0536699,-0.018912507,-0.01135617,0.065236606,-0.10694237,-0.85485756,-2.012566,-0.13376184,-0.3826561,8.316135,1.0814816,0.266654,0.23544404,0.14457092,0.09397549,inf,inf,inf,inf,1,1,1,1,2,0,2,2,1,1,0
1195343009,23430021,37.1024694,-76.3883658,6.9971533,-7.3609986,-6.247168,0.00047478138,0.002704866,0.0,0.0094295135,-0.07930684,-1.0836576,-1.0580465,-0.018912507,-0.01135617,0.065236606,1.169989,-2.304716,-0.36279994,-0.13396434,-0.3826561,8.425223,1.0836576,0.2556004,0.23473728,0.14004785,0.093552805,inf,inf,inf,inf,1,1,1,1,2,0,2,2,1,1,0
1195447166,23430021,37.1024694,-76.3883658,6.997074,-7.3650565,-6.361792,0.00047478138,0.002704866,0.0,-0.0064755036,-0.07055587,-1.0969613,-1.0739704,-0.018912507,-0.01135617,0.065236606,-1.4165108,1.4507821,-1.6389471,-0.13376933,-0.3826561,8.539847,1.0969613,0.26675266,0.23406051,0.14461276,0.09365829,inf,inf,inf,inf,1,1,1,1,2,0,2,2,1,1,0
1195547015,23430021,37.1024694,-76.3883658,6.996242,-7.3697925,-6.473536,0.00047478138,0.002704866,0.0,-0.017196305,-0.071129784,-1.1085839,-1.0883597,-0.018912507,-0.01135617,0.065236606,0.6841029,-1.8340266,1.4685397,-0.13368954,-0.3826561,8.651591,1.1085839,0.2565213,0.23395076,0.14038949,0.09339816,inf,inf,inf,inf,1,1,1,1,2,0,2,2,1,1,0
1195647176,23430021,37.1024694,-76.3883658,6.995239,-7.375272,-6.5873146,0.00047478138,0.002704866,0.0,-0.029103892,-0.07759522,-1.1119335,-1.0955191,-0.018912507,-0.01135617,0.065236606,-1.0618118,-0.41201574,-3.3563004,-0.13365674,-0.3826561,8.765369,1.1119335,0.26683977,0.23433284,0.1446706,0.093729794,inf,inf,inf,inf,1,1,1,1,2,0,2,2,1,1,0
1195751104,23430021,37.1024694,-76.3883658,6.9934583,-7.381715,-6.705564,0.00047478138,0.002704866,0.0,-0.03316128,-0.066655144,-1.1135818,-1.1000956,-0.018912507,-0.01135617,0.065236606,1.0855736,2.7253776,-1.0899982,-0.13361578,-0.3826561,8.883619,1.1135818,0.25635648,0.23420252,0.14035492,0.0934572,inf,inf,inf,inf,1,1,1,1,2,0,2,2,1,1,0
1195851124,23430021,37.1024694,-76.3883658,6.9927907,-7.3903337,-6.8205504,0.00047478138,0.002704866,0.0,-0.034480635,-0.07522797,-1.1246907,-1.1145239,-0.018912507,-0.01135617,0.065236606,-0.99570894,-2.1763024,1.1936816,-0.13384254,-0.3826561,8.998606,1.1246907,0.26754403,0.23514296,0.14490359,0.09393544,inf,inf,inf,inf,1,1,1,1,2,0,2,2,1,1,0
1195955182,23430021,37.1024694,-76.3883658,6.99164,-7.4001837,-6.936156,0.00047478138,0.002704866,0.0,-0.03992378,-0.06465057,-1.1252693,-1.1137136,-0.018912507,-0.01135617,0.065236606,-1.9796648,0.86267865,-3.8078957,-0.1339359,-0.3826561,9.114211,1.1252693,0.25728256,0.23499724,0.14070414,0.093662396,inf,inf,inf,inf,1,1,1,1,2,0,2,2,1,1,0
1196059211,23430021,37.1024694,-76.3883658,6.9907837,-7.4116726,-7.050532,0.00047478138,0.002704866,0.0,-0.030169446,-0.07790968,-1.1370747,-1.1222583,-0.018912507,-0.01135617,0.065236606,-0.18834482,-1.1419965,1.8335092,-0.13372287,-0.3826561,9.228587,1.1370747,0.26852313,0.23430672,0.14525528,0.09376078,inf,inf,inf,inf,1,1,1,1,2,0,2,2,1,1,0
1196163195,23430021,37.1024694,-76.3883658,6.9883666,-7.421913,-7.1648026,0.00047478138,0.002704866,0.0,-0.030091384,-0.07123603,-1.1294152,-1.1114373,-0.018912507,-0.01135617,0.065236606,0.20582911,-1.3767794,-3.5352092,-0.13381857,-0.3826561,9.342857,1.1294152,0.25820208,0.23418488,0.14110206,0.093499124,inf,inf,inf,inf,1,1,1,1,2,0,2,2,1,1,0
1196263247,23430021,37.1024694,-76.3883658,6.984336,-7.4304986,-7.2755218,0.00047478138,0.002704866,0.0,-0.021700917,-0.06769918,-1.1511325,-1.1302994,-0.018912507,-0.01135617,0.065236606,2.6329312,0.63022643,5.9396343,-0.13351628,-0.3826561,9.453577,1.1511325,0.26860738,0.23456168,0.145349,0.09382642,inf,inf,inf,inf,1,1,1,1,2,0,2,2,1,1,0
1196367158,23430021,37.1024694,-76.3883658,6.9822536,-7.438735,-7.3917613,0.00047478138,0.002704866,0.0,-0.020314757,-0.06865809,-1.1514254,-1.1287291,-0.018912507,-0.01135617,0.065236606,0.8392963,-2.8052864,1.7668597,-0.13351941,-0.3826561,9.569817,1.1514254,0.2581515,0.23445247,0.1410246,0.09356686,inf,inf,inf,inf,1,1,1,1,2,0,2,2,1,1,0
1196467015,23430021,37.1024694,-76.3883658,6.9834337,-7.445822,-7.504529,0.00047478138,0.002704866,0.0,-0.021432493,-0.056277014,-1.1598436,-1.1360673,-0.018912507,-0.01135617,0.065236606,-1.7459439,1.8469704,-4.04451,-0.13352285,-0.3826561,9.682585,1.1598436,0.26944643,0.23380737,0.14563869,0.09367949,inf,inf,inf,inf,1,1,1,1,2,0,2,2,1,1,0
1196571034,23430021,37.1024694,-76.3883658,6.9861856,-7.4523034,-7.620763,0.00047478138,0.002704866,0.0,-0.005095455,-0.053173628,-1.1598787,-1.1333768,-0.018912507,-0.01135617,0.065236606,1.5368694,-2.6207833,-1.7508641,-0.13371722,-0.3826561,9.798819,1.1598787,0.25907665,0.23372045,0.14140177,0.09343187,inf,inf,inf,inf,1,1,1,1,2,0,2,2,1,1,0
1196675227,23430021,37.1024694,-76.3883658,6.990496,-7.458102,-7.740302,0.00047478138,0.002704866,0.0,-0.004266243,-0.050521616,-1.1758474,-1.1492867,-0.018912507,-0.01135617,0.065236606,-0.2901621,0.86329865,-4.039592,-0.13395934,-0.3826561,9.918358,1.1758474,0.2704149,0.23469418,0.14602521,0.09391979,inf,inf,inf,inf,1,1,1,1,2,0,2,2,1,1,0
1196775017,23430021,37.1024694,-76.3883658,6.996106,-7.4644794,-7.854929,0.00047478138,0.002704866,0.0,0.007984994,-0.05318686,-1.1769267,-1.149054,-0.018912507,-0.01135617,0.065236606,2.908866,-0.46607122,0.48598638,-0.13430338,-0.3826561,10.032984,1.1769267,0.25889936,0.2340453,0.14128913,0.09351814,inf,inf,inf,inf,1,1,1,1,2,0,2,2,1,1,0
1196879171,23430021,37.1024694,-76.3883658,7.0053687,-7.4726167,-7.9775696,0.00047478138,0.002704866,0.0,0.017261198,-0.052283294,-1.2014284,-1.1748304,-0.018912507,-0.01135617,0.065236606,-0.88793564,0.25318143,-3.2659752,-0.13441625,-0.3826561,10.155624,1.2014284,0.27022627,0.23343061,0.1458935,0.093639515,inf,inf,inf,inf,1,1,1,1,2,0,2,2,1,1,0
1196979164,23430021,37.1024694,-76.3883658,7.0156136,-7.48096,-8.096274,0.00047478138,0.002704866,0.0,0.020212028,-0.06187709,-1.2047921,-1.1794755,-0.018912507,-0.01135617,0.065236606,0.13668685,-2.2269177,-1.8156986,-0.13422702,-0.3826561,10.27433,1.2047921,0.25971538,0.23337251,0.14164595,0.09340009,inf,inf,inf,inf,1,1,1,1,2,0,2,2,1,1,0
1197079032,23430021,37.1024694,-76.3883658,7.026112,-7.48936,-8.215807,0.00047478138,0.002704866,0.0,0.024529925,-0.050152577,-1.1947038,-1.1708391,-0.018912507,-0.01135617,0.065236606,0.19022377,1.1980098,-2.2839963,-0.13391851,-0.3826561,10.393862,1.1947038,0.2701924,0.23380214,0.14593363,0.093742654,inf,inf,inf,inf,1,1,1,1,2,0,2,2,1,1,0
1197182990,23430021,37.1024694,-76.3883658,7.0373487,-7.495982,-8.340391,0.00047478138,0.002704866,0.0,0.033807937,-0.05376733,-1.1982628,-1.1759874,-0.018912507,-0.01135617,0.065236606,0.9208378,-3.1376638,-0.9998587,-0.13354096,-0.3826561,10.518446,1.1982628,0.2598042,0.23375209,0.14171723,0.093507536,inf,inf,inf,inf,1,1,1,1,2,0,2,2,1,1,0
1197283265,23430021,37.1024694,-76.3883658,7.047544,-7.5007186,-8.459548,0.00047478138,0.002704866,0.0,0.025416255,-0.04640652,-1.2066234,-1.1852251,-0.018912507,-0.01135617,0.065236606,0.20083475,-0.6303574,0.110939585,-0.1331354,-0.3826561,10.637604,1.2066234,0.27118176,0.23475727,0.1463028,0.09400271,inf,inf,inf,inf,1,1,1,1,2,0,2,2,1,1,0
1197383080,23430021,37.1024694,-76.3883658,7.056899,-7.5046506,-8.581115,0.00047478138,0.002704866,0.0,0.01030293,-0.029445108,-1.1878692,-1.1695082,-0.018912507,-0.01135617,0.065236606,-2.5243635,1.8897601,-5.79376,-0.1332602,-0.3826561,10.759171,1.1878692,0.25988296,0.2341154,0.14172536,0.093605325,inf,inf,inf,inf,1,1,1,1,2,0,2,2,1,1,0
1197487105,23430021,37.1024694,-76.3883658,7.0653477,-7.5081744,-8.7090025,0.00047478138,0.002704866,0.0,0.012174254,-0.03718838,-1.2044293,-1.1901382,-0.018912507,-0.01135617,0.065236606,0.5604719,0.23469263,-0.27612135,-0.13332261,-0.3826561,10.887058,1.2044293,0.27126873,0.23350745,0.14632908,0.093723185,inf,inf,inf,inf,1,1,1,1,2,0,2,2,1,1,0
1197587091,23430021,37.1024694,-76.3883658,7.073275,-7.5103216,-8.831757,0.00047478138,0.002704866,0.0,-0.0022183862,-0.024111675,-1.1983988,-1.1873169,-0.018912507,-0.01135617,0.065236606,-1.9416316,-0.7463127,-1.5767215,-0.13356504,-0.3826561,11.009811,1.1983988,0.2608051,0.23345044,0.1420428,0.0934842,inf,inf,inf,inf,1,1,1,1,2,0,2,2,1,1,0
1197691113,23430021,37.1024694,-76.3883658,7.079167,-7.512024,-8.960879,0.00047478138,0.002704866,0.0,-0.020208595,-0.024483442,-1.200166,-1.193053,-0.018912507,-0.01135617,0.065236606,-1.1990458,1.2521988,-0.819218,-0.13328624,-0.3826561,11.138935,1.200166,0.27223656,0.23442478,0.14668426,0.09396351,inf,inf,inf,inf,1,1,1,1,2,0,2,2,1,1,0
1197795009,23430021,37.1024694,-76.3883658,7.084494,-7.5145335,-9.091045,0.00047478138,0.002704866,0.0,-0.023953868,-0.025350876,-1.2123375,-1.2092142,-0.018912507,-0.01135617,0.065236606,-0.26829094,-2.3367963,-0.72976667,-0.1330576,-0.3826561,11.2691,1.2123375,0.26147437,0.23434156,0.14226714,0.09370918,inf,inf,inf,inf,1,1,1,1,2,0,2,2,1,1,0
1197894963,23430021,37.1024694,-76.3883658,7.0881524,-7.5172105,-9.212215,0.00047478138,0.002704866,0.0,-0.036870413,-0.0146055585,-1.2238815,-1.2199435,-0.018912507,-0.01135617,0.065236606,-0.9994821,1.1074569,-1.0028094,-0.13246834,-0.3826561,11.39027,1.2238815,0.2720274,0.23475945,0.14651553,0.09404188,inf,inf,inf,inf,1,1,1,1,2,0,2,2,1,1,0
1197999061,23430021,37.1024694,-76.3883658,7.0937963,-7.519873,-9.335701,0.00047478138,0.002704866,0.0,-0.038468387,-0.015408389,-1.2125288,-1.2055532,-0.018912507,-0.01135617,0.065236606,3.9548829,-1.6128101,1.5970196,-0.13172725,-0.3826561,11.513756,1.2125288,0.26154864,0.23466194,0.14230405,0.09378524,inf,inf,inf,inf,1,1,1,1,2,0,2,2,1,1,0
1198098961,23430021,37.1024694,-76.3883658,7.09786,-7.5219626,-9.453365,0.00047478138,0.002704866,0.0,-0.05230416,-0.01023123,-1.206845,-1.19665,-0.018912507,-0.01135617,0.065236606,0.24990669,0.83230424,1.2406154,-0.1306826,-0.3826561,11.63142,1.206845,0.2730084,0.23563746,0.146875,0.09426314,inf,inf,inf,inf,1,1,1,1,2,0,2,2,1,1,0
1198198994,23430021,37.1024694,-76.3883658,7.1010017,-7.5218077,-9.57195,0.00047478138,0.002704866,0.0,-0.0629598,0.0019766784,-1.2107137,-1.1987605,-0.018912507,-0.01135617,0.065236606,-1.9828833,-1.0058577,-2.093592,-0.12973933,-0.3826561,11.750006,1.2107137,0.26149407,0.2349467,0.14220652,0.093844034,inf,inf,inf,inf,1,1,1,1,2,0,2,2,1,1,0
1198303017,23430021,37.1024694,-76.3883658,7.102467,-7.5204096,-9.696143,0.00047478138,0.002704866,0.0,-0.0667856,0.013555675,-1.1997515,-1.1871431,-0.018912507,-0.01135617,0.065236606,0.7328228,0.1828799,1.4788525,-0.12817337,-0.3826561,11.874199,1.1997515,0.2729422,0.234281,0.14679885,0.09393881,inf,inf,inf,inf,1,1,1,1,2,0,2,2,1,1,0
1198403081,23430021,37.1024694,-76.3883658,7.0995317,-7.517126,-9.818987,0.00047478138,0.002704866,0.0,-0.07295242,0.01790386,-1.2131137,-1.203421,-0.018912507,-0.01135617,0.065236606,-1.1162126,0.1034673,0.61860317,-0.12645586,-0.3826561,11.997042,1.2131137,0.26242092,0.23418108,0.14256546,0.09368219,inf,inf,inf,inf,1,1,1,1,2,0,2,2,1,1,0
1198503059,23430021,37.1024694,-76.3883658,7.0933967,-7.513294,-9.939133,0.00047478138,0.002704866,0.0,-0.08905225,0.025332259,-1.2089933,-1.1995894,-0.018912507,-0.01135617,0.065236606,-0.98450047,1.6417354,1.003011,-0.1245024,-0.3826561,12.1171875,1.2089933,0.2730136,0.234545,0.146786,0.0939937,inf,inf,inf,inf,1,1,1,1,2,0,2,2,1,1,0
1198607133,23430021,37.1024694,-76.3883658,7.0887656,-7.5072427,-10.0633545,0.00047478138,0.002704866,0.0,-0.09094265,0.029918648,-1.2103953,-1.2010374,-0.018912507,-0.01135617,0.065236606,2.0803156,-1.3867893,3.575974,-0.122941084,-0.3826561,12.241409,1.2103953,0.26235053,0.23442826,0.1425006,0.09373034,inf,inf,inf,inf,1,1,1,1,2,0,2,2,1,1,0
1198707151,23430021,37.1024694,-76.3883658,7.083156,-7.5005226,-10.184483,0.00047478138,0.002704866,0.0,-0.11145811,0.056791447,-1.1916246,-1.184134,-0.018912507,-0.01135617,0.065236606,-1.5109043,0.7872563,-2.7022243,-0.12196757,-0.3826561,12.362537,1.1916246,0.27384266,0.23538408,0.14704728,0.094200924,inf,inf,inf,inf,1,1,1,1,2,0,2,2,1,1,0
1198811105,23430021,37.1024694,-76.3883658,7.0778656,-7.4913287,-10.312553,0.00047478138,0.002704866,0.0,-0.11341391,0.055623773,-1.2119292,-1.2079921,-0.018912507,-0.01135617,0.065236606,1.42742,0.46522692,0.6833262,-0.12149882,-0.3826561,12.490608,1.2119292,0.26303154,0.23366915,0.14268807,0.093567826,inf,inf,inf,inf,1,1,1,1,2,0,2,2,1,1,0
1198912718,23430021,37.1024694,-76.3883658,7.071135,-7.48208,-10.440194,0.00047478138,0.002704866,0.0,-0.124890745,0.06237595,-1.2073276,-1.2079693,-0.018912507,-0.01135617,0.065236606,0.3819234,-0.7180349,1.949068,-0.121803604,-0.3826561,12.61825,1.2073276,0.2736415,0.23406008,0.14692517,0.09388945,inf,inf,inf,inf,1,1,1,1,2,0,2,2,1,1,0
1199016755,23430021,37.1024694,-76.3883658,7.066624,-7.4734416,-10.569771,0.00047478138,0.002704866,0.0,-0.1191411,0.0595055,-1.2187022,-1.2218002,-0.018912507,-0.01135617,0.065236606,1.4938066,1.7450584,2.4325254,-0.12206022,-0.3826561,12.747826,1.2187022,0.26327884,0.23409307,0.14281492,0.09366154,inf,inf,inf,inf,1,1,1,1,2,0,2,2,1,1,0
1199116791,23430021,37.1024694,-76.3883658,7.0607243,-7.465926,-10.6909895,0.00047478138,0.002704866,0.0,-0.12368497,0.05947194,-1.208132,-1.2102556,-0.018912507,-0.01135617,0.065236606,-1.1630996,0.33767387,-0.79494685,-0.12290352,-0.3826561,12.869045,1.208132,0.27481675,0.23506674,0.14742514,0.09413893,inf,inf,inf,inf,1,1,1,1,2,0,2,2,1,1,0
1199220575,23430021,37.1024694,-76.3883658,7.055839,-7.4597273,-10.81798,0.00047478138,0.002704866,0.0,-0.1271427,0.051625997,-1.2056668,-1.2073282,-0.018912507,-0.01135617,0.065236606,0.90867794,-1.6366721,1.3022486,-0.1236499,-0.3826561,12.996035,1.2056668,0.26407006,0.23495539,0.14312656,0.0938793,inf,inf,inf,inf,1,1,1,1,2,0,2,2,1,1,0
1199324737,23430021,37.1024694,-76.3883658,7.048896,-7.4547844,-10.945636,0.00047478138,0.002704866,0.0,-0.12932391,0.049438417,-1.2153648,-1.2167068,-0.018912507,-0.01135617,0.065236606,-0.72436965,1.5755918,1.9925462,-0.12411239,-0.3826561,13.123692,1.2153648,0.2756464,0.23591848,0.14778247,0.09435086,inf,inf,inf,inf,1,1,1,1,2,0,2,2,1,1,0
1199424600,23430021,37.1024694,-76.3883658,7.040969,-7.45224,-11.069634,0.00047478138,0.002704866,0.0,-0.13417044,0.03266369,-1.2188969,-1.2213314,-0.018912507,-0.01135617,0.065236606,-1.2167231,-1.8546357,-1.1472738,-0.12446617,-0.3826561,13.24769,1.2188969,0.26412603,0.23521702,0.14323068,0.093935534,inf,inf,inf,inf,1,1,1,1,2,0,2,2,1,1,0
1199524755,23430021,37.1024694,-76.3883658,7.0314426,-7.450378,-11.195588,0.00047478138,0.002704866,0.0,-0.1317147,0.022876088,-1.2307874,-1.236018,-0.018912507,-0.01135617,0.065236606,0.2500722,0.60828483,0.6807883,-0.12495191,-0.3826561,13.373644,1.2307874,0.27570862,0.23453645,0.147843,0.09402326,inf,inf,inf,inf,1,1,1,1,2,0,2,2,1,1,0
1199628838,23430021,37.1024694,-76.3883658,7.0185723,-7.447614,-11.325157,0.00047478138,0.002704866,0.0,-0.13329105,0.011847245,-1.2348576,-1.2412535,-0.018912507,-0.01135617,0.065236606,1.1826962,-3.097113,5.7738566,-0.12539683,-0.3826561,13.503212,1.2348576,0.2650476,0.23443212,0.14358906,0.09377094,inf,inf,inf,inf,1,1,1,1,2,0,2,2,1,1,0
1199728803,23430021,37.1024694,-76.3883658,7.0049453,-7.445884,-11.446833,0.00047478138,0.002704866,0.0,-0.1438773,0.008019893,-1.2203481,-1.2250415,-0.018912507,-0.01135617,0.065236606,-0.39428675,0.024106681,-1.9731668,-0.1257458,-0.3826561,13.624887,1.2203481,0.27576527,0.23481104,0.14783312,0.09408651,inf,inf,inf,inf,1,1,1,1,2,0,2,2,1,1,0
1199832715,23430021,37.1024694,-76.3883658,6.994028,-7.4475713,-11.575925,0.00047478138,0.002704866,0.0,-0.13801572,-0.0015710043,-1.2257912,-1.2313778,-0.018912507,-0.01135617,0.065236606,3.483403,0.5262478,2.4204469,-0.1264073,-0.3826561,13.753981,1.2257912,0.26484293,0.23468421,0.1434344,0.09382155,inf,inf,inf,inf,1,1,1,1,2,0,2,2,1,1,0
1199932752,23430021,37.1024694,-76.3883658,6.982872,-7.450316,-11.698474,0.00047478138,0.002704866,0.0,-0.14942025,-0.0060296026,-1.2144207,-1.2189001,-0.018912507,-0.01135617,0.065236606,-0.801779,-0.5376876,-0.30866703,-0.12695573,-0.3826561,13.87653,1.2144207,0.25471005,0.23455608,0.13923651,0.09354773,inf,inf,inf,inf,1,1,1,1,2,0,2,2,1,1,0
1200032737,23430021,37.1024694,-76.3883658,6.9714065,-7.4557376,-11.819737,0.00047478138,0.002704866,0.0,-0.14662997,-0.013370501,-1.2366612,-1.2386339,-0.018912507,-0.01135617,0.065236606,-1.1102613,-1.0155042,-0.43632188,-0.12751934,-0.3826561,13.997793,1.2366612,0.26490924,0.23491001,0.14343742,0.09386684,inf,inf,inf,inf,1,1,1,1,2,0,2,2,1,1,0
1200132903,23430021,37.1024694,-76.3883658,6.958654,-7.4613924,-11.93762,0.00047478138,0.002704866,0.0,-0.15165891,-0.027918864,-1.2390317,-1.2354525,-0.018912507,-0.01135617,0.065236606,-1.7861801,2.1144466,-0.50748235,-0.12759154,-0.3826561,14.115675,1.2390317,0.25476083,0.23477204,0.13930504,0.09359093,inf,inf,inf,inf,1,1,1,1,2,0,2,2,1,1,0
1200236605,23430021,37.1024694,-76.3883658,6.9414225,-7.4674487,-12.062112,0.00047478138,0.002704866,0.0,-0.14348315,-0.04252374,-1.2485096,-1.2414511,-0.018912507,-0.01135617,0.065236606,2.0101097,-1.0989286,3.2864118,-0.12797846,-0.3826561,14.240168,1.2485096,0.2658419,0.23409918,0.14386442,0.09369535,inf,inf,inf,inf,1,1,1,1,2,0,2,2,1,1,0
1200340703,23430021,37.1024694,-76.3883658,6.924013,-7.4732633,-12.184992,0.00047478138,0.002704866,0.0,-0.15023883,-0.033176195,-1.230249,-1.2186161,-0.018912507,-0.01135617,0.065236606,-0.44091937,-0.5340574,0.7594934,-0.12799634,-0.3826561,14.363047,1.230249,0.25575864,0.23396353,0.13977785,0.09342466,inf,inf,inf,inf,1,1,1,1,2,0,2,2,1,1,0
1200444751,23430021,37.1024694,-76.3883658,6.9064684,-7.478742,-12.311021,0.00047478138,0.002704866,0.0,-0.13891514,-0.040768743,-1.2459197,-1.2336508,-0.018912507,-0.01135617,0.065236606,1.4831097,0.27818778,4.971759,-0.1277736,-0.3826561,14.489077,1.2459197,0.26690024,0.234892,0.1443215,0.093896404,inf,inf,inf,inf,1,1,1,1,2,0,2,2,1,1,0
1200544749,23430021,37.1024694,-76.3883658,6.8903584,-7.483356,-12.432905,0.00047478138,0.002704866,0.0,-0.13841715,-0.027060643,-1.22557,-1.2131118,-0.018912507,-0.01135617,0.065236606,0.726543,0.86519676,-3.386156,-0.1277554,-0.3826561,14.61096,1.22557,0.25579137,0.23417632,0.13976926,0.093468554,inf,inf,inf,inf,1,1,1,1,2,0,2,2,1,1,0
1200644776,23430021,37.1024694,-76.3883658,6.8748736,-7.486686,-12.549863,0.00047478138,0.002704866,0.0,-0.1315479,-0.03500623,-1.2423887,-1.2241098,-0.018912507,-0.01135617,0.065236606,0.405813,-1.2955201,2.8068304,-0.12737338,-0.3826561,14.727919,1.2423887,0.26693287,0.23509237,0.14433986,0.09393644,inf,inf,inf,inf,1,1,1,1,2,0,2,2,1,1,0
1200748802,23430021,37.1024694,-76.3883658,6.8603015,-7.4894524,-12.67002,0.00047478138,0.002704866,0.0,-0.12157065,-0.01493297,-1.2284305,-1.2032558,-0.018912507,-0.01135617,0.065236606,0.79042214,-0.66458225,-0.18667811,-0.12745287,-0.3826561,14.848076,1.2284305,0.25642088,0.23494375,0.14001708,0.09365551,inf,inf,inf,inf,1,1,1,1,2,0,2,2,1,1,0
1200852732,23430021,37.1024694,-76.3883658,6.8489347,-7.4915905,-12.790258,0.00047478138,0.002704866,0.0,-0.111713134,-0.011990545,-1.2374215,-1.2060299,-0.018912507,-0.01135617,0.065236606,-2.7229292,0.48316312,-0.25258186,-0.12711015,-0.3826561,14.968313,1.2374215,0.26759323,0.23588356,0.14458118,0.09413174,inf,inf,inf,inf,1,1,1,1,2,0,2,2,1,1,0
1200956716,23430021,37.1024694,-76.3883658,6.8388815,-7.4934053,-12.910479,0.00047478138,0.002704866,0.0,-0.09967507,-0.016258227,-1.2420031,-1.2050935,-0.018912507,-0.01135617,0.065236606,-1.4519192,1.4249302,-0.6671804,-0.12734357,-0.3826561,15.088533,1.2420031,0.2573173,0.2341047,0.14046483,0.09347827,inf,inf,inf,inf,1,1,1,1,2,0,2,2,1,1,0
1201060759,23430021,37.1024694,-76.3883658,6.830729,-7.4953313,-13.036131,0.00047478138,0.002704866,0.0,-0.07704178,-0.02039425,-1.2545943,-1.2178153,-0.018912507,-0.01135617,0.065236606,0.7477877,-1.4968138,4.299406,-0.12796967,-0.3826561,15.214186,1.2545943,0.26853776,0.23501614,0.14501476,0.093944214,inf,inf,inf,inf,1,1,1,1,2,0,2,2,1,1,0
1201160735,23430021,37.1024694,-76.3883658,6.824755,-7.4965158,-13.156914,0.00047478138,0.002704866,0.0,-0.0643998,-0.012990886,-1.2549181,-1.2177206,-0.018912507,-0.01135617,0.065236606,-0.94888633,0.012031414,-2.281315,-0.1286215,-0.3826561,15.334969,1.2549181,0.2573621,0.23428124,0.14047498,0.0935133,inf,inf,inf,inf,1,1,1,1,2,0,2,2,1,1,0
1201260735,23430021,37.1024694,-76.3883658,6.8214545,-7.4967923,-13.277005,0.00047478138,0.002704866,0.0,-0.048302334,-0.013914646,-1.237661,-1.1997428,-0.018912507,-0.01135617,0.065236606,0.29725438,-0.19314356,-1.7123569,-0.12934409,-0.3826561,15.455061,1.237661,0.26859125,0.2351928,0.14508483,0.09397965,inf,inf,inf,inf,1,1,1,1,2,0,2,2,1,1,0
1201364858,23430021,37.1024694,-76.3883658,6.8207283,-7.4983277,-13.401218,0.00047478138,0.002704866,0.0,-0.023254396,-0.025255404,-1.232659,-1.1933899,-0.018912507,-0.01135617,0.065236606,1.5450221,0.66986805,-2.3799524,-0.13087314,-0.3826561,15.579273,1.232659,0.25825134,0.23504655,0.1408545,0.09370839,inf,inf,inf,inf,1,1,1,1,2,0,2,2,1,1,0
1201464730,23430021,37.1024694,-76.3883658,6.8231163,-7.5011883,-13.519564,0.00047478138,0.002704866,0.0,-0.0010715339,-0.04454032,-1.2468857,-1.2055035,-0.018912507,-0.01135617,0.065236606,2.5703304,-2.9115705,4.082355,-0.13287777,-0.3826561,15.6976185,1.2468857,0.26864284,0.23541023,0.14511304,0.09403196,inf,inf,inf,inf,1,1,1,1,2,0,2,2,1,1,0
1201568743,23430021,37.1024694,-76.3883658,6.827701,-7.5054483,-13.643153,0.00047478138,0.002704866,0.0,0.012005783,-0.042211346,-1.2292063,-1.1864687,-0.018912507,-0.01135617,0.065236606,-0.79641104,0.6840478,0.08804368,-0.1351073,-0.3826561,15.821209,1.2292063,0.2581718,0.23366503,0.14080396,0.0933931,inf,inf,inf,inf,1,1,1,1,2,0,2,2,1,1,0
1201668820,23430021,37.1024694,-76.3883658,6.8350654,-7.5104647,-13.758568,0.00047478138,0.002704866,0.0,0.0336549,-0.050381694,-1.2430514,-1.1960527,-0.018912507,-0.01135617,0.065236606,0.9271693,-0.2709683,1.7480149,-0.13713647,-0.3826561,15.936623,1.2430514,0.2694459,0.23459479,0.14538103,0.09386668,inf,inf,inf,inf,1,1,1,1,2,0,2,2,1,1,0
1201768806,23430021,37.1024694,-76.3883658,6.843628,-7.5153894,-13.871477,0.00047478138,0.002704866,0.0,0.04338755,-0.057813954,-1.2472621,-1.1939411,-0.018912507,-0.01135617,0.065236606,-0.94312066,0.8112959,-0.40624946,-0.13847426,-0.3826561,16.049532,1.2472621,0.25810236,0.23388709,0.14078458,0.093446806,inf,inf,inf,inf,1,1,1,1,2,0,2,2,1,1,0
1201872678,23430021,37.1024694,-76.3883658,6.8549347,-7.5192113,-13.994591,0.00047478138,0.002704866,0.0,0.050677184,-0.0469969,-1.234961,-1.1815429,-0.018912507,-0.01135617,0.065236606,-1.34921,0.39544067,-3.8116848,-0.1388606,-0.3826561,16.172646,1.234961,0.26936916,0.23481223,0.14539658,0.093919024,inf,inf,inf,inf,1,1,1,1,2,0,2,2,1,1,0
1201972618,23430021,37.1024694,-76.3883658,6.8663387,-7.521215,-14.115327,0.00047478138,0.002704866,0.0,0.060503863,-0.034495022,-1.2344567,-1.1841263,-0.018912507,-0.01135617,0.065236606,0.5722618,0.041138534,-0.2847118,-0.13810436,-0.3826561,16.293383,1.2344567,0.25900635,0.23466155,0.14121424,0.09364835,inf,inf,inf,inf,1,1,1,1,2,0,2,2,1,1,0
1202072706,23430021,37.1024694,-76.3883658,6.877325,-7.5213246,-14.237217,0.00047478138,0.002704866,0.0,0.061835364,-0.014941123,-1.22195,-1.1759726,-0.018912507,-0.01135617,0.065236606,1.9222342,1.2484032,1.735034,-0.13647205,-0.3826561,16.415272,1.22195,0.26943198,0.23501462,0.14542647,0.09396798,inf,inf,inf,inf,1,1,1,1,2,0,2,2,1,1,0
1202176774,23430021,37.1024694,-76.3883658,6.888607,-7.519014,-14.362491,0.00047478138,0.002704866,0.0,0.052998587,0.005224009,-1.208077,-1.1659411,-0.018912507,-0.01135617,0.065236606,-0.20896561,-0.526109,-2.4395535,-0.13494629,-0.3826561,16.540546,1.208077,0.25905746,0.23488212,0.14113076,0.09370429,inf,inf,inf,inf,1,1,1,1,2,0,2,2,1,1,0
1202276620,23430021,37.1024694,-76.3883658,6.898957,-7.514628,-14.482938,0.00047478138,0.002704866,0.0,0.040286507,0.022362212,-1.2057503,-1.1675913,-0.018912507,-0.01135617,0.065236606,-2.7197025,0.383803,0.16653855,-0.13323463,-0.3826561,16.660994,1.2057503,0.27037475,0.23420595,0.14568849,0.09380773,inf,inf,inf,inf,1,1,1,1,2,0,2,2,1,1,0
1202380593,23430021,37.1024694,-76.3883658,6.9070344,-7.50824,-14.610239,0.00047478138,0.002704866,0.0,0.03561425,0.04320967,-1.2076848,-1.1755298,-0.018912507,-0.01135617,0.065236606,0.1817609,-0.0535785,-0.17709103,-0.13200867,-0.3826561,16.788294,1.2076848,0.25982842,0.23407196,0.14136153,0.093542375,inf,inf,inf,inf,1,1,1,1,2,0,2,2,1,1,0
1202484750,23430021,37.1024694,-76.3883658,6.9130354,-7.4999623,-14.742098,0.00047478138,0.002704866,0.0,0.024564104,0.055125162,-1.200869,-1.1784825,-0.018912507,-0.01135617,0.065236606,-1.7002927,-1.6700426,-0.7855632,-0.13125935,-0.3826561,16.920153,1.200869,0.2711802,0.23499925,0.14590755,0.094013534,inf,inf,inf,inf,1,1,1,1,2,0,2,2,1,1,0
