timestamp,noutputs,output[0],output[1],output[2],output[3],output[4],output[5],output[6],output[7],output[8],output[9],output[10],output[11],output[12],output[13],output[14],output[15]
1184726370,8,1176.0,1182.0,1178.0,1167.0,1155.0,1150.0,1153.0,1164.0,0.0,0.0,0.0,0.0,0.0,0.0,0.0,0.0
1184859151,8,1463.0,1469.0,1465.0,1454.0,1442.0,1435.0,1439.0,1450.0,0.0,0.0,0.0,0.0,0.0,0.0,0.0,0.0
1184879926,8,1465.0,1471.0,1467.0,1456.0,1443.0,1438.0,1441.0,1453.0,0.0,0.0,0.0,0.0,0.0,0.0,0.0,0.0
1184923925,8,1471.0,1477.0,1473.0,1462.0,1449.0,1443.0,1446.0,1458.0,0.0,0.0,0.0,0.0,0.0,0.0,0.0,0.0
1184971956,8,1477.0,1484.0,1479.0,1468.0,1454.0,1449.0,1452.0,1465.0,0.0,0.0,0.0,0.0,0.0,0.0,0.0,0.0
1185012023,8,1481.0,1488.0,1484.0,1472.0,1459.0,1453.0,1456.0,1469.0,0.0,0.0,0.0,0.0,0.0,0.0,0.0,0.0
1185059958,8,1488.0,1497.0,1492.0,1480.0,1465.0,1458.0,1461.0,1475.0,0.0,0.0,0.0,0.0,0.0,0.0,0.0,0.0
1185107933,8,1494.0,1500.0,1497.0,1484.0,1471.0,1463.0,1467.0,1479.0,0.0,0.0,0.0,0.0,0.0,0.0,0.0,0.0
1185147991,8,1502.0,1507.0,1503.0,1487.0,1474.0,1466.0,1474.0,1486.0,0.0,0.0,0.0,0.0,0.0,0.0,0.0,0.0
1185172132,8,1498.0,1498.0,1499.0,1488.0,1485.0,1478.0,1485.0,1488.0,0.0,0.0,0.0,0.0,0.0,0.0,0.0,0.0
1185215926,8,1512.0,1510.0,1519.0,1495.0,1490.0,1470.0,1483.0,1485.0,0.0,0.0,0.0,0.0,0.0,0.0,0.0,0.0
1185259927,8,1490.0,1527.0,1495.0,1520.0,1480.0,1506.0,1475.0,1513.0,0.0,0.0,0.0,0.0,0.0,0.0,0.0,0.0
1185303923,8,1509.0,1523.0,1525.0,1518.0,1503.0,1492.0,1487.0,1496.0,0.0,0.0,0.0,0.0,0.0,0.0,0.0,0.0
1185348018,8,1536.0,1530.0,1529.0,1502.0,1497.0,1484.0,1504.0,1512.0,0.0,0.0,0.0,0.0,0.0,0.0,0.0,0.0
1185392044,8,1537.0,1545.0,1532.0,1515.0,1495.0,1492.0,1500.0,1522.0,0.0,0.0,0.0,0.0,0.0,0.0,0.0,0.0
1185435923,8,1536.0,1546.0,1537.0,1526.0,1507.0,1504.0,1506.0,1525.0,0.0,0.0,0.0,0.0,0.0,0.0,0.0,0.0
1185479962,8,1543.0,1548.0,1546.0,1529.0,1516.0,1507.0,1513.0,1525.0,0.0,0.0,0.0,0.0,0.0,0.0,0.0,0.0
1185527928,8,1550.0,1557.0,1554.0,1537.0,1521.0,1511.0,1518.0,1531.0,0.0,0.0,0.0,0.0,0.0,0.0,0.0,0.0
1185571965,8,1552.0,1557.0,1555.0,1543.0,1532.0,1524.0,1528.0,1538.0,0.0,0.0,0.0,0.0,0.0,0.0,0.0,0.0
1185595927,8,1556.0,1563.0,1558.0,1545.0,1531.0,1525.0,1529.0,1542.0,0.0,0.0,0.0,0.0,0.0,0.0,0.0,0.0
1185637915,8,1562.0,1566.0,1562.0,1548.0,1537.0,1531.0,1538.0,1549.0,0.0,0.0,0.0,0.0,0.0,0.0,0.0,0.0
1185685587,8,1569.0,1575.0,1572.0,1557.0,1543.0,1535.0,1540.0,1553.0,0.0,0.0,0.0,0.0,0.0,0.0,0.0,0.0
1185749521,8,1575.0,1569.0,1572.0,1557.0,1559.0,1549.0,1561.0,1561.0,0.0,0.0,0.0,0.0,0.0,0.0,0.0,0.0
1185789547,8,1574.0,1545.0,1556.0,1545.0,1574.0,1570.0,1591.0,1570.0,0.0,0.0,0.0,0.0,0.0,0.0,0.0,0.0
1185833560,8,1555.0,1514.0,1514.0,1533.0,1580.0,1609.0,1621.0,1591.0,0.0,0.0,0.0,0.0,0.0,0.0,0.0,0.0
1185873511,8,1548.0,1501.0,1494.0,1530.0,1589.0,1636.0,1643.0,1607.0,0.0,0.0,0.0,0.0,0.0,0.0,0.0,0.0
1185917536,8,1530.0,1488.0,1491.0,1526.0,1583.0,1618.0,1622.0,1580.0,0.0,0.0,0.0,0.0,0.0,0.0,0.0,0.0
1185937709,8,1527.0,1491.0,1498.0,1524.0,1573.0,1598.0,1603.0,1566.0,0.0,0.0,0.0,0.0,0.0,0.0,0.0,0.0
1186005505,8,1491.0,1481.0,1497.0,1523.0,1551.0,1556.0,1545.0,1514.0,0.0,0.0,0.0,0.0,0.0,0.0,0.0,0.0
1186025502,8,1490.0,1476.0,1494.0,1522.0,1555.0,1562.0,1551.0,1516.0,0.0,0.0,0.0,0.0,0.0,0.0,0.0,0.0
1186069839,8,1474.0,1441.0,1475.0,1493.0,1548.0,1544.0,1547.0,1492.0,0.0,0.0,0.0,0.0,0.0,0.0,0.0,0.0
1186117415,8,1491.0,1449.0,1489.0,1472.0,1524.0,1498.0,1526.0,1475.0,0.0,0.0,0.0,0.0,0.0,0.0,0.0,0.0
1186157527,8,1483.0,1436.0,1481.0,1454.0,1510.0,1476.0,1512.0,1457.0,0.0,0.0,0.0,0.0,0.0,0.0,0.0,0.0
1186205507,8,1478.0,1438.0,1484.0,1447.0,1491.0,1449.0,1485.0,1439.0,0.0,0.0,0.0,0.0,0.0,0.0,0.0,0.0
1186249830,8,1488.0,1447.0,1487.0,1438.0,1478.0,1434.0,1482.0,1442.0,0.0,0.0,0.0,0.0,0.0,0.0,0.0,0.0
1186293630,8,1483.0,1437.0,1483.0,1438.0,1483.0,1437.0,1483.0,1437.0,0.0,0.0,0.0,0.0,0.0,0.0,0.0,0.0
1186337418,8,1471.0,1430.0,1483.0,1442.0,1487.0,1436.0,1475.0,1425.0,0.0,0.0,0.0,0.0,0.0,0.0,0.0,0.0
1186381525,8,1472.0,1442.0,1495.0,1451.0,1485.0,1428.0,1463.0,1419.0,0.0,0.0,0.0,0.0,0.0,0.0,0.0,0.0
1186405539,8,1477.0,1444.0,1496.0,1445.0,1479.0,1420.0,1461.0,1420.0,0.0,0.0,0.0,0.0,0.0,0.0,0.0,0.0
1186453565,8,1470.0,1431.0,1486.0,1442.0,1486.0,1431.0,1470.0,1420.0,0.0,0.0,0.0,0.0,0.0,0.0,0.0,0.0
1186501690,8,1466.0,1424.0,1480.0,1441.0,1490.0,1439.0,1476.0,1422.0,0.0,0.0,0.0,0.0,0.0,0.0,0.0,0.0
1186549503,8,1473.0,1433.0,1483.0,1442.0,1487.0,1437.0,1476.0,1428.0,0.0,0.0,0.0,0.0,0.0,0.0,0.0,0.0
1186589524,8,1480.0,1437.0,1484.0,1436.0,1479.0,1430.0,1476.0,1431.0,0.0,0.0,0.0,0.0,0.0,0.0,0.0,0.0
1186633565,8,1477.0,1437.0,1483.0,1438.0,1479.0,1431.0,1473.0,1430.0,0.0,0.0,0.0,0.0,0.0,0.0,0.0,0.0
1186653532,8,1476.0,1438.0,1482.0,1441.0,1481.0,1436.0,1475.0,1433.0,0.0,0.0,0.0,0.0,0.0,0.0,0.0,0.0
1186717665,8,1479.0,1448.0,1489.0,1448.0,1480.0,1434.0,1470.0,1434.0,0.0,0.0,0.0,0.0,0.0,0.0,0.0,0.0
1186737630,8,1479.0,1448.0,1490.0,1448.0,1480.0,1434.0,1469.0,1433.0,0.0,0.0,0.0,0.0,0.0,0.0,0.0,0.0
1186785559,8,1483.0,1445.0,1489.0,1444.0,1481.0,1434.0,1475.0,1435.0,0.0,0.0,0.0,0.0,0.0,0.0,0.0,0.0
1186829581,8,1481.0,1444.0,1487.0,1447.0,1485.0,1441.0,1479.0,1438.0,0.0,0.0,0.0,0.0,0.0,0.0,0.0,0.0
1186873536,8,1483.0,1446.0,1488.0,1447.0,1484.0,1440.0,1479.0,1440.0,0.0,0.0,0.0,0.0,0.0,0.0,0.0,0.0
1186921499,8,1482.0,1444.0,1487.0,1445.0,1485.0,1441.0,1481.0,1439.0,0.0,0.0,0.0,0.0,0.0,0.0,0.0,0.0
1186965639,8,1483.0,1442.0,1486.0,1444.0,1486.0,1442.0,1483.0,1439.0,0.0,0.0,0.0,0.0,0.0,0.0,0.0,0.0
1187009516,8,1486.0,1444.0,1486.0,1444.0,1486.0,1444.0,1486.0,1444.0,0.0,0.0,0.0,0.0,0.0,0.0,0.0,0.0
1187053520,8,1486.0,1445.0,1487.0,1446.0,1486.0,1444.0,1485.0,1444.0,0.0,0.0,0.0,0.0,0.0,0.0,0.0,0.0
1187073533,8,1483.0,1443.0,1484.0,1446.0,1487.0,1447.0,1486.0,1444.0,0.0,0.0,0.0,0.0,0.0,0.0,0.0,0.0
1187121498,8,1489.0,1443.0,1485.0,1440.0,1485.0,1443.0,1489.0,1446.0,0.0,0.0,0.0,0.0,0.0,0.0,0.0,0.0
1187165603,8,1491.0,1444.0,1485.0,1441.0,1486.0,1446.0,1492.0,1449.0,0.0,0.0,0.0,0.0,0.0,0.0,0.0,0.0
1187209641,8,1491.0,1442.0,1479.0,1438.0,1485.0,1450.0,1496.0,1454.0,0.0,0.0,0.0,0.0,0.0,0.0,0.0,0.0
1187253566,8,1490.0,1444.0,1484.0,1442.0,1489.0,1450.0,1495.0,1451.0,0.0,0.0,0.0,0.0,0.0,0.0,0.0,0.0
1187293994,8,1487.0,1443.0,1487.0,1449.0,1494.0,1454.0,1494.0,1448.0,0.0,0.0,0.0,0.0,0.0,0.0,0.0,0.0
1187337564,8,1487.0,1444.0,1491.0,1450.0,1497.0,1452.0,1493.0,1445.0,0.0,0.0,0.0,0.0,0.0,0.0,0.0,0.0
1187381610,8,1484.0,1441.0,1491.0,1452.0,1499.0,1453.0,1493.0,1442.0,0.0,0.0,0.0,0.0,0.0,0.0,0.0,0.0
1187429590,8,1486.0,1443.0,1493.0,1452.0,1500.0,1452.0,1492.0,1442.0,0.0,0.0,0.0,0.0,0.0,0.0,0.0,0.0
1187469580,8,1487.0,1442.0,1493.0,1450.0,1499.0,1451.0,1494.0,1442.0,0.0,0.0,0.0,0.0,0.0,0.0,0.0,0.0
1187513550,8,1486.0,1443.0,1493.0,1452.0,1499.0,1451.0,1492.0,1442.0,0.0,0.0,0.0,0.0,0.0,0.0,0.0,0.0
1187557558,8,1491.0,1443.0,1491.0,1445.0,1495.0,1447.0,1494.0,1445.0,0.0,0.0,0.0,0.0,0.0,0.0,0.0,0.0
1187577532,8,1491.0,1447.0,1498.0,1453.0,1499.0,1449.0,1492.0,1443.0,0.0,0.0,0.0,0.0,0.0,0.0,0.0,0.0
1187625534,8,1491.0,1443.0,1493.0,1448.0,1499.0,1450.0,1496.0,1445.0,0.0,0.0,0.0,0.0,0.0,0.0,0.0,0.0
1187685587,8,1489.0,1442.0,1494.0,1450.0,1501.0,1452.0,1495.0,1443.0,0.0,0.0,0.0,0.0,0.0,0.0,0.0,0.0
1187709527,8,1486.0,1442.0,1492.0,1451.0,1500.0,1452.0,1494.0,1443.0,0.0,0.0,0.0,0.0,0.0,0.0,0.0,0.0
1187753637,8,1486.0,1447.0,1497.0,1459.0,1503.0,1455.0,1492.0,1443.0,0.0,0.0,0.0,0.0,0.0,0.0,0.0,0.0
1187801463,8,1486.0,1445.0,1492.0,1455.0,1499.0,1455.0,1493.0,1446.0,0.0,0.0,0.0,0.0,0.0,0.0,0.0,0.0
1187849586,8,1486.0,1447.0,1495.0,1459.0,1503.0,1458.0,1494.0,1446.0,0.0,0.0,0.0,0.0,0.0,0.0,0.0,0.0
1187873602,8,1487.0,1445.0,1491.0,1452.0,1497.0,1454.0,1493.0,1447.0,0.0,0.0,0.0,0.0,0.0,0.0,0.0,0.0
1187921524,8,1488.0,1451.0,1495.0,1460.0,1500.0,1459.0,1493.0,1450.0,0.0,0.0,0.0,0.0,0.0,0.0,0.0,0.0
1187965690,8,1486.0,1446.0,1491.0,1455.0,1499.0,1458.0,1495.0,1449.0,0.0,0.0,0.0,0.0,0.0,0.0,0.0,0.0
1188009541,8,1488.0,1451.0,1494.0,1460.0,1500.0,1460.0,1494.0,1451.0,0.0,0.0,0.0,0.0,0.0,0.0,0.0,0.0
1188053629,8,1488.0,1450.0,1492.0,1457.0,1498.0,1459.0,1494.0,1451.0,0.0,0.0,0.0,0.0,0.0,0.0,0.0,0.0
1188097560,8,1486.0,1452.0,1494.0,1460.0,1500.0,1460.0,1494.0,1452.0,0.0,0.0,0.0,0.0,0.0,0.0,0.0,0.0
1188141599,8,1486.0,1448.0,1491.0,1460.0,1502.0,1464.0,1497.0,1452.0,0.0,0.0,0.0,0.0,0.0,0.0,0.0,0.0
1188189541,8,1488.0,1450.0,1496.0,1462.0,1505.0,1463.0,1497.0,1451.0,0.0,0.0,0.0,0.0,0.0,0.0,0.0,0.0
1188209606,8,1486.0,1444.0,1489.0,1455.0,1502.0,1462.0,1498.0,1451.0,0.0,0.0,0.0,0.0,0.0,0.0,0.0,0.0
1188253539,8,1487.0,1446.0,1492.0,1458.0,1504.0,1464.0,1500.0,1452.0,0.0,0.0,0.0,0.0,0.0,0.0,0.0,0.0
1188301867,8,1489.0,1449.0,1495.0,1459.0,1503.0,1460.0,1497.0,1451.0,0.0,0.0,0.0,0.0,0.0,0.0,0.0,0.0
1188345721,8,1488.0,1447.0,1492.0,1456.0,1502.0,1461.0,1498.0,1451.0,0.0,0.0,0.0,0.0,0.0,0.0,0.0,0.0
1188389615,8,1490.0,1446.0,1493.0,1456.0,1504.0,1460.0,1500.0,1450.0,0.0,0.0,0.0,0.0,0.0,0.0,0.0,0.0
1188433563,8,1488.0,1444.0,1492.0,1456.0,1504.0,1460.0,1499.0,1449.0,0.0,0.0,0.0,0.0,0.0,0.0,0.0,0.0
1188477590,8,1487.0,1446.0,1495.0,1460.0,1507.0,1462.0,1498.0,1448.0,0.0,0.0,0.0,0.0,0.0,0.0,0.0,0.0
1188525557,8,1488.0,1445.0,1492.0,1457.0,1504.0,1463.0,1500.0,1451.0,0.0,0.0,0.0,0.0,0.0,0.0,0.0,0.0
1188545605,8,1486.0,1448.0,1495.0,1462.0,1505.0,1463.0,1497.0,1449.0,0.0,0.0,0.0,0.0,0.0,0.0,0.0,0.0
1188589695,8,1487.0,1445.0,1492.0,1459.0,1507.0,1466.0,1501.0,1452.0,0.0,0.0,0.0,0.0,0.0,0.0,0.0,0.0
1188637524,8,1487.0,1445.0,1490.0,1457.0,1506.0,1466.0,1503.0,1453.0,0.0,0.0,0.0,0.0,0.0,0.0,0.0,0.0
1188681533,8,1486.0,1448.0,1493.0,1462.0,1507.0,1467.0,1500.0,1452.0,0.0,0.0,0.0,0.0,0.0,0.0,0.0,0.0
1188725577,8,1488.0,1448.0,1494.0,1461.0,1506.0,1466.0,1501.0,1453.0,0.0,0.0,0.0,0.0,0.0,0.0,0.0,0.0
1188773405,8,1490.0,1446.0,1492.0,1457.0,1506.0,1466.0,1504.0,1455.0,0.0,0.0,0.0,0.0,0.0,0.0,0.0,0.0
1188821553,8,1488.0,1446.0,1490.0,1457.0,1505.0,1467.0,1503.0,1455.0,0.0,0.0,0.0,0.0,0.0,0.0,0.0,0.0
1188861571,8,1490.0,1444.0,1487.0,1453.0,1502.0,1465.0,1504.0,1456.0,0.0,0.0,0.0,0.0,0.0,0.0,0.0,0.0
1188885531,8,1490.0,1446.0,1490.0,1455.0,1503.0,1465.0,1504.0,1456.0,0.0,0.0,0.0,0.0,0.0,0.0,0.0,0.0
1188929583,8,1489.0,1446.0,1488.0,1454.0,1501.0,1465.0,1503.0,1456.0,0.0,0.0,0.0,0.0,0.0,0.0,0.0,0.0
1188973534,8,1491.0,1445.0,1488.0,1453.0,1502.0,1465.0,1504.0,1457.0,0.0,0.0,0.0,0.0,0.0,0.0,0.0,0.0
1189013630,8,1490.0,1444.0,1485.0,1450.0,1498.0,1462.0,1503.0,1457.0,0.0,0.0,0.0,0.0,0.0,0.0,0.0,0.0
1189057831,8,1489.0,1450.0,1492.0,1459.0,1502.0,1463.0,1499.0,1454.0,0.0,0.0,0.0,0.0,0.0,0.0,0.0,0.0
1189105593,8,1489.0,1449.0,1490.0,1457.0,1501.0,1465.0,1500.0,1457.0,0.0,0.0,0.0,0.0,0.0,0.0,0.0,0.0
1189149629,8,1493.0,1448.0,1491.0,1453.0,1500.0,1461.0,1502.0,1456.0,0.0,0.0,0.0,0.0,0.0,0.0,0.0,0.0
1189197626,8,1493.0,1450.0,1494.0,1455.0,1500.0,1460.0,1500.0,1455.0,0.0,0.0,0.0,0.0,0.0,0.0,0.0,0.0
1189217542,8,1491.0,1448.0,1489.0,1451.0,1497.0,1458.0,1499.0,1455.0,0.0,0.0,0.0,0.0,0.0,0.0,0.0,0.0
1189261529,8,1488.0,1443.0,1487.0,1449.0,1497.0,1458.0,1499.0,1452.0,0.0,0.0,0.0,0.0,0.0,0.0,0.0,0.0
1189309871,8,1490.0,1448.0,1490.0,1454.0,1498.0,1459.0,1498.0,1454.0,0.0,0.0,0.0,0.0,0.0,0.0,0.0,0.0
1189353555,8,1491.0,1445.0,1492.0,1454.0,1503.0,1461.0,1502.0,1453.0,0.0,0.0,0.0,0.0,0.0,0.0,0.0,0.0
1189397555,8,1488.0,1448.0,1491.0,1457.0,1501.0,1462.0,1498.0,1453.0,0.0,0.0,0.0,0.0,0.0,0.0,0.0,0.0
1189441571,8,1487.0,1445.0,1488.0,1455.0,1501.0,1462.0,1499.0,1453.0,0.0,0.0,0.0,0.0,0.0,0.0,0.0,0.0
1189485570,8,1488.0,1443.0,1488.0,1452.0,1501.0,1462.0,1501.0,1453.0,0.0,0.0,0.0,0.0,0.0,0.0,0.0,0.0
1189529554,8,1488.0,1443.0,1485.0,1451.0,1500.0,1463.0,1503.0,1455.0,0.0,0.0,0.0,0.0,0.0,0.0,0.0,0.0
1189573543,8,1487.0,1445.0,1489.0,1457.0,1503.0,1466.0,1502.0,1454.0,0.0,0.0,0.0,0.0,0.0,0.0,0.0,0.0
1189597688,8,1489.0,1444.0,1486.0,1451.0,1500.0,1464.0,1503.0,1456.0,0.0,0.0,0.0,0.0,0.0,0.0,0.0,0.0
1189645549,8,1486.0,1443.0,1486.0,1453.0,1500.0,1463.0,1500.0,1453.0,0.0,0.0,0.0,0.0,0.0,0.0,0.0,0.0
1189689694,8,1485.0,1445.0,1488.0,1456.0,1501.0,1463.0,1498.0,1454.0,0.0,0.0,0.0,0.0,0.0,0.0,0.0,0.0
1189733575,8,1486.0,1449.0,1491.0,1459.0,1500.0,1462.0,1496.0,1453.0,0.0,0.0,0.0,0.0,0.0,0.0,0.0,0.0
1189778030,8,1485.0,1445.0,1487.0,1455.0,1499.0,1462.0,1497.0,1452.0,0.0,0.0,0.0,0.0,0.0,0.0,0.0,0.0
1189821518,8,1487.0,1448.0,1487.0,1455.0,1497.0,1462.0,1496.0,1454.0,0.0,0.0,0.0,0.0,0.0,0.0,0.0,0.0
1189861571,8,1484.0,1448.0,1488.0,1459.0,1500.0,1465.0,1496.0,1454.0,0.0,0.0,0.0,0.0,0.0,0.0,0.0,0.0
1189905624,8,1484.0,1443.0,1481.0,1451.0,1495.0,1462.0,1497.0,1454.0,0.0,0.0,0.0,0.0,0.0,0.0,0.0,0.0
1189949532,8,1484.0,1445.0,1484.0,1455.0,1498.0,1464.0,1497.0,1454.0,0.0,0.0,0.0,0.0,0.0,0.0,0.0,0.0
1189997537,8,1482.0,1445.0,1481.0,1453.0,1493.0,1463.0,1495.0,1455.0,0.0,0.0,0.0,0.0,0.0,0.0,0.0,0.0
1190038515,8,1481.0,1448.0,1487.0,1462.0,1501.0,1468.0,1495.0,1454.0,0.0,0.0,0.0,0.0,0.0,0.0,0.0,0.0
1190059174,8,1480.0,1442.0,1480.0,1453.0,1496.0,1464.0,1498.0,1455.0,0.0,0.0,0.0,0.0,0.0,0.0,0.0,0.0
1190123189,8,1479.0,1445.0,1484.0,1459.0,1499.0,1467.0,1495.0,1453.0,0.0,0.0,0.0,0.0,0.0,0.0,0.0,0.0
1190147168,8,1480.0,1442.0,1479.0,1453.0,1495.0,1465.0,1496.0,1455.0,0.0,0.0,0.0,0.0,0.0,0.0,0.0,0.0
1190191001,8,1481.0,1441.0,1479.0,1453.0,1497.0,1467.0,1496.0,1455.0,0.0,0.0,0.0,0.0,0.0,0.0,0.0,0.0
1190251153,8,1481.0,1443.0,1480.0,1453.0,1495.0,1463.0,1496.0,1454.0,0.0,0.0,0.0,0.0,0.0,0.0,0.0,0.0
1190275240,8,1483.0,1443.0,1479.0,1451.0,1494.0,1464.0,1497.0,1456.0,0.0,0.0,0.0,0.0,0.0,0.0,0.0,0.0
1190319246,8,1483.0,1445.0,1479.0,1450.0,1490.0,1461.0,1495.0,1456.0,0.0,0.0,0.0,0.0,0.0,0.0,0.0,0.0
1190367102,8,1485.0,1446.0,1479.0,1449.0,1489.0,1461.0,1495.0,1458.0,0.0,0.0,0.0,0.0,0.0,0.0,0.0,0.0
1190415101,8,1483.0,1443.0,1478.0,1448.0,1489.0,1459.0,1494.0,1455.0,0.0,0.0,0.0,0.0,0.0,0.0,0.0,0.0
1190459223,8,1481.0,1446.0,1481.0,1455.0,1493.0,1463.0,1492.0,1454.0,0.0,0.0,0.0,0.0,0.0,0.0,0.0,0.0
1190483261,8,1484.0,1445.0,1481.0,1450.0,1492.0,1461.0,1496.0,1455.0,0.0,0.0,0.0,0.0,0.0,0.0,0.0,0.0
1190547106,8,1483.0,1447.0,1482.0,1454.0,1493.0,1462.0,1494.0,1455.0,0.0,0.0,0.0,0.0,0.0,0.0,0.0,0.0
1190587143,8,1483.0,1446.0,1481.0,1453.0,1492.0,1462.0,1494.0,1455.0,0.0,0.0,0.0,0.0,0.0,0.0,0.0,0.0
1190607466,8,1484.0,1446.0,1482.0,1453.0,1494.0,1463.0,1496.0,1456.0,0.0,0.0,0.0,0.0,0.0,0.0,0.0,0.0
1190675007,8,1484.0,1443.0,1481.0,1451.0,1496.0,1463.0,1498.0,1455.0,0.0,0.0,0.0,0.0,0.0,0.0,0.0,0.0
1190695159,8,1483.0,1448.0,1484.0,1457.0,1497.0,1467.0,1497.0,1457.0,0.0,0.0,0.0,0.0,0.0,0.0,0.0,0.0
1190743078,8,1485.0,1444.0,1482.0,1452.0,1495.0,1464.0,1498.0,1456.0,0.0,0.0,0.0,0.0,0.0,0.0,0.0,0.0
1190787476,8,1485.0,1446.0,1484.0,1453.0,1496.0,1463.0,1498.0,1456.0,0.0,0.0,0.0,0.0,0.0,0.0,0.0,0.0
1190831096,8,1487.0,1446.0,1484.0,1452.0,1494.0,1461.0,1497.0,1456.0,0.0,0.0,0.0,0.0,0.0,0.0,0.0,0.0
1190871098,8,1486.0,1447.0,1483.0,1452.0,1494.0,1462.0,1497.0,1457.0,0.0,0.0,0.0,0.0,0.0,0.0,0.0,0.0
1190915109,8,1487.0,1444.0,1481.0,1447.0,1493.0,1460.0,1499.0,1456.0,0.0,0.0,0.0,0.0,0.0,0.0,0.0,0.0
1190959142,8,1487.0,1442.0,1483.0,1448.0,1495.0,1460.0,1499.0,1454.0,0.0,0.0,0.0,0.0,0.0,0.0,0.0,0.0
1191007154,8,1487.0,1444.0,1484.0,1450.0,1495.0,1461.0,1499.0,1455.0,0.0,0.0,0.0,0.0,0.0,0.0,0.0,0.0
1191051216,8,1487.0,1444.0,1482.0,1450.0,1495.0,1462.0,1500.0,1456.0,0.0,0.0,0.0,0.0,0.0,0.0,0.0,0.0
1191071099,8,1486.0,1441.0,1480.0,1446.0,1493.0,1460.0,1499.0,1455.0,0.0,0.0,0.0,0.0,0.0,0.0,0.0,0.0
1191119135,8,1488.0,1443.0,1482.0,1448.0,1494.0,1461.0,1501.0,1457.0,0.0,0.0,0.0,0.0,0.0,0.0,0.0,0.0
1191167010,8,1484.0,1442.0,1482.0,1449.0,1495.0,1460.0,1497.0,1453.0,0.0,0.0,0.0,0.0,0.0,0.0,0.0,0.0
1191211151,8,1487.0,1441.0,1478.0,1444.0,1490.0,1458.0,1499.0,1456.0,0.0,0.0,0.0,0.0,0.0,0.0,0.0,0.0
1191255487,8,1486.0,1444.0,1484.0,1452.0,1497.0,1463.0,1499.0,1455.0,0.0,0.0,0.0,0.0,0.0,0.0,0.0,0.0
1191299158,8,1486.0,1440.0,1480.0,1446.0,1494.0,1460.0,1500.0,1454.0,0.0,0.0,0.0,0.0,0.0,0.0,0.0,0.0
1191347009,8,1487.0,1442.0,1484.0,1449.0,1497.0,1461.0,1500.0,1454.0,0.0,0.0,0.0,0.0,0.0,0.0,0.0,0.0
1191371103,8,1487.0,1441.0,1482.0,1446.0,1493.0,1457.0,1498.0,1453.0,0.0,0.0,0.0,0.0,0.0,0.0,0.0,0.0
1191415098,8,1485.0,1438.0,1480.0,1445.0,1495.0,1460.0,1501.0,1453.0,0.0,0.0,0.0,0.0,0.0,0.0,0.0,0.0
1191459147,8,1486.0,1440.0,1480.0,1445.0,1494.0,1459.0,1500.0,1454.0,0.0,0.0,0.0,0.0,0.0,0.0,0.0,0.0
1191503005,8,1489.0,1441.0,1483.0,1446.0,1496.0,1459.0,1502.0,1454.0,0.0,0.0,0.0,0.0,0.0,0.0,0.0,0.0
1191547141,8,1487.0,1438.0,1480.0,1444.0,1495.0,1459.0,1501.0,1453.0,0.0,0.0,0.0,0.0,0.0,0.0,0.0,0.0
1191591125,8,1487.0,1441.0,1486.0,1451.0,1500.0,1461.0,1500.0,1451.0,0.0,0.0,0.0,0.0,0.0,0.0,0.0,0.0
1191639110,8,1488.0,1440.0,1484.0,1447.0,1497.0,1458.0,1501.0,1452.0,0.0,0.0,0.0,0.0,0.0,0.0,0.0,0.0
1191683159,8,1486.0,1438.0,1480.0,1444.0,1494.0,1457.0,1499.0,1452.0,0.0,0.0,0.0,0.0,0.0,0.0,0.0,0.0
1191723548,8,1489.0,1439.0,1483.0,1443.0,1494.0,1455.0,1500.0,1452.0,0.0,0.0,0.0,0.0,0.0,0.0,0.0,0.0
1191747110,8,1486.0,1437.0,1481.0,1444.0,1496.0,1458.0,1501.0,1451.0,0.0,0.0,0.0,0.0,0.0,0.0,0.0,0.0
1191791145,8,1486.0,1441.0,1482.0,1447.0,1495.0,1459.0,1499.0,1453.0,0.0,0.0,0.0,0.0,0.0,0.0,0.0,0.0
1191835119,8,1487.0,1439.0,1482.0,1445.0,1494.0,1458.0,1500.0,1452.0,0.0,0.0,0.0,0.0,0.0,0.0,0.0,0.0
1191879204,8,1484.0,1441.0,1483.0,1451.0,1498.0,1463.0,1499.0,1453.0,0.0,0.0,0.0,0.0,0.0,0.0,0.0,0.0
1191923201,8,1486.0,1442.0,1483.0,1449.0,1496.0,1460.0,1499.0,1453.0,0.0,0.0,0.0,0.0,0.0,0.0,0.0,0.0
1191967152,8,1484.0,1437.0,1479.0,1446.0,1496.0,1461.0,1501.0,1452.0,0.0,0.0,0.0,0.0,0.0,0.0,0.0,0.0
1192015166,8,1486.0,1442.0,1485.0,1450.0,1497.0,1460.0,1498.0,1452.0,0.0,0.0,0.0,0.0,0.0,0.0,0.0,0.0
1192059224,8,1484.0,1440.0,1479.0,1449.0,1497.0,1464.0,1501.0,1455.0,0.0,0.0,0.0,0.0,0.0,0.0,0.0,0.0
1192083317,8,1484.0,1442.0,1482.0,1451.0,1497.0,1463.0,1499.0,1454.0,0.0,0.0,0.0,0.0,0.0,0.0,0.0,0.0
1192123163,8,1481.0,1443.0,1483.0,1455.0,1500.0,1466.0,1498.0,1453.0,0.0,0.0,0.0,0.0,0.0,0.0,0.0,0.0
1192170991,8,1485.0,1441.0,1478.0,1447.0,1493.0,1463.0,1500.0,1457.0,0.0,0.0,0.0,0.0,0.0,0.0,0.0,0.0
1192219222,8,1482.0,1443.0,1480.0,1453.0,1496.0,1465.0,1497.0,1455.0,0.0,0.0,0.0,0.0,0.0,0.0,0.0,0.0
1192267176,8,1483.0,1443.0,1480.0,1452.0,1495.0,1465.0,1498.0,1456.0,0.0,0.0,0.0,0.0,0.0,0.0,0.0,0.0
1192290978,8,1482.0,1446.0,1479.0,1454.0,1493.0,1466.0,1496.0,1458.0,0.0,0.0,0.0,0.0,0.0,0.0,0.0,0.0
1192335554,8,1483.0,1445.0,1480.0,1453.0,1495.0,1465.0,1497.0,1456.0,0.0,0.0,0.0,0.0,0.0,0.0,0.0,0.0
1192383171,8,1484.0,1449.0,1484.0,1457.0,1495.0,1464.0,1494.0,1456.0,0.0,0.0,0.0,0.0,0.0,0.0,0.0,0.0
1192431132,8,1479.0,1444.0,1479.0,1456.0,1495.0,1467.0,1495.0,1455.0,0.0,0.0,0.0,0.0,0.0,0.0,0.0,0.0
1192471209,8,1482.0,1447.0,1479.0,1453.0,1491.0,1464.0,1494.0,1458.0,0.0,0.0,0.0,0.0,0.0,0.0,0.0,0.0
1192495276,8,1481.0,1447.0,1479.0,1455.0,1492.0,1465.0,1494.0,1458.0,0.0,0.0,0.0,0.0,0.0,0.0,0.0,0.0
1192543183,8,1481.0,1446.0,1481.0,1456.0,1494.0,1465.0,1495.0,1456.0,0.0,0.0,0.0,0.0,0.0,0.0,0.0,0.0
1192591125,8,1486.0,1449.0,1484.0,1455.0,1494.0,1463.0,1496.0,1458.0,0.0,0.0,0.0,0.0,0.0,0.0,0.0,0.0
1192635134,8,1483.0,1450.0,1482.0,1456.0,1492.0,1464.0,1493.0,1457.0,0.0,0.0,0.0,0.0,0.0,0.0,0.0,0.0
1192683284,8,1484.0,1449.0,1483.0,1457.0,1495.0,1466.0,1496.0,1458.0,0.0,0.0,0.0,0.0,0.0,0.0,0.0,0.0
1192723213,8,1484.0,1448.0,1483.0,1455.0,1494.0,1464.0,1495.0,1456.0,0.0,0.0,0.0,0.0,0.0,0.0,0.0,0.0
1192771190,8,1483.0,1449.0,1485.0,1459.0,1497.0,1467.0,1496.0,1457.0,0.0,0.0,0.0,0.0,0.0,0.0,0.0,0.0
1192811135,8,1483.0,1449.0,1485.0,1459.0,1498.0,1467.0,1496.0,1457.0,0.0,0.0,0.0,0.0,0.0,0.0,0.0,0.0
1192835170,8,1484.0,1448.0,1485.0,1458.0,1498.0,1467.0,1497.0,1457.0,0.0,0.0,0.0,0.0,0.0,0.0,0.0,0.0
1192879177,8,1484.0,1447.0,1483.0,1454.0,1495.0,1464.0,1497.0,1457.0,0.0,0.0,0.0,0.0,0.0,0.0,0.0,0.0
1192923158,8,1486.0,1446.0,1484.0,1454.0,1496.0,1464.0,1499.0,1457.0,0.0,0.0,0.0,0.0,0.0,0.0,0.0,0.0
1192967137,8,1488.0,1450.0,1489.0,1456.0,1497.0,1462.0,1497.0,1456.0,0.0,0.0,0.0,0.0,0.0,0.0,0.0,0.0
1193010999,8,1490.0,1449.0,1487.0,1453.0,1495.0,1460.0,1498.0,1456.0,0.0,0.0,0.0,0.0,0.0,0.0,0.0,0.0
1193055512,8,1491.0,1449.0,1488.0,1452.0,1496.0,1460.0,1499.0,1457.0,0.0,0.0,0.0,0.0,0.0,0.0,0.0,0.0
1193103157,8,1488.0,1445.0,1486.0,1451.0,1497.0,1460.0,1499.0,1454.0,0.0,0.0,0.0,0.0,0.0,0.0,0.0,0.0
1193147132,8,1490.0,1449.0,1489.0,1455.0,1499.0,1462.0,1500.0,1456.0,0.0,0.0,0.0,0.0,0.0,0.0,0.0,0.0
1193191161,8,1491.0,1450.0,1490.0,1454.0,1497.0,1461.0,1499.0,1456.0,0.0,0.0,0.0,0.0,0.0,0.0,0.0,0.0
1193231128,8,1492.0,1448.0,1487.0,1451.0,1496.0,1461.0,1501.0,1457.0,0.0,0.0,0.0,0.0,0.0,0.0,0.0,0.0
1193275276,8,1492.0,1446.0,1487.0,1449.0,1497.0,1460.0,1502.0,1457.0,0.0,0.0,0.0,0.0,0.0,0.0,0.0,0.0
1193299107,8,1488.0,1444.0,1489.0,1454.0,1501.0,1461.0,1500.0,1452.0,0.0,0.0,0.0,0.0,0.0,0.0,0.0,0.0
1193343256,8,1491.0,1446.0,1489.0,1454.0,1501.0,1464.0,1504.0,1457.0,0.0,0.0,0.0,0.0,0.0,0.0,0.0,0.0
1193383193,8,1490.0,1448.0,1491.0,1456.0,1502.0,1464.0,1501.0,1456.0,0.0,0.0,0.0,0.0,0.0,0.0,0.0,0.0
1193431171,8,1492.0,1446.0,1489.0,1452.0,1500.0,1462.0,1503.0,1456.0,0.0,0.0,0.0,0.0,0.0,0.0,0.0,0.0
1193475118,8,1492.0,1448.0,1490.0,1454.0,1500.0,1462.0,1502.0,1457.0,0.0,0.0,0.0,0.0,0.0,0.0,0.0,0.0
1193523320,8,1493.0,1447.0,1489.0,1450.0,1498.0,1460.0,1503.0,1457.0,0.0,0.0,0.0,0.0,0.0,0.0,0.0,0.0
1193567159,8,1493.0,1447.0,1490.0,1450.0,1497.0,1458.0,1501.0,1455.0,0.0,0.0,0.0,0.0,0.0,0.0,0.0,0.0
1193610999,8,1491.0,1444.0,1486.0,1449.0,1498.0,1460.0,1502.0,1455.0,0.0,0.0,0.0,0.0,0.0,0.0,0.0,0.0
1193651136,8,1494.0,1451.0,1495.0,1455.0,1500.0,1458.0,1498.0,1454.0,0.0,0.0,0.0,0.0,0.0,0.0,0.0,0.0
1193691135,8,1494.0,1451.0,1493.0,1454.0,1498.0,1458.0,1499.0,1455.0,0.0,0.0,0.0,0.0,0.0,0.0,0.0,0.0
1193735169,8,1491.0,1445.0,1489.0,1451.0,1499.0,1460.0,1501.0,1454.0,0.0,0.0,0.0,0.0,0.0,0.0,0.0,0.0
1193779168,8,1495.0,1450.0,1490.0,1452.0,1498.0,1461.0,1502.0,1458.0,0.0,0.0,0.0,0.0,0.0,0.0,0.0,0.0
1193827130,8,1494.0,1451.0,1491.0,1453.0,1497.0,1459.0,1500.0,1457.0,0.0,0.0,0.0,0.0,0.0,0.0,0.0,0.0
1193851131,8,1489.0,1448.0,1488.0,1455.0,1498.0,1463.0,1499.0,1456.0,0.0,0.0,0.0,0.0,0.0,0.0,0.0,0.0
1193899132,8,1492.0,1450.0,1489.0,1454.0,1498.0,1463.0,1501.0,1459.0,0.0,0.0,0.0,0.0,0.0,0.0,0.0,0.0
1193943261,8,1488.0,1448.0,1490.0,1458.0,1502.0,1465.0,1501.0,1455.0,0.0,0.0,0.0,0.0,0.0,0.0,0.0,0.0
1193967184,8,1491.0,1449.0,1488.0,1454.0,1499.0,1464.0,1502.0,1459.0,0.0,0.0,0.0,0.0,0.0,0.0,0.0,0.0
1194011181,8,1492.0,1446.0,1485.0,1450.0,1498.0,1463.0,1504.0,1460.0,0.0,0.0,0.0,0.0,0.0,0.0,0.0,0.0
1194059138,8,1488.0,1451.0,1489.0,1460.0,1501.0,1468.0,1500.0,1458.0,0.0,0.0,0.0,0.0,0.0,0.0,0.0,0.0
1194103206,8,1491.0,1450.0,1488.0,1456.0,1500.0,1467.0,1503.0,1460.0,0.0,0.0,0.0,0.0,0.0,0.0,0.0,0.0
1194147134,8,1492.0,1452.0,1490.0,1458.0,1500.0,1466.0,1502.0,1461.0,0.0,0.0,0.0,0.0,0.0,0.0,0.0,0.0
1194195128,8,1490.0,1452.0,1487.0,1457.0,1498.0,1467.0,1501.0,1461.0,0.0,0.0,0.0,0.0,0.0,0.0,0.0,0.0
1194239144,8,1490.0,1450.0,1488.0,1457.0,1499.0,1466.0,1501.0,1460.0,0.0,0.0,0.0,0.0,0.0,0.0,0.0,0.0
1194283203,8,1492.0,1452.0,1491.0,1458.0,1501.0,1466.0,1502.0,1460.0,0.0,0.0,0.0,0.0,0.0,0.0,0.0,0.0
1194323158,8,1491.0,1450.0,1490.0,1457.0,1500.0,1466.0,1502.0,1459.0,0.0,0.0,0.0,0.0,0.0,0.0,0.0,0.0
1194371044,8,1493.0,1454.0,1490.0,1457.0,1497.0,1465.0,1501.0,1462.0,0.0,0.0,0.0,0.0,0.0,0.0,0.0,0.0
1194395133,8,1494.0,1455.0,1491.0,1457.0,1497.0,1464.0,1501.0,1462.0,0.0,0.0,0.0,0.0,0.0,0.0,0.0,0.0
1194439948,8,1493.0,1455.0,1490.0,1458.0,1496.0,1464.0,1499.0,1462.0,0.0,0.0,0.0,0.0,0.0,0.0,0.0,0.0
1194480869,8,1494.0,1453.0,1488.0,1454.0,1494.0,1462.0,1500.0,1462.0,0.0,0.0,0.0,0.0,0.0,0.0,0.0,0.0
1194524705,8,1492.0,1452.0,1491.0,1453.0,1494.0,1462.0,1501.0,1463.0,0.0,0.0,0.0,0.0,0.0,0.0,0.0,0.0
1194565096,8,1496.0,1453.0,1488.0,1451.0,1495.0,1462.0,1503.0,1463.0,0.0,0.0,0.0,0.0,0.0,0.0,0.0,0.0
1194608771,8,1492.0,1457.0,1492.0,1461.0,1498.0,1465.0,1498.0,1460.0,0.0,0.0,0.0,0.0,0.0,0.0,0.0,0.0
1194652742,8,1494.0,1457.0,1494.0,1461.0,1500.0,1465.0,1500.0,1461.0,0.0,0.0,0.0,0.0,0.0,0.0,0.0,0.0
1194696818,8,1492.0,1455.0,1492.0,1460.0,1499.0,1465.0,1499.0,1460.0,0.0,0.0,0.0,0.0,0.0,0.0,0.0,0.0
1194740700,8,1493.0,1455.0,1492.0,1458.0,1497.0,1464.0,1500.0,1461.0,0.0,0.0,0.0,0.0,0.0,0.0,0.0,0.0
1194788697,8,1490.0,1455.0,1493.0,1463.0,1502.0,1463.0,1497.0,1460.0,0.0,0.0,0.0,0.0,0.0,0.0,0.0,0.0
1194832695,8,1491.0,1454.0,1492.0,1461.0,1501.0,1466.0,1499.0,1459.0,0.0,0.0,0.0,0.0,0.0,0.0,0.0,0.0
1194872705,8,1490.0,1455.0,1492.0,1463.0,1500.0,1466.0,1497.0,1459.0,0.0,0.0,0.0,0.0,0.0,0.0,0.0,0.0
1194892717,8,1490.0,1455.0,1492.0,1461.0,1499.0,1464.0,1497.0,1458.0,0.0,0.0,0.0,0.0,0.0,0.0,0.0,0.0
1194936699,8,1490.0,1454.0,1492.0,1461.0,1498.0,1463.0,1496.0,1457.0,0.0,0.0,0.0,0.0,0.0,0.0,0.0,0.0
1194984861,8,1490.0,1450.0,1490.0,1457.0,1500.0,1464.0,1497.0,1456.0,0.0,0.0,0.0,0.0,0.0,0.0,0.0,0.0
1195028716,8,1488.0,1451.0,1490.0,1459.0,1499.0,1463.0,1497.0,1456.0,0.0,0.0,0.0,0.0,0.0,0.0,0.0,0.0
1195072768,8,1489.0,1452.0,1490.0,1459.0,1499.0,1464.0,1497.0,1457.0,0.0,0.0,0.0,0.0,0.0,0.0,0.0,0.0
1195116722,8,1487.0,1454.0,1492.0,1463.0,1500.0,1465.0,1495.0,1456.0,0.0,0.0,0.0,0.0,0.0,0.0,0.0,0.0
1195156740,8,1488.0,1454.0,1493.0,1464.0,1501.0,1465.0,1496.0,1456.0,0.0,0.0,0.0,0.0,0.0,0.0,0.0,0.0
1195200735,8,1485.0,1451.0,1489.0,1460.0,1498.0,1464.0,1495.0,1457.0,0.0,0.0,0.0,0.0,0.0,0.0,0.0,0.0
1195244697,8,1486.0,1452.0,1489.0,1460.0,1498.0,1465.0,1495.0,1456.0,0.0,0.0,0.0,0.0,0.0,0.0,0.0,0.0
1195285040,8,1485.0,1450.0,1488.0,1460.0,1500.0,1466.0,1496.0,1455.0,0.0,0.0,0.0,0.0,0.0,0.0,0.0,0.0
1195332606,8,1487.0,1451.0,1492.0,1461.0,1501.0,1465.0,1497.0,1455.0,0.0,0.0,0.0,0.0,0.0,0.0,0.0,0.0
1195376696,8,1485.0,1452.0,1492.0,1464.0,1502.0,1466.0,1495.0,1455.0,0.0,0.0,0.0,0.0,0.0,0.0,0.0,0.0
1195420696,8,1486.0,1448.0,1488.0,1458.0,1499.0,1464.0,1497.0,1455.0,0.0,0.0,0.0,0.0,0.0,0.0,0.0,0.0
1195444740,8,1488.0,1453.0,1491.0,1463.0,1502.0,1467.0,1498.0,1457.0,0.0,0.0,0.0,0.0,0.0,0.0,0.0,0.0
1195492827,8,1486.0,1450.0,1490.0,1459.0,1499.0,1464.0,1496.0,1455.0,0.0,0.0,0.0,0.0,0.0,0.0,0.0,0.0
1195537252,8,1491.0,1454.0,1495.0,1461.0,1500.0,1462.0,1497.0,1455.0,0.0,0.0,0.0,0.0,0.0,0.0,0.0,0.0
1195580736,8,1488.0,1453.0,1493.0,1461.0,1499.0,1462.0,1494.0,1455.0,0.0,0.0,0.0,0.0,0.0,0.0,0.0,0.0
1195628731,8,1489.0,1452.0,1491.0,1459.0,1499.0,1463.0,1497.0,1456.0,0.0,0.0,0.0,0.0,0.0,0.0,0.0,0.0
1195668697,8,1489.0,1453.0,1489.0,1457.0,1496.0,1463.0,1497.0,1458.0,0.0,0.0,0.0,0.0,0.0,0.0,0.0,0.0
1195692743,8,1491.0,1455.0,1492.0,1459.0,1497.0,1462.0,1496.0,1458.0,0.0,0.0,0.0,0.0,0.0,0.0,0.0,0.0
1195740706,8,1490.0,1454.0,1490.0,1459.0,1497.0,1464.0,1497.0,1459.0,0.0,0.0,0.0,0.0,0.0,0.0,0.0,0.0
1195784701,8,1491.0,1454.0,1488.0,1457.0,1495.0,1463.0,1498.0,1460.0,0.0,0.0,0.0,0.0,0.0,0.0,0.0,0.0
1195832608,8,1490.0,1450.0,1488.0,1456.0,1499.0,1465.0,1498.0,1462.0,0.0,0.0,0.0,0.0,0.0,0.0,0.0,0.0
1195872856,8,1491.0,1453.0,1487.0,1456.0,1495.0,1464.0,1499.0,1461.0,0.0,0.0,0.0,0.0,0.0,0.0,0.0,0.0
1195916768,8,1490.0,1453.0,1490.0,1459.0,1499.0,1466.0,1499.0,1460.0,0.0,0.0,0.0,0.0,0.0,0.0,0.0,0.0
1195964737,8,1489.0,1455.0,1491.0,1462.0,1499.0,1466.0,1497.0,1459.0,0.0,0.0,0.0,0.0,0.0,0.0,0.0,0.0
1195988771,8,1489.0,1456.0,1491.0,1463.0,1498.0,1466.0,1496.0,1460.0,0.0,0.0,0.0,0.0,0.0,0.0,0.0,0.0
1196036738,8,1493.0,1453.0,1489.0,1456.0,1497.0,1464.0,1501.0,1461.0,0.0,0.0,0.0,0.0,0.0,0.0,0.0,0.0
1196080852,8,1493.0,1455.0,1490.0,1457.0,1496.0,1463.0,1499.0,1461.0,0.0,0.0,0.0,0.0,0.0,0.0,0.0,0.0
1196124861,8,1490.0,1454.0,1491.0,1461.0,1500.0,1467.0,1499.0,1460.0,0.0,0.0,0.0,0.0,0.0,0.0,0.0,0.0
1196172856,8,1492.0,1451.0,1487.0,1453.0,1496.0,1463.0,1501.0,1460.0,0.0,0.0,0.0,0.0,0.0,0.0,0.0,0.0
1196216779,8,1492.0,1452.0,1489.0,1455.0,1496.0,1462.0,1499.0,1459.0,0.0,0.0,0.0,0.0,0.0,0.0,0.0,0.0
1196257099,8,1493.0,1452.0,1490.0,1457.0,1498.0,1465.0,1501.0,1461.0,0.0,0.0,0.0,0.0,0.0,0.0,0.0,0.0
1196300730,8,1493.0,1456.0,1492.0,1460.0,1499.0,1466.0,1500.0,1461.0,0.0,0.0,0.0,0.0,0.0,0.0,0.0,0.0
1196324769,8,1490.0,1450.0,1487.0,1457.0,1499.0,1466.0,1501.0,1460.0,0.0,0.0,0.0,0.0,0.0,0.0,0.0,0.0
1196372802,8,1491.0,1455.0,1489.0,1460.0,1498.0,1467.0,1500.0,1462.0,0.0,0.0,0.0,0.0,0.0,0.0,0.0,0.0
1196420613,8,1493.0,1453.0,1489.0,1457.0,1498.0,1466.0,1502.0,1462.0,0.0,0.0,0.0,0.0,0.0,0.0,0.0,0.0
1196468733,8,1492.0,1454.0,1487.0,1456.0,1496.0,1465.0,1501.0,1463.0,0.0,0.0,0.0,0.0,0.0,0.0,0.0,0.0
1196488822,8,1489.0,1451.0,1487.0,1457.0,1498.0,1467.0,1500.0,1461.0,0.0,0.0,0.0,0.0,0.0,0.0,0.0,0.0
1196536737,8,1493.0,1454.0,1487.0,1457.0,1497.0,1468.0,1503.0,1465.0,0.0,0.0,0.0,0.0,0.0,0.0,0.0,0.0
1196581119,8,1493.0,1457.0,1490.0,1460.0,1498.0,1468.0,1501.0,1464.0,0.0,0.0,0.0,0.0,0.0,0.0,0.0,0.0
1196624722,8,1493.0,1453.0,1487.0,1456.0,1497.0,1467.0,1503.0,1464.0,0.0,0.0,0.0,0.0,0.0,0.0,0.0,0.0
1196664743,8,1490.0,1453.0,1487.0,1458.0,1497.0,1467.0,1500.0,1462.0,0.0,0.0,0.0,0.0,0.0,0.0,0.0,0.0
1196708747,8,1490.0,1453.0,1485.0,1457.0,1496.0,1468.0,1501.0,1464.0,0.0,0.0,0.0,0.0,0.0,0.0,0.0,0.0
1196752767,8,1489.0,1455.0,1490.0,1462.0,1499.0,1468.0,1498.0,1461.0,0.0,0.0,0.0,0.0,0.0,0.0,0.0,0.0
1196797178,8,1493.0,1452.0,1485.0,1453.0,1494.0,1466.0,1503.0,1465.0,0.0,0.0,0.0,0.0,0.0,0.0,0.0,0.0
1196844723,8,1489.0,1454.0,1484.0,1457.0,1495.0,1466.0,1502.0,1464.0,0.0,0.0,0.0,0.0,0.0,0.0,0.0,0.0
1196888832,8,1490.0,1454.0,1486.0,1458.0,1496.0,1468.0,1500.0,1464.0,0.0,0.0,0.0,0.0,0.0,0.0,0.0,0.0
1196908863,8,1492.0,1454.0,1487.0,1458.0,1497.0,1468.0,1501.0,1464.0,0.0,0.0,0.0,0.0,0.0,0.0,0.0,0.0
1196956747,8,1488.0,1454.0,1489.0,1458.0,1497.0,1466.0,1501.0,1463.0,0.0,0.0,0.0,0.0,0.0,0.0,0.0,0.0
1197004774,8,1491.0,1449.0,1486.0,1454.0,1498.0,1467.0,1503.0,1461.0,0.0,0.0,0.0,0.0,0.0,0.0,0.0,0.0
1197049073,8,1492.0,1455.0,1489.0,1457.0,1495.0,1464.0,1498.0,1462.0,0.0,0.0,0.0,0.0,0.0,0.0,0.0,0.0
1197088757,8,1491.0,1452.0,1489.0,1458.0,1499.0,1466.0,1501.0,1461.0,0.0,0.0,0.0,0.0,0.0,0.0,0.0,0.0
1197128730,8,1493.0,1453.0,1489.0,1456.0,1497.0,1464.0,1501.0,1461.0,0.0,0.0,0.0,0.0,0.0,0.0,0.0,0.0
1197172780,8,1491.0,1454.0,1490.0,1459.0,1498.0,1465.0,1498.0,1460.0,0.0,0.0,0.0,0.0,0.0,0.0,0.0,0.0
1197216728,8,1492.0,1455.0,1492.0,1459.0,1497.0,1463.0,1498.0,1460.0,0.0,0.0,0.0,0.0,0.0,0.0,0.0,0.0
1197256758,8,1491.0,1454.0,1490.0,1459.0,1498.0,1465.0,1499.0,1460.0,0.0,0.0,0.0,0.0,0.0,0.0,0.0,0.0
1197301177,8,1491.0,1451.0,1489.0,1457.0,1499.0,1466.0,1501.0,1460.0,0.0,0.0,0.0,0.0,0.0,0.0,0.0,0.0
1197348724,8,1487.0,1450.0,1489.0,1461.0,1502.0,1468.0,1499.0,1457.0,0.0,0.0,0.0,0.0,0.0,0.0,0.0,0.0
1197392752,8,1489.0,1450.0,1485.0,1457.0,1499.0,1469.0,1502.0,1462.0,0.0,0.0,0.0,0.0,0.0,0.0,0.0,0.0
1197436723,8,1487.0,1451.0,1488.0,1462.0,1502.0,1472.0,1502.0,1462.0,0.0,0.0,0.0,0.0,0.0,0.0,0.0,0.0
1197456729,8,1489.0,1449.0,1482.0,1455.0,1497.0,1470.0,1503.0,1464.0,0.0,0.0,0.0,0.0,0.0,0.0,0.0,0.0
1197500724,8,1488.0,1451.0,1485.0,1459.0,1499.0,1471.0,1502.0,1463.0,0.0,0.0,0.0,0.0,0.0,0.0,0.0,0.0
1197548731,8,1490.0,1452.0,1487.0,1459.0,1498.0,1468.0,1501.0,1462.0,0.0,0.0,0.0,0.0,0.0,0.0,0.0,0.0
1197596770,8,1487.0,1449.0,1486.0,1458.0,1500.0,1469.0,1501.0,1459.0,0.0,0.0,0.0,0.0,0.0,0.0,0.0,0.0
1197644765,8,1489.0,1448.0,1487.0,1457.0,1501.0,1468.0,1503.0,1459.0,0.0,0.0,0.0,0.0,0.0,0.0,0.0,0.0
1197664739,8,1486.0,1450.0,1487.0,1459.0,1498.0,1467.0,1497.0,1458.0,0.0,0.0,0.0,0.0,0.0,0.0,0.0,0.0
1197708727,8,1488.0,1450.0,1485.0,1457.0,1497.0,1466.0,1499.0,1460.0,0.0,0.0,0.0,0.0,0.0,0.0,0.0,0.0
1197752742,8,1486.0,1447.0,1484.0,1456.0,1498.0,1466.0,1500.0,1458.0,0.0,0.0,0.0,0.0,0.0,0.0,0.0,0.0
1197800734,8,1490.0,1450.0,1486.0,1458.0,1498.0,1464.0,1498.0,1458.0,0.0,0.0,0.0,0.0,0.0,0.0,0.0,0.0
1197844788,8,1489.0,1448.0,1485.0,1453.0,1496.0,1464.0,1500.0,1459.0,0.0,0.0,0.0,0.0,0.0,0.0,0.0,0.0
1197892807,8,1489.0,1448.0,1488.0,1456.0,1500.0,1464.0,1500.0,1457.0,0.0,0.0,0.0,0.0,0.0,0.0,0.0,0.0
1197916742,8,1492.0,1448.0,1486.0,1452.0,1497.0,1464.0,1503.0,1460.0,0.0,0.0,0.0,0.0,0.0,0.0,0.0,0.0
1197960753,8,1493.0,1450.0,1490.0,1456.0,1501.0,1465.0,1503.0,1459.0,0.0,0.0,0.0,0.0,0.0,0.0,0.0,0.0
1198008753,8,1494.0,1447.0,1485.0,1448.0,1498.0,1462.0,1504.0,1460.0,0.0,0.0,0.0,0.0,0.0,0.0,0.0,0.0
1198048808,8,1496.0,1451.0,1491.0,1454.0,1501.0,1465.0,1506.0,1461.0,0.0,0.0,0.0,0.0,0.0,0.0,0.0,0.0
1198096765,8,1493.0,1450.0,1488.0,1453.0,1497.0,1462.0,1502.0,1459.0,0.0,0.0,0.0,0.0,0.0,0.0,0.0,0.0
1198140838,8,1496.0,1450.0,1492.0,1452.0,1499.0,1460.0,1503.0,1458.0,0.0,0.0,0.0,0.0,0.0,0.0,0.0,0.0
1198165135,8,1494.0,1449.0,1492.0,1455.0,1502.0,1462.0,1503.0,1456.0,0.0,0.0,0.0,0.0,0.0,0.0,0.0,0.0
1198208759,8,1494.0,1450.0,1494.0,1455.0,1501.0,1460.0,1501.0,1455.0,0.0,0.0,0.0,0.0,0.0,0.0,0.0,0.0
1198268775,8,1497.0,1448.0,1496.0,1453.0,1503.0,1459.0,1505.0,1455.0,0.0,0.0,0.0,0.0,0.0,0.0,0.0,0.0
1198288855,8,1496.0,1446.0,1493.0,1448.0,1500.0,1455.0,1503.0,1453.0,0.0,0.0,0.0,0.0,0.0,0.0,0.0,0.0
1198336767,8,1498.0,1447.0,1496.0,1451.0,1503.0,1458.0,1506.0,1454.0,0.0,0.0,0.0,0.0,0.0,0.0,0.0,0.0
1198384764,8,1498.0,1445.0,1497.0,1451.0,1506.0,1457.0,1506.0,1452.0,0.0,0.0,0.0,0.0,0.0,0.0,0.0,0.0
1198432761,8,1499.0,1447.0,1500.0,1453.0,1507.0,1457.0,1506.0,1451.0,0.0,0.0,0.0,0.0,0.0,0.0,0.0,0.0
1198472762,8,1499.0,1449.0,1504.0,1456.0,1509.0,1456.0,1504.0,1449.0,0.0,0.0,0.0,0.0,0.0,0.0,0.0,0.0
1198516784,8,1500.0,1449.0,1503.0,1455.0,1508.0,1457.0,1505.0,1450.0,0.0,0.0,0.0,0.0,0.0,0.0,0.0,0.0
1198561217,8,1499.0,1445.0,1501.0,1452.0,1509.0,1455.0,1506.0,1448.0,0.0,0.0,0.0,0.0,0.0,0.0,0.0,0.0
1198584782,8,1500.0,1448.0,1504.0,1456.0,1512.0,1459.0,1508.0,1450.0,0.0,0.0,0.0,0.0,0.0,0.0,0.0,0.0
1198628744,8,1499.0,1442.0,1496.0,1447.0,1507.0,1457.0,1510.0,1451.0,0.0,0.0,0.0,0.0,0.0,0.0,0.0,0.0
1198672768,8,1496.0,1444.0,1497.0,1453.0,1510.0,1462.0,1509.0,1452.0,0.0,0.0,0.0,0.0,0.0,0.0,0.0,0.0
1198720769,8,1499.0,1443.0,1495.0,1448.0,1506.0,1460.0,1511.0,1455.0,0.0,0.0,0.0,0.0,0.0,0.0,0.0,0.0
1198764731,8,1498.0,1443.0,1494.0,1449.0,1507.0,1461.0,1511.0,1455.0,0.0,0.0,0.0,0.0,0.0,0.0,0.0,0.0
1198808730,8,1497.0,1445.0,1494.0,1449.0,1504.0,1459.0,1507.0,1454.0,0.0,0.0,0.0,0.0,0.0,0.0,0.0,0.0
1198854298,8,1497.0,1446.0,1495.0,1452.0,1505.0,1461.0,1507.0,1455.0,0.0,0.0,0.0,0.0,0.0,0.0,0.0,0.0
1198878300,8,1496.0,1447.0,1498.0,1454.0,1506.0,1459.0,1504.0,1452.0,0.0,0.0,0.0,0.0,0.0,0.0,0.0,0.0
1198922407,8,1497.0,1447.0,1497.0,1454.0,1506.0,1459.0,1506.0,1453.0,0.0,0.0,0.0,0.0,0.0,0.0,0.0,0.0
1198970382,8,1495.0,1448.0,1493.0,1450.0,1503.0,1459.0,1506.0,1455.0,0.0,0.0,0.0,0.0,0.0,0.0,0.0,0.0
1199010402,8,1495.0,1447.0,1493.0,1452.0,1503.0,1460.0,1504.0,1455.0,0.0,0.0,0.0,0.0,0.0,0.0,0.0,0.0
1199054322,8,1494.0,1447.0,1493.0,1454.0,1504.0,1462.0,1505.0,1455.0,0.0,0.0,0.0,0.0,0.0,0.0,0.0,0.0
1199094362,8,1497.0,1448.0,1493.0,1452.0,1503.0,1462.0,1507.0,1457.0,0.0,0.0,0.0,0.0,0.0,0.0,0.0,0.0
1199138343,8,1495.0,1446.0,1493.0,1453.0,1505.0,1462.0,1506.0,1455.0,0.0,0.0,0.0,0.0,0.0,0.0,0.0,0.0
1199182300,8,1495.0,1445.0,1490.0,1450.0,1501.0,1461.0,1505.0,1456.0,0.0,0.0,0.0,0.0,0.0,0.0,0.0,0.0
1199226315,8,1494.0,1449.0,1493.0,1456.0,1504.0,1464.0,1505.0,1453.0,0.0,0.0,0.0,0.0,0.0,0.0,0.0,0.0
1199266339,8,1492.0,1447.0,1492.0,1456.0,1503.0,1461.0,1505.0,1453.0,0.0,0.0,0.0,0.0,0.0,0.0,0.0,0.0
1199306346,8,1494.0,1446.0,1495.0,1454.0,1506.0,1462.0,1505.0,1454.0,0.0,0.0,0.0,0.0,0.0,0.0,0.0,0.0
1199350656,8,1493.0,1442.0,1491.0,1451.0,1506.0,1463.0,1508.0,1454.0,0.0,0.0,0.0,0.0,0.0,0.0,0.0,0.0
1199394330,8,1492.0,1442.0,1491.0,1450.0,1503.0,1459.0,1504.0,1451.0,0.0,0.0,0.0,0.0,0.0,0.0,0.0,0.0
1199442297,8,1491.0,1446.0,1495.0,1455.0,1505.0,1461.0,1503.0,1451.0,0.0,0.0,0.0,0.0,0.0,0.0,0.0,0.0
1199482328,8,1492.0,1446.0,1495.0,1456.0,1505.0,1460.0,1501.0,1450.0,0.0,0.0,0.0,0.0,0.0,0.0,0.0,0.0
1199526288,8,1491.0,1444.0,1492.0,1454.0,1505.0,1461.0,1503.0,1453.0,0.0,0.0,0.0,0.0,0.0,0.0,0.0,0.0
1199550423,8,1490.0,1443.0,1492.0,1453.0,1505.0,1461.0,1502.0,1450.0,0.0,0.0,0.0,0.0,0.0,0.0,0.0,0.0
1199594417,8,1491.0,1446.0,1492.0,1455.0,1504.0,1463.0,1503.0,1454.0,0.0,0.0,0.0,0.0,0.0,0.0,0.0,0.0
1199642383,8,1490.0,1445.0,1495.0,1458.0,1508.0,1463.0,1503.0,1450.0,0.0,0.0,0.0,0.0,0.0,0.0,0.0,0.0
1199686297,8,1489.0,1446.0,1494.0,1459.0,1507.0,1465.0,1503.0,1452.0,0.0,0.0,0.0,0.0,0.0,0.0,0.0,0.0
1199734320,8,1492.0,1444.0,1493.0,1455.0,1506.0,1463.0,1505.0,1453.0,0.0,0.0,0.0,0.0,0.0,0.0,0.0,0.0
1199758337,8,1490.0,1446.0,1493.0,1457.0,1506.0,1465.0,1504.0,1453.0,0.0,0.0,0.0,0.0,0.0,0.0,0.0,0.0
1199806448,8,1490.0,1446.0,1494.0,1457.0,1506.0,1463.0,1503.0,1452.0,0.0,0.0,0.0,0.0,0.0,0.0,0.0,0.0
1199850489,8,1490.0,1444.0,1493.0,1456.0,1508.0,1465.0,1505.0,1452.0,0.0,0.0,0.0,0.0,0.0,0.0,0.0,0.0
1199894383,8,1487.0,1447.0,1493.0,1460.0,1507.0,1466.0,1501.0,1452.0,0.0,0.0,0.0,0.0,0.0,0.0,0.0,0.0
1199938524,8,1489.0,1444.0,1492.0,1455.0,1506.0,1463.0,1503.0,1452.0,0.0,0.0,0.0,0.0,0.0,0.0,0.0,0.0
1199962519,8,1489.0,1441.0,1490.0,1453.0,1506.0,1463.0,1504.0,1451.0,0.0,0.0,0.0,0.0,0.0,0.0,0.0,0.0
1200006361,8,1489.0,1440.0,1492.0,1454.0,1509.0,1464.0,1506.0,1450.0,0.0,0.0,0.0,0.0,0.0,0.0,0.0,0.0
1200050430,8,1488.0,1443.0,1490.0,1455.0,1505.0,1464.0,1504.0,1452.0,0.0,0.0,0.0,0.0,0.0,0.0,0.0,0.0
1200098341,8,1486.0,1442.0,1492.0,1459.0,1510.0,1468.0,1505.0,1451.0,0.0,0.0,0.0,0.0,0.0,0.0,0.0,0.0
1200142653,8,1485.0,1438.0,1489.0,1455.0,1508.0,1466.0,1504.0,1450.0,0.0,0.0,0.0,0.0,0.0,0.0,0.0,0.0
1200190387,8,1488.0,1442.0,1489.0,1453.0,1505.0,1464.0,1504.0,1452.0,0.0,0.0,0.0,0.0,0.0,0.0,0.0,0.0
1200214508,8,1488.0,1440.0,1488.0,1452.0,1505.0,1465.0,1506.0,1452.0,0.0,0.0,0.0,0.0,0.0,0.0,0.0,0.0
1200258297,8,1488.0,1438.0,1487.0,1450.0,1505.0,1463.0,1506.0,1452.0,0.0,0.0,0.0,0.0,0.0,0.0,0.0,0.0
1200298350,8,1490.0,1441.0,1490.0,1452.0,1505.0,1463.0,1503.0,1452.0,0.0,0.0,0.0,0.0,0.0,0.0,0.0,0.0
1200338359,8,1491.0,1442.0,1493.0,1453.0,1507.0,1462.0,1505.0,1451.0,0.0,0.0,0.0,0.0,0.0,0.0,0.0,0.0
1200382352,8,1491.0,1443.0,1493.0,1454.0,1506.0,1462.0,1504.0,1451.0,0.0,0.0,0.0,0.0,0.0,0.0,0.0,0.0
1200426321,8,1492.0,1442.0,1493.0,1452.0,1506.0,1461.0,1505.0,1450.0,0.0,0.0,0.0,0.0,0.0,0.0,0.0,0.0
1200470439,8,1490.0,1445.0,1496.0,1457.0,1508.0,1462.0,1502.0,1449.0,0.0,0.0,0.0,0.0,0.0,0.0,0.0,0.0
1200514326,8,1489.0,1442.0,1495.0,1456.0,1510.0,1463.0,1505.0,1448.0,0.0,0.0,0.0,0.0,0.0,0.0,0.0,0.0
1200558365,8,1487.0,1439.0,1493.0,1454.0,1508.0,1460.0,1502.0,1445.0,0.0,0.0,0.0,0.0,0.0,0.0,0.0,0.0
1200598368,8,1488.0,1441.0,1496.0,1456.0,1509.0,1461.0,1502.0,1446.0,0.0,0.0,0.0,0.0,0.0,0.0,0.0,0.0
1200646772,8,1487.0,1440.0,1495.0,1456.0,1509.0,1460.0,1501.0,1444.0,0.0,0.0,0.0,0.0,0.0,0.0,0.0,0.0
1200686365,8,1488.0,1440.0,1497.0,1456.0,1510.0,1459.0,1501.0,1443.0,0.0,0.0,0.0,0.0,0.0,0.0,0.0,0.0
1200730498,8,1487.0,1440.0,1494.0,1456.0,1510.0,1462.0,1503.0,1445.0,0.0,0.0,0.0,0.0,0.0,0.0,0.0,0.0
1200754736,8,1487.0,1444.0,1497.0,1460.0,1510.0,1463.0,1501.0,1447.0,0.0,0.0,0.0,0.0,0.0,0.0,0.0,0.0
1200798374,8,1485.0,1440.0,1493.0,1457.0,1509.0,1462.0,1501.0,1445.0,0.0,0.0,0.0,0.0,0.0,0.0,0.0,0.0
1200842446,8,1487.0,1439.0,1493.0,1454.0,1511.0,1463.0,1505.0,1446.0,0.0,0.0,0.0,0.0,0.0,0.0,0.0,0.0
1200886418,8,1486.0,1437.0,1491.0,1453.0,1508.0,1462.0,1504.0,1446.0,0.0,0.0,0.0,0.0,0.0,0.0,0.0,0.0
1200934716,8,1487.0,1441.0,1491.0,1456.0,1508.0,1465.0,1504.0,1450.0,0.0,0.0,0.0,0.0,0.0,0.0,0.0,0.0
1200978326,8,1487.0,1442.0,1490.0,1455.0,1506.0,1464.0,1503.0,1450.0,0.0,0.0,0.0,0.0,0.0,0.0,0.0,0.0
1201022371,8,1488.0,1438.0,1489.0,1452.0,1508.0,1465.0,1507.0,1451.0,0.0,0.0,0.0,0.0,0.0,0.0,0.0,0.0
1201066321,8,1487.0,1439.0,1484.0,1450.0,1503.0,1465.0,1505.0,1454.0,0.0,0.0,0.0,0.0,0.0,0.0,0.0,0.0
1201090463,8,1488.0,1441.0,1490.0,1455.0,1508.0,1466.0,1506.0,1452.0,0.0,0.0,0.0,0.0,0.0,0.0,0.0,0.0
1201134379,8,1486.0,1438.0,1485.0,1451.0,1505.0,1466.0,1507.0,1453.0,0.0,0.0,0.0,0.0,0.0,0.0,0.0,0.0
1201182319,8,1485.0,1437.0,1486.0,1452.0,1506.0,1466.0,1505.0,1451.0,0.0,0.0,0.0,0.0,0.0,0.0,0.0,0.0
1201230372,8,1483.0,1438.0,1485.0,1454.0,1506.0,1469.0,1505.0,1453.0,0.0,0.0,0.0,0.0,0.0,0.0,0.0,0.0
1201270414,8,1484.0,1437.0,1482.0,1453.0,1505.0,1469.0,1505.0,1453.0,0.0,0.0,0.0,0.0,0.0,0.0,0.0,0.0
1201314322,8,1484.0,1439.0,1482.0,1453.0,1504.0,1469.0,1506.0,1456.0,0.0,0.0,0.0,0.0,0.0,0.0,0.0,0.0
1201358389,8,1482.0,1442.0,1482.0,1458.0,1505.0,1474.0,1505.0,1458.0,0.0,0.0,0.0,0.0,0.0,0.0,0.0,0.0
1201406401,8,1482.0,1441.0,1478.0,1453.0,1499.0,1471.0,1503.0,1459.0,0.0,0.0,0.0,0.0,0.0,0.0,0.0,0.0
1201430324,8,1479.0,1442.0,1480.0,1457.0,1501.0,1472.0,1500.0,1456.0,0.0,0.0,0.0,0.0,0.0,0.0,0.0,0.0
1201470465,8,1479.0,1446.0,1481.0,1463.0,1502.0,1476.0,1500.0,1459.0,0.0,0.0,0.0,0.0,0.0,0.0,0.0,0.0
1201518329,8,1480.0,1445.0,1481.0,1460.0,1501.0,1474.0,1501.0,1459.0,0.0,0.0,0.0,0.0,0.0,0.0,0.0,0.0
1201558326,8,1479.0,1445.0,1478.0,1458.0,1498.0,1473.0,1499.0,1460.0,0.0,0.0,0.0,0.0,0.0,0.0,0.0,0.0
1201606321,8,1478.0,1449.0,1481.0,1464.0,1498.0,1474.0,1495.0,1459.0,0.0,0.0,0.0,0.0,0.0,0.0,0.0,0.0
1201650371,8,1479.0,1452.0,1484.0,1465.0,1498.0,1472.0,1494.0,1459.0,0.0,0.0,0.0,0.0,0.0,0.0,0.0,0.0
1201694405,8,1478.0,1448.0,1483.0,1464.0,1500.0,1472.0,1494.0,1456.0,0.0,0.0,0.0,0.0,0.0,0.0,0.0,0.0
1201738325,8,1478.0,1450.0,1488.0,1469.0,1505.0,1474.0,1495.0,1455.0,0.0,0.0,0.0,0.0,0.0,0.0,0.0,0.0
1201782383,8,1477.0,1449.0,1485.0,1465.0,1500.0,1470.0,1492.0,1454.0,0.0,0.0,0.0,0.0,0.0,0.0,0.0,0.0
1201822352,8,1480.0,1451.0,1491.0,1468.0,1504.0,1471.0,1494.0,1453.0,0.0,0.0,0.0,0.0,0.0,0.0,0.0,0.0
1201862407,8,1479.0,1448.0,1490.0,1467.0,1505.0,1470.0,1494.0,1451.0,0.0,0.0,0.0,0.0,0.0,0.0,0.0,0.0
1201906726,8,1482.0,1448.0,1492.0,1464.0,1504.0,1465.0,1493.0,1449.0,0.0,0.0,0.0,0.0,0.0,0.0,0.0,0.0
1201950391,8,1481.0,1448.0,1494.0,1466.0,1506.0,1465.0,1493.0,1448.0,0.0,0.0,0.0,0.0,0.0,0.0,0.0,0.0
1201994365,8,1482.0,1448.0,1496.0,1467.0,1509.0,1466.0,1496.0,1447.0,0.0,0.0,0.0,0.0,0.0,0.0,0.0,0.0
1202018364,8,1486.0,1451.0,1499.0,1467.0,1509.0,1465.0,1496.0,1448.0,0.0,0.0,0.0,0.0,0.0,0.0,0.0,0.0
1202062322,8,1486.0,1447.0,1500.0,1467.0,1513.0,1466.0,1499.0,1446.0,0.0,0.0,0.0,0.0,0.0,0.0,0.0,0.0
1202102198,8,1486.0,1448.0,1498.0,1465.0,1510.0,1465.0,1498.0,1448.0,0.0,0.0,0.0,0.0,0.0,0.0,0.0,0.0
1202150329,8,1487.0,1447.0,1501.0,1467.0,1515.0,1467.0,1501.0,1448.0,0.0,0.0,0.0,0.0,0.0,0.0,0.0,0.0
1202194699,8,1488.0,1446.0,1501.0,1465.0,1515.0,1467.0,1502.0,1447.0,0.0,0.0,0.0,0.0,0.0,0.0,0.0,0.0
1202234325,8,1489.0,1446.0,1501.0,1466.0,1517.0,1469.0,1505.0,1449.0,0.0,0.0,0.0,0.0,0.0,0.0,0.0,0.0
1202278327,8,1488.0,1444.0,1498.0,1464.0,1517.0,1470.0,1506.0,1449.0,0.0,0.0,0.0,0.0,0.0,0.0,0.0,0.0
1202326457,8,1487.0,1446.0,1501.0,1470.0,1521.0,1473.0,1506.0,1449.0,0.0,0.0,0.0,0.0,0.0,0.0,0.0,0.0
1202370388,8,1487.0,1444.0,1498.0,1464.0,1516.0,1470.0,1505.0,1449.0,0.0,0.0,0.0,0.0,0.0,0.0,0.0,0.0
1202414430,8,1488.0,1446.0,1497.0,1464.0,1513.0,1469.0,1503.0,1450.0,0.0,0.0,0.0,0.0,0.0,0.0,0.0,0.0
1202438204,8,1491.0,1446.0,1499.0,1463.0,1515.0,1469.0,1507.0,1452.0,0.0,0.0,0.0,0.0,0.0,0.0,0.0,0.0
1202478414,8,1490.0,1448.0,1497.0,1464.0,1513.0,1471.0,1507.0,1455.0,0.0,0.0,0.0,0.0,0.0,0.0,0.0,0.0
1202542407,8,1494.0,1448.0,1494.0,1458.0,1508.0,1468.0,1508.0,1458.0,0.0,0.0,0.0,0.0,0.0,0.0,0.0,0.0
1202586226,8,1490.0,1447.0,1490.0,1459.0,1507.0,1471.0,1507.0,1459.0,0.0,0.0,0.0,0.0,0.0,0.0,0.0,0.0
1202626711,8,1488.0,1451.0,1495.0,1467.0,1510.0,1473.0,1504.0,1458.0,0.0,0.0,0.0,0.0,0.0,0.0,0.0,0.0
1202670397,8,1484.0,1449.0,1490.0,1466.0,1508.0,1475.0,1502.0,1458.0,0.0,0.0,0.0,0.0,0.0,0.0,0.0,0.0
1202690455,8,1482.0,1447.0,1490.0,1468.0,1511.0,1476.0,1502.0,1455.0,0.0,0.0,0.0,0.0,0.0,0.0,0.0,0.0
1202754319,8,1482.0,1450.0,1488.0,1466.0,1505.0,1473.0,1499.0,1457.0,0.0,0.0,0.0,0.0,0.0,0.0,0.0,0.0
1202798379,8,1484.0,1452.0,1485.0,1464.0,1501.0,1474.0,1500.0,1462.0,0.0,0.0,0.0,0.0,0.0,0.0,0.0,0.0
1202818400,8,1483.0,1456.0,1487.0,1469.0,1501.0,1475.0,1496.0,1463.0,0.0,0.0,0.0,0.0,0.0,0.0,0.0,0.0
1202862327,8,1484.0,1460.0,1490.0,1473.0,1501.0,1475.0,1494.0,1463.0,0.0,0.0,0.0,0.0,0.0,0.0,0.0,0.0
1202910324,8,1484.0,1459.0,1487.0,1469.0,1498.0,1475.0,1496.0,1466.0,0.0,0.0,0.0,0.0,0.0,0.0,0.0,0.0
1202950740,8,1486.0,1461.0,1486.0,1470.0,1497.0,1478.0,1497.0,1470.0,0.0,0.0,0.0,0.0,0.0,0.0,0.0,0.0
1202990332,8,1483.0,1461.0,1481.0,1469.0,1495.0,1481.0,1498.0,1472.0,0.0,0.0,0.0,0.0,0.0,0.0,0.0,0.0
1203034379,8,1485.0,1459.0,1478.0,1466.0,1495.0,1484.0,1503.0,1477.0,0.0,0.0,0.0,0.0,0.0,0.0,0.0,0.0
1203082433,8,1484.0,1457.0,1475.0,1466.0,1497.0,1487.0,1505.0,1478.0,0.0,0.0,0.0,0.0,0.0,0.0,0.0,0.0
1203130807,8,1476.0,1456.0,1471.0,1470.0,1495.0,1491.0,1500.0,1477.0,0.0,0.0,0.0,0.0,0.0,0.0,0.0,0.0
1203174324,8,1473.0,1454.0,1471.0,1472.0,1497.0,1494.0,1503.0,1478.0,0.0,0.0,0.0,0.0,0.0,0.0,0.0,0.0
1203198336,8,1470.0,1454.0,1470.0,1476.0,1501.0,1497.0,1501.0,1476.0,0.0,0.0,0.0,0.0,0.0,0.0,0.0,0.0
1203243200,8,1469.0,1453.0,1467.0,1474.0,1499.0,1499.0,1502.0,1478.0,0.0,0.0,0.0,0.0,0.0,0.0,0.0,0.0
1203288052,8,1468.0,1456.0,1468.0,1476.0,1496.0,1496.0,1496.0,1476.0,0.0,0.0,0.0,0.0,0.0,0.0,0.0,0.0
1203331907,8,1471.0,1455.0,1465.0,1471.0,1493.0,1494.0,1499.0,1479.0,0.0,0.0,0.0,0.0,0.0,0.0,0.0,0.0
1203375813,8,1471.0,1458.0,1465.0,1472.0,1492.0,1495.0,1498.0,1481.0,0.0,0.0,0.0,0.0,0.0,0.0,0.0,0.0
1203416107,8,1470.0,1454.0,1461.0,1468.0,1490.0,1494.0,1499.0,1480.0,0.0,0.0,0.0,0.0,0.0,0.0,0.0,0.0
1203455949,8,1474.0,1457.0,1464.0,1468.0,1490.0,1493.0,1500.0,1482.0,0.0,0.0,0.0,0.0,0.0,0.0,0.0,0.0
1203495963,8,1471.0,1451.0,1461.0,1464.0,1490.0,1492.0,1500.0,1478.0,0.0,0.0,0.0,0.0,0.0,0.0,0.0,0.0
1203543879,8,1470.0,1448.0,1460.0,1464.0,1493.0,1495.0,1503.0,1479.0,0.0,0.0,0.0,0.0,0.0,0.0,0.0,0.0
1203591907,8,1470.0,1444.0,1456.0,1459.0,1492.0,1495.0,1506.0,1479.0,0.0,0.0,0.0,0.0,0.0,0.0,0.0,0.0
1203632304,8,1471.0,1444.0,1459.0,1461.0,1494.0,1494.0,1506.0,1478.0,0.0,0.0,0.0,0.0,0.0,0.0,0.0,0.0
1203679967,8,1474.0,1443.0,1456.0,1455.0,1490.0,1492.0,1508.0,1480.0,0.0,0.0,0.0,0.0,0.0,0.0,0.0,0.0
1203723905,8,1473.0,1445.0,1459.0,1457.0,1491.0,1490.0,1505.0,1477.0,0.0,0.0,0.0,0.0,0.0,0.0,0.0,0.0
1203743951,8,1476.0,1446.0,1464.0,1459.0,1495.0,1490.0,1507.0,1477.0,0.0,0.0,0.0,0.0,0.0,0.0,0.0,0.0
1203791935,8,1479.0,1443.0,1460.0,1451.0,1490.0,1486.0,1509.0,1478.0,0.0,0.0,0.0,0.0,0.0,0.0,0.0,0.0
1203839940,8,1481.0,1444.0,1464.0,1450.0,1490.0,1481.0,1507.0,1474.0,0.0,0.0,0.0,0.0,0.0,0.0,0.0,0.0
1203879933,8,1482.0,1442.0,1467.0,1450.0,1493.0,1479.0,1508.0,1471.0,0.0,0.0,0.0,0.0,0.0,0.0,0.0,0.0
1203923965,8,1482.0,1441.0,1465.0,1448.0,1491.0,1478.0,1508.0,1471.0,0.0,0.0,0.0,0.0,0.0,0.0,0.0,0.0
1203967897,8,1481.0,1442.0,1469.0,1454.0,1497.0,1481.0,1509.0,1470.0,0.0,0.0,0.0,0.0,0.0,0.0,0.0,0.0
1204011897,8,1481.0,1441.0,1469.0,1450.0,1492.0,1475.0,1504.0,1467.0,0.0,0.0,0.0,0.0,0.0,0.0,0.0,0.0
1204055957,8,1480.0,1437.0,1467.0,1448.0,1495.0,1476.0,1508.0,1466.0,0.0,0.0,0.0,0.0,0.0,0.0,0.0,0.0
1204080014,8,1483.0,1437.0,1465.0,1443.0,1491.0,1474.0,1509.0,1468.0,0.0,0.0,0.0,0.0,0.0,0.0,0.0,0.0
1204127923,8,1481.0,1441.0,1473.0,1453.0,1498.0,1476.0,1506.0,1464.0,0.0,0.0,0.0,0.0,0.0,0.0,0.0,0.0
1204172072,8,1479.0,1436.0,1466.0,1446.0,1492.0,1473.0,1505.0,1464.0,0.0,0.0,0.0,0.0,0.0,0.0,0.0,0.0
1204215879,8,1484.0,1435.0,1465.0,1442.0,1494.0,1475.0,1512.0,1468.0,0.0,0.0,0.0,0.0,0.0,0.0,0.0,0.0
1204255916,8,1482.0,1437.0,1466.0,1446.0,1494.0,1476.0,1509.0,1467.0,0.0,0.0,0.0,0.0,0.0,0.0,0.0,0.0
1204299965,8,1483.0,1439.0,1471.0,1448.0,1496.0,1475.0,1509.0,1466.0,0.0,0.0,0.0,0.0,0.0,0.0,0.0,0.0
1204343950,8,1484.0,1439.0,1471.0,1446.0,1495.0,1472.0,1508.0,1465.0,0.0,0.0,0.0,0.0,0.0,0.0,0.0,0.0
1204388324,8,1485.0,1436.0,1471.0,1443.0,1495.0,1469.0,1509.0,1462.0,0.0,0.0,0.0,0.0,0.0,0.0,0.0,0.0
1204435912,8,1486.0,1439.0,1476.0,1446.0,1497.0,1469.0,1507.0,1461.0,0.0,0.0,0.0,0.0,0.0,0.0,0.0,0.0
1204480045,8,1485.0,1436.0,1471.0,1442.0,1493.0,1467.0,1507.0,1461.0,0.0,0.0,0.0,0.0,0.0,0.0,0.0,0.0
1204523973,8,1486.0,1435.0,1477.0,1445.0,1500.0,1467.0,1509.0,1458.0,0.0,0.0,0.0,0.0,0.0,0.0,0.0,0.0
1204544053,8,1486.0,1440.0,1477.0,1448.0,1498.0,1468.0,1506.0,1460.0,0.0,0.0,0.0,0.0,0.0,0.0,0.0,0.0
1204607914,8,1486.0,1439.0,1478.0,1449.0,1499.0,1469.0,1507.0,1459.0,0.0,0.0,0.0,0.0,0.0,0.0,0.0,0.0
1204651943,8,1487.0,1443.0,1482.0,1453.0,1502.0,1471.0,1507.0,1460.0,0.0,0.0,0.0,0.0,0.0,0.0,0.0,0.0
1204691996,8,1485.0,1442.0,1480.0,1453.0,1501.0,1471.0,1506.0,1460.0,0.0,0.0,0.0,0.0,0.0,0.0,0.0,0.0
1204715987,8,1484.0,1441.0,1478.0,1453.0,1500.0,1473.0,1507.0,1462.0,0.0,0.0,0.0,0.0,0.0,0.0,0.0,0.0
1204760018,8,1483.0,1442.0,1478.0,1455.0,1501.0,1475.0,1506.0,1462.0,0.0,0.0,0.0,0.0,0.0,0.0,0.0,0.0
1204803906,8,1485.0,1441.0,1477.0,1453.0,1501.0,1474.0,1508.0,1463.0,0.0,0.0,0.0,0.0,0.0,0.0,0.0,0.0
1204847923,8,1485.0,1438.0,1474.0,1449.0,1500.0,1474.0,1510.0,1463.0,0.0,0.0,0.0,0.0,0.0,0.0,0.0,0.0
1204887816,8,1485.0,1442.0,1479.0,1455.0,1503.0,1475.0,1508.0,1462.0,0.0,0.0,0.0,0.0,0.0,0.0,0.0,0.0
1204928319,8,1481.0,1439.0,1477.0,1456.0,1505.0,1478.0,1509.0,1461.0,0.0,0.0,0.0,0.0,0.0,0.0,0.0,0.0
1204975924,8,1478.0,1440.0,1477.0,1461.0,1507.0,1483.0,1509.0,1463.0,0.0,0.0,0.0,0.0,0.0,0.0,0.0,0.0
1205023941,8,1475.0,1438.0,1473.0,1460.0,1506.0,1485.0,1508.0,1463.0,0.0,0.0,0.0,0.0,0.0,0.0,0.0,0.0
1205047921,8,1476.0,1441.0,1474.0,1463.0,1507.0,1487.0,1508.0,1465.0,0.0,0.0,0.0,0.0,0.0,0.0,0.0,0.0
1205092031,8,1475.0,1442.0,1475.0,1464.0,1506.0,1486.0,1506.0,1464.0,0.0,0.0,0.0,0.0,0.0,0.0,0.0,0.0
1205135986,8,1471.0,1441.0,1469.0,1465.0,1505.0,1492.0,1507.0,1468.0,0.0,0.0,0.0,0.0,0.0,0.0,0.0,0.0
1205180237,8,1470.0,1442.0,1467.0,1465.0,1502.0,1492.0,1505.0,1469.0,0.0,0.0,0.0,0.0,0.0,0.0,0.0,0.0
1205223962,8,1471.0,1446.0,1470.0,1467.0,1501.0,1490.0,1502.0,1469.0,0.0,0.0,0.0,0.0,0.0,0.0,0.0,0.0
1205271921,8,1473.0,1448.0,1470.0,1467.0,1500.0,1489.0,1502.0,1470.0,0.0,0.0,0.0,0.0,0.0,0.0,0.0,0.0
1205311929,8,1473.0,1448.0,1471.0,1465.0,1498.0,1487.0,1503.0,1472.0,0.0,0.0,0.0,0.0,0.0,0.0,0.0,0.0
1205351924,8,1473.0,1450.0,1473.0,1468.0,1499.0,1487.0,1499.0,1469.0,0.0,0.0,0.0,0.0,0.0,0.0,0.0,0.0
1205396297,8,1476.0,1450.0,1471.0,1465.0,1497.0,1487.0,1502.0,1472.0,0.0,0.0,0.0,0.0,0.0,0.0,0.0,0.0
1205439818,8,1476.0,1451.0,1473.0,1464.0,1498.0,1488.0,1503.0,1471.0,0.0,0.0,0.0,0.0,0.0,0.0,0.0,0.0
1205480011,8,1474.0,1449.0,1470.0,1463.0,1499.0,1485.0,1505.0,1472.0,0.0,0.0,0.0,0.0,0.0,0.0,0.0,0.0
1205520003,8,1479.0,1450.0,1472.0,1465.0,1500.0,1490.0,1507.0,1475.0,0.0,0.0,0.0,0.0,0.0,0.0,0.0,0.0
1205567936,8,1477.0,1448.0,1473.0,1465.0,1501.0,1488.0,1505.0,1471.0,0.0,0.0,0.0,0.0,0.0,0.0,0.0,0.0
1205612241,8,1481.0,1450.0,1478.0,1465.0,1502.0,1484.0,1505.0,1469.0,0.0,0.0,0.0,0.0,0.0,0.0,0.0,0.0
1205635921,8,1483.0,1454.0,1483.0,1468.0,1504.0,1484.0,1504.0,1469.0,0.0,0.0,0.0,0.0,0.0,0.0,0.0,0.0
1205699968,8,1483.0,1450.0,1484.0,1466.0,1506.0,1481.0,1505.0,1465.0,0.0,0.0,0.0,0.0,0.0,0.0,0.0,0.0
1205723977,8,1483.0,1451.0,1485.0,1467.0,1506.0,1480.0,1505.0,1464.0,0.0,0.0,0.0,0.0,0.0,0.0,0.0,0.0
1205787962,8,1487.0,1448.0,1485.0,1464.0,1508.0,1482.0,1510.0,1466.0,0.0,0.0,0.0,0.0,0.0,0.0,0.0,0.0
1205807960,8,1487.0,1450.0,1485.0,1466.0,1509.0,1484.0,1511.0,1469.0,0.0,0.0,0.0,0.0,0.0,0.0,0.0,0.0
1205871962,8,1486.0,1450.0,1484.0,1465.0,1508.0,1484.0,1510.0,1468.0,0.0,0.0,0.0,0.0,0.0,0.0,0.0,0.0
1205895960,8,1487.0,1446.0,1481.0,1459.0,1507.0,1483.0,1514.0,1469.0,0.0,0.0,0.0,0.0,0.0,0.0,0.0,0.0
1205936283,8,1488.0,1447.0,1481.0,1459.0,1505.0,1481.0,1513.0,1469.0,0.0,0.0,0.0,0.0,0.0,0.0,0.0,0.0
1205983992,8,1489.0,1451.0,1482.0,1461.0,1503.0,1482.0,1511.0,1471.0,0.0,0.0,0.0,0.0,0.0,0.0,0.0,0.0
1206027921,8,1490.0,1450.0,1479.0,1458.0,1502.0,1482.0,1512.0,1473.0,0.0,0.0,0.0,0.0,0.0,0.0,0.0,0.0
1206071918,8,1491.0,1449.0,1479.0,1455.0,1500.0,1478.0,1512.0,1472.0,0.0,0.0,0.0,0.0,0.0,0.0,0.0,0.0
1206116359,8,1490.0,1453.0,1484.0,1461.0,1502.0,1478.0,1508.0,1470.0,0.0,0.0,0.0,0.0,0.0,0.0,0.0,0.0
1206159996,8,1490.0,1454.0,1482.0,1462.0,1501.0,1481.0,1509.0,1473.0,0.0,0.0,0.0,0.0,0.0,0.0,0.0,0.0
1206203956,8,1494.0,1455.0,1486.0,1461.0,1503.0,1478.0,1511.0,1472.0,0.0,0.0,0.0,0.0,0.0,0.0,0.0,0.0
1206244006,8,1492.0,1454.0,1484.0,1461.0,1501.0,1479.0,1509.0,1472.0,0.0,0.0,0.0,0.0,0.0,0.0,0.0,0.0
1206287925,8,1492.0,1451.0,1480.0,1455.0,1498.0,1477.0,1510.0,1472.0,0.0,0.0,0.0,0.0,0.0,0.0,0.0,0.0
1206332358,8,1492.0,1454.0,1484.0,1462.0,1503.0,1481.0,1511.0,1473.0,0.0,0.0,0.0,0.0,0.0,0.0,0.0,0.0
1206351944,8,1492.0,1453.0,1484.0,1462.0,1505.0,1483.0,1513.0,1473.0,0.0,0.0,0.0,0.0,0.0,0.0,0.0,0.0
1206399921,8,1491.0,1452.0,1480.0,1458.0,1499.0,1479.0,1510.0,1473.0,0.0,0.0,0.0,0.0,0.0,0.0,0.0,0.0
1206447921,8,1491.0,1455.0,1486.0,1465.0,1505.0,1482.0,1510.0,1472.0,0.0,0.0,0.0,0.0,0.0,0.0,0.0,0.0
1206487925,8,1488.0,1455.0,1489.0,1469.0,1508.0,1481.0,1506.0,1467.0,0.0,0.0,0.0,0.0,0.0,0.0,0.0,0.0
1206535935,8,1489.0,1449.0,1481.0,1458.0,1501.0,1477.0,1509.0,1469.0,0.0,0.0,0.0,0.0,0.0,0.0,0.0,0.0
1206575944,8,1489.0,1450.0,1481.0,1459.0,1502.0,1479.0,1509.0,1469.0,0.0,0.0,0.0,0.0,0.0,0.0,0.0,0.0
1206620285,8,1487.0,1450.0,1480.0,1460.0,1501.0,1479.0,1508.0,1470.0,0.0,0.0,0.0,0.0,0.0,0.0,0.0,0.0
1206668011,8,1484.0,1447.0,1476.0,1458.0,1500.0,1481.0,1508.0,1470.0,0.0,0.0,0.0,0.0,0.0,0.0,0.0,0.0
1206707950,8,1485.0,1447.0,1477.0,1459.0,1501.0,1482.0,1509.0,1470.0,0.0,0.0,0.0,0.0,0.0,0.0,0.0,0.0
1206728293,8,1484.0,1452.0,1479.0,1463.0,1499.0,1481.0,1504.0,1470.0,0.0,0.0,0.0,0.0,0.0,0.0,0.0,0.0
1206791965,8,1484.0,1449.0,1478.0,1459.0,1498.0,1477.0,1504.0,1468.0,0.0,0.0,0.0,0.0,0.0,0.0,0.0,0.0
1206812027,8,1483.0,1449.0,1476.0,1460.0,1497.0,1480.0,1504.0,1469.0,0.0,0.0,0.0,0.0,0.0,0.0,0.0,0.0
1206859800,8,1481.0,1446.0,1473.0,1457.0,1497.0,1479.0,1505.0,1468.0,0.0,0.0,0.0,0.0,0.0,0.0,0.0,0.0
1206899969,8,1482.0,1449.0,1475.0,1459.0,1496.0,1479.0,1503.0,1469.0,0.0,0.0,0.0,0.0,0.0,0.0,0.0,0.0
1206944319,8,1481.0,1451.0,1477.0,1462.0,1496.0,1478.0,1504.0,1469.0,0.0,0.0,0.0,0.0,0.0,0.0,0.0,0.0
1206987809,8,1482.0,1451.0,1478.0,1461.0,1496.0,1476.0,1500.0,1467.0,0.0,0.0,0.0,0.0,0.0,0.0,0.0,0.0
1207027930,8,1485.0,1451.0,1474.0,1456.0,1491.0,1475.0,1502.0,1470.0,0.0,0.0,0.0,0.0,0.0,0.0,0.0,0.0
1207071940,8,1483.0,1447.0,1473.0,1454.0,1492.0,1475.0,1502.0,1468.0,0.0,0.0,0.0,0.0,0.0,0.0,0.0,0.0
1207112002,8,1485.0,1452.0,1479.0,1461.0,1497.0,1476.0,1502.0,1468.0,0.0,0.0,0.0,0.0,0.0,0.0,0.0,0.0
1207155990,8,1484.0,1447.0,1477.0,1458.0,1496.0,1476.0,1503.0,1468.0,0.0,0.0,0.0,0.0,0.0,0.0,0.0,0.0
1207199974,8,1486.0,1448.0,1475.0,1454.0,1494.0,1475.0,1505.0,1469.0,0.0,0.0,0.0,0.0,0.0,0.0,0.0,0.0
1207243924,8,1483.0,1449.0,1475.0,1457.0,1495.0,1478.0,1504.0,1469.0,0.0,0.0,0.0,0.0,0.0,0.0,0.0,0.0
1207283966,8,1485.0,1449.0,1475.0,1454.0,1493.0,1474.0,1503.0,1469.0,0.0,0.0,0.0,0.0,0.0,0.0,0.0,0.0
1207327971,8,1489.0,1450.0,1478.0,1454.0,1495.0,1474.0,1506.0,1470.0,0.0,0.0,0.0,0.0,0.0,0.0,0.0,0.0
1207371948,8,1488.0,1446.0,1474.0,1451.0,1494.0,1475.0,1508.0,1470.0,0.0,0.0,0.0,0.0,0.0,0.0,0.0,0.0
1207419924,8,1488.0,1451.0,1478.0,1456.0,1494.0,1474.0,1503.0,1469.0,0.0,0.0,0.0,0.0,0.0,0.0,0.0,0.0
1207468027,8,1485.0,1446.0,1477.0,1454.0,1497.0,1474.0,1505.0,1469.0,0.0,0.0,0.0,0.0,0.0,0.0,0.0,0.0
1207491946,8,1489.0,1447.0,1477.0,1450.0,1493.0,1471.0,1506.0,1468.0,0.0,0.0,0.0,0.0,0.0,0.0,0.0,0.0
1207536041,8,1486.0,1448.0,1479.0,1455.0,1496.0,1472.0,1503.0,1466.0,0.0,0.0,0.0,0.0,0.0,0.0,0.0,0.0
1207579926,8,1485.0,1448.0,1479.0,1457.0,1498.0,1474.0,1504.0,1465.0,0.0,0.0,0.0,0.0,0.0,0.0,0.0,0.0
1207628234,8,1488.0,1446.0,1479.0,1453.0,1498.0,1472.0,1507.0,1465.0,0.0,0.0,0.0,0.0,0.0,0.0,0.0,0.0
1207669647,8,1488.0,1444.0,1476.0,1452.0,1497.0,1474.0,1508.0,1466.0,0.0,0.0,0.0,0.0,0.0,0.0,0.0,0.0
1207713562,8,1490.0,1446.0,1479.0,1450.0,1496.0,1471.0,1507.0,1466.0,0.0,0.0,0.0,0.0,0.0,0.0,0.0,0.0
1207753630,8,1488.0,1445.0,1480.0,1453.0,1498.0,1472.0,1508.0,1466.0,0.0,0.0,0.0,0.0,0.0,0.0,0.0,0.0
1207801545,8,1489.0,1441.0,1477.0,1446.0,1497.0,1469.0,1509.0,1464.0,0.0,0.0,0.0,0.0,0.0,0.0,0.0,0.0
1207841874,8,1491.0,1444.0,1481.0,1449.0,1498.0,1469.0,1509.0,1464.0,0.0,0.0,0.0,0.0,0.0,0.0,0.0,0.0
1207865546,8,1489.0,1443.0,1480.0,1450.0,1499.0,1470.0,1508.0,1463.0,0.0,0.0,0.0,0.0,0.0,0.0,0.0,0.0
1207909514,8,1490.0,1441.0,1479.0,1447.0,1497.0,1467.0,1508.0,1462.0,0.0,0.0,0.0,0.0,0.0,0.0,0.0,0.0
1207957502,8,1490.0,1447.0,1485.0,1456.0,1502.0,1471.0,1507.0,1462.0,0.0,0.0,0.0,0.0,0.0,0.0,0.0,0.0
1208005502,8,1489.0,1439.0,1477.0,1443.0,1495.0,1465.0,1508.0,1461.0,0.0,0.0,0.0,0.0,0.0,0.0,0.0,0.0
1208045615,8,1492.0,1440.0,1479.0,1444.0,1498.0,1466.0,1511.0,1462.0,0.0,0.0,0.0,0.0,0.0,0.0,0.0,0.0
1208093662,8,1489.0,1442.0,1480.0,1448.0,1497.0,1466.0,1506.0,1461.0,0.0,0.0,0.0,0.0,0.0,0.0,0.0,0.0
1208117399,8,1487.0,1442.0,1479.0,1449.0,1497.0,1468.0,1505.0,1460.0,0.0,0.0,0.0,0.0,0.0,0.0,0.0,0.0
1208157517,8,1488.0,1443.0,1479.0,1449.0,1496.0,1467.0,1505.0,1461.0,0.0,0.0,0.0,0.0,0.0,0.0,0.0,0.0
1208205510,8,1488.0,1442.0,1479.0,1448.0,1496.0,1466.0,1505.0,1461.0,0.0,0.0,0.0,0.0,0.0,0.0,0.0,0.0
1208245545,8,1488.0,1439.0,1479.0,1445.0,1496.0,1464.0,1505.0,1458.0,0.0,0.0,0.0,0.0,0.0,0.0,0.0,0.0
1208289630,8,1487.0,1442.0,1483.0,1451.0,1499.0,1465.0,1503.0,1456.0,0.0,0.0,0.0,0.0,0.0,0.0,0.0,0.0
1208337550,8,1489.0,1441.0,1480.0,1447.0,1497.0,1466.0,1506.0,1460.0,0.0,0.0,0.0,0.0,0.0,0.0,0.0,0.0
1208381662,8,1487.0,1441.0,1479.0,1449.0,1498.0,1468.0,1506.0,1460.0,0.0,0.0,0.0,0.0,0.0,0.0,0.0,0.0
1208405509,8,1486.0,1442.0,1479.0,1450.0,1497.0,1468.0,1504.0,1460.0,0.0,0.0,0.0,0.0,0.0,0.0,0.0,0.0
1208469509,8,1487.0,1442.0,1479.0,1450.0,1498.0,1469.0,1507.0,1461.0,0.0,0.0,0.0,0.0,0.0,0.0,0.0,0.0
1208493534,8,1487.0,1439.0,1476.0,1446.0,1497.0,1469.0,1509.0,1462.0,0.0,0.0,0.0,0.0,0.0,0.0,0.0,0.0
1208537508,8,1489.0,1443.0,1477.0,1448.0,1496.0,1470.0,1508.0,1465.0,0.0,0.0,0.0,0.0,0.0,0.0,0.0,0.0
1208581504,8,1488.0,1439.0,1474.0,1444.0,1495.0,1468.0,1510.0,1463.0,0.0,0.0,0.0,0.0,0.0,0.0,0.0,0.0
1208629620,8,1489.0,1444.0,1481.0,1452.0,1500.0,1472.0,1508.0,1464.0,0.0,0.0,0.0,0.0,0.0,0.0,0.0,0.0
1208673545,8,1489.0,1441.0,1476.0,1447.0,1497.0,1470.0,1509.0,1464.0,0.0,0.0,0.0,0.0,0.0,0.0,0.0,0.0
1208713624,8,1488.0,1441.0,1477.0,1448.0,1498.0,1470.0,1508.0,1463.0,0.0,0.0,0.0,0.0,0.0,0.0,0.0,0.0
1208761573,8,1487.0,1440.0,1476.0,1447.0,1497.0,1470.0,1509.0,1463.0,0.0,0.0,0.0,0.0,0.0,0.0,0.0,0.0
1208805544,8,1486.0,1442.0,1476.0,1448.0,1494.0,1467.0,1504.0,1461.0,0.0,0.0,0.0,0.0,0.0,0.0,0.0,0.0
1208829572,8,1487.0,1440.0,1475.0,1444.0,1493.0,1466.0,1506.0,1462.0,0.0,0.0,0.0,0.0,0.0,0.0,0.0,0.0
1208877512,8,1487.0,1442.0,1475.0,1446.0,1493.0,1467.0,1505.0,1463.0,0.0,0.0,0.0,0.0,0.0,0.0,0.0,0.0
1208922053,8,1486.0,1442.0,1476.0,1449.0,1496.0,1470.0,1506.0,1463.0,0.0,0.0,0.0,0.0,0.0,0.0,0.0,0.0
1208965604,8,1487.0,1441.0,1474.0,1444.0,1492.0,1467.0,1506.0,1464.0,0.0,0.0,0.0,0.0,0.0,0.0,0.0,0.0
1209009712,8,1488.0,1444.0,1477.0,1450.0,1496.0,1470.0,1506.0,1464.0,0.0,0.0,0.0,0.0,0.0,0.0,0.0,0.0
1209053535,8,1490.0,1439.0,1475.0,1441.0,1493.0,1466.0,1507.0,1463.0,0.0,0.0,0.0,0.0,0.0,0.0,0.0,0.0
1209097576,8,1490.0,1442.0,1478.0,1445.0,1494.0,1465.0,1506.0,1462.0,0.0,0.0,0.0,0.0,0.0,0.0,0.0,0.0
1209121520,8,1487.0,1439.0,1473.0,1442.0,1493.0,1466.0,1507.0,1463.0,0.0,0.0,0.0,0.0,0.0,0.0,0.0,0.0
1209165557,8,1488.0,1440.0,1472.0,1439.0,1489.0,1464.0,1507.0,1465.0,0.0,0.0,0.0,0.0,0.0,0.0,0.0,0.0
1209209902,8,1488.0,1441.0,1472.0,1441.0,1488.0,1464.0,1504.0,1464.0,0.0,0.0,0.0,0.0,0.0,0.0,0.0,0.0
1209253527,8,1486.0,1439.0,1472.0,1443.0,1492.0,1467.0,1506.0,1463.0,0.0,0.0,0.0,0.0,0.0,0.0,0.0,0.0
1209297525,8,1486.0,1436.0,1469.0,1438.0,1490.0,1465.0,1506.0,1462.0,0.0,0.0,0.0,0.0,0.0,0.0,0.0,0.0
1209345717,8,1486.0,1440.0,1476.0,1448.0,1497.0,1470.0,1507.0,1463.0,0.0,0.0,0.0,0.0,0.0,0.0,0.0,0.0
1209389922,8,1489.0,1437.0,1473.0,1440.0,1493.0,1466.0,1509.0,1463.0,0.0,0.0,0.0,0.0,0.0,0.0,0.0,0.0
1209433626,8,1488.0,1438.0,1471.0,1439.0,1490.0,1464.0,1507.0,1463.0,0.0,0.0,0.0,0.0,0.0,0.0,0.0,0.0
1209473622,8,1489.0,1438.0,1475.0,1441.0,1493.0,1463.0,1507.0,1460.0,0.0,0.0,0.0,0.0,0.0,0.0,0.0,0.0
1209517568,8,1487.0,1441.0,1474.0,1443.0,1491.0,1464.0,1503.0,1461.0,0.0,0.0,0.0,0.0,0.0,0.0,0.0,0.0
1209561574,8,1489.0,1441.0,1475.0,1442.0,1491.0,1463.0,1504.0,1461.0,0.0,0.0,0.0,0.0,0.0,0.0,0.0,0.0
1209581554,8,1488.0,1439.0,1473.0,1441.0,1490.0,1463.0,1505.0,1462.0,0.0,0.0,0.0,0.0,0.0,0.0,0.0,0.0
1209629648,8,1489.0,1439.0,1472.0,1440.0,1489.0,1463.0,1506.0,1463.0,0.0,0.0,0.0,0.0,0.0,0.0,0.0,0.0
