timestamp,vel_pos_innov[0],vel_pos_innov[1],vel_pos_innov[2],vel_pos_innov[3],vel_pos_innov[4],vel_pos_innov[5],mag_innov[0],mag_innov[1],mag_innov[2],heading_innov,airspeed_innov,beta_innov,flow_innov[0],flow_innov[1],hagl_innov,vel_pos_innov_var[0],vel_pos_innov_var[1],vel_pos_innov_var[2],vel_pos_innov_var[3],vel_pos_innov_var[4],vel_pos_innov_var[5],mag_innov_var[0],mag_innov_var[1],mag_innov_var[2],heading_innov_var,airspeed_innov_var,beta_innov_var,flow_innov_var[0],flow_innov_var[1],hagl_innov_var,output_tracking_error[0],output_tracking_error[1],output_tracking_error[2],drag_innov[0],drag_innov[1],drag_innov_var[0],drag_innov_var[1],aux_vel_innov[0],aux_vel_innov[1]
1184732700,0.054650467,0.085950345,-0.0076698093,-0.024281025,-0.046945095,-0.042434692,0.0,0.0,0.0,-0.010948956,0.0,0.0,0.0,0.0,0.0,0.2610065,0.26100665,0.5714101,0.28836668,0.2883666,4.055951,0.0,0.0,0.0,0.09016932,0.0,0.0,0.0,0.0,0.0,3.8329526e-05,0.005062703,0.012072618,0.0,0.0,0.0,0.0,0.0,0.0
1184934355,0.079944454,0.061211184,0.069954105,-0.011082172,-0.045541286,0.28876877,0.0,0.0,0.0,-0.0004480034,0.0,0.0,0.0,0.0,0.0,0.2609963,0.26099646,0.57143354,0.28833428,0.28833425,4.0557995,0.0,0.0,0.0,0.0901696,0.0,0.0,0.0,0.0,0.0,0.00015040574,0.0076482515,0.015918523,0.0,0.0,0.0,0.0,0.0,0.0
1185138379,0.031787325,0.11363081,0.019700471,-0.024900913,-0.051862717,-0.5735092,0.0,0.0,0.0,-0.012236759,0.0,0.0,0.0,0.0,0.0,0.26098144,0.26098156,0.571442,0.28826368,0.28826368,4.0553803,0.0,0.0,0.0,0.09016964,0.0,0.0,0.0,0.0,0.0,0.000282408,0.005909337,0.012105671,0.0,0.0,0.0,0.0,0.0,0.0
1185338327,-0.024893802,0.044893663,0.08748843,-0.02169323,-0.050783157,-0.24505997,0.0,0.0,0.0,0.009051174,0.0,0.0,0.0,0.0,0.0,0.2610423,0.26104227,0.57148105,0.28853396,0.288534,4.0560074,0.0,0.0,0.0,0.09016928,0.0,0.0,0.0,0.0,0.0,8.2114195e-05,0.0033238458,0.009967442,0.0,0.0,0.0,0.0,0.0,0.0
1185542314,-0.024893802,0.044893663,0.08748843,-0.02169323,-0.050783157,-0.22861862,0.0,0.0,0.0,-0.01782079,0.0,0.0,0.0,0.0,0.0,0.2610423,0.26104227,0.57148105,0.28853396,0.288534,4.0561285,0.0,0.0,0.0,0.09016924,0.0,0.0,0.0,0.0,0.0,4.6862588e-05,0.0039356486,0.012281897,0.0,0.0,0.0,0.0,0.0,0.0
1185747815,0.06822207,0.087754324,-0.0075685857,-0.04076338,-0.04264164,0.10393524,0.0,0.0,0.0,-0.03366007,0.0,0.0,0.0,0.0,0.0,0.26107186,0.26107186,0.57145584,0.2887099,0.28870997,4.0559587,0.0,0.0,0.0,0.090168804,0.0,0.0,0.0,0.0,0.0,0.00019583396,0.005878605,0.008796773,0.0,0.0,0.0,0.0,0.0,0.0
1185952053,0.06318824,0.06596738,0.07970871,-0.06030655,-0.033497334,0.102249146,0.0,0.0,0.0,-0.028257176,0.0,0.0,0.0,0.0,0.0,0.26097223,0.26097214,0.57148105,0.28820056,0.28820062,4.0561147,0.0,0.0,0.0,0.09016878,0.0,0.0,0.0,0.0,0.0,0.0001955892,0.0035857426,0.004043762,0.0,0.0,0.0,0.0,0.0,0.0
1186151785,0.049846116,-0.08406639,-0.55490094,-0.07817793,-0.030732155,0.22037506,0.0,0.0,0.0,-0.010219112,0.0,0.0,0.0,0.0,0.0,0.261149,0.26113105,0.5714903,0.28823158,0.28823158,4.0562186,0.0,0.0,0.0,0.09016878,0.0,0.0,0.0,0.0,0.0,0.00025055098,0.00552151,0.009546626,0.0,0.0,0.0,0.0,0.0,0.0
1186355921,0.15954639,0.13666156,-0.19482338,-0.074364185,-0.024321556,-0.30135345,0.0,0.0,0.0,-0.015861891,0.0,0.0,0.0,0.0,0.0,0.26146862,0.26143527,0.5714238,0.2883097,0.2883088,4.0555644,0.0,0.0,0.0,0.090168625,0.0,0.0,0.0,0.0,0.0,9.1471986e-05,0.009143667,0.038354967,0.0,0.0,0.0,0.0,0.0,0.0
1186559796,0.08513047,0.06563842,-0.038289726,-0.06634569,-0.035541534,1.2360344,0.0,0.0,0.0,0.005726166,0.0,0.0,0.0,0.0,0.0,0.2615663,0.26151136,0.5714361,0.2884033,0.28839958,4.0554028,0.0,0.0,0.0,0.09016845,0.0,0.0,0.0,0.0,0.0,0.00012585918,0.018721705,0.06764023,0.0,0.0,0.0,0.0,0.0,0.0
1186759938,0.05373153,0.13157713,-0.039619207,-0.09653807,-0.030382633,0.44316864,0.0,0.0,0.0,-0.0029373392,0.0,0.0,0.0,0.0,0.0,0.26157096,0.26152632,0.5714066,0.2887449,0.2887373,4.0557666,0.0,0.0,0.0,0.09016845,0.0,0.0,0.0,0.0,0.0,0.00021509215,0.02390892,0.08388152,0.0,0.0,0.0,0.0,0.0,0.0
1186959944,0.031057224,0.21088383,0.024214625,-0.106710434,-0.004533291,0.08260727,0.0,0.0,0.0,0.034736507,0.0,0.0,0.0,0.0,0.0,0.2614124,0.261393,0.57145756,0.2885049,0.28849542,4.0554166,0.0,0.0,0.0,0.09016827,0.0,0.0,0.0,0.0,0.0,0.0003684252,0.021238051,0.068109185,0.0,0.0,0.0,0.0,0.0,0.0
1187163984,0.028974354,0.07991645,-0.07362163,-0.11919069,0.009233952,-0.6729317,0.0,0.0,0.0,0.0079832,0.0,0.0,0.0,0.0,0.0,0.26132816,0.26132604,0.57139593,0.28854606,0.28853643,4.0552754,0.0,0.0,0.0,0.090168506,0.0,0.0,0.0,0.0,0.0,0.00036394486,0.009977553,0.021411251,0.0,0.0,0.0,0.0,0.0,0.0
1187367973,0.19080979,0.013305917,-0.042403877,-0.11403513,0.00041103363,-0.24859238,0.0,0.0,0.0,-0.013862304,0.0,0.0,0.0,0.0,0.0,0.26127064,0.26127526,0.5714091,0.28857267,0.28856486,4.0551972,0.0,0.0,0.0,0.09016871,0.0,0.0,0.0,0.0,0.0,0.000257272,0.011235308,0.03502246,0.0,0.0,0.0,0.0,0.0,0.0
1187571916,0.09602459,0.011004455,0.18110263,-0.100702286,-0.006438732,-0.28380585,0.0,0.0,0.0,0.021841988,0.0,0.0,0.0,0.0,0.0,0.26121938,0.2612218,0.57142365,0.28858194,0.28857675,4.0553417,0.0,0.0,0.0,0.09016867,0.0,0.0,0.0,0.0,0.0,0.00018140566,0.009415982,0.037007883,0.0,0.0,0.0,0.0,0.0,0.0
1187771955,0.17304713,0.20326541,0.02443111,-0.07797766,0.008519173,-0.26342773,0.0,0.0,0.0,0.053619847,0.0,0.0,0.0,0.0,0.0,0.2612999,0.26129764,0.57142377,0.28910488,0.28910258,4.0552106,0.0,0.0,0.0,0.090168186,0.0,0.0,0.0,0.0,0.0,0.00036507958,0.012787616,0.040405408,0.0,0.0,0.0,0.0,0.0,0.0
1187971806,-0.1940161,0.120477974,-0.07110989,-0.09878349,0.015764713,-0.45677567,0.0,0.0,0.0,0.021660618,0.0,0.0,0.0,0.0,0.0,0.2611351,0.26112798,0.57138133,0.28850633,0.2885059,4.055145,0.0,0.0,0.0,0.090168215,0.0,0.0,0.0,0.0,0.0,0.0005586096,0.018809583,0.056957424,0.0,0.0,0.0,0.0,0.0,0.0
1188175730,0.16974866,0.031067051,0.069490135,-0.090070724,0.004312992,-0.24546432,0.0,0.0,0.0,0.016809493,0.0,0.0,0.0,0.0,0.0,0.26111606,0.26110274,0.57139945,0.288507,0.28850782,4.0550423,0.0,0.0,0.0,0.09016834,0.0,0.0,0.0,0.0,0.0,0.00043672448,0.014614797,0.053979978,0.0,0.0,0.0,0.0,0.0,0.0
1188379904,0.3977284,-0.07682723,-0.043020546,-0.05786419,-0.007947922,-0.14327621,0.0,0.0,0.0,0.027985424,0.0,0.0,0.0,0.0,0.0,0.2610996,0.26108336,0.571419,0.28850353,0.28850466,4.0552187,0.0,0.0,0.0,0.09016873,0.0,0.0,0.0,0.0,0.0,0.0004342636,0.015729705,0.04072529,0.0,0.0,0.0,0.0,0.0,0.0
1188579940,0.11596449,0.17925346,0.24992418,-0.055881977,0.005970478,-0.13558578,0.0,0.0,0.0,0.032111295,0.0,0.0,0.0,0.0,0.0,0.26113403,0.261116,0.5713931,0.28875533,0.2887559,4.055158,0.0,0.0,0.0,0.090168476,0.0,0.0,0.0,0.0,0.0,0.00051691843,0.01068125,0.032465838,0.0,0.0,0.0,0.0,0.0,0.0
1188779808,0.03632009,0.1435925,0.047666848,-0.057297707,0.020397663,-0.15373611,0.0,0.0,0.0,0.044738933,0.0,0.0,0.0,0.0,0.0,0.26109776,0.26108217,0.5714097,0.28870735,0.28870693,4.0550585,0.0,0.0,0.0,0.090168476,0.0,0.0,0.0,0.0,0.0,0.00055600924,0.008468179,0.02590589,0.0,0.0,0.0,0.0,0.0,0.0
1188983931,0.20595357,0.05963201,0.0844934,-0.051760197,0.024355412,-0.0139045715,0.0,0.0,0.0,0.08527589,0.0,0.0,0.0,0.0,0.0,0.26107252,0.2610593,0.5714264,0.28866407,0.2886625,4.0552263,0.0,0.0,0.0,0.090168625,0.0,0.0,0.0,0.0,0.0,0.00077033247,0.009267332,0.02507087,0.0,0.0,0.0,0.0,0.0,0.0
1189187926,0.13936421,-0.121776074,0.061282158,-0.044171333,0.009792328,-0.32481003,0.0,0.0,0.0,-0.010430582,0.0,0.0,0.0,0.0,0.0,0.26100084,0.26099235,0.571412,0.28837004,0.28836763,4.0553846,0.0,0.0,0.0,0.09016867,0.0,0.0,0.0,0.0,0.0,0.00040124086,0.009211062,0.026221428,0.0,0.0,0.0,0.0,0.0,0.0
1189387811,0.19730715,0.040011957,0.18071073,-0.019546032,0.0052027702,-0.56842804,0.0,0.0,0.0,0.0050088316,0.0,0.0,0.0,0.0,0.0,0.2609994,0.26099598,0.5714238,0.28836975,0.28836682,4.05531,0.0,0.0,0.0,0.09016887,0.0,0.0,0.0,0.0,0.0,0.00039821386,0.011112389,0.032107025,0.0,0.0,0.0,0.0,0.0,0.0
1189591805,0.071405925,-0.0030281693,-0.019771934,-0.019461155,0.0035891533,-0.5386162,0.0,0.0,0.0,0.004479721,0.0,0.0,0.0,0.0,0.0,0.26099288,0.26099277,0.57143754,0.28836998,0.288367,4.0551963,0.0,0.0,0.0,0.090168916,0.0,0.0,0.0,0.0,0.0,0.0005216796,0.0095852595,0.030499592,0.0,0.0,0.0,0.0,0.0,0.0
1189791925,0.026505478,0.16425315,0.09325868,-0.01723814,0.017245293,-0.26831818,0.0,0.0,0.0,-0.04761661,0.0,0.0,0.0,0.0,0.0,0.26094076,0.26094422,0.57142174,0.28811708,0.28811452,4.0553436,0.0,0.0,0.0,0.0901692,0.0,0.0,0.0,0.0,0.0,0.00045877922,0.007230436,0.02476618,0.0,0.0,0.0,0.0,0.0,0.0
1189995747,0.1985273,0.075885415,0.060664713,0.0045638084,0.023677826,0.10990906,0.0,0.0,0.0,-0.044183195,0.0,0.0,0.0,0.0,0.0,0.2610071,0.26101285,0.57139206,0.2884058,0.288404,4.0552745,0.0,0.0,0.0,0.09016939,0.0,0.0,0.0,0.0,0.0,0.00048355505,0.008005774,0.019831441,0.0,0.0,0.0,0.0,0.0,0.0
1190197587,0.028442416,0.0803356,0.07651514,0.026225567,0.030652523,0.07868576,0.0,0.0,0.0,0.014803305,0.0,0.0,0.0,0.0,0.0,0.2610616,0.26106822,0.5714352,0.2886564,0.28865558,4.0554605,0.0,0.0,0.0,0.090169355,0.0,0.0,0.0,0.0,0.0,0.00047323306,0.0065474315,0.018883048,0.0,0.0,0.0,0.0,0.0,0.0
1190397510,0.31347775,0.026661007,0.037467718,0.05613327,0.02411127,-0.26168442,0.0,0.0,0.0,0.019895762,0.0,0.0,0.0,0.0,0.0,0.2610348,0.2610414,0.5714439,0.2885375,0.28853765,4.055236,0.0,0.0,0.0,0.09016944,0.0,0.0,0.0,0.0,0.0,0.0005311197,0.01376923,0.027774608,0.0,0.0,0.0,0.0,0.0,0.0
1190601538,0.16811395,-0.084717564,-0.004525006,0.06311846,0.02024126,0.13004303,0.0,0.0,0.0,0.011229277,0.0,0.0,0.0,0.0,0.0,0.26096994,0.260977,0.57142836,0.28825718,0.28825828,4.0553923,0.0,0.0,0.0,0.09016952,0.0,0.0,0.0,0.0,0.0,0.0006165597,0.013012106,0.028019726,0.0,0.0,0.0,0.0,0.0,0.0
1190801365,0.21163079,-0.095555365,0.21939057,0.046336174,0.006725788,-0.26358414,0.0,0.0,0.0,-0.014459774,0.0,0.0,0.0,0.0,0.0,0.26108336,0.26108992,0.5714256,0.28878123,0.28878334,4.055316,0.0,0.0,0.0,0.09016925,0.0,0.0,0.0,0.0,0.0,0.0006446362,0.014329288,0.02909875,0.0,0.0,0.0,0.0,0.0,0.0
1191001419,0.2121975,-0.032416753,0.019904733,0.049602985,0.005692482,-0.25334167,0.0,0.0,0.0,0.03294702,0.0,0.0,0.0,0.0,0.0,0.26095176,0.26095855,0.5713805,0.28820693,0.2882097,4.0554767,0.0,0.0,0.0,0.09016921,0.0,0.0,0.0,0.0,0.0,0.0006468041,0.01359982,0.028607966,0.0,0.0,0.0,0.0,0.0,0.0
1191205593,0.072617605,-0.010635242,0.06894636,0.033332348,0.0034914017,0.07347107,0.0,0.0,0.0,0.008275166,0.0,0.0,0.0,0.0,0.0,0.261016,0.26102257,0.57141966,0.28848073,0.28848428,4.055603,0.0,0.0,0.0,0.090168916,0.0,0.0,0.0,0.0,0.0,0.0006414574,0.00800558,0.018624304,0.0,0.0,0.0,0.0,0.0,0.0
1191405553,0.124672264,-0.011212286,0.1479001,0.018757343,0.0008711815,-0.17109299,0.0,0.0,0.0,0.02127117,0.0,0.0,0.0,0.0,0.0,0.26095942,0.26096654,0.57139844,0.2882065,0.2882106,4.055459,0.0,0.0,0.0,0.09016905,0.0,0.0,0.0,0.0,0.0,0.0005508718,0.0055799065,0.012689962,0.0,0.0,0.0,0.0,0.0,0.0
1191609416,0.030205548,-0.013118964,-0.08216214,0.008908272,9.346008e-05,0.17171097,0.0,0.0,0.0,0.026446864,0.0,0.0,0.0,0.0,0.0,0.26107132,0.26108003,0.57146406,0.28873765,0.2887426,4.0555744,0.0,0.0,0.0,0.090169184,0.0,0.0,0.0,0.0,0.0,0.00030551662,0.0039243954,0.0088848425,0.0,0.0,0.0,0.0,0.0,0.0
1191813389,0.21278551,0.065168366,-0.02583325,-0.0021414757,0.01659298,0.007259369,0.0,0.0,0.0,0.02435778,0.0,0.0,0.0,0.0,0.0,0.2610548,0.26106352,0.5714702,0.2886813,0.28868684,4.0556827,0.0,0.0,0.0,0.0901693,0.0,0.0,0.0,0.0,0.0,0.00030232142,0.0041427608,0.00876046,0.0,0.0,0.0,0.0,0.0,0.0
1192013597,-0.04789619,-0.03757163,0.04955113,-0.013703823,0.015542507,0.07705307,0.0,0.0,0.0,0.00865823,0.0,0.0,0.0,0.0,0.0,0.26094413,0.26095122,0.5714179,0.28812376,0.28812948,4.0555673,0.0,0.0,0.0,0.09016917,0.0,0.0,0.0,0.0,0.0,0.00030706497,0.0043699136,0.00706146,0.0,0.0,0.0,0.0,0.0,0.0
1192213628,0.054154687,-0.038611308,0.08190465,-0.038348675,0.012546539,0.15804672,0.0,0.0,0.0,0.044759408,0.0,0.0,0.0,0.0,0.0,0.26095763,0.2609634,0.5714271,0.28815597,0.28816196,4.055424,0.0,0.0,0.0,0.09016899,0.0,0.0,0.0,0.0,0.0,0.00020881002,0.005766857,0.011349792,0.0,0.0,0.0,0.0,0.0,0.0
1192417554,0.092733845,-0.13643818,-0.053932786,-0.03363657,-0.007926941,-0.11565018,0.0,0.0,0.0,0.016769677,0.0,0.0,0.0,0.0,0.0,0.26096413,0.260969,0.57143635,0.28818512,0.2881911,4.0555387,0.0,0.0,0.0,0.09016882,0.0,0.0,0.0,0.0,0.0,0.00032366547,0.007860314,0.016976297,0.0,0.0,0.0,0.0,0.0,0.0
1192621516,0.03546364,-0.110040486,0.0050240755,-0.012182236,-0.01873064,-0.37768173,0.0,0.0,0.0,0.0039297044,0.0,0.0,0.0,0.0,0.0,0.2609859,0.26098868,0.5714457,0.28821266,0.28821835,4.0556536,0.0,0.0,0.0,0.09016903,0.0,0.0,0.0,0.0,0.0,0.00040081074,0.00872317,0.016566982,0.0,0.0,0.0,0.0,0.0,0.0
1192825553,0.15196592,-0.20709492,0.09099889,0.008043766,-0.03644657,-0.47818375,0.0,0.0,0.0,0.0069622397,0.0,0.0,0.0,0.0,0.0,0.26110804,0.2611097,0.57143855,0.2887492,0.28875455,4.0555387,0.0,0.0,0.0,0.09016908,0.0,0.0,0.0,0.0,0.0,0.00067429454,0.011636122,0.021109316,0.0,0.0,0.0,0.0,0.0,0.0
1193025416,0.2867748,-0.13133028,0.0076014996,0.04496813,-0.05275488,-0.5620041,0.0,0.0,0.0,-0.012722403,0.0,0.0,0.0,0.0,0.0,0.2610293,0.26103035,0.571419,0.2884396,0.28844425,4.055396,0.0,0.0,0.0,0.09016905,0.0,0.0,0.0,0.0,0.0,0.0008463783,0.0136560835,0.025301162,0.0,0.0,0.0,0.0,0.0,0.0
1193229544,0.064658314,-0.16920911,-0.18730867,0.029750824,-0.06934261,0.36405563,0.0,0.0,0.0,0.07115221,0.0,0.0,0.0,0.0,0.0,0.2609733,0.26097405,0.57140183,0.2881772,0.28818107,4.0555234,0.0,0.0,0.0,0.09016924,0.0,0.0,0.0,0.0,0.0,0.00071326515,0.012790122,0.02523481,0.0,0.0,0.0,0.0,0.0,0.0
1193433410,0.1369511,-0.084703974,-0.0033012033,0.027190685,-0.060753345,0.37578583,0.0,0.0,0.0,0.057832107,0.0,0.0,0.0,0.0,0.0,0.26098794,0.2609884,0.5714123,0.28820896,0.28821212,4.0556936,0.0,0.0,0.0,0.09016946,0.0,0.0,0.0,0.0,0.0,0.0005961092,0.009480884,0.020046396,0.0,0.0,0.0,0.0,0.0,0.0
1193637349,0.15693514,-0.08919231,0.07248008,0.017694473,-0.058395386,-0.22369766,0.0,0.0,0.0,0.017065987,0.0,0.0,0.0,0.0,0.0,0.26105586,0.261056,0.5713791,0.2884901,0.2884926,4.0555363,0.0,0.0,0.0,0.090169065,0.0,0.0,0.0,0.0,0.0,0.00069895666,0.008082927,0.017326891,0.0,0.0,0.0,0.0,0.0,0.0
1193837483,0.008033792,-0.04884737,0.020262301,0.0066199303,-0.049614906,-0.10542679,0.0,0.0,0.0,0.04067968,0.0,0.0,0.0,0.0,0.0,0.26111513,0.26111427,0.57141834,0.28873545,0.28873742,4.0556526,0.0,0.0,0.0,0.090169296,0.0,0.0,0.0,0.0,0.0,0.00038058468,0.005473502,0.013301244,0.0,0.0,0.0,0.0,0.0,0.0
1194037541,0.05968031,0.017735265,0.21880156,0.0072956085,-0.031649113,-0.061656952,0.0,0.0,0.0,0.013652787,0.0,0.0,0.0,0.0,0.0,0.26104885,0.26104668,0.57139754,0.2884326,0.2884341,4.055756,0.0,0.0,0.0,0.09016894,0.0,0.0,0.0,0.0,0.0,0.00027628746,0.004676811,0.011855288,0.0,0.0,0.0,0.0,0.0,0.0
1194241512,-0.011729021,-0.114767365,0.19036067,-0.005615711,-0.034469604,0.0549469,0.0,0.0,0.0,0.034353197,0.0,0.0,0.0,0.0,0.0,0.26105127,0.261048,0.57140416,0.2884286,0.28842956,4.0556307,0.0,0.0,0.0,0.09016882,0.0,0.0,0.0,0.0,0.0,0.0004883514,0.008062086,0.019126978,0.0,0.0,0.0,0.0,0.0,0.0
1194443392,-0.020521933,-0.015336834,0.14027357,-0.010614872,-0.024686337,-0.22834015,0.0,0.0,0.0,0.09507501,0.0,0.0,0.0,0.0,0.0,0.261049,0.26104423,0.5714126,0.288427,0.2884274,4.055729,0.0,0.0,0.0,0.09016874,0.0,0.0,0.0,0.0,0.0,0.0004937777,0.007916127,0.017603498,0.0,0.0,0.0,0.0,0.0,0.0
1194647000,0.084581636,-0.086173594,0.14383161,-0.0011534691,-0.02812767,-0.3372612,0.0,0.0,0.0,-0.010151193,0.0,0.0,0.0,0.0,0.0,0.2610566,0.26105028,0.5714204,0.28842378,0.2884235,4.055619,0.0,0.0,0.0,0.090168685,0.0,0.0,0.0,0.0,0.0,0.000384594,0.0041952548,0.009014623,0.0,0.0,0.0,0.0,0.0,0.0
1194850989,0.06804137,-0.072850764,0.1593157,0.013757706,-0.031832695,-0.1953125,0.0,0.0,0.0,0.03494446,0.0,0.0,0.0,0.0,0.0,0.26112273,0.2611148,0.57139045,0.28873032,0.28872922,4.0557203,0.0,0.0,0.0,0.090169005,0.0,0.0,0.0,0.0,0.0,0.0004485662,0.0023933528,0.0044569983,0.0,0.0,0.0,0.0,0.0,0.0
1195055139,-0.10050252,0.022471793,0.14122891,0.005604744,-0.028177738,-0.0054130554,0.0,0.0,0.0,0.036294714,0.0,0.0,0.0,0.0,0.0,0.26099783,0.2609897,0.5714124,0.28817335,0.28817156,4.0555983,0.0,0.0,0.0,0.09016911,0.0,0.0,0.0,0.0,0.0,0.00031492685,0.0073225237,0.015102872,0.0,0.0,0.0,0.0,0.0,0.0
1195255183,0.05421566,-0.06259909,0.17448926,0.021363258,-0.02482462,0.11366272,0.0,0.0,0.0,0.037819415,0.0,0.0,0.0,0.0,0.0,0.2610263,0.26101843,0.5714236,0.2882091,0.28820658,4.055705,0.0,0.0,0.0,0.09016935,0.0,0.0,0.0,0.0,0.0,0.00030399306,0.0058800387,0.015949806,0.0,0.0,0.0,0.0,0.0,0.0
1195459206,-0.022189982,-0.048879277,0.17452824,0.0120511055,-0.02528143,-0.050937653,0.0,0.0,0.0,0.024128452,0.0,0.0,0.0,0.0,0.0,0.26102784,0.2610213,0.57136124,0.28824136,0.2882382,4.055545,0.0,0.0,0.0,0.090169355,0.0,0.0,0.0,0.0,0.0,0.00023878252,0.0054286486,0.012899502,0.0,0.0,0.0,0.0,0.0,0.0
1195663157,-0.058439933,0.019678071,0.16019869,0.004825115,-0.016703606,-0.3530693,0.0,0.0,0.0,0.04137501,0.0,0.0,0.0,0.0,0.0,0.2610362,0.26103112,0.5713734,0.28827065,0.28826708,4.0554028,0.0,0.0,0.0,0.09016972,0.0,0.0,0.0,0.0,0.0,0.00027094886,0.007048432,0.015833426,0.0,0.0,0.0,0.0,0.0,0.0
1195867234,-0.03734135,0.10400234,0.07151151,-0.014701366,-0.005405426,-0.56772995,0.0,0.0,0.0,0.007908002,0.0,0.0,0.0,0.0,0.0,0.26115656,0.26115283,0.57137203,0.28881085,0.2888069,4.0558324,0.0,0.0,0.0,0.0901697,0.0,0.0,0.0,0.0,0.0,0.00041421587,0.00843556,0.015656983,0.0,0.0,0.0,0.0,0.0,0.0
1196067172,0.018957485,0.09790089,0.14987433,-0.024701595,0.018677711,0.07621384,0.0,0.0,0.0,0.003949389,0.0,0.0,0.0,0.0,0.0,0.26102164,0.26101962,0.57139564,0.28824323,0.28823942,4.0556636,0.0,0.0,0.0,0.09016939,0.0,0.0,0.0,0.0,0.0,0.00033033002,0.009232178,0.018606719,0.0,0.0,0.0,0.0,0.0,0.0
1196271187,0.19085203,-0.08161864,0.15206933,-0.01650238,0.02022791,0.36842728,0.0,0.0,0.0,-0.0035149455,0.0,0.0,0.0,0.0,0.0,0.2610273,0.26102552,0.5714061,0.2882706,0.28826693,4.055512,0.0,0.0,0.0,0.090169206,0.0,0.0,0.0,0.0,0.0,0.00041088226,0.0039961324,0.010137334,0.0,0.0,0.0,0.0,0.0,0.0
1196475138,-0.10988799,-0.04424859,0.069446325,-0.032493114,0.015697956,-0.66996765,0.0,0.0,0.0,-0.048297778,0.0,0.0,0.0,0.0,0.0,0.26109073,0.26108995,0.57137686,0.28855237,0.28854895,4.0554233,0.0,0.0,0.0,0.09016916,0.0,0.0,0.0,0.0,0.0,0.00013188469,0.006720876,0.01679436,0.0,0.0,0.0,0.0,0.0,0.0
1196675227,-0.05439558,-0.041716807,0.00821197,-0.047052383,0.0031266212,-0.21904373,0.0,0.0,0.0,0.0048237443,0.0,0.0,0.0,0.0,0.0,0.26102808,0.2610277,0.57136303,0.28827867,0.2882756,4.0553026,0.0,0.0,0.0,0.09016881,0.0,0.0,0.0,0.0,0.0,0.00019912157,0.0065238387,0.013162089,0.0,0.0,0.0,0.0,0.0,0.0
1196875127,-0.12714794,0.078076124,0.01694429,-0.060802937,0.018839836,0.072647095,0.0,0.0,0.0,0.0059470236,0.0,0.0,0.0,0.0,0.0,0.26114565,0.2611454,0.5713669,0.28881425,0.28881153,4.0552425,0.0,0.0,0.0,0.090169005,0.0,0.0,0.0,0.0,0.0,0.00033568303,0.010411979,0.020883499,0.0,0.0,0.0,0.0,0.0,0.0
1197075260,-0.07557194,0.05200983,-0.013702273,-0.064593315,0.017667294,-0.069812775,0.0,0.0,0.0,-0.028053835,0.0,0.0,0.0,0.0,0.0,0.26107624,0.26107603,0.5713563,0.28850192,0.28849965,4.0551467,0.0,0.0,0.0,0.09016893,0.0,0.0,0.0,0.0,0.0,0.00030767889,0.0102407215,0.020885497,0.0,0.0,0.0,0.0,0.0,0.0
1197279215,-0.020766664,-0.11946148,0.14710546,-0.056741238,0.009455204,0.19460678,0.0,0.0,0.0,0.008769855,0.0,0.0,0.0,0.0,0.0,0.26101705,0.26101646,0.57134753,0.28823766,0.2882357,4.055331,0.0,0.0,0.0,0.09016889,0.0,0.0,0.0,0.0,0.0,0.00030180934,0.0067545534,0.015471062,0.0,0.0,0.0,0.0,0.0,0.0
1197483172,-0.013709728,-0.026088007,0.086283326,-0.06294298,0.005323887,-0.11796951,0.0,0.0,0.0,-0.0017996877,0.0,0.0,0.0,0.0,0.0,0.26102263,0.26102245,0.5713671,0.2882638,0.2882622,4.0552793,0.0,0.0,0.0,0.09016886,0.0,0.0,0.0,0.0,0.0,0.00026539035,0.0053312886,0.013633079,0.0,0.0,0.0,0.0,0.0,0.0
1197687257,-0.02293776,-0.05095885,0.103839874,-0.06916523,-0.0021576881,-0.11821365,0.0,0.0,0.0,0.0019624978,0.0,0.0,0.0,0.0,0.0,0.26101586,0.26101577,0.571385,0.28828654,0.28828526,4.0554447,0.0,0.0,0.0,0.090168916,0.0,0.0,0.0,0.0,0.0,0.00026305395,0.0056957006,0.01627866,0.0,0.0,0.0,0.0,0.0,0.0
1197887196,-0.047664866,0.06321185,0.03714025,-0.07681894,0.0030198097,0.07804108,0.0,0.0,0.0,-0.0057602376,0.0,0.0,0.0,0.0,0.0,0.26112664,0.2611271,0.5713877,0.28881863,0.28881776,4.055332,0.0,0.0,0.0,0.0901692,0.0,0.0,0.0,0.0,0.0,0.00020026768,0.0055030556,0.011782894,0.0,0.0,0.0,0.0,0.0,0.0
1198091111,-0.082691655,-0.001632547,0.078440785,-0.09718704,0.01160717,-0.028877258,0.0,0.0,0.0,0.012247473,0.0,0.0,0.0,0.0,0.0,0.2609902,0.26099136,0.5714159,0.28824663,0.28824615,4.055478,0.0,0.0,0.0,0.09016909,0.0,0.0,0.0,0.0,0.0,0.000260882,0.0061823437,0.012930004,0.0,0.0,0.0,0.0,0.0,0.0
1198295163,-0.010849312,-0.09323903,0.05088079,-0.083042145,-0.0028853416,0.065727234,0.0,0.0,0.0,0.074705824,0.0,0.0,0.0,0.0,0.0,0.2610454,0.26104715,0.5713857,0.2885244,0.28852436,4.0556054,0.0,0.0,0.0,0.09016913,0.0,0.0,0.0,0.0,0.0,0.0003014508,0.003950385,0.009030127,0.0,0.0,0.0,0.0,0.0,0.0
1198499133,0.19434072,-0.049118884,0.07418716,-0.044766426,-0.0068068504,-0.37585068,0.0,0.0,0.0,-0.005986795,0.0,0.0,0.0,0.0,0.0,0.2609865,0.26098868,0.57136774,0.28825054,0.28825092,4.0557785,0.0,0.0,0.0,0.09016927,0.0,0.0,0.0,0.0,0.0,0.00018726883,0.0033250793,0.0051361164,0.0,0.0,0.0,0.0,0.0,0.0
1198699139,-0.088532984,-0.046540868,0.00064349174,-0.06327963,-0.009561062,0.3101387,0.0,0.0,0.0,0.0092744455,0.0,0.0,0.0,0.0,0.0,0.2610357,0.261038,0.57140636,0.28852305,0.28852388,4.0556307,0.0,0.0,0.0,0.09016938,0.0,0.0,0.0,0.0,0.0,0.00014347944,0.0023539574,0.0084512085,0.0,0.0,0.0,0.0,0.0,0.0
1198904583,-0.042417914,-0.09629241,0.17779827,-0.07605791,-0.016468525,0.147892,0.0,0.0,0.0,0.026208796,0.0,0.0,0.0,0.0,0.0,0.2610741,0.26107672,0.5713744,0.28875795,0.28875923,4.055498,0.0,0.0,0.0,0.09016965,0.0,0.0,0.0,0.0,0.0,0.00025293135,0.005567741,0.016283035,0.0,0.0,0.0,0.0,0.0,0.0
1199104787,-0.04051751,0.04043584,0.10122514,-0.08062267,-0.016610146,0.1482315,0.0,0.0,0.0,-0.035950474,0.0,0.0,0.0,0.0,0.0,0.2609512,0.2609546,0.5714011,0.28819042,0.288192,4.055479,0.0,0.0,0.0,0.090169385,0.0,0.0,0.0,0.0,0.0,0.00019056123,0.0022718662,0.0043041985,0.0,0.0,0.0,0.0,0.0,0.0
1199304733,-0.020540752,0.040370077,-0.01690507,-0.079464436,-0.004732609,0.23474121,0.0,0.0,0.0,0.01943069,0.0,0.0,0.0,0.0,0.0,0.26102912,0.26103228,0.57137656,0.28851953,0.2885215,4.0556116,0.0,0.0,0.0,0.09016944,0.0,0.0,0.0,0.0,0.0,0.00021309064,0.003145671,0.008764255,0.0,0.0,0.0,0.0,0.0,0.0
1199508761,0.09600224,0.05383903,0.28135395,-0.06772041,0.003745079,-0.02255249,0.0,0.0,0.0,-0.0479151,0.0,0.0,0.0,0.0,0.0,0.26097354,0.26097682,0.57143086,0.28824216,0.28824428,4.05573,0.0,0.0,0.0,0.09016916,0.0,0.0,0.0,0.0,0.0,7.326456e-05,0.004850577,0.011829126,0.0,0.0,0.0,0.0,0.0,0.0
1199712571,0.16481799,-0.0648907,0.30758417,-0.056491375,-0.00092840195,-0.12202072,0.0,0.0,0.0,0.030342981,0.0,0.0,0.0,0.0,0.0,0.26097795,0.2609811,0.571369,0.28825933,0.28826162,4.0555882,0.0,0.0,0.0,0.09016886,0.0,0.0,0.0,0.0,0.0,0.00020918819,0.004798921,0.008926063,0.0,0.0,0.0,0.0,0.0,0.0
1199912764,-0.06412808,0.09805216,0.33323765,-0.06702423,0.018413067,-0.07544327,0.0,0.0,0.0,-0.012063801,0.0,0.0,0.0,0.0,0.0,0.2610852,0.26108825,0.57143825,0.28878564,0.28878817,4.055704,0.0,0.0,0.0,0.0901686,0.0,0.0,0.0,0.0,0.0,0.000455033,0.0037921856,0.0077824714,0.0,0.0,0.0,0.0,0.0,0.0
1200112594,0.06447208,0.07419572,0.28885043,-0.05793953,0.029259205,0.15560532,0.0,0.0,0.0,-0.019588202,0.0,0.0,0.0,0.0,0.0,0.26095042,0.26095328,0.5713895,0.28821397,0.28821647,4.055808,0.0,0.0,0.0,0.09016876,0.0,0.0,0.0,0.0,0.0,0.00015359171,0.0053386884,0.013209514,0.0,0.0,0.0,0.0,0.0,0.0
1200316828,0.18139735,-0.014948736,0.21824944,-0.016710758,0.019150734,-0.66028976,0.0,0.0,0.0,-0.008178845,0.0,0.0,0.0,0.0,0.0,0.2609625,0.26096493,0.57139784,0.28823268,0.28823525,4.0559664,0.0,0.0,0.0,0.0901685,0.0,0.0,0.0,0.0,0.0,0.00017261697,0.007836169,0.02140565,0.0,0.0,0.0,0.0,0.0,0.0
1200520733,0.014136776,-0.031211536,0.14046657,0.011144161,0.013109684,-0.40718842,0.0,0.0,0.0,-0.0014609247,0.0,0.0,0.0,0.0,0.0,0.2609137,0.26091552,0.5713792,0.28799823,0.2880007,4.0560727,0.0,0.0,0.0,0.09016844,0.0,0.0,0.0,0.0,0.0,0.00011058927,0.00495817,0.012610855,0.0,0.0,0.0,0.0,0.0,0.0
1200725046,0.009959742,-0.060877215,-0.060509086,-0.0009937286,0.0066843033,-0.78395844,0.0,0.0,0.0,-0.041027635,0.0,0.0,0.0,0.0,0.0,0.2609843,0.2609855,0.57141715,0.2883039,0.28830633,4.0558925,0.0,0.0,0.0,0.09016875,0.0,0.0,0.0,0.0,0.0,0.00013320608,0.008349526,0.02508351,0.0,0.0,0.0,0.0,0.0,0.0
1200924922,-0.04449963,-0.025910197,0.102220654,-0.021932125,0.01153183,-0.1721077,0.0,0.0,0.0,0.03389956,0.0,0.0,0.0,0.0,0.0,0.2610998,0.2611002,0.5714103,0.28882623,0.2888284,4.0559936,0.0,0.0,0.0,0.09016882,0.0,0.0,0.0,0.0,0.0,9.845314e-05,0.0059000566,0.019233808,0.0,0.0,0.0,0.0,0.0,0.0
1201124718,0.030023284,0.0046382863,0.08615756,-0.04001093,0.015591621,-0.2526436,0.0,0.0,0.0,0.004776761,0.0,0.0,0.0,0.0,0.0,0.26097223,0.26097202,0.57143235,0.2882498,0.28825152,4.056084,0.0,0.0,0.0,0.09016871,0.0,0.0,0.0,0.0,0.0,0.000103529506,0.0029648384,0.009410061,0.0,0.0,0.0,0.0,0.0,0.0
1201328754,0.004444994,-0.109177426,0.02188313,-0.04709673,0.009321213,-0.55825806,0.0,0.0,0.0,0.0011159182,0.0,0.0,0.0,0.0,0.0,0.2609839,0.26098356,0.57143956,0.2882677,0.28826892,4.055939,0.0,0.0,0.0,0.09016837,0.0,0.0,0.0,0.0,0.0,0.00037112142,0.003908009,0.010316713,0.0,0.0,0.0,0.0,0.0,0.0
1201532613,-0.06031437,0.00079114176,-0.0513587,-0.045689106,0.0032653809,0.013328552,0.0,0.0,0.0,-0.03139603,0.0,0.0,0.0,0.0,0.0,0.2609933,0.2609932,0.57137537,0.28828457,0.28828526,4.0557737,0.0,0.0,0.0,0.09016852,0.0,0.0,0.0,0.0,0.0,0.00046889385,0.0028384277,0.0061324956,0.0,0.0,0.0,0.0,0.0,0.0
1201736754,-0.025025059,-0.007825978,0.040040374,-0.056167126,0.006899357,-0.07437515,0.0,0.0,0.0,-0.004393488,0.0,0.0,0.0,0.0,0.0,0.2610469,0.2610478,0.57141507,0.28855443,0.2885546,4.0558853,0.0,0.0,0.0,0.09016842,0.0,0.0,0.0,0.0,0.0,0.00013100516,0.007991696,0.024515282,0.0,0.0,0.0,0.0,0.0,0.0
1201936733,-0.0130223185,-0.09005898,0.09886837,-0.053908348,-0.0065193176,0.21084213,0.0,0.0,0.0,0.026713818,0.0,0.0,0.0,0.0,0.0,0.26098275,0.2609861,0.5714066,0.2882526,0.28825226,4.055988,0.0,0.0,0.0,0.09016861,0.0,0.0,0.0,0.0,0.0,0.0002980758,0.0077143083,0.01474189,0.0,0.0,0.0,0.0,0.0,0.0
1202140723,-0.059093367,-0.040244654,0.032157898,-0.034733772,-0.01689291,0.27518082,0.0,0.0,0.0,-0.008245334,0.0,0.0,0.0,0.0,0.0,0.26098317,0.26098695,0.5714167,0.28827217,0.28827187,4.0558586,0.0,0.0,0.0,0.09016885,0.0,0.0,0.0,0.0,0.0,0.00032810247,0.0072564445,0.01530323,0.0,0.0,0.0,0.0,0.0,0.0
1202340506,0.015988588,-0.0362113,0.0141294,-0.012737274,-0.023228645,0.27515793,0.0,0.0,0.0,-0.019298688,0.0,0.0,0.0,0.0,0.0,0.2610255,0.26102865,0.57138616,0.28853947,0.28853935,4.0559764,0.0,0.0,0.0,0.09016884,0.0,0.0,0.0,0.0,0.0,0.00022498534,0.0056465776,0.01663384,0.0,0.0,0.0,0.0,0.0,0.0
1202544743,-0.044786427,0.019626703,0.096752524,-0.012768269,-0.013215065,0.26533508,0.0,0.0,0.0,-0.013914809,0.0,0.0,0.0,0.0,0.0,0.26101184,0.26101372,0.5713965,0.2885131,0.28851318,4.0558085,0.0,0.0,0.0,0.09016881,0.0,0.0,0.0,0.0,0.0,0.00016226001,0.010345738,0.034848537,0.0,0.0,0.0,0.0,0.0,0.0
1202748716,-0.005659865,-0.00713636,0.13457787,-0.012300491,-0.0027608871,0.27939987,0.0,0.0,0.0,-0.0064876825,0.0,0.0,0.0,0.0,0.0,0.26101017,0.26101065,0.5714079,0.28848928,0.28848946,4.055455,0.0,0.0,0.0,0.09016877,0.0,0.0,0.0,0.0,0.0,0.0002036895,0.007111675,0.024079185,0.0,0.0,0.0,0.0,0.0,0.0
1202948717,0.038743507,0.0069744326,0.043148518,-0.0072636604,0.009519577,0.11444473,0.0,0.0,0.0,0.03837304,0.0,0.0,0.0,0.0,0.0,0.26106125,0.26106143,0.5713763,0.2887249,0.28872517,4.055803,0.0,0.0,0.0,0.090168424,0.0,0.0,0.0,0.0,0.0,0.00016028239,0.007731754,0.025604812,0.0,0.0,0.0,0.0,0.0,0.0
1203152728,0.020728659,-0.032787867,0.03941393,-0.007016659,0.008080959,0.17375946,0.0,0.0,0.0,-0.025724351,0.0,0.0,0.0,0.0,0.0,0.26093283,0.26093352,0.57140344,0.28815943,0.28815973,4.055657,0.0,0.0,0.0,0.09016818,0.0,0.0,0.0,0.0,0.0,8.292637e-05,0.0058124387,0.018841852,0.0,0.0,0.0,0.0,0.0,0.0
1203354328,-0.008691099,-0.05089842,0.06837547,0.007612705,0.0044088364,0.15321732,0.0,0.0,0.0,-0.016084671,0.0,0.0,0.0,0.0,0.0,0.26099238,0.2609934,0.5713765,0.28843772,0.2884381,4.0553336,0.0,0.0,0.0,0.090168156,0.0,0.0,0.0,0.0,0.0,0.00017698054,0.0039549093,0.011701777,0.0,0.0,0.0,0.0,0.0,0.0
1203558484,0.017481266,-0.12689877,-0.023612738,0.012702465,-0.014941692,-0.523262,0.0,0.0,0.0,-0.02741301,0.0,0.0,0.0,0.0,0.0,0.26103884,0.2610394,0.5714134,0.28860348,0.288604,4.0553684,0.0,0.0,0.0,0.09016791,0.0,0.0,0.0,0.0,0.0,0.0003043042,0.007005257,0.013893238,0.0,0.0,0.0,0.0,0.0,0.0
1203762212,-0.08331293,0.009185851,0.028999686,0.008654594,-0.011211872,0.3295822,0.0,0.0,0.0,-0.016070828,0.0,0.0,0.0,0.0,0.0,0.26104084,0.26103947,0.5714258,0.28856748,0.28856808,4.0557303,0.0,0.0,0.0,0.09016759,0.0,0.0,0.0,0.0,0.0,0.00021987292,0.0037957204,0.0134114,0.0,0.0,0.0,0.0,0.0,0.0
1203962217,0.14242339,-0.123448946,0.10488188,0.025691986,-0.01937294,-0.122608185,0.0,0.0,0.0,-0.052123487,0.0,0.0,0.0,0.0,0.0,0.26098454,0.26098028,0.57141167,0.288282,0.28828254,4.055143,0.0,0.0,0.0,0.0901678,0.0,0.0,0.0,0.0,0.0,0.0002684096,0.009941551,0.020940945,0.0,0.0,0.0,0.0,0.0,0.0
1204162316,-0.07238721,-0.029301047,0.18922186,0.030426979,-0.012058258,-0.0049552917,0.0,0.0,0.0,-0.052650824,0.0,0.0,0.0,0.0,0.0,0.26106438,0.26105732,0.57138616,0.28855008,0.28855026,4.0552917,0.0,0.0,0.0,0.090167955,0.0,0.0,0.0,0.0,0.0,0.0003941227,0.005531134,0.014717163,0.0,0.0,0.0,0.0,0.0,0.0
1204362313,-0.14358188,0.011648104,0.07858479,0.017730236,-0.0072512627,-0.28772354,0.0,0.0,0.0,0.002299711,0.0,0.0,0.0,0.0,0.0,0.2610554,0.2610483,0.57140005,0.28852603,0.2885257,4.0551605,0.0,0.0,0.0,0.090167776,0.0,0.0,0.0,0.0,0.0,0.0003058005,0.0029215512,0.0037289355,0.0,0.0,0.0,0.0,0.0,0.0
1204566316,-0.06266963,0.06439027,0.069578886,0.0022187233,0.0037908554,0.1626091,0.0,0.0,0.0,-0.06636432,0.0,0.0,0.0,0.0,0.0,0.26100147,0.2609958,0.5713869,0.28825063,0.28824982,4.0550437,0.0,0.0,0.0,0.09016774,0.0,0.0,0.0,0.0,0.0,0.00030727303,0.0063915104,0.012812283,0.0,0.0,0.0,0.0,0.0,0.0
1204770357,0.0584439,-0.12483633,0.07344639,-0.002257824,0.0030078888,-0.24749374,0.0,0.0,0.0,0.020778134,0.0,0.0,0.0,0.0,0.0,0.26104325,0.26104045,0.5714313,0.28852355,0.28852242,4.0552435,0.0,0.0,0.0,0.0901676,0.0,0.0,0.0,0.0,0.0,0.00039715337,0.002044298,0.004594903,0.0,0.0,0.0,0.0,0.0,0.0
1204974366,-0.06643291,-0.00541351,0.0556345,-0.019057274,0.00038003922,-0.0021629333,0.0,0.0,0.0,0.042594418,0.0,0.0,0.0,0.0,0.0,0.26097193,0.26097158,0.57141566,0.28824824,0.2882471,4.0553823,0.0,0.0,0.0,0.0901675,0.0,0.0,0.0,0.0,0.0,0.00012584346,0.0020573325,0.00306855,0.0,0.0,0.0,0.0,0.0,0.0
1205174171,0.04395377,-0.008629765,0.06472957,-0.007928371,0.010752678,-0.07853317,0.0,0.0,0.0,-0.012417331,0.0,0.0,0.0,0.0,0.0,0.26096645,0.26096657,0.5714272,0.2882617,0.28826076,4.055246,0.0,0.0,0.0,0.09016758,0.0,0.0,0.0,0.0,0.0,0.000114495684,0.0015657699,0.0032781092,0.0,0.0,0.0,0.0,0.0,0.0
1205378348,-0.005763742,-0.048003644,0.10495198,-0.0049705505,0.0051517487,0.06750107,0.0,0.0,0.0,0.012953132,0.0,0.0,0.0,0.0,0.0,0.26097363,0.26097366,0.5714406,0.28827542,0.28827474,4.055384,0.0,0.0,0.0,0.090167776,0.0,0.0,0.0,0.0,0.0,0.00021732047,0.004883943,0.015213232,0.0,0.0,0.0,0.0,0.0,0.0
1205582305,-0.057120245,0.045199577,-0.012190938,-0.011478901,0.013102055,-0.3677101,0.0,0.0,0.0,0.024762675,0.0,0.0,0.0,0.0,0.0,0.26096886,0.26096955,0.5713809,0.28828686,0.2882864,4.0552936,0.0,0.0,0.0,0.090167806,0.0,0.0,0.0,0.0,0.0,0.0001725124,0.0032580392,0.0063431654,0.0,0.0,0.0,0.0,0.0,0.0
1205782231,0.07042622,0.03433561,0.042060256,-0.0027737617,0.014369011,0.08385849,0.0,0.0,0.0,-0.045323715,0.0,0.0,0.0,0.0,0.0,0.26101816,0.26101947,0.5714241,0.28855032,0.28855,4.055168,0.0,0.0,0.0,0.090167984,0.0,0.0,0.0,0.0,0.0,0.0001236138,0.0058659194,0.012752903,0.0,0.0,0.0,0.0,0.0,0.0
1205982346,0.14922562,-0.10273437,0.13061309,0.0024080276,0.014206886,0.008071899,0.0,0.0,0.0,0.0054847747,0.0,0.0,0.0,0.0,0.0,0.26095408,0.26095545,0.57141006,0.28826496,0.2882648,4.0553164,0.0,0.0,0.0,0.09016822,0.0,0.0,0.0,0.0,0.0,0.00033584124,0.007836413,0.0135267805,0.0,0.0,0.0,0.0,0.0,0.0
1206182394,0.012101606,-0.012646303,0.092789054,0.00797081,0.012172699,-0.39228058,0.0,0.0,0.0,0.020524278,0.0,0.0,0.0,0.0,0.0,0.26097044,0.26097035,0.57142377,0.2882756,0.28827563,4.055187,0.0,0.0,0.0,0.09016797,0.0,0.0,0.0,0.0,0.0,0.00022323635,0.0057383194,0.013871484,0.0,0.0,0.0,0.0,0.0,0.0
1206386124,-0.08410178,0.0830815,0.1644857,-0.00018405914,0.028107166,0.35191727,0.0,0.0,0.0,-0.0007212162,0.0,0.0,0.0,0.0,0.0,0.2609714,0.2609686,0.5714393,0.2882864,0.28828648,4.0553846,0.0,0.0,0.0,0.09016778,0.0,0.0,0.0,0.0,0.0,9.1636284e-05,0.004936962,0.009433084,0.0,0.0,0.0,0.0,0.0,0.0
1206590293,0.027830929,-0.058887184,0.054151416,0.015233517,0.030655384,-0.051719666,0.0,0.0,0.0,-0.015121356,0.0,0.0,0.0,0.0,0.0,0.2610284,0.26102394,0.5714086,0.28855067,0.2885506,4.0555143,0.0,0.0,0.0,0.09016776,0.0,0.0,0.0,0.0,0.0,0.000106228916,0.0036806923,0.012096501,0.0,0.0,0.0,0.0,0.0,0.0
1206790241,0.17569779,-0.16875117,0.17461956,0.04288006,0.01184082,-0.2832756,0.0,0.0,0.0,0.078818694,0.0,0.0,0.0,0.0,0.0,0.2609224,0.2609179,0.5714327,0.28801703,0.28801662,4.0553703,0.0,0.0,0.0,0.09016761,0.0,0.0,0.0,0.0,0.0,0.00035937858,0.009645161,0.018845433,0.0,0.0,0.0,0.0,0.0,0.0
1206990335,0.05347158,-5.301833e-05,0.112583876,0.051636696,0.015104294,0.06258392,0.0,0.0,0.0,0.060576215,0.0,0.0,0.0,0.0,0.0,0.2610059,0.2610025,0.57140166,0.2883225,0.2883216,4.055495,0.0,0.0,0.0,0.09016792,0.0,0.0,0.0,0.0,0.0,0.00047187085,0.008187061,0.017604617,0.0,0.0,0.0,0.0,0.0,0.0
1207194356,-0.06715098,-0.07292181,0.08708382,0.02823782,0.0121359825,-0.028217316,0.0,0.0,0.0,0.0054758787,0.0,0.0,0.0,0.0,0.0,0.26101732,0.26101556,0.57141244,0.28833276,0.2883316,4.055393,0.0,0.0,0.0,0.09016821,0.0,0.0,0.0,0.0,0.0,0.0001456176,0.0041559367,0.0136993695,0.0,0.0,0.0,0.0,0.0,0.0
1207398373,0.027861945,-0.12380801,0.17014217,0.033692837,0.0024819374,0.3010292,0.0,0.0,0.0,0.016552329,0.0,0.0,0.0,0.0,0.0,0.2610666,0.26106676,0.57145166,0.28859797,0.2885967,4.0555067,0.0,0.0,0.0,0.09016816,0.0,0.0,0.0,0.0,0.0,0.00022502753,0.00576622,0.010915419,0.0,0.0,0.0,0.0,0.0,0.0
1207602393,-0.044613183,0.038276367,0.10568774,0.014654636,0.007236004,0.029842377,0.0,0.0,0.0,0.007184699,0.0,0.0,0.0,0.0,0.0,0.2609512,0.2609528,0.5714042,0.28806174,0.2880606,4.0556226,0.0,0.0,0.0,0.09016875,0.0,0.0,0.0,0.0,0.0,9.534067e-05,0.003707907,0.011186087,0.0,0.0,0.0,0.0,0.0,0.0
1207804099,-0.0844245,0.015501723,0.00033843517,0.022241592,0.015860558,-0.12758255,0.0,0.0,0.0,-0.0061796606,0.0,0.0,0.0,0.0,0.0,0.26107997,0.2610825,0.57139975,0.28861865,0.28861785,4.055464,0.0,0.0,0.0,0.09016886,0.0,0.0,0.0,0.0,0.0,0.00028736703,0.0034645202,0.004452928,0.0,0.0,0.0,0.0,0.0,0.0
1208003899,-0.04824642,-0.032643624,0.029376864,0.013050079,0.015024185,0.2723198,0.0,0.0,0.0,0.043257117,0.0,0.0,0.0,0.0,0.0,0.26102662,0.26102898,0.5714547,0.28838265,0.28838232,4.0558825,0.0,0.0,0.0,0.0901687,0.0,0.0,0.0,0.0,0.0,6.258852e-05,0.004022918,0.010755974,0.0,0.0,0.0,0.0,0.0,0.0
1208207933,0.09207666,-0.08997987,0.040391088,0.029075623,0.002398491,0.1430397,0.0,0.0,0.0,-0.0093382,0.0,0.0,0.0,0.0,0.0,0.26102358,0.26102492,0.57145953,0.2883849,0.2883851,4.0556912,0.0,0.0,0.0,0.09016891,0.0,0.0,0.0,0.0,0.0,0.00026300925,0.0035874597,0.010304779,0.0,0.0,0.0,0.0,0.0,0.0
1208407916,0.038195394,-0.06911342,0.10604286,0.033798218,-0.0020985603,0.14426804,0.0,0.0,0.0,0.018955618,0.0,0.0,0.0,0.0,0.0,0.26103485,0.26103416,0.5714659,0.28838807,0.28838864,4.055772,0.0,0.0,0.0,0.09016893,0.0,0.0,0.0,0.0,0.0,0.0003015192,0.004010413,0.0075536286,0.0,0.0,0.0,0.0,0.0,0.0
1208608171,-0.058616526,-0.027131995,0.113006234,0.016570568,-0.0028853416,0.33462906,0.0,0.0,0.0,0.0023794472,0.0,0.0,0.0,0.0,0.0,0.26102445,0.26102197,0.57140064,0.2883903,0.28839108,4.055633,0.0,0.0,0.0,0.09016894,0.0,0.0,0.0,0.0,0.0,0.00017687873,0.0014239727,0.0034662352,0.0,0.0,0.0,0.0,0.0,0.0
1208811813,-0.064414196,-0.0967086,0.06307244,0.0027451515,-0.0092048645,-0.08577347,0.0,0.0,0.0,0.04045248,0.0,0.0,0.0,0.0,0.0,0.26091698,0.26091322,0.57142496,0.28788456,0.28788525,4.05574,0.0,0.0,0.0,0.09016882,0.0,0.0,0.0,0.0,0.0,0.00031215674,0.0047497824,0.011327121,0.0,0.0,0.0,0.0,0.0,0.0
1209011914,-0.030962743,0.019736223,0.13423121,0.0014386177,-0.006002903,0.60459137,0.0,0.0,0.0,-0.010525584,0.0,0.0,0.0,0.0,0.0,0.26105243,0.2610468,0.571421,0.28846636,0.2884667,4.055567,0.0,0.0,0.0,0.0901691,0.0,0.0,0.0,0.0,0.0,0.00028350804,0.0027867884,0.006573446,0.0,0.0,0.0,0.0,0.0,0.0
1209212024,-0.01969884,0.027356327,0.18997216,-0.018566132,0.005486965,-0.11980057,0.0,0.0,0.0,-0.0122149885,0.0,0.0,0.0,0.0,0.0,0.26105458,0.26104873,0.5714323,0.28845972,0.28845954,4.055456,0.0,0.0,0.0,0.09016908,0.0,0.0,0.0,0.0,0.0,0.00026006473,0.0054126848,0.012777164,0.0,0.0,0.0,0.0,0.0,0.0
1209415900,-0.052173555,-0.061840057,0.1732825,-0.027983189,0.0035367012,0.16999435,0.0,0.0,0.0,0.0692938,0.0,0.0,0.0,0.0,0.0,0.26103976,0.26103392,0.5713749,0.28845334,0.2884526,4.055319,0.0,0.0,0.0,0.09016895,0.0,0.0,0.0,0.0,0.0,0.00016162293,0.006190542,0.01548473,0.0,0.0,0.0,0.0,0.0,0.0
1209615944,-0.014516227,-0.046779953,0.17548072,-0.03582239,0.0043611526,-0.08739853,0.0,0.0,0.0,0.05173044,0.0,0.0,0.0,0.0,0.0,0.26115015,0.26114434,0.5713776,0.28896266,0.2889612,4.055195,0.0,0.0,0.0,0.09016919,0.0,0.0,0.0,0.0,0.0,0.00045668337,0.0050264564,0.01238089,0.0,0.0,0.0,0.0,0.0,0.0
1209819801,-0.11344853,0.008977272,-0.003215313,-0.04750967,0.017293453,0.25510025,0.0,0.0,0.0,-0.013238043,0.0,0.0,0.0,0.0,0.0,0.26090887,0.26090324,0.5713505,0.28786117,0.28785938,4.0551357,0.0,0.0,0.0,0.09016875,0.0,0.0,0.0,0.0,0.0,0.00030931123,0.0073703798,0.016944533,0.0,0.0,0.0,0.0,0.0,0.0
1210023963,-0.08289,-0.019007817,0.0814482,-0.051517487,0.020358562,0.9861183,0.0,0.0,0.0,-0.02064617,0.0,0.0,0.0,0.0,0.0,0.26103118,0.26102692,0.57142675,0.2884436,0.2884413,4.055287,0.0,0.0,0.0,0.09016855,0.0,0.0,0.0,0.0,0.0,0.00032727854,0.009990193,0.027195843,0.0,0.0,0.0,0.0,0.0,0.0
1210227959,0.013907088,-0.1009361,0.017769098,-0.046613216,0.008754253,0.5539589,0.0,0.0,0.0,-0.07950622,0.0,0.0,0.0,0.0,0.0,0.26101905,0.2610161,0.5714426,0.28843594,0.28843343,4.0554276,0.0,0.0,0.0,0.090168245,0.0,0.0,0.0,0.0,0.0,0.00068672816,0.004534508,0.012710954,0.0,0.0,0.0,0.0,0.0,0.0
1210427787,0.024427267,0.060217515,-0.029242039,-0.049616814,0.01519537,-0.36216354,0.0,0.0,0.0,0.029871836,0.0,0.0,0.0,0.0,0.0,0.26101446,0.2610125,0.5713848,0.28842828,0.2884257,4.055347,0.0,0.0,0.0,0.09016831,0.0,0.0,0.0,0.0,0.0,0.00033163055,0.004326928,0.010137646,0.0,0.0,0.0,0.0,0.0,0.0
1210631922,0.04855219,-0.0701202,0.15091598,-0.031828403,0.0132136345,0.17927933,0.0,0.0,0.0,-0.016114652,0.0,0.0,0.0,0.0,0.0,0.2610084,0.26100793,0.5714005,0.28842038,0.28841794,4.0554986,0.0,0.0,0.0,0.090168305,0.0,0.0,0.0,0.0,0.0,0.00021017138,0.00056892156,0.0030385922,0.0,0.0,0.0,0.0,0.0,0.0
1210835794,-0.01959487,0.0071269274,0.098661065,-0.04252243,0.024748325,-0.055164337,0.0,0.0,0.0,-0.011110619,0.0,0.0,0.0,0.0,0.0,0.26088196,0.26088214,0.5714282,0.28790626,0.2879042,4.0556335,0.0,0.0,0.0,0.090168364,0.0,0.0,0.0,0.0,0.0,6.158421e-05,0.0034244123,0.010081647,0.0,0.0,0.0,0.0,0.0,0.0
1211039934,-0.061766285,-0.036775533,0.05854428,-0.050419807,0.025886536,-0.05223465,0.0,0.0,0.0,-0.031971574,0.0,0.0,0.0,0.0,0.0,0.26096433,0.260966,0.5713974,0.28822404,0.2882225,4.0554886,0.0,0.0,0.0,0.0901685,0.0,0.0,0.0,0.0,0.0,0.00018422712,0.0032973376,0.008152671,0.0,0.0,0.0,0.0,0.0,0.0
1211239880,-0.044370465,-0.056848124,0.019482493,-0.057049274,0.02743864,-0.08075333,0.0,0.0,0.0,0.017264754,0.0,0.0,0.0,0.0,0.0,0.26101255,0.26101425,0.57143867,0.28849882,0.28849792,4.055611,0.0,0.0,0.0,0.09016846,0.0,0.0,0.0,0.0,0.0,0.00020580059,0.0058048414,0.016068697,0.0,0.0,0.0,0.0,0.0,0.0
1211443953,-0.009651404,-0.06842823,-0.06815684,-0.053224087,0.026117802,-0.118385315,0.0,0.0,0.0,-0.03261459,0.0,0.0,0.0,0.0,0.0,0.26096043,0.2609622,0.57142013,0.28822502,0.28822473,4.055512,0.0,0.0,0.0,0.09016835,0.0,0.0,0.0,0.0,0.0,0.00018107456,0.0024370987,0.006514392,0.0,0.0,0.0,0.0,0.0,0.0
1211647918,0.024632856,-0.09301442,0.04301858,-0.04215145,0.01218462,0.5636101,0.0,0.0,0.0,-0.032019943,0.0,0.0,0.0,0.0,0.0,0.26101285,0.26101416,0.57146215,0.28849822,0.28849843,4.055638,0.0,0.0,0.0,0.09016857,0.0,0.0,0.0,0.0,0.0,0.0001575804,0.0021041932,0.0041736444,0.0,0.0,0.0,0.0,0.0,0.0
1211851815,0.086586416,-0.0339129,0.031432867,-0.027504444,0.020217419,-0.18050003,0.0,0.0,0.0,-0.023283534,0.0,0.0,0.0,0.0,0.0,0.26105633,0.26105857,0.5714293,0.28873447,0.2887351,4.055538,0.0,0.0,0.0,0.0901686,0.0,0.0,0.0,0.0,0.0,0.00010942729,0.0031188645,0.005230283,0.0,0.0,0.0,0.0,0.0,0.0
1212052770,-0.09502857,-0.046266593,-0.012751818,-0.03421259,0.020424366,0.20090485,0.0,0.0,0.0,-0.018425003,0.0,0.0,0.0,0.0,0.0,0.2609342,0.26093748,0.5714555,0.2881697,0.28817064,4.0556626,0.0,0.0,0.0,0.0901687,0.0,0.0,0.0,0.0,0.0,0.00021938258,0.0014619594,0.0029256712,0.0,0.0,0.0,0.0,0.0,0.0
1212257558,-0.07617442,-0.049558975,-0.10846543,-0.03407812,0.019253254,-0.15867996,0.0,0.0,0.0,0.00407099,0.0,0.0,0.0,0.0,0.0,0.26094493,0.26094875,0.5714657,0.28819478,0.288196,4.0556874,0.0,0.0,0.0,0.09016836,0.0,0.0,0.0,0.0,0.0,0.0003075217,0.003279125,0.012101893,0.0,0.0,0.0,0.0,0.0,0.0
1212457404,0.0029627234,-0.06923659,-0.096274495,-0.03968954,0.014276028,0.13230515,0.0,0.0,0.0,-0.0043405592,0.0,0.0,0.0,0.0,0.0,0.26099584,0.26099914,0.5714279,0.28839663,0.2883982,4.055795,0.0,0.0,0.0,0.09016816,0.0,0.0,0.0,0.0,0.0,0.00024849424,0.0013612255,0.0066802534,0.0,0.0,0.0,0.0,0.0,0.0
1212657555,0.1268778,-0.10462457,0.006026745,-0.027618408,0.0071458817,0.0839653,0.0,0.0,0.0,0.027071416,0.0,0.0,0.0,0.0,0.0,0.2609732,0.26097605,0.57143605,0.28839087,0.28839263,4.055635,0.0,0.0,0.0,0.09016841,0.0,0.0,0.0,0.0,0.0,0.00018416093,0.0052750865,0.011031351,0.0,0.0,0.0,0.0,0.0,0.0
1212861523,0.07105467,-0.058153477,0.091685414,-0.026018143,0.01013422,-0.057834625,0.0,0.0,0.0,0.036223993,0.0,0.0,0.0,0.0,0.0,0.2609261,0.26092765,0.5714743,0.28862938,0.2886312,4.0557365,0.0,0.0,0.0,0.090168215,0.0,0.0,0.0,0.0,0.0,0.00018881279,0.004510489,0.008420517,0.0,0.0,0.0,0.0,0.0,0.0
1213061622,-0.041783728,0.01879349,0.08810961,-0.030278683,0.010128498,-0.18925858,0.0,0.0,0.0,-0.0059091,0.0,0.0,0.0,0.0,0.0,0.2607742,0.2607753,0.57145405,0.28830355,0.28830522,4.0556264,0.0,0.0,0.0,0.09016859,0.0,0.0,0.0,0.0,0.0,0.00013999124,0.003556296,0.010909031,0.0,0.0,0.0,0.0,0.0,0.0
1213261508,0.17714003,-0.015453145,0.22767854,-0.026439667,0.018231869,0.006252289,-0.0033973828,0.013675882,-0.0036684573,0.027705863,0.0,0.0,0.0,0.0,0.0,0.26076466,0.26077318,0.5714207,0.28852254,0.2885247,4.0554857,0.002891277,0.0028788527,0.0028915305,0.09016856,0.0,0.0,0.0,0.0,0.0,0.00015945744,0.004528202,0.009640685,0.0,0.0,0.0,0.0,0.0,0.0
1213465589,-0.058248162,-0.041180998,0.21614665,-0.026416302,0.012856483,-0.022838593,-0.0058206543,0.002504412,-0.0035113394,0.027705863,0.0,0.0,0.0,0.0,0.0,0.2606912,0.26071942,0.57142144,0.2884431,0.28844717,4.055608,0.0027057482,0.0027155203,0.0027048448,0.09016856,0.0,0.0,0.0,0.0,0.0,7.069306e-05,0.002311144,0.0032228946,0.0,0.0,0.0,0.0,0.0,0.0
1213669529,0.14558804,0.034522355,0.065772355,-0.00680542,0.017914772,-0.013828278,0.002387382,-0.0050236657,0.005693108,0.027705863,0.0,0.0,0.0,0.0,0.0,0.26064852,0.26072338,0.57141995,0.28836113,0.28837022,4.055715,0.0026410206,0.002671887,0.0026283683,0.09016856,0.0,0.0,0.0,0.0,0.0,0.00012913563,0.0064951577,0.013068133,0.0,0.0,0.0,0.0,0.0,0.0
1213869566,0.08401096,0.053212643,0.10656904,0.007782936,0.036663055,0.0901947,-0.011743747,-0.0036576167,0.007460624,0.027705863,0.0,0.0,0.0,0.0,0.0,0.2607425,0.26086146,0.57145345,0.28853515,0.28855354,4.0563216,0.0026218493,0.00266823,0.0025986417,0.09016856,0.0,0.0,0.0,0.0,0.0,0.0002405882,0.009773772,0.02516144,0.0,0.0,0.0,0.0,0.0,0.0
1214073577,0.23794234,0.07922721,-0.0053744167,0.053887844,0.030173779,0.46427536,0.011851057,0.0047158375,-0.0012284815,0.027705863,0.0,0.0,0.0,0.0,0.0,0.26077664,0.2609315,0.57150066,0.288191,0.28822026,4.056595,0.002617659,0.0026697274,0.0025843994,0.09016856,0.0,0.0,0.0,0.0,0.0,0.00052609766,0.013818184,0.030333601,0.0,0.0,0.0,0.0,0.0,0.0
1214273683,0.21459675,0.029396772,-0.0629618,0.10088062,0.034001827,0.08039856,0.009665266,-0.003110975,-0.0010733604,0.027705863,0.0,0.0,0.0,0.0,0.0,0.26082346,0.26099977,0.57146996,0.2879123,0.28795436,4.056589,0.0026144837,0.0026537583,0.0025697998,0.09016856,0.0,0.0,0.0,0.0,0.0,0.0006484275,0.014803826,0.03207238,0.0,0.0,0.0,0.0,0.0,0.0
1214473627,0.29138088,0.12785566,0.12747921,0.113508224,0.06626129,0.6094475,0.016953304,-0.0024236143,-0.0094091,0.027705863,0.0,0.0,0.0,0.0,0.0,0.2609463,0.2611086,0.5714936,0.28818452,0.28824234,4.056574,0.0026111796,0.002635909,0.0025591515,0.09016856,0.0,0.0,0.0,0.0,0.0,0.0008432104,0.020244824,0.047806896,0.0,0.0,0.0,0.0,0.0,0.0
1214677804,0.10143638,0.05328226,-0.06407231,0.14229012,0.07533169,-0.029476166,0.013583295,-0.005436048,0.0048636496,0.027705863,0.0,0.0,0.0,0.0,0.0,0.26104778,0.2611965,0.57148683,0.2881817,0.28825167,4.056559,0.0026032608,0.0026159703,0.0025521102,0.09016856,0.0,0.0,0.0,0.0,0.0,0.0006727627,0.01655226,0.041158106,0.0,0.0,0.0,0.0,0.0,0.0
1214881547,0.13770938,0.054137826,0.042558357,0.20341015,0.056759357,0.11903763,0.005090244,0.0056930035,-0.00020599365,0.027705863,0.0,0.0,0.0,0.0,0.0,0.26106346,0.26115426,0.5714934,0.28769097,0.2877649,4.0568004,0.002599366,0.002601955,0.0025500262,0.09016856,0.0,0.0,0.0,0.0,0.0,0.0006289026,0.014969756,0.033720274,0.0,0.0,0.0,0.0,0.0,0.0
1215081417,0.18389869,0.05610466,0.004984811,0.20109725,0.0724473,-0.5750694,0.009415448,0.01187323,-0.004046291,0.027705863,0.0,0.0,0.0,0.0,0.0,0.2613284,0.26133436,0.5715072,0.2880406,0.28811294,4.056755,0.0025951995,0.002591604,0.0025488106,0.09016856,0.0,0.0,0.0,0.0,0.0,0.00069673714,0.015635936,0.035299107,0.0,0.0,0.0,0.0,0.0,0.0
1215281391,0.17639911,-0.007850051,0.0011772774,0.21614385,0.063081264,0.4670143,0.0082836,-0.011093318,0.0060687065,0.027705863,0.0,0.0,0.0,0.0,0.0,0.26153746,0.26147205,0.57148457,0.28811544,0.2881684,4.057208,0.0025828064,0.002582006,0.0025467088,0.09016856,0.0,0.0,0.0,0.0,0.0,0.0007266186,0.014874737,0.033466805,0.0,0.0,0.0,0.0,0.0,0.0
1215485527,0.2058698,-0.11244452,0.014948633,0.2124722,0.054169178,-0.2351799,0.012481675,0.0049655586,-0.0055285096,0.027705863,0.0,0.0,0.0,0.0,0.0,0.26184386,0.26178643,0.571484,0.28846648,0.2884823,4.057372,0.00257639,0.0025724804,0.0025444555,0.09016856,0.0,0.0,0.0,0.0,0.0,0.0007900487,0.014562414,0.032549113,0.0,0.0,0.0,0.0,0.0,0.0
1215689502,0.2702316,-0.14013731,0.06779729,0.21905017,0.03160429,-0.15724564,0.004537821,0.009314835,0.00510481,0.027705863,0.0,0.0,0.0,0.0,0.0,0.262127,0.2622242,0.57148486,0.28880313,0.28877413,4.057243,0.0025615718,0.0025586067,0.0025386687,0.09016856,0.0,0.0,0.0,0.0,0.0,0.00095121044,0.015686749,0.034941822,0.0,0.0,0.0,0.0,0.0,0.0
1215894317,0.14996676,-0.19961298,-0.023995321,0.21851134,-0.020168781,0.19377899,0.004509896,-0.0044089556,-0.006446272,0.027705863,0.0,0.0,0.0,0.0,0.0,0.26224115,0.2625866,0.5714402,0.28859174,0.2885325,4.057123,0.0025495952,0.0025471814,0.0025331376,0.09016856,0.0,0.0,0.0,0.0,0.0,0.0009779843,0.0152578,0.033808876,0.0,0.0,0.0,0.0,0.0,0.0
1216101518,0.189839,-0.22578204,-0.062816724,0.20589924,-0.047369003,0.648159,0.006645739,-0.0035391897,0.002002567,0.027705863,0.0,0.0,0.0,0.0,0.0,0.2624039,0.26306307,0.5714369,0.2886984,0.288631,4.057005,0.0025389572,0.0025382745,0.0025281375,0.09016856,0.0,0.0,0.0,0.0,0.0,0.001047065,0.016481573,0.034261286,0.0,0.0,0.0,0.0,0.0,0.0
1216301363,0.0828712,-0.2007966,-0.07381442,0.19936752,-0.06728959,-0.048980713,0.014665544,0.008436337,0.0021690726,0.027705863,0.0,0.0,0.0,0.0,0.0,0.26258266,0.2635467,0.5714387,0.2888191,0.2887785,4.0571566,0.002532187,0.0025329997,0.0025248264,0.09016856,0.0,0.0,0.0,0.0,0.0,0.0009924745,0.0153190205,0.031373877,0.0,0.0,0.0,0.0,0.0,0.0
1216502987,0.08610302,-0.26066804,-0.0153023675,0.18504977,-0.10087991,-0.27376175,-0.0068173483,-0.0014008284,-0.0019402504,0.027705863,0.0,0.0,0.0,0.0,0.0,0.26265052,0.26383305,0.57148546,0.28868017,0.28869817,4.057054,0.0025285813,0.0025291576,0.0025224534,0.09016856,0.0,0.0,0.0,0.0,0.0,0.0011211182,0.017778127,0.03825882,0.0,0.0,0.0,0.0,0.0,0.0
1216703191,0.08715606,-0.24846065,-0.017637134,0.19763255,-0.10443568,-0.36951828,0.013771363,-0.002641797,0.0010225475,0.027705863,0.0,0.0,0.0,0.0,0.0,0.26284984,0.264164,0.5714449,0.28912783,0.28924286,4.057018,0.0025265955,0.0025263857,0.0025206627,0.09016856,0.0,0.0,0.0,0.0,0.0,0.001147717,0.018361246,0.042175975,0.0,0.0,0.0,0.0,0.0,0.0
1216902989,0.100188136,-0.32226884,-0.040350653,0.17075014,-0.14414,0.25300217,0.001046583,0.0019146502,-0.004810095,0.027705863,0.0,0.0,0.0,0.0,0.0,0.2628357,0.26413888,0.5714634,0.28877115,0.2889756,4.0569305,0.002525387,0.0025248057,0.0025194145,0.09016856,0.0,0.0,0.0,0.0,0.0,0.0013775439,0.019175408,0.043254413,0.0,0.0,0.0,0.0,0.0,0.0
1217107182,-0.0013251305,-0.2817824,-0.054452397,0.16871452,-0.13964987,0.25730515,-0.0071474686,0.013266742,-0.0018908083,0.027705863,0.0,0.0,0.0,0.0,0.0,0.26298454,0.26422408,0.5714912,0.28924367,0.2895642,4.0571165,0.0025246155,0.0025240402,0.0025186262,0.09016856,0.0,0.0,0.0,0.0,0.0,0.0012738595,0.016739266,0.035026003,0.0,0.0,0.0,0.0,0.0,0.0
1217311005,-0.06326997,-0.22098541,-0.0385478,0.15462732,-0.13100815,0.13597107,0.004993841,-0.014370188,-0.008205712,0.027705863,0.0,0.0,0.0,0.0,0.0,0.26309347,0.26418045,0.57151365,0.28967094,0.29009336,4.0572724,0.0025232802,0.0025226742,0.0025175854,0.09016856,0.0,0.0,0.0,0.0,0.0,0.0010610102,0.015554916,0.03239762,0.0,0.0,0.0,0.0,0.0,0.0
1217511120,0.030984879,-0.23485923,-0.053559884,0.12714434,-0.18765426,0.12987137,-0.00795459,-0.0048549324,0.007727146,0.027705863,0.0,0.0,0.0,0.0,0.0,0.26291984,0.26384485,0.5714902,0.2889342,0.28939188,4.0571637,0.0025219945,0.0025211703,0.0025166848,0.09016856,0.0,0.0,0.0,0.0,0.0,0.0010403168,0.015590624,0.03812132,0.0,0.0,0.0,0.0,0.0,0.0
1217711177,-0.010634422,-0.2309897,-0.04950177,0.17766666,-0.15872067,0.34337234,0.0012823194,-0.007947072,-0.0008084774,0.027705863,0.0,0.0,0.0,0.0,0.0,0.26314494,0.2639034,0.5714954,0.2899822,0.29052094,4.057061,0.0025210613,0.0025201554,0.0025160743,0.09016856,0.0,0.0,0.0,0.0,0.0,0.0009976781,0.014292997,0.037426244,0.0,0.0,0.0,0.0,0.0,0.0
1217915015,0.021398664,-0.18451035,-0.0979792,0.14958572,-0.19305173,0.42111588,-0.00078911334,0.00043039024,-0.00060895085,0.027705863,0.0,0.0,0.0,0.0,0.0,0.26297313,0.263554,0.57150286,0.28947595,0.29001144,4.0569725,0.0025200704,0.0025189943,0.0025154222,0.09016856,0.0,0.0,0.0,0.0,0.0,0.0008902691,0.010889032,0.027988369,0.0,0.0,0.0,0.0,0.0,0.0
1218115188,-0.10455775,-0.12000227,-0.011566594,0.1615057,-0.15961939,0.0066871643,0.0027589053,0.010233387,-0.0004196167,0.027705863,0.0,0.0,0.0,0.0,0.0,0.26299345,0.26343066,0.5715277,0.28988475,0.29042652,4.0571632,0.002518897,0.0025177218,0.0025147467,0.09016856,0.0,0.0,0.0,0.0,0.0,0.0006771693,0.009940522,0.021465542,0.0,0.0,0.0,0.0,0.0,0.0
1218319196,-0.09729791,-0.13905096,-0.049682412,0.16002226,-0.1332104,0.12614822,0.0011340901,0.00582321,0.0072875023,0.027705863,0.0,0.0,0.0,0.0,0.0,0.26296595,0.26327023,0.57155293,0.2902256,0.29075056,4.0570602,0.0025176972,0.0025166795,0.002514117,0.09016856,0.0,0.0,0.0,0.0,0.0,0.000665046,0.00957869,0.018909933,0.0,0.0,0.0,0.0,0.0,0.0
1218519022,0.029090762,-0.092062354,-0.034157667,0.14548635,-0.12996525,0.1723671,0.003765352,0.0011552274,-0.004792124,0.027705863,0.0,0.0,0.0,0.0,0.0,0.2627799,0.26298144,0.57151765,0.28993216,0.2904143,4.0569715,0.002516721,0.002515824,0.0025135598,0.09016856,0.0,0.0,0.0,0.0,0.0,0.00060716475,0.006758336,0.014876132,0.0,0.0,0.0,0.0,0.0,0.0
1218723192,-0.1655078,-0.11138177,-0.1513605,0.120645046,-0.11411047,-0.24502945,0.0017927438,0.00033657253,-2.2500753e-05,0.027705863,0.0,0.0,0.0,0.0,0.0,0.2626816,0.2628025,0.571515,0.28994834,0.29038644,4.05691,0.0025159207,0.0025150736,0.0025129914,0.09016856,0.0,0.0,0.0,0.0,0.0,0.00054119376,0.012045364,0.02422714,0.0,0.0,0.0,0.0,0.0,0.0
1218927153,-0.09953928,-0.06762612,-0.08311188,0.10594368,-0.11256719,0.43413162,0.003852345,-0.003883943,0.0014957786,0.027705863,0.0,0.0,0.0,0.0,0.0,0.26249957,0.26255512,0.5714874,0.28966936,0.2900534,4.05686,0.00251528,0.0025145006,0.0025125346,0.09016856,0.0,0.0,0.0,0.0,0.0,0.0004358052,0.013216135,0.025240157,0.0,0.0,0.0,0.0,0.0,0.0
1219131180,-0.061519265,-0.1435982,-0.12723379,0.12465668,-0.076363444,0.04819107,-0.0011971816,0.00127469,-0.0010647774,0.027705863,0.0,0.0,0.0,0.0,0.0,0.2625296,0.26252633,0.5714749,0.290247,0.2905829,4.0568147,0.002514614,0.002513887,0.0025120713,0.09016856,0.0,0.0,0.0,0.0,0.0,0.00040059144,0.011202592,0.02378949,0.0,0.0,0.0,0.0,0.0,0.0
1219335194,-0.15410972,-0.121421814,-0.036235373,0.09094477,-0.092811346,-0.03936386,0.0065088198,-0.0006067157,-0.0017749965,0.027705863,0.0,0.0,0.0,0.0,0.0,0.26234663,0.26229787,0.57152164,0.2898882,0.2901644,4.0573025,0.0025141172,0.0025133945,0.0025117113,0.09016856,0.0,0.0,0.0,0.0,0.0,0.00045675432,0.012478842,0.027253767,0.0,0.0,0.0,0.0,0.0,0.0
1219535147,-0.19322932,-0.06164086,-0.18672189,0.07776356,-0.06332302,0.15954208,0.0004396066,-0.005193487,-0.004374832,0.027705863,0.0,0.0,0.0,0.0,0.0,0.26223183,0.2621583,0.57151985,0.2898413,0.29006246,4.0572248,0.002513732,0.002513038,0.0025113982,0.09016856,0.0,0.0,0.0,0.0,0.0,0.0004280505,0.015550547,0.033303447,0.0,0.0,0.0,0.0,0.0,0.0
1219738970,-0.10579014,-0.014585495,-0.048480883,0.037514687,-0.053864002,0.04704666,0.013496809,0.007370308,-0.0027332902,0.027705863,0.0,0.0,0.0,0.0,0.0,0.26197392,0.2618674,0.5715579,0.28945234,0.28957298,4.057142,0.002513343,0.002512752,0.0025110482,0.09016856,0.0,0.0,0.0,0.0,0.0,0.0005534635,0.016671093,0.032882806,0.0,0.0,0.0,0.0,0.0,0.0
1219943480,-0.10579014,-0.014585495,-0.048480883,0.037514687,-0.053864002,-0.21844864,-0.0046989247,-0.0030758977,0.0032984614,0.027705863,0.0,0.0,0.0,0.0,0.0,0.26197392,0.2618674,0.5715579,0.28945234,0.28957298,4.0573525,0.0025130452,0.0025127905,0.0025107544,0.09016856,0.0,0.0,0.0,0.0,0.0,0.00022208662,0.01729645,0.040942416,0.0,0.0,0.0,0.0,0.0,0.0
1220143181,-0.10796499,-0.08461642,-0.12450641,0.06408787,-0.01302886,-0.2865448,-0.0046989247,-0.0030758977,0.0032984614,0.013246238,0.0,0.0,0.0,0.0,0.0,0.26202428,0.26191425,0.5715396,0.28996745,0.290042,4.0572734,0.0025130452,0.0025127905,0.0025107544,0.09023109,0.0,0.0,0.0,0.0,0.0,0.00013844033,0.01566015,0.037984807,0.0,0.0,0.0,0.0,0.0,0.0
1220347016,-0.20670867,0.04545164,-0.1060748,0.037122726,-0.029806614,0.22179794,-0.0046989247,-0.0030758977,0.0032984614,-0.020628631,0.0,0.0,0.0,0.0,0.0,0.26177305,0.2617165,0.5715752,0.28946427,0.28946334,4.0571976,0.0025130452,0.0025127905,0.0025107544,0.09022964,0.0,0.0,0.0,0.0,0.0,0.0001673046,0.018135628,0.034335654,0.0,0.0,0.0,0.0,0.0,0.0
1220551173,-0.20219433,-0.07488704,-0.095376186,0.045064926,-0.047106743,-0.2831688,-0.0046989247,-0.0030758977,0.0032984614,0.032622874,0.0,0.0,0.0,0.0,0.0,0.26170468,0.261686,0.57157236,0.28939635,0.2893698,4.0571337,0.0025130452,0.0025127905,0.0025107544,0.090228155,0.0,0.0,0.0,0.0,0.0,0.00032401283,0.01675226,0.03156442,0.0,0.0,0.0,0.0,0.0,0.0
1220755102,-0.15392566,0.027859926,-0.12972236,0.047943115,-0.027349472,0.21357346,-0.0046989247,-0.0030758977,0.0032984614,0.031772316,0.0,0.0,0.0,0.0,0.0,0.261707,0.26172438,0.5715277,0.28959408,0.28954947,4.056317,0.0025130452,0.0025127905,0.0025107544,0.09022739,0.0,0.0,0.0,0.0,0.0,0.00030397615,0.017445175,0.03545411,0.0,0.0,0.0,0.0,0.0,0.0
1220956759,-0.25915813,-0.006182909,-0.1298058,0.01606083,-0.035645008,-0.43714523,-0.0046989247,-0.0030758977,0.0032984614,0.0074287653,0.0,0.0,0.0,0.0,0.0,0.26158312,0.26163274,0.57150334,0.28921685,0.28916606,4.0560417,0.0025130452,0.0025127905,0.0025107544,0.09022596,0.0,0.0,0.0,0.0,0.0,0.00047299112,0.02120273,0.044601567,0.0,0.0,0.0,0.0,0.0,0.0
1221160732,-0.1747942,0.018324375,-0.14414541,0.0042915344,-0.031472206,-0.8224182,-0.0046989247,-0.0030758977,0.0032984614,-0.0020540953,0.0,0.0,0.0,0.0,0.0,0.26153338,0.26160833,0.57150805,0.2890783,0.28902715,4.056254,0.0025130452,0.0025127905,0.0025107544,0.09022444,0.0,0.0,0.0,0.0,0.0,0.00053350703,0.02174371,0.05083668,0.0,0.0,0.0,0.0,0.0,0.0
1221360731,-0.19698298,0.06547761,-0.036797874,-0.006526947,-0.011104107,0.29741287,-0.0046989247,-0.0030758977,0.0032984614,0.01211828,0.0,0.0,0.0,0.0,0.0,0.26153418,0.2616275,0.5715839,0.28903583,0.28898916,4.0565157,0.0025130452,0.0025127905,0.0025107544,0.09022316,0.0,0.0,0.0,0.0,0.0,0.00053494325,0.021385936,0.046356544,0.0,0.0,0.0,0.0,0.0,0.0
1221560763,-0.21709478,0.11188388,-0.08927282,0.024894714,0.03685999,-0.12187576,-0.0046989247,-0.0030758977,0.0032984614,-0.094034255,0.0,0.0,0.0,0.0,0.0,0.2616551,0.26176232,0.57156694,0.28952894,0.28948995,4.0564914,0.0025130452,0.0025127905,0.0025107544,0.090221904,0.0,0.0,0.0,0.0,0.0,0.0005952653,0.024310725,0.04847194,0.0,0.0,0.0,0.0,0.0,0.0
1221760597,-0.21437407,0.08637214,-0.09927577,9.441376e-05,0.035140038,-0.12716293,-0.0046989247,-0.0030758977,0.0032984614,0.02331686,0.0,0.0,0.0,0.0,0.0,0.26158264,0.26170436,0.571537,0.28915304,0.28912514,4.0562057,0.0025130452,0.0025127905,0.0025107544,0.09022151,0.0,0.0,0.0,0.0,0.0,0.0008576495,0.024483213,0.046648365,0.0,0.0,0.0,0.0,0.0,0.0
1221964755,-0.16721535,0.06229019,-0.012886308,-0.0137758255,0.021326065,0.18619919,-0.0046989247,-0.0030758977,0.0032984614,0.004875183,0.0,0.0,0.0,0.0,0.0,0.2614962,0.26163462,0.571512,0.2888345,0.28881896,4.0562263,0.0025130452,0.0025127905,0.0025107544,0.09022029,0.0,0.0,0.0,0.0,0.0,0.0006469988,0.021316575,0.040781196,0.0,0.0,0.0,0.0,0.0,0.0
1222168801,-0.15832722,0.027388573,-0.087338336,-0.008348465,0.02699089,-0.5763283,-0.0046989247,-0.0030758977,0.0032984614,0.035818577,0.0,0.0,0.0,0.0,0.0,0.26148608,0.26164225,0.57151616,0.28882384,0.288823,4.056246,0.0025130452,0.0025127905,0.0025107544,0.09021901,0.0,0.0,0.0,0.0,0.0,0.00043483416,0.017456383,0.035346612,0.0,0.0,0.0,0.0,0.0,0.0
1222368834,-0.1609075,0.050446987,-0.10295825,-0.022938728,0.010910988,0.17343903,-0.0046989247,-0.0030758977,0.0032984614,0.0052678585,0.0,0.0,0.0,0.0,0.0,0.26141417,0.26159242,0.57149035,0.2885498,0.2885648,4.056031,0.0025130452,0.0025127905,0.0025107544,0.090218216,0.0,0.0,0.0,0.0,0.0,0.00036648847,0.015432339,0.030937789,0.0,0.0,0.0,0.0,0.0,0.0
1222568851,-0.14299035,0.137532,-0.01133474,-0.0027866364,0.044531822,0.2882805,-0.0046989247,-0.0030758977,0.0032984614,-0.022522926,0.0,0.0,0.0,0.0,0.0,0.2614496,0.26164436,0.5715243,0.28883535,0.2888708,4.056062,0.0025130452,0.0025127905,0.0025107544,0.09021708,0.0,0.0,0.0,0.0,0.0,0.0005591552,0.017181406,0.03272415,0.0,0.0,0.0,0.0,0.0,0.0
1222768831,-0.2227813,0.0676496,-0.0534195,-0.0033988953,0.06555843,0.19575119,-0.0046989247,-0.0030758977,0.0032984614,0.004091263,0.0,0.0,0.0,0.0,0.0,0.2615107,0.2617226,0.5714868,0.28907818,0.28913552,4.0558386,0.0025130452,0.0025127905,0.0025107544,0.090215646,0.0,0.0,0.0,0.0,0.0,0.00053598685,0.017827753,0.03474072,0.0,0.0,0.0,0.0,0.0,0.0
1222972610,-0.23069525,0.08334899,-0.09413252,-0.028704643,0.05481243,0.095752716,-0.0046989247,-0.0030758977,0.0032984614,-0.06157869,0.0,0.0,0.0,0.0,0.0,0.2614366,0.26165184,0.5715379,0.28876334,0.28883767,4.055901,0.0025130452,0.0025127905,0.0025107544,0.09021437,0.0,0.0,0.0,0.0,0.0,0.0005671489,0.01861585,0.03610882,0.0,0.0,0.0,0.0,0.0,0.0
1223176767,-0.21737719,0.033716917,-0.070884995,-0.026888847,0.055283546,0.3387642,-0.0046989247,-0.0030758977,0.0032984614,-0.020237923,0.0,0.0,0.0,0.0,0.0,0.26143268,0.2616421,0.5715446,0.28875408,0.28884518,4.0559616,0.0025130452,0.0025127905,0.0025107544,0.09021283,0.0,0.0,0.0,0.0,0.0,0.00067344494,0.01630325,0.032791935,0.0,0.0,0.0,0.0,0.0,0.0
1223380603,-0.17335355,0.071811676,-0.08470006,-0.039295197,0.057584763,-0.22884369,-0.0046989247,-0.0030758977,0.0032984614,0.029124796,0.0,0.0,0.0,0.0,0.0,0.26144567,0.26164514,0.5714778,0.28874856,0.288854,4.055753,0.0025130452,0.0025127905,0.0025107544,0.09021152,0.0,0.0,0.0,0.0,0.0,0.0005217545,0.014899594,0.030500192,0.0,0.0,0.0,0.0,0.0,0.0
