timestamp,x,y,z,yaw,yawspeed,vx,vy,vz,acc_x,acc_y,acc_z,thrust[0],thrust[1],thrust[2]
1184939628,6.961235,-7.4705105,-28.446259,-0.13149804,0.0,-0.12705477,-0.18886642,-0.17409697,-0.19518487,-0.283469,-5.116444,0.0,0.0,0.0
1185039226,6.961235,-7.4705105,-28.446259,-0.13149804,0.0,-0.13182797,-0.1986117,-0.27360195,-0.2088174,-0.29381338,-5.3082356,0.0,0.0,0.0
1185143005,6.961235,-7.4705105,-28.446259,-0.13149804,0.0,-0.13714433,-0.20876832,-0.37746492,-0.21063854,-0.30160558,-5.494061,0.0,0.0,0.0
1185244078,6.961235,-7.4705105,-28.446259,-0.13149804,0.0,-0.14219613,-0.21789618,-0.47854888,-0.17099209,-0.29619664,-5.719282,0.0,0.0,0.0
1185347710,6.961235,-7.4705105,-28.446259,-0.13149804,0.0,-0.14856298,-0.22758846,-0.5819689,-0.2297917,-0.34000063,-5.930057,0.0,0.0,0.0
1185451704,6.961235,-7.4705105,-28.446259,-0.13149804,0.0,-0.15618145,-0.23855683,-0.6860908,-0.25385964,-0.36115772,-6.1447644,0.0,0.0,0.0
1185551197,6.961235,-7.4705105,-28.446259,-0.13149804,0.0,-0.16324863,-0.24871525,-0.785648,-0.22610486,-0.3937906,-6.3601456,0.0,0.0,0.0
1185652923,6.961235,-7.4705105,-28.446259,-0.13149804,0.0,-0.16837789,-0.2585602,-0.887396,-0.27174953,-0.44024765,-6.573192,0.0,0.0,0.0
1185757228,6.961235,-7.4705105,-28.446259,-0.13149804,0.0,-0.17398235,-0.2690348,-0.99161994,-0.30253956,-0.41706988,-6.777025,0.0,0.0,0.0
1185861523,6.961235,-7.4705105,-28.446259,-0.13149804,0.0,-0.18032882,-0.28001586,-1.0,-0.2965146,-0.42648056,-6.841124,0.0,0.0,0.0
1185961154,6.961235,-7.4705105,-28.446259,-0.13149804,0.0,-0.18482117,-0.27946004,-1.0,-0.22739585,0.22787268,-6.342862,0.0,0.0,0.0
1186064817,6.961235,-7.4705105,-28.446259,-0.13149804,0.0,-0.18509795,-0.24494906,-1.0,-0.1369822,0.01601843,-5.802468,0.0,0.0,0.0
1186165393,6.961235,-7.4705105,-28.446259,-0.13149804,0.0,-0.18345495,-0.2161082,-1.0,-0.1649462,0.19004853,-5.3729415,0.0,0.0,0.0
1186264792,6.961235,-7.4705105,-28.446259,-0.13149804,0.0,-0.17859566,-0.17168748,-1.0,-0.09462914,0.29662174,-5.089802,0.0,0.0,0.0
1186368721,6.961235,-7.4705105,-28.446259,-0.13149804,0.0,-0.1700182,-0.12183263,-1.0,-0.053649165,0.3584698,-5.0069513,0.0,0.0,0.0
1186469565,6.961235,-7.4705105,-28.446259,-0.13149804,0.0,-0.15582086,-0.06797511,-1.0,-0.058180343,0.32567507,-4.984029,0.0,0.0,0.0
1186569031,6.961235,-7.4705105,-28.446259,-0.13149804,0.0,-0.13902108,-0.015667748,-1.0,0.048044074,0.40313518,-5.004637,0.0,0.0,0.0
1186672600,6.961235,-7.4705105,-28.446259,-0.13149804,0.0,-0.11837809,0.035878588,-1.0,0.020907361,0.36914575,-5.0298443,0.0,0.0,0.0
1186772930,6.961235,-7.4705105,-28.446259,-0.13149804,0.0,-0.09713442,0.08223993,-1.0,0.088831894,0.37726563,-5.0826106,0.0,0.0,0.0
1186877134,6.961235,-7.4705105,-28.446259,-0.13149804,0.0,-0.07591522,0.12487314,-1.0,0.11380959,0.36182654,-5.111615,0.0,0.0,0.0
1186981536,6.961235,-7.4705105,-28.446259,-0.13149804,0.0,-0.055957604,0.16382393,-1.0,0.079150565,0.3529137,-5.1136804,0.0,0.0,0.0
1187080729,6.961235,-7.4705105,-28.446259,-0.13149804,0.0,-0.038730193,0.1953044,-1.0,0.08226954,0.34227696,-5.14562,0.0,0.0,0.0
1187184702,6.961235,-7.4705105,-28.446259,-0.13149804,0.0,-0.024377942,0.22222862,-1.0,0.048278295,0.30020663,-5.192545,0.0,0.0,0.0
1187285144,6.961235,-7.4705105,-28.446259,-0.13149804,0.0,-0.013675928,0.24301024,-1.0,0.07256937,0.31257918,-5.2213173,0.0,0.0,0.0
1187384688,6.961235,-7.4705105,-28.446259,-0.13149804,0.0,-0.0034155846,0.25736475,-1.0,0.06652441,0.28960228,-5.224208,0.0,0.0,0.0
1187488922,6.961235,-7.4705105,-28.446259,-0.13149804,0.0,0.0063981055,0.2670072,-1.0,0.033533473,0.24085112,-5.2265906,0.0,0.0,0.0
1187589205,6.961235,-7.4705105,-28.446259,-0.13149804,0.0,0.013538217,0.27112538,-1.0,0.032726966,0.25283852,-5.228708,0.0,0.0,0.0
1187688797,6.961235,-7.4705105,-28.446259,-0.13149804,0.0,0.020239377,0.270739,-1.0,0.08656638,0.18223427,-5.259189,0.0,0.0,0.0
1187792580,6.961235,-7.4705105,-28.446259,-0.13149804,0.0,0.027407574,0.26858997,-1.0,0.04998394,0.17727953,-5.259391,0.0,0.0,0.0
1187893051,6.961235,-7.4705105,-28.446259,-0.13149804,0.0,0.034313034,0.2649737,-1.0,0.043275546,0.14899921,-5.2424016,0.0,0.0,0.0
1187997116,6.961235,-7.4705105,-28.446259,-0.13149804,0.0,0.035158325,0.25933164,-1.0,0.03219717,0.15704787,-5.2843876,0.0,0.0,0.0
1188100985,6.961235,-7.4705105,-28.446259,-0.13149804,0.0,0.034739304,0.25093266,-1.0,0.02970463,0.08746134,-5.295913,0.0,0.0,0.0
1188200576,6.961235,-7.4705105,-28.446259,-0.13149804,0.0,0.03521812,0.24027641,-1.0,0.026519237,0.109079845,-5.334644,0.0,0.0,0.0
1188304744,6.961235,-7.4705105,-28.446259,-0.13149804,0.0,0.03630848,0.22718756,-1.0,0.04500249,0.06420302,-5.343291,0.0,0.0,0.0
1188404935,6.961235,-7.4705105,-28.446259,-0.13149804,0.0,0.042888235,0.21120091,-1.0,0.03560851,0.06364556,-5.3398485,0.0,0.0,0.0
1188504610,6.961235,-7.4705105,-28.446259,-0.13149804,0.0,0.050350428,0.19380498,-1.0,0.05066735,0.04082756,-5.3410864,0.0,0.0,0.0
1188608619,6.961235,-7.4705105,-28.446259,-0.13149804,0.0,0.057873774,0.17831299,-1.0,0.08981637,0.030705493,-5.361188,0.0,0.0,0.0
1188709027,6.961235,-7.4705105,-28.446259,-0.13149804,0.0,0.064616606,0.16420174,-1.0,0.0674224,0.052480258,-5.3377886,0.0,0.0,0.0
1188808600,6.961235,-7.4705105,-28.446259,-0.13149804,0.0,0.06933682,0.15279758,-1.0,0.059402324,0.04289557,-5.346106,0.0,0.0,0.0
1188912618,6.961235,-7.4705105,-28.446259,-0.13149804,0.0,0.07335896,0.1421318,-1.0,0.059732024,0.06635563,-5.3185153,0.0,0.0,0.0
1189013373,6.961235,-7.4705105,-28.446259,-0.13149804,0.0,0.07829978,0.13431764,-1.0,0.08365579,0.05688613,-5.3547196,0.0,0.0,0.0
1189117158,6.961235,-7.4705105,-28.446259,-0.13149804,0.0,0.08252804,0.12677571,-1.0,0.060832236,0.074700914,-5.3095665,0.0,0.0,0.0
1189221363,6.961235,-7.4705105,-28.446259,-0.13149804,0.0,0.08601656,0.117462136,-1.0,0.045809492,0.114961974,-5.310551,0.0,0.0,0.0
1189320585,6.961235,-7.4705105,-28.446259,-0.13149804,0.0,0.08750103,0.109088965,-1.0,0.0384412,0.08509291,-5.3090525,0.0,0.0,0.0
1189424561,6.961235,-7.4705105,-28.446259,-0.13149804,0.0,0.09021673,0.10218396,-1.0,0.024066223,0.11265808,-5.304585,0.0,0.0,0.0
1189525419,6.961235,-7.4705105,-28.446259,-0.13149804,0.0,0.09082782,0.09621937,-1.0,0.052301493,0.07415349,-5.3174424,0.0,0.0,0.0
1189624616,6.961235,-7.4705105,-28.446259,-0.13149804,0.0,0.08974562,0.09090936,-1.0,0.024256676,0.09442735,-5.311326,0.0,0.0,0.0
1189728721,6.961235,-7.4705105,-28.446259,-0.13149804,0.0,0.08683286,0.0864469,-1.0,0.020399768,0.068607464,-5.31147,0.0,0.0,0.0
1189829245,6.961235,-7.4705105,-28.446259,-0.13149804,0.0,0.082486816,0.086633086,-1.0,-0.02378177,0.12078376,-5.26851,0.0,0.0,0.0
1189928612,6.961235,-7.4705105,-28.446259,-0.13149804,0.0,0.07692041,0.08624215,-1.0,-0.019495392,0.13667811,-5.267349,0.0,0.0,0.0
1190033415,6.961235,-7.4705105,-28.446259,-0.13149804,0.0,0.07474377,0.08844642,-1.0,-0.045321092,0.15414912,-5.2555513,0.0,0.0,0.0
1190134339,6.961235,-7.4705105,-28.446259,-0.13149804,0.0,0.071461365,0.08997528,-1.0,-0.026270565,0.15002257,-5.258432,0.0,0.0,0.0
1190234670,6.961235,-7.4705105,-28.446259,-0.13149804,0.0,0.068812706,0.09413242,-1.0,-0.006732807,0.104288556,-5.2806587,0.0,0.0,0.0
1190339697,6.961235,-7.4705105,-28.446259,-0.13149804,0.0,0.06520867,0.097379945,-1.0,0.0059710103,0.1358835,-5.258351,0.0,0.0,0.0
1190442841,6.961235,-7.4705105,-28.446259,-0.13149804,0.0,0.06865778,0.10124626,-1.0,-0.023054376,0.15810286,-5.263572,0.0,0.0,0.0
1190542308,6.961235,-7.4705105,-28.446259,-0.13149804,0.0,0.069969654,0.10360229,-1.0,-0.02593908,0.15465428,-5.2614284,0.0,0.0,0.0
1190646191,6.961235,-7.4705105,-28.446259,-0.13149804,0.0,0.074396774,0.10433886,-1.0,0.009669627,0.12424539,-5.280527,0.0,0.0,0.0
1190747547,6.961235,-7.4705105,-28.446259,-0.13149804,0.0,0.07624001,0.10402267,-1.0,-0.0025357155,0.12783165,-5.287125,0.0,0.0,0.0
1190850950,6.961235,-7.4705105,-28.446259,-0.13149804,0.0,0.08094392,0.101135276,-1.0,-0.015287451,0.11877063,-5.268586,0.0,0.0,0.0
1190954728,6.961235,-7.4705105,-28.446259,-0.13149804,0.0,0.08407955,0.09763453,-1.0,0.0043954467,0.13267316,-5.2522583,0.0,0.0,0.0
1191058684,6.961235,-7.4705105,-28.446259,-0.13149804,0.0,0.08795402,0.09355893,-1.0,-0.02958986,0.13162613,-5.2616906,0.0,0.0,0.0
1191158398,6.961235,-7.4705105,-28.446259,-0.13149804,0.0,0.08803374,0.08956623,-1.0,-0.030515978,0.12242144,-5.2452016,0.0,0.0,0.0
1191262360,6.961235,-7.4705105,-28.446259,-0.13149804,0.0,0.08718438,0.085255526,-1.0,-0.014522439,0.11232838,-5.245592,0.0,0.0,0.0
1191363057,6.961235,-7.4705105,-28.446259,-0.13149804,0.0,0.084424734,0.08118582,-1.0,-0.06072557,0.12103147,-5.2433157,0.0,0.0,0.0
1191462318,6.961235,-7.4705105,-28.446259,-0.13149804,0.0,0.079906106,0.0772203,-1.0,-0.07271831,0.10720128,-5.2511835,0.0,0.0,0.0
1191566498,6.961235,-7.4705105,-28.446259,-0.13149804,0.0,0.072687626,0.07338569,-1.0,-0.08212318,0.14228769,-5.239066,0.0,0.0,0.0
1191667223,6.961235,-7.4705105,-28.446259,-0.13149804,0.0,0.06462793,0.069732286,-1.0,-0.051544607,0.11399024,-5.2495255,0.0,0.0,0.0
1191766397,6.961235,-7.4705105,-28.446259,-0.13149804,0.0,0.05588648,0.06672802,-1.0,-0.067904495,0.09447325,-5.249046,0.0,0.0,0.0
1191870320,6.961235,-7.4705105,-28.446259,-0.13149804,0.0,0.04906845,0.0651756,-1.002059,-0.079908736,0.08316106,-5.2495885,0.0,0.0,0.0
1191970673,6.961235,-7.4705105,-28.446259,-0.13149804,0.0,0.040355537,0.06338219,-1.0067754,-0.11418873,0.13778229,-5.23194,0.0,0.0,0.0
1192075154,6.961235,-7.4705105,-28.446259,-0.13149804,0.0,0.02935636,0.06123681,-1.0118215,-0.10749817,0.09383533,-5.2555475,0.0,0.0,0.0
1192178928,6.961235,-7.4705105,-28.446259,-0.13149804,0.0,0.017739296,0.05887625,-1.0170153,-0.13371743,0.12284631,-5.2414746,0.0,0.0,0.0
1192282995,6.961235,-7.4705105,-28.446259,-0.13149804,0.0,0.005965948,0.05629282,-1.0223422,-0.111647986,0.10701389,-5.264473,0.0,0.0,0.0
1192382407,6.961235,-7.4705105,-28.446259,-0.13149804,0.0,-0.004578423,0.051917337,-1.0275759,-0.13559887,0.10474388,-5.2467604,0.0,0.0,0.0
1192486206,6.961235,-7.4705105,-28.446259,-0.13149804,0.0,-0.014738655,0.046186946,-1.0329533,-0.15084025,0.105363674,-5.2629795,0.0,0.0,0.0
1192586861,6.961235,-7.4705105,-28.446259,-0.13149804,0.0,-0.02372427,0.038757823,-1.0381445,-0.12288761,0.08762229,-5.285148,0.0,0.0,0.0
1192690698,6.961235,-7.4705105,-28.446259,-0.13149804,0.0,-0.03218622,0.03065691,-1.0435047,-0.09975237,0.059407447,-5.2967997,0.0,0.0,0.0
1192795123,6.961235,-7.4705105,-28.446259,-0.13149804,0.0,-0.037522506,0.019669961,-1.0488096,-0.13083029,0.07070267,-5.268247,0.0,0.0,0.0
1192894347,6.961235,-7.4705105,-28.446259,-0.13149804,0.0,-0.040640473,0.007833195,-1.053797,-0.11001901,0.022332605,-5.3177323,0.0,0.0,0.0
1192998196,6.961235,-7.4705105,-28.446259,-0.13149804,0.0,-0.03817754,-0.0067795278,-1.0590637,-0.082637124,0.028891115,-5.2884035,0.0,0.0,0.0
1193098527,6.961235,-7.4705105,-28.446259,-0.13149804,0.0,-0.033495832,-0.02105794,-1.0640976,-0.08251934,-0.018010572,-5.3302073,0.0,0.0,0.0
1193198201,6.961235,-7.4705105,-28.446259,-0.13149804,0.0,-0.028568149,-0.03779385,-1.06902,-0.08767743,-0.0009608079,-5.320843,0.0,0.0,0.0
1193302153,6.961235,-7.4705105,-28.446259,-0.13149804,0.0,-0.024053143,-0.054076314,-1.0743154,-0.039757296,-0.030704675,-5.3204937,0.0,0.0,0.0
1193402513,6.961235,-7.4705105,-28.446259,-0.13149804,0.0,-0.017654585,-0.07075197,-1.079223,-0.053374052,-0.0540971,-5.3259015,0.0,0.0,0.0
1193502214,6.961235,-7.4705105,-28.446259,-0.13149804,0.0,-0.012857365,-0.08415882,-1.0843992,-0.0870351,-0.013607816,-5.294575,0.0,0.0,0.0
1193606131,6.961235,-7.4705105,-28.446259,-0.13149804,0.0,-0.0064701317,-0.09850111,-1.0898889,-0.049959812,-0.011213263,-5.290829,0.0,0.0,0.0
1193706723,6.961235,-7.4705105,-28.446259,-0.13149804,0.0,-0.0011048556,-0.11014173,-1.095165,-0.05819534,-0.05829233,-5.3168564,0.0,0.0,0.0
1193810515,6.961235,-7.4705105,-28.446259,-0.13149804,0.0,0.0024276017,-0.12088949,-1.100642,-0.08140656,-0.023132354,-5.3108997,0.0,0.0,0.0
1193914530,6.961235,-7.4705105,-28.446259,-0.13149804,0.0,0.004260874,-0.12901713,-1.1061366,-0.05989933,-0.074913636,-5.341865,0.0,0.0,0.0
1194014211,6.961235,-7.4705105,-28.446259,-0.13149804,0.0,0.0057553053,-0.1344345,-1.1117227,-0.09205738,-0.014932909,-5.3138466,0.0,0.0,0.0
1194118384,6.961235,-7.4705105,-28.446259,-0.13149804,0.0,0.006157565,-0.13738395,-1.1175227,-0.059880745,-0.014621185,-5.3236756,0.0,0.0,0.0
1194219223,6.961235,-7.4705105,-28.446259,-0.13149804,0.0,0.0049829483,-0.14105006,-1.1232513,-0.06957059,-0.021990731,-5.3459005,0.0,0.0,0.0
1194318309,6.961235,-7.4705105,-28.446259,-0.13149804,0.0,0.0027302026,-0.14167881,-1.1290323,-0.08979385,-0.033618446,-5.36201,0.0,0.0,0.0
1194422341,6.961235,-7.4705105,-28.446259,-0.13149804,0.0,-0.0013381481,-0.14092864,-1.1350578,-0.09939348,0.009672828,-5.3219776,0.0,0.0,0.0
1194524476,6.961235,-7.4705105,-28.446259,-0.13149804,0.0,-0.0061426163,-0.13790943,-1.1410232,-0.09640286,-0.030579409,-5.3798285,0.0,0.0,0.0
1194628245,6.961235,-7.4705105,-28.446259,-0.13149804,0.0,-0.010220027,-0.13545148,-1.1471809,-0.12568755,0.018533772,-5.331794,0.0,0.0,0.0
1194727812,6.961235,-7.4705105,-28.446259,-0.13149804,0.0,-0.01475451,-0.1310624,-1.1529131,-0.098506846,0.0055357465,-5.3656697,0.0,0.0,0.0
1194831956,6.961235,-7.4705105,-28.446259,-0.13149804,0.0,-0.018104862,-0.12774739,-1.1589949,-0.12378169,0.02081731,-5.33084,0.0,0.0,0.0
1194933809,6.961235,-7.4705105,-28.446259,-0.13149804,0.0,-0.021592021,-0.12365322,-1.164849,-0.111928366,0.016209308,-5.3520055,0.0,0.0,0.0
1195036263,6.961235,-7.4705105,-28.446259,-0.13149804,0.0,-0.02706647,-0.11868296,-1.1710509,-0.11149103,0.009540653,-5.356008,0.0,0.0,0.0
1195140243,6.961235,-7.4705105,-28.446259,-0.13149804,0.0,-0.031439234,-0.1131025,-1.1773891,-0.1199686,0.021806723,-5.3179536,0.0,0.0,0.0
1195244394,6.961235,-7.4705105,-28.446259,-0.13149804,0.0,-0.033179186,-0.10878637,-1.1838559,-0.08807007,0.014644805,-5.3414083,0.0,0.0,0.0
1195343817,6.961235,-7.4705105,-28.446259,-0.13149804,0.0,-0.03412232,-0.10403626,-1.190098,-0.0870102,0.022965513,-5.351292,0.0,0.0,0.0
1195447915,6.961235,-7.4705105,-28.446259,-0.13149804,0.0,-0.034047127,-0.10018127,-1.1966571,-0.06656002,-0.00238911,-5.340033,0.0,0.0,0.0
1195548151,6.961235,-7.4705105,-28.446259,-0.13149804,0.0,-0.03325665,-0.09568212,-1.2030513,-0.06323386,0.010125869,-5.331596,0.0,0.0,0.0
1195647992,6.961235,-7.4705105,-28.446259,-0.13149804,0.0,-0.032303546,-0.09047675,-1.2095621,-0.04577844,0.04116662,-5.3396244,0.0,0.0,0.0
1195751915,6.961235,-7.4705105,-28.446259,-0.13149804,0.0,-0.030612063,-0.084355876,-1.2163285,-0.052320432,0.0054502627,-5.351602,0.0,0.0,0.0
1195852361,6.961235,-7.4705105,-28.446259,-0.13149804,0.0,-0.02997787,-0.076167986,-1.2229084,-0.051493146,0.046054296,-5.3445935,0.0,0.0,0.0
1195956276,6.961235,-7.4705105,-28.446259,-0.13149804,0.0,-0.028884793,-0.06681047,-1.2295234,-0.031765558,0.016037116,-5.358415,0.0,0.0,0.0
1196060766,6.961235,-7.4705105,-28.446259,-0.13149804,0.0,-0.028071212,-0.055895995,-1.2360684,-0.060072307,0.07571796,-5.3500648,0.0,0.0,0.0
1196164574,6.961235,-7.4705105,-28.446259,-0.13149804,0.0,-0.02577498,-0.046167467,-1.2426071,-0.04754659,0.064170055,-5.3799324,0.0,0.0,0.0
1196264002,6.961235,-7.4705105,-28.446259,-0.13149804,0.0,-0.02194581,-0.038011286,-1.2489427,-0.07093113,0.065715685,-5.351696,0.0,0.0,0.0
1196367939,6.961235,-7.4705105,-28.446259,-0.13149804,0.0,-0.01996758,-0.0301867,-1.2555943,-0.06342264,0.087331615,-5.366177,0.0,0.0,0.0
1196468826,6.961235,-7.4705105,-28.446259,-0.13149804,0.0,-0.021088744,-0.023454284,-1.262047,-0.043003894,0.060152266,-5.364277,0.0,0.0,0.0
1196572156,6.961235,-7.4705105,-28.446259,-0.13149804,0.0,-0.02370298,-0.017296718,-1.2686982,-0.0903806,0.06482145,-5.3792953,0.0,0.0,0.0
1196676308,6.961235,-7.4705105,-28.446259,-0.13149804,0.0,-0.027798057,-0.011787844,-1.2755386,-0.07636421,0.06537063,-5.3633904,0.0,0.0,0.0
1196775979,6.961235,-7.4705105,-28.446259,-0.13149804,0.0,-0.033127546,-0.0057294844,-1.2820977,-0.109540865,0.08754339,-5.3760276,0.0,0.0,0.0
1196879919,6.961235,-7.4705105,-28.446259,-0.13149804,0.0,-0.04192698,0.0020008802,-1.2861111,-0.12399155,0.089581974,-5.337747,0.0,0.0,0.0
1196980417,6.961235,-7.4705105,-28.446259,-0.13149804,0.0,-0.051659584,0.009926938,-1.2861111,-0.12749632,0.13480142,-5.332835,0.0,0.0,0.0
1197080037,6.961235,-7.4705105,-28.446259,-0.13149804,0.0,-0.06163318,0.017906904,-1.2861111,-0.13895977,0.10171535,-5.354254,0.0,0.0,0.0
1197183739,6.961235,-7.4705105,-28.446259,-0.13149804,0.0,-0.07230801,0.024198102,-1.2861111,-0.17719404,0.13054155,-5.348933,0.0,0.0,0.0
1197284358,6.961235,-7.4705105,-28.446259,-0.13149804,0.0,-0.081993505,0.028697705,-1.2861111,-0.15789263,0.1227087,-5.3341646,0.0,0.0,0.0
1197383781,6.961235,-7.4705105,-28.446259,-0.13149804,0.0,-0.09088082,0.032433104,-1.2861111,-0.12433969,0.078563824,-5.372567,0.0,0.0,0.0
1197487786,6.961235,-7.4705105,-28.446259,-0.13149804,0.0,-0.098906994,0.03578074,-1.2861111,-0.16503657,0.12522097,-5.341777,0.0,0.0,0.0
1197588340,6.961235,-7.4705105,-28.446259,-0.13149804,0.0,-0.10643804,0.037820578,-1.2861111,-0.14866942,0.09480273,-5.355164,0.0,0.0,0.0
1197692536,6.961235,-7.4705105,-28.446259,-0.13149804,0.0,-0.11203525,0.03943777,-1.2861111,-0.12872018,0.10809455,-5.353275,0.0,0.0,0.0
1197796520,6.961235,-7.4705105,-28.446259,-0.13149804,0.0,-0.11709611,0.041821886,-1.2861111,-0.15716995,0.12684074,-5.330885,0.0,0.0,0.0
1197895703,6.961235,-7.4705105,-28.446259,-0.13149804,0.0,-0.120571494,0.044365,-1.2861111,-0.1434272,0.09966511,-5.309608,0.0,0.0,0.0
1197999757,6.961235,-7.4705105,-28.446259,-0.13149804,0.0,-0.12593314,0.046894524,-1.2861111,-0.17451033,0.11651875,-5.3332973,0.0,0.0,0.0
1198100075,6.961235,-7.4705105,-28.446259,-0.13149804,0.0,-0.12979357,0.048879553,-1.2861111,-0.14592458,0.11466011,-5.34588,0.0,0.0,0.0
1198199801,6.961235,-7.4705105,-28.446259,-0.13149804,0.0,-0.13277836,0.04873233,-1.2861111,-0.12768005,0.0861749,-5.339795,0.0,0.0,0.0
1198303816,6.961235,-7.4705105,-28.446259,-0.13149804,0.0,-0.13417041,0.047404144,-1.2861111,-0.13991717,0.062356185,-5.3628507,0.0,0.0,0.0
1198404461,6.961235,-7.4705105,-28.446259,-0.13149804,0.0,-0.13138177,0.04428482,-1.2861111,-0.1340169,0.078658305,-5.338179,0.0,0.0,0.0
1198503796,6.961235,-7.4705105,-28.446259,-0.13149804,0.0,-0.12555353,0.04064455,-1.2861111,-0.10467273,0.074392095,-5.347878,0.0,0.0,0.0
1198608025,6.961235,-7.4705105,-28.446259,-0.13149804,0.0,-0.12115405,0.034895588,-1.2861111,-0.12378904,0.08697114,-5.3468733,0.0,0.0,0.0
1198708316,6.961235,-7.4705105,-28.446259,-0.13149804,0.0,-0.115825005,0.028511524,-1.2861111,-0.0726278,0.01150198,-5.3853936,0.0,0.0,0.0
1198812429,6.961235,-7.4705105,-28.446259,-0.13149804,0.0,-0.11079902,0.019777322,-1.2861111,-0.091165654,0.030032303,-5.34733,0.0,0.0,0.0
1198913347,6.961235,-7.4705105,-28.446259,-0.13149804,0.0,-0.10440499,0.010991025,-1.2861111,-0.059914764,0.008090204,-5.357877,0.0,0.0,0.0
1199017403,6.961235,-7.4705105,-28.446259,-0.13149804,0.0,-0.10011966,0.002784562,-1.2861111,-0.0785376,0.010581983,-5.337004,0.0,0.0,0.0
1199118069,6.961235,-7.4705105,-28.446259,-0.13149804,0.0,-0.09451475,-0.0043550967,-1.2861111,-0.06233746,-0.0031718852,-5.3591666,0.0,0.0,0.0
1199221601,6.961235,-7.4705105,-28.446259,-0.13149804,0.0,-0.08987381,-0.010244035,-1.2861111,-0.050942626,0.006193635,-5.365383,0.0,0.0,0.0
1199325885,6.961235,-7.4705105,-28.446259,-0.13149804,0.0,-0.08327775,-0.014939785,-1.2861111,-0.038846534,-0.015445776,-5.347638,0.0,0.0,0.0
1199425355,6.961235,-7.4705105,-28.446259,-0.13149804,0.0,-0.075747155,-0.017356968,-1.2861111,-0.021203706,0.022522703,-5.341943,0.0,0.0,0.0
1199526396,6.961235,-7.4705105,-28.446259,-0.13149804,0.0,-0.06669722,-0.019125914,-1.2861111,-0.030705383,0.0331969,-5.3198676,0.0,0.0,0.0
1199629929,6.961235,-7.4705105,-28.446259,-0.13149804,0.0,-0.05447042,-0.021751475,-1.2861111,-0.026530426,0.048132177,-5.3131723,0.0,0.0,0.0
1199729450,6.961235,-7.4705105,-28.446259,-0.13149804,0.0,-0.04152472,-0.023394942,-1.2861111,0.0122503275,0.04001653,-5.342882,0.0,0.0,0.0
1199833514,6.961235,-7.4705105,-28.446259,-0.13149804,0.0,-0.031153392,-0.021792244,-1.2861111,-0.0045604305,0.056905903,-5.3335104,0.0,0.0,0.0
1199934892,6.961235,-7.4705105,-28.446259,-0.13149804,0.0,-0.020555114,-0.019184804,-1.2861111,0.046626143,0.048537634,-5.3570166,0.0,0.0,0.0
1200033586,6.961235,-7.4705105,-28.446259,-0.13149804,0.0,-0.009662842,-0.014034247,-1.2861111,0.047570053,0.056400154,-5.31458,0.0,0.0,0.0
1200135286,6.961235,-7.4705105,-28.446259,-0.13149804,0.0,0.0024520636,-0.008662176,-1.2861111,0.07655106,0.08805998,-5.311062,0.0,0.0,0.0
1200238316,6.961235,-7.4705105,-28.446259,-0.13149804,0.0,0.018821955,-0.0029086827,-1.2861111,0.0600837,0.13061057,-5.2936234,0.0,0.0,0.0
1200341953,6.961235,-7.4705105,-28.446259,-0.13149804,0.0,0.035360813,0.002615142,-1.2861111,0.10144342,0.08641853,-5.3305874,0.0,0.0,0.0
1200445715,6.961235,-7.4705105,-28.446259,-0.13149804,0.0,0.05202832,0.007820058,-1.2861111,0.0880092,0.11025924,-5.301079,0.0,0.0,0.0
1200545486,6.961235,-7.4705105,-28.446259,-0.13149804,0.0,0.06733277,0.01220324,-1.2861111,0.11434339,0.063981816,-5.3420787,0.0,0.0,0.0
1200645954,6.961235,-7.4705105,-28.446259,-0.13149804,0.0,0.082043335,0.015366959,-1.2861111,0.12626328,0.10724884,-5.3100324,0.0,0.0,0.0
1200750845,6.961235,-7.4705105,-28.446259,-0.13149804,0.0,0.09588687,0.017994786,-1.2861111,0.1339866,0.055388965,-5.3383446,0.0,0.0,0.0
1200853843,6.961235,-7.4705105,-28.446259,-0.13149804,0.0,0.10668538,0.020026015,-1.2861111,0.1432265,0.061930314,-5.3216143,0.0,0.0,0.0
1200958007,6.961235,-7.4705105,-28.446259,-0.13149804,0.0,0.116235875,0.021750117,-1.2861111,0.1464498,0.094067685,-5.313506,0.0,0.0,0.0
1201062041,6.961235,-7.4705105,-28.446259,-0.13149804,0.0,0.12398074,0.023579763,-1.2861111,0.113485046,0.12036324,-5.289625,0.0,0.0,0.0
1201161389,6.961235,-7.4705105,-28.446259,-0.13149804,0.0,0.12965585,0.024705004,-1.2861111,0.12127022,0.0867012,-5.2897024,0.0,0.0,0.0
1201262030,6.961235,-7.4705105,-28.446259,-0.13149804,0.0,0.13279149,0.024967741,-1.2861111,0.11804338,0.08153201,-5.3242607,0.0,0.0,0.0
1201365960,6.961235,-7.4705105,-28.446259,-0.13149804,0.0,0.1334814,0.026426386,-1.2861111,0.087498255,0.103844024,-5.3348746,0.0,0.0,0.0
1201465500,6.961235,-7.4705105,-28.446259,-0.13149804,0.0,0.1312128,0.029143905,-1.2861111,0.06466882,0.14982264,-5.307778,0.0,0.0,0.0
1201569486,6.961235,-7.4705105,-28.446259,-0.13149804,0.0,0.12685725,0.033190966,-1.2861111,0.07255461,0.11658167,-5.343266,0.0,0.0,0.0
1201670436,6.961235,-7.4705105,-28.446259,-0.13149804,0.0,0.11986119,0.037956476,-1.2861111,0.040992036,0.1372169,-5.3169303,0.0,0.0,0.0
1201769484,6.961235,-7.4705105,-28.446259,-0.13149804,0.0,0.11172676,0.042635012,-1.2861111,0.039550766,0.15640818,-5.309519,0.0,0.0,0.0
1201873380,6.961235,-7.4705105,-28.446259,-0.13149804,0.0,0.10098533,0.04626577,-1.2861111,0.036019985,0.13553701,-5.334514,0.0,0.0,0.0
1201974450,6.961235,-7.4705105,-28.446259,-0.13149804,0.0,0.090151496,0.048169255,-1.2861111,0.0029008533,0.123306155,-5.3364687,0.0,0.0,0.0
1202073420,6.961235,-7.4705105,-28.446259,-0.13149804,0.0,0.079714485,0.048273444,-1.2861111,-0.005479245,0.09716598,-5.362186,0.0,0.0,0.0
1202177551,6.961235,-7.4705105,-28.446259,-0.13149804,0.0,0.068996616,0.046078227,-1.2861111,0.00974337,0.0839665,-5.3908267,0.0,0.0,0.0
1202278404,6.961235,-7.4705105,-28.446259,-0.13149804,0.0,0.059164356,0.041911576,-1.2861111,0.032036804,0.07491934,-5.3968964,0.0,0.0,0.0
1202381975,6.961235,-7.4705105,-28.446259,-0.13149804,0.0,0.051490616,0.035843253,-1.2861111,0.012001799,0.04221544,-5.394776,0.0,0.0,0.0
1202485891,6.961235,-7.4705105,-28.446259,-0.13149804,0.0,0.04578967,0.027979255,-1.2861111,0.022808414,0.035524644,-5.4098263,0.0,0.0,0.0
1202585655,6.961235,-7.4705105,-28.446259,-0.13149804,0.0,0.04103458,0.02047584,-1.2861111,0.026704572,0.03691667,-5.385069,0.0,0.0,0.0
1202689810,6.961235,-7.4705105,-28.446259,-0.13149804,0.0,0.03676827,0.012827921,-1.2861111,0.00053746905,0.03607171,-5.381657,0.0,0.0,0.0
1202790194,6.961235,-7.4705105,-28.446259,-0.13149804,0.0,0.0331511,0.005854511,-1.2861111,-0.0013243052,0.049696226,-5.361751,0.0,0.0,0.0
1202889612,6.961235,-7.4705105,-28.446259,-0.13149804,0.0,0.03012917,-0.00048379897,-1.2861111,-0.0009834399,-0.001784696,-5.4036164,0.0,0.0,0.0
1202993419,6.961235,-7.4705105,-28.446259,-0.13149804,0.0,0.027422976,-0.0056357146,-1.2861111,-0.007978593,0.05669023,-5.397361,0.0,0.0,0.0
1203093934,6.961235,-7.4705105,-28.446259,-0.13149804,0.0,0.024765706,-0.008893657,-1.2861111,-0.021959163,0.048539612,-5.417951,0.0,0.0,0.0
1203198460,6.961235,-7.4705105,-28.446259,-0.13149804,0.0,0.021604251,-0.010666227,-1.2861111,-0.01347447,0.07233924,-5.3963666,0.0,0.0,0.0
1203299259,6.961235,-7.4705105,-28.446259,-0.13149804,0.0,0.018076777,-0.010207343,-1.2861111,-0.023695206,0.07712307,-5.42004,0.0,0.0,0.0
1203403959,6.961235,-7.4705105,-28.446259,-0.13149804,0.0,0.01373527,-0.0071985484,-1.2861111,-0.060588636,0.15783812,-5.355122,0.0,0.0,0.0
1203507932,6.961235,-7.4705105,-28.446259,-0.13149804,0.0,0.00880487,-0.0008919477,-1.2861111,-0.05570815,0.1915974,-5.341048,0.0,0.0,0.0
1203607156,6.961235,-7.4705105,-28.446259,-0.13149804,0.0,0.004265404,0.0064932345,-1.2861111,-0.0448498,0.1915196,-5.367112,0.0,0.0,0.0
1203711017,6.961235,-7.4705105,-28.446259,-0.13149804,0.0,-0.0006926298,0.017243266,-1.2861111,-0.13530111,0.28539458,-5.3035583,0.0,0.0,0.0
1203811458,6.961235,-7.4705105,-28.446259,-0.13149804,0.0,-0.0074576614,0.030950904,-1.2861111,-0.11302231,0.3125608,-5.3163934,0.0,0.0,0.0
1203911007,6.961235,-7.4705105,-28.446259,-0.13149804,0.0,-0.015169454,0.04787209,-1.2861111,-0.13979869,0.3381159,-5.27452,0.0,0.0,0.0
1204014968,6.961235,-7.4705105,-28.446259,-0.13149804,0.0,-0.020691918,0.06510947,-1.2861111,-0.1238873,0.32981518,-5.2643323,0.0,0.0,0.0
1204115698,6.961235,-7.4705105,-28.446259,-0.13149804,0.0,-0.026581764,0.08311558,-1.2861111,-0.13908085,0.4060119,-5.224575,0.0,0.0,0.0
1204219778,6.961235,-7.4705105,-28.446259,-0.13149804,0.0,-0.03435607,0.102547266,-1.2861111,-0.16162741,0.3924993,-5.2734175,0.0,0.0,0.0
1204324048,6.961235,-7.4705105,-28.446259,-0.13149804,0.0,-0.04328687,0.12269197,-1.2861111,-0.15940341,0.41207242,-5.2832837,0.0,0.0,0.0
1204427502,6.961235,-7.4705105,-28.446259,-0.13149804,0.0,-0.054947425,0.14237913,-1.2861111,-0.17089738,0.41856766,-5.2650323,0.0,0.0,0.0
1204527108,6.961235,-7.4705105,-28.446259,-0.13149804,0.0,-0.06637377,0.16025433,-1.2861111,-0.17563263,0.40668863,-5.289841,0.0,0.0,0.0
1204631216,6.961235,-7.4705105,-28.446259,-0.13149804,0.0,-0.07890499,0.17840314,-1.2861111,-0.21707253,0.41709027,-5.286775,0.0,0.0,0.0
1204731321,6.961235,-7.4705105,-28.446259,-0.13149804,0.0,-0.090158746,0.19310237,-1.2861111,-0.21668994,0.41855353,-5.294156,0.0,0.0,0.0
1204835274,6.961235,-7.4705105,-28.446259,-0.13149804,0.0,-0.09937177,0.20271675,-1.2861111,-0.2018243,0.39448926,-5.341752,0.0,0.0,0.0
1204940494,6.961235,-7.4705105,-28.446259,-0.13149804,0.0,-0.107048675,0.2091144,-1.2861111,-0.18495283,0.36341462,-5.335144,0.0,0.0,0.0
1205043602,6.961235,-7.4705105,-28.446259,-0.13149804,0.0,-0.114387654,0.21217892,-1.2861111,-0.15844089,0.3629664,-5.3176007,0.0,0.0,0.0
1205143275,6.961235,-7.4705105,-28.446259,-0.13149804,0.0,-0.11803472,0.21264324,-1.2861111,-0.1446904,0.34888878,-5.3272753,0.0,0.0,0.0
1205247284,6.961235,-7.4705105,-28.446259,-0.13149804,0.0,-0.11771128,0.21109807,-1.2861111,-0.0937465,0.29246083,-5.347699,0.0,0.0,0.0
1205347582,6.961235,-7.4705105,-28.446259,-0.13149804,0.0,-0.11409003,0.20724262,-1.2861111,-0.07534653,0.2992791,-5.3606505,0.0,0.0,0.0
1205451312,6.961235,-7.4705105,-28.446259,-0.13149804,0.0,-0.10724799,0.20052381,-1.2861111,-0.05334629,0.24401656,-5.382328,0.0,0.0,0.0
1205555807,6.961235,-7.4705105,-28.446259,-0.13149804,0.0,-0.09796522,0.1923486,-1.2861111,-0.029965196,0.23570345,-5.406953,0.0,0.0,0.0
1205655016,6.961235,-7.4705105,-28.446259,-0.13149804,0.0,-0.08805051,0.18372492,-1.2861111,-0.016538445,0.22313799,-5.4258356,0.0,0.0,0.0
1205759208,6.961235,-7.4705105,-28.446259,-0.13149804,0.0,-0.07569325,0.17287433,-1.2861111,0.0045834784,0.19040988,-5.4285126,0.0,0.0,0.0
1205859484,6.961235,-7.4705105,-28.446259,-0.13149804,0.0,-0.061528537,0.1618294,-1.2861111,-5.5479348e-05,0.18606672,-5.4091496,0.0,0.0,0.0
1205959215,6.961235,-7.4705105,-28.446259,-0.13149804,0.0,-0.046102237,0.14846241,-1.2861111,0.021701686,0.14211355,-5.4208345,0.0,0.0,0.0
1206062979,6.961235,-7.4705105,-28.446259,-0.13149804,0.0,-0.028045392,0.1317718,-1.2861111,0.041052572,0.15980276,-5.3917623,0.0,0.0,0.0
1206163628,6.961235,-7.4705105,-28.446259,-0.13149804,0.0,-0.011650133,0.114763185,-1.2861111,0.06110048,0.11256644,-5.432417,0.0,0.0,0.0
1206267282,6.961235,-7.4705105,-28.446259,-0.13149804,0.0,0.003672886,0.09648392,-1.2861111,0.062250365,0.050068073,-5.4196954,0.0,0.0,0.0
1206367121,6.961235,-7.4705105,-28.446259,-0.13149804,0.0,0.015105581,0.07932899,-1.2861111,0.038284816,0.041705627,-5.4455976,0.0,0.0,0.0
1206467720,6.961235,-7.4705105,-28.446259,-0.13149804,0.0,0.02290616,0.06371016,-1.2861111,0.04290611,0.044282183,-5.4165263,0.0,0.0,0.0
1206571512,6.961235,-7.4705105,-28.446259,-0.13149804,0.0,0.029077768,0.046952963,-1.2861111,-0.006578143,0.05246359,-5.3988767,0.0,0.0,0.0
1206675422,6.961235,-7.4705105,-28.446259,-0.13149804,0.0,0.033649396,0.030143665,-1.2861111,-0.008506328,0.049879115,-5.380169,0.0,0.0,0.0
1206775186,6.961235,-7.4705105,-28.446259,-0.13149804,0.0,0.038795877,0.012625432,-1.2861111,-0.010328687,0.020354979,-5.3851457,0.0,0.0,0.0
1206879219,6.961235,-7.4705105,-28.446259,-0.13149804,0.0,0.04443159,-0.0064538238,-1.2861111,-0.027557958,0.03808164,-5.325267,0.0,0.0,0.0
1206980048,6.961235,-7.4705105,-28.446259,-0.13149804,0.0,0.049244214,-0.023291659,-1.2861111,-0.03469671,-0.0035702414,-5.3364167,0.0,0.0,0.0
1207079124,6.961235,-7.4705105,-28.446259,-0.13149804,0.0,0.052700568,-0.03856847,-1.2861111,-0.05198029,0.01779504,-5.321011,0.0,0.0,0.0
1207182985,6.961235,-7.4705105,-28.446259,-0.13149804,0.0,0.053751517,-0.053690363,-1.2861111,-0.008587672,-0.034639746,-5.356053,0.0,0.0,0.0
1207284114,6.961235,-7.4705105,-28.446259,-0.13149804,0.0,0.052326392,-0.06727569,-1.2861111,-0.046052292,-0.011209203,-5.347623,0.0,0.0,0.0
1207383191,6.961235,-7.4705105,-28.446259,-0.13149804,0.0,0.04932711,-0.080123544,-1.2861111,-0.067589425,-0.040260743,-5.33832,0.0,0.0,0.0
1207487167,6.961235,-7.4705105,-28.446259,-0.13149804,0.0,0.045123313,-0.09289438,-1.2861111,-0.07369475,-0.012136081,-5.324495,0.0,0.0,0.0
1207587445,6.961235,-7.4705105,-28.446259,-0.13149804,0.0,0.03866813,-0.102296755,-1.2861111,-0.09258191,-0.025201954,-5.3212314,0.0,0.0,0.0
1207688782,6.961235,-7.4705105,-28.446259,-0.13149804,0.0,0.030005956,-0.10927787,-1.2861111,-0.11092451,0.022793103,-5.333098,0.0,0.0,0.0
1207792619,6.961235,-7.4705105,-28.446259,-0.13149804,0.0,0.019181633,-0.113866255,-1.2861111,-0.13360567,0.006643329,-5.340424,0.0,0.0,0.0
1207893326,6.961235,-7.4705105,-28.446259,-0.13149804,0.0,0.007413721,-0.116005756,-1.2861111,-0.1371134,-0.010222384,-5.3239927,0.0,0.0,0.0
1207992523,6.961235,-7.4705105,-28.446259,-0.13149804,0.0,-0.005109334,-0.116679356,-1.2861111,-0.15743634,0.039944116,-5.305935,0.0,0.0,0.0
1208094110,6.961235,-7.4705105,-28.446259,-0.13149804,0.0,-0.018147444,-0.115802355,-1.2861111,-0.17982918,0.050463628,-5.2836795,0.0,0.0,0.0
1208197292,6.961235,-7.4705105,-28.446259,-0.13149804,0.0,-0.02936089,-0.114810295,-1.2861111,-0.19432333,0.046249457,-5.2841096,0.0,0.0,0.0
1208296753,6.961235,-7.4705105,-28.446259,-0.13149804,0.0,-0.039000176,-0.11306626,-1.2861111,-0.18286997,0.04820309,-5.253746,0.0,0.0,0.0
1208400591,6.961235,-7.4705105,-28.446259,-0.13149804,0.0,-0.04716179,-0.11108804,-1.2861111,-0.18958865,0.06519949,-5.291522,0.0,0.0,0.0
1208500891,6.961235,-7.4705105,-28.446259,-0.13149804,0.0,-0.05381584,-0.10853722,-1.2861111,-0.2003858,0.06370728,-5.2717423,0.0,0.0,0.0
1208605884,6.961235,-7.4705105,-28.446259,-0.13149804,0.0,-0.060904313,-0.104947686,-1.2861111,-0.18680103,0.07725526,-5.2733626,0.0,0.0,0.0
1208709128,6.961235,-7.4705105,-28.446259,-0.13149804,0.0,-0.067529365,-0.10031218,-1.2861111,-0.17237665,0.05963428,-5.3060074,0.0,0.0,0.0
1208808789,6.961235,-7.4705105,-28.446259,-0.13149804,0.0,-0.07434559,-0.09677882,-1.2861111,-0.1738237,0.066494465,-5.265472,0.0,0.0,0.0
1208912611,6.961235,-7.4705105,-28.446259,-0.13149804,0.0,-0.0805104,-0.09204049,-1.2861111,-0.17701146,0.09395344,-5.2625084,0.0,0.0,0.0
1209013155,6.961235,-7.4705105,-28.446259,-0.13149804,0.0,-0.08607137,-0.08621361,-1.2861111,-0.16004694,0.10581364,-5.2720375,0.0,0.0,0.0
1209112746,6.961235,-7.4705105,-28.446259,-0.13149804,0.0,-0.09085727,-0.079304524,-1.2861111,-0.18024175,0.13107108,-5.2554445,0.0,0.0,0.0
1209216582,6.961235,-7.4705105,-28.446259,-0.13149804,0.0,-0.096141,-0.07074473,-1.2861111,-0.19735308,0.11690721,-5.2519627,0.0,0.0,0.0
1209317225,6.961235,-7.4705105,-28.446259,-0.13149804,0.0,-0.10068319,-0.06174371,-1.2861111,-0.19840766,0.14779678,-5.215339,0.0,0.0,0.0
1209416536,6.961235,-7.4705105,-28.446259,-0.13149804,0.0,-0.10632253,-0.053270888,-1.2861111,-0.1918629,0.1497554,-5.2099123,0.0,0.0,0.0
1209520792,6.961235,-7.4705105,-28.446259,-0.13149804,0.0,-0.11162619,-0.0442667,-1.2861111,-0.20817304,0.12912056,-5.234891,0.0,0.0,0.0
1209621187,6.961235,-7.4705105,-28.446259,-0.13149804,0.0,-0.11710019,-0.035948347,-1.2861111,-0.221651,0.15261887,-5.2361073,0.0,0.0,0.0
1209726102,6.961235,-7.4705105,-28.446259,-0.13149804,0.0,-0.12223806,-0.027317882,-1.2861111,-0.17605266,0.15908125,-5.243832,0.0,0.0,0.0
1209829270,6.961235,-7.4705105,-28.446259,-0.13149804,0.0,-0.1301682,-0.017804528,-1.2861111,-0.2180947,0.16955541,-5.2372556,0.0,0.0,0.0
1209928750,6.961235,-7.4705105,-28.446259,-0.13149804,0.0,-0.1358184,-0.0089607,-1.2861111,-0.22162177,0.17491321,-5.265668,0.0,0.0,0.0
1210032712,6.961235,-7.4705105,-28.446259,-0.13149804,0.0,-0.14436325,0.00034337043,-1.2861111,-0.22801863,0.19496341,-5.2420764,0.0,0.0,0.0
1210132937,6.961235,-7.4705105,-28.446259,-0.13149804,0.0,-0.15120348,0.008871913,-1.2861111,-0.23492864,0.21261312,-5.2721615,0.0,0.0,0.0
1210232703,6.961235,-7.4705105,-28.446259,-0.13149804,0.0,-0.15784168,0.015183949,-1.2861111,-0.24132204,0.20783411,-5.2823143,0.0,0.0,0.0
1210336844,6.961235,-7.4705105,-28.446259,-0.13149804,0.0,-0.16305746,0.0211277,-1.2861111,-0.28396264,0.20467386,-5.243778,0.0,0.0,0.0
1210437039,6.961235,-7.4705105,-28.446259,-0.13149804,0.0,-0.16820078,0.02799828,-1.2861111,-0.25176448,0.19928281,-5.2472954,0.0,0.0,0.0
1210536613,6.961235,-7.4705105,-28.446259,-0.13149804,0.0,-0.1709731,0.03323536,-1.2861111,-0.2403288,0.17891201,-5.281718,0.0,0.0,0.0
1210640542,6.961235,-7.4705105,-28.446259,-0.13149804,0.0,-0.17249608,0.03615174,-1.2861111,-0.2700849,0.17278767,-5.290989,0.0,0.0,0.0
1210741220,6.961235,-7.4705105,-28.446259,-0.13149804,0.0,-0.17297126,0.03771367,-1.2861111,-0.25550207,0.14222883,-5.2966304,0.0,0.0,0.0
1210845099,6.961235,-7.4705105,-28.446259,-0.13149804,0.0,-0.17324986,0.038640045,-1.2861111,-0.2288374,0.13203554,-5.2889266,0.0,0.0,0.0
1210949939,6.961235,-7.4705105,-28.446259,-0.13149804,0.0,-0.17280456,0.03768649,-1.2861111,-0.24312012,0.11838281,-5.271952,0.0,0.0,0.0
1211048619,6.961235,-7.4705105,-28.446259,-0.13149804,0.0,-0.17339481,0.035431027,-1.2861111,-0.21618308,0.092112675,-5.3015246,0.0,0.0,0.0
1211152707,6.961235,-7.4705105,-28.446259,-0.13149804,0.0,-0.1733776,0.031635378,-1.2861111,-0.24410261,0.10600915,-5.3251834,0.0,0.0,0.0
1211253380,6.961235,-7.4705105,-28.446259,-0.13149804,0.0,-0.17495267,0.027000332,-1.2861111,-0.26559407,0.08198144,-5.3283315,0.0,0.0,0.0
1211352607,6.961235,-7.4705105,-28.446259,-0.13149804,0.0,-0.17484666,0.021725655,-1.2861111,-0.24444206,0.099114805,-5.336047,0.0,0.0,0.0
1211456754,6.961235,-7.4705105,-28.446259,-0.13149804,0.0,-0.1745658,0.015867518,-1.2861111,-0.26044428,0.12972309,-5.2979527,0.0,0.0,0.0
1211557068,6.961235,-7.4705105,-28.446259,-0.13149804,0.0,-0.17220208,0.0102463,-1.2861111,-0.21609741,0.058313813,-5.326256,0.0,0.0,0.0
1211656758,6.961235,-7.4705105,-28.446259,-0.13149804,0.0,-0.16800916,0.004124522,-1.2861111,-0.16709077,0.091682956,-5.3321824,0.0,0.0,0.0
1211760811,6.961235,-7.4705105,-28.446259,-0.13149804,0.0,-0.1609918,-0.0015333891,-1.2861111,-0.18378207,0.094542146,-5.346923,0.0,0.0,0.0
1211861050,6.961235,-7.4705105,-28.446259,-0.13149804,0.0,-0.15178785,-0.0059944866,-1.2861111,-0.15484515,0.070329644,-5.350111,0.0,0.0,0.0
1211965396,6.961235,-7.4705105,-28.446259,-0.13149804,0.0,-0.14207472,-0.009771109,-1.2861111,-0.15819365,0.068831526,-5.3575325,0.0,0.0,0.0
1212065556,6.961235,-7.4705105,-28.446259,-0.13149804,0.0,-0.13298628,-0.012328267,-1.2861111,-0.13199009,0.100138865,-5.321599,0.0,0.0,0.0
1212166252,6.961235,-7.4705105,-28.446259,-0.13149804,0.0,-0.12405276,-0.014008426,-1.2861111,-0.15583505,0.10192557,-5.3237214,0.0,0.0,0.0
1212266670,6.961235,-7.4705105,-28.446259,-0.13149804,0.0,-0.11603112,-0.014642167,-1.1955986,-0.12650324,0.08793946,-5.1545615,0.0,0.0,0.0
1212370729,6.961235,-7.4705105,-28.446259,-0.13149804,0.0,-0.10722081,-0.014361762,-1.061779,-0.121116094,0.122990206,-4.979748,0.0,0.0,0.0
1212475255,6.961235,-7.4705105,-28.446259,-0.13149804,0.0,-0.098781966,-0.013778305,-0.93348503,-0.13408606,0.1137954,-4.8893642,0.0,0.0,0.0
1212574307,6.961235,-7.4705105,-28.446259,-0.13149804,0.0,-0.08937371,-0.013460755,-0.8253002,-0.12818499,0.14359553,-4.8398414,0.0,0.0,0.0
1212678401,6.961235,-7.4705105,-28.446259,-0.13149804,0.0,-0.07850997,-0.01376245,-0.7244816,-0.10751962,0.1155049,-4.853594,0.0,0.0,0.0
1212779222,2.468529,-5.2501144,-28.405066,-0.13149804,0.0,-4.335745,2.0951521,-0.5942726,-1.9818196,1.0191045,-4.7790194,0.0,0.0,0.0
1212878342,2.468529,-5.2501144,-28.405066,-0.13149804,0.0,-4.3199415,2.0910828,-0.51259804,-2.0255518,0.9987574,-4.8431573,0.0,0.0,0.0
1212982416,4.8020935,-5.8498726,-28.405066,0.99144447,0.0,-2.080169,1.5130152,-0.44125938,-1.6168879,1.2724823,-4.7885475,0.0,0.0,0.0
1213083010,4.765146,-5.8331113,-28.405066,0.99106663,0.0,-2.080169,1.5130147,-0.38124275,-1.4898351,1.1945533,-4.797394,0.0,0.0,0.0
1213186784,4.7072387,-5.8014064,-28.405066,0.99106663,0.0,-2.080169,1.5130147,-0.32275772,-1.2730526,1.0582298,-4.8348207,0.0,0.0,0.0
1213294751,4.6211357,-5.752118,-28.405066,0.98956764,0.0,-2.080169,1.5130147,-0.27093315,-1.0986626,0.8874181,-4.9288216,0.0,0.0,0.0
1213394825,4.521257,-5.6888747,-28.405066,0.9884356,0.0,-2.080169,1.5130147,-0.2314682,-0.9397368,0.8000888,-5.0716395,0.0,0.0,0.0
1213494654,4.4024215,-5.6094127,-28.405066,0.9884356,0.0,-2.080169,1.5130147,-0.20240974,-0.81413275,0.6642653,-5.154092,0.0,0.0,0.0
1213598768,4.257458,-5.511652,-28.405066,0.9852188,0.0,-2.080169,1.5130147,-0.17944908,-0.67561597,0.5392601,-5.243331,0.0,0.0,0.0
1213699140,4.100989,-5.4051294,-28.405066,0.9832721,0.0,-2.080169,1.5130147,-0.15688896,-0.6305084,0.5153494,-5.224124,0.0,0.0,0.0
1213806476,3.9170527,-5.280444,-28.405066,0.9823124,0.0,-2.080169,1.5130147,-0.13121414,-0.5201747,0.45471907,-5.1579113,0.0,0.0,0.0
1213910525,3.7281628,-5.1532116,-28.405066,0.9790635,0.0,-2.080169,1.5130147,-0.10268593,-0.49564874,0.44296786,-5.0841236,0.0,0.0,0.0
1214010756,3.5343914,-5.0275693,-28.405066,0.9767823,0.0,-2.080169,1.5130147,-0.07422066,-0.42394987,0.40044025,-5.061117,0.0,0.0,0.0
1214110463,3.3358793,-4.8983555,-28.405066,0.9767823,0.0,-2.080169,1.5130147,-0.049610138,-0.4280619,0.38561144,-5.065798,0.0,0.0,0.0
1214212368,3.127802,-4.7679806,-28.405066,0.97238654,0.0,-2.080169,1.5130147,-0.024814606,-0.4242138,0.41884124,-5.0008535,0.0,0.0,0.0
1214314741,2.9179204,-4.632269,-28.405066,0.96991265,0.0,-2.0732572,1.5106994,-0.002506256,-0.42164966,0.3966844,-4.9457345,0.0,0.0,0.0
1214418689,3.0823572,-4.4061923,-28.405066,0.96742314,0.0,-1.7032739,1.5970471,0.021183014,-0.091809064,0.45014527,-4.960739,0.0,0.0,0.0
1214518355,3.2562995,-4.167048,-28.405066,0.96490073,0.0,-1.3351886,1.6990386,0.047136307,0.2397212,0.5609247,-4.9004893,0.0,0.0,0.0
1214618959,3.4304738,-3.9275842,-28.405066,0.9624027,0.0,-0.96537554,1.8030726,0.0728302,0.5202797,0.63877827,-4.8654838,0.0,0.0,0.0
1214722779,3.6150813,-3.6737766,-28.405066,0.9624027,0.0,-0.58733964,1.9131001,0.09794617,0.768454,0.80347365,-4.832077,0.0,0.0,0.0
1214826661,3.80091,-3.4182901,-28.405066,0.9571998,0.0,-0.21012458,2.024277,0.11884689,0.92869717,0.80204433,-4.7343163,0.0,0.0,0.0
1214926369,3.9884615,-3.1604352,-28.405066,0.9548568,0.0,0.14205977,2.1381128,0.13547516,1.0825069,0.8997573,-4.719063,0.0,0.0,0.0
1215030361,4.186636,-2.8879745,-28.405066,0.95359695,0.0,0.5026241,2.2616494,0.15100098,1.2681048,1.0440958,-4.717403,0.0,0.0,0.0
1215131015,4.3892493,-2.609411,-28.405066,0.95009995,0.0,0.8359876,2.3921728,0.162323,1.3661993,1.1253471,-4.698664,0.0,0.0,0.0
1215230321,4.46501,-2.5052512,-28.405066,0.94816697,0.0,1.0333171,2.3555405,0.17086792,1.2495993,1.1322346,-4.6865,0.0,0.0,0.0
1215334471,4.5202637,-2.4292867,-28.405066,0.94816697,0.0,1.185351,2.2828183,0.17986679,1.2678908,1.0343944,-4.693499,0.0,0.0,0.0
1215436376,4.573892,-2.355555,-28.405066,0.94509757,0.0,1.3153201,2.2104862,0.18795586,1.1758143,0.9652108,-4.7189007,0.0,0.0,0.0
1215539141,4.637306,-2.2683702,-28.405066,0.94363046,0.0,1.4248953,2.1414921,0.19255257,1.1540817,0.9087895,-4.8139057,0.0,0.0,0.0
1215642758,4.704889,-2.175454,-28.405066,0.9430371,0.0,1.5223557,2.0733426,0.19335938,1.058314,0.8314138,-4.851796,0.0,0.0,0.0
1215742409,4.7796335,-2.072692,-28.405066,0.94114625,0.0,1.5949996,2.017992,0.18800163,0.9471415,0.77913225,-4.9691167,0.0,0.0,0.0
1215846488,4.864778,-1.955631,-28.405066,0.9402552,0.0,1.6633794,1.9620103,0.1761322,0.88498217,0.7261794,-5.02113,0.0,0.0,0.0
1215947652,4.956325,-1.8297675,-28.405066,0.9402552,0.0,1.7124468,1.9193338,0.16660309,0.7758232,0.66323894,-5.057376,0.0,0.0,0.0
1216051173,5.0592456,-1.6882668,-28.405066,0.9387918,0.0,1.757733,1.8779486,0.15893745,0.71812063,0.6248033,-5.079639,0.0,0.0,0.0
1216151130,5.1666183,-1.5406451,-28.405066,0.93828666,0.0,1.786533,1.8505714,0.15586853,0.6539207,0.5989652,-5.0623174,0.0,0.0,0.0
1216254952,5.2844567,-1.3786354,-28.405066,0.9380813,0.0,1.8130322,1.8246177,0.15217018,0.54736346,0.58759415,-5.0274577,0.0,0.0,0.0
1216354817,5.403796,-1.2145615,-28.405066,0.93757737,0.0,1.8296417,1.8079627,0.14447975,0.5519708,0.58882684,-5.0812297,0.0,0.0,0.0
1216456135,5.5302553,-1.0406988,-28.405066,0.93733394,0.0,1.8422637,1.7950989,0.1361332,0.42899042,0.5819287,-5.0105796,0.0,0.0,0.0
1216560222,5.6638846,-0.85697865,-28.405066,0.93733394,0.0,1.8482487,1.7889361,0.124162674,0.48728737,0.5735332,-5.0654917,0.0,0.0,0.0
1216660448,5.795673,-0.67578936,-28.405066,0.9371136,0.0,1.8554151,1.7815021,0.11122894,0.41718498,0.5629246,-5.062612,0.0,0.0,0.0
1216760034,5.930742,-0.4900899,-28.405066,0.9370838,0.0,1.8574471,1.7793837,0.09652901,0.44891605,0.5534633,-5.1470637,0.0,0.0,0.0
1216864105,6.0748205,-0.29200292,-28.405066,0.93701786,0.0,1.861167,1.7754924,0.081674576,0.363832,0.5432743,-5.127022,0.0,0.0,0.0
1216964339,6.2159004,-0.09803891,-28.405066,0.93701786,0.0,1.8626229,1.7739645,0.06584358,0.41132912,0.48742765,-5.185264,0.0,0.0,0.0
1217068757,6.3658743,0.10815215,-28.405066,0.93690526,0.0,1.8645136,1.7719779,0.055009842,0.42527077,0.45249856,-5.1641903,0.0,0.0,0.0
1217172390,6.5177712,0.3169875,-28.405066,0.93690103,0.0,1.8639048,1.7726177,0.050907135,0.4735803,0.42870483,-5.1855526,0.0,0.0,0.0
1217272275,6.6659055,0.5206497,-28.405066,0.9368793,0.0,1.8633934,1.7731557,0.04981613,0.44125265,0.4406618,-5.1315956,0.0,0.0,0.0
1217376089,6.822321,0.735698,-28.405066,0.93687916,0.0,1.86453,1.7719604,0.046808243,0.42049673,0.4034396,-5.091011,0.0,0.0,0.0
1217476862,6.9737864,0.9439404,-28.405066,0.9368293,0.0,1.8654125,1.7710311,0.03876114,0.46046716,0.3791368,-5.133603,0.0,0.0,0.0
1217575999,7.1248965,1.151694,-28.405066,0.9368293,0.0,1.8646278,1.7718582,0.031101227,0.40452313,0.3883595,-5.062275,0.0,0.0,0.0
1217680477,7.282916,1.3689473,-28.405066,0.93676466,0.0,1.866867,1.7694988,0.03325653,0.4732754,0.37637204,-5.088046,0.0,0.0,0.0
1217784048,7.441468,1.5869317,-28.405066,0.9367294,0.0,1.8700978,1.7660832,0.043453217,0.4840517,0.35633546,-5.0511384,0.0,0.0,0.0
1217884696,7.594315,1.7970741,-28.405066,0.93664783,0.0,1.8729783,1.7630281,0.0529747,0.46933067,0.36885065,-5.0046644,0.0,0.0,0.0
1217988930,7.7533083,2.015666,-28.405066,0.93663234,0.0,1.8745112,1.7613977,0.061058044,0.46424153,0.36932388,-4.980801,0.0,0.0,0.0
1218092583,7.9123983,2.2343915,-28.405066,0.936604,0.0,1.8740737,1.7618624,0.063776016,0.4908451,0.35174233,-5.0124173,0.0,0.0,0.0
1218191999,8.065556,2.4449606,-28.405066,0.936604,0.0,1.8719822,1.7640853,0.06339073,0.45038283,0.3778232,-5.0353804,0.0,0.0,0.0
1218296392,8.225719,2.665161,-28.405066,0.9366264,0.0,1.8687541,1.767505,0.0659008,0.4064071,0.38449225,-5.005687,0.0,0.0,0.0
1218399954,8.385918,2.8854089,-28.405066,0.9366816,0.0,1.8656362,1.7707957,0.06454849,0.42405698,0.3210941,-5.05054,0.0,0.0,0.0
1218504052,8.546378,3.1060195,-28.405066,0.93668824,0.0,1.8601853,1.7765207,0.062469482,0.40975812,0.35928413,-5.0835423,0.0,0.0,0.0
1218604405,8.702652,3.3208725,-28.405066,0.9368369,0.0,1.8540155,1.7829586,0.060684204,0.4152158,0.3709916,-5.09071,0.0,0.0,0.0
1218708395,8.865544,3.544825,-28.405066,0.9369717,0.0,1.8441262,1.7931858,0.06002617,0.3450581,0.3471474,-5.047738,0.0,0.0,0.0
1218808355,9.023258,3.761657,-28.405066,0.93704116,0.0,1.8345807,1.8029506,0.056022644,0.35887036,0.32271674,-5.0731707,0.0,0.0,0.0
1218912297,9.18742,3.9873552,-28.405066,0.93727994,0.0,1.8220989,1.8155624,0.05335617,0.3648107,0.31425154,-5.1016674,0.0,0.0,0.0
1219012451,9.346228,4.2056932,-28.405066,0.93745077,0.0,1.8109076,1.8267252,0.05111122,0.32389998,0.34155798,-5.1051097,0.0,0.0,0.0
1219112288,9.505128,4.424156,-28.405066,0.93745077,0.0,1.7974491,1.8399713,0.04979515,0.28524026,0.33915526,-5.0609555,0.0,0.0,0.0
1219215960,9.672904,4.6548233,-28.405066,0.9377983,0.0,1.78295,1.8540227,0.049985886,0.29897338,0.36667815,-5.1366405,0.0,0.0,0.0
1219316492,9.834829,4.877446,-28.405066,0.93803114,0.0,1.7664914,1.8697132,0.050992966,0.23441689,0.35964954,-5.089171,0.0,0.0,0.0
1219420248,10.0050745,5.1115074,-28.405066,0.9381675,0.0,1.746893,1.8880368,0.04769516,0.14096324,0.3817426,-5.0542436,0.0,0.0,0.0
1219520461,10.168323,5.3359494,-28.405066,0.93864405,0.0,1.7256004,1.9075165,0.04333496,0.117490105,0.39831692,-5.0001607,0.0,0.0,0.0
1219621861,10.333602,5.5631833,-28.405066,0.9389756,0.0,1.7038711,1.9269514,0.035150528,0.126986,0.3835775,-5.047409,0.0,0.0,0.0
1219724296,10.5044365,5.7980556,-28.405066,0.9389756,0.0,1.6803063,1.947535,0.026979446,0.11949481,0.3754265,-5.094503,0.0,0.0,0.0
1219831928,10.682437,6.0427794,-28.405066,0.9397295,0.0,1.6564888,1.9678315,0.019058228,0.14208981,0.36851475,-5.1278996,0.0,0.0,0.0
1219932358,10.84674,6.268673,-28.405066,0.94004065,0.0,1.6350956,1.9856437,0.008766174,0.10991518,0.34181288,-5.0938406,0.0,0.0,0.0
1220036565,11.017882,6.503967,-28.405066,0.9403792,0.0,1.6155063,2.0016127,-0.0023441315,0.074056864,0.31878367,-5.1241183,0.0,0.0,0.0
1220136418,11.182008,6.729615,-28.405066,0.9405158,0.0,1.5983169,2.015366,-0.008771896,0.12675944,0.33080882,-5.136978,0.0,0.0,0.0
1220236562,11.345602,6.954533,-28.405066,0.9407537,0.0,1.5849408,2.0259027,-0.016483307,0.09629481,0.33093446,-5.1528506,0.0,0.0,0.0
1220341809,11.515874,7.188632,-28.405066,0.9410294,0.0,1.5721927,2.0358102,-0.020967484,0.09345047,0.30075198,-5.1048594,0.0,0.0,0.0
1220444318,11.687414,7.424472,-28.405066,0.94121176,0.0,1.5596102,2.0454662,-0.023269653,0.11910926,0.29667833,-5.164308,0.0,0.0,0.0
1220544032,11.852466,7.651394,-28.405066,0.94121176,0.0,1.5493037,2.0532837,-0.025262833,0.09031064,0.243323,-5.114883,0.0,0.0,0.0
1220647959,12.026964,7.891304,-28.405066,0.9414769,0.0,1.5403552,2.0600052,-0.032670975,0.14870971,0.24782899,-5.193726,0.0,0.0,0.0
1220749394,12.194471,8.121601,-28.405066,0.9415933,0.0,1.5329977,2.065486,-0.04137039,0.04505113,0.22680178,-5.1522994,0.0,0.0,0.0
1220850177,12.365144,8.35625,-28.405066,0.9417461,0.0,1.5261266,2.0705671,-0.053833008,0.08138693,0.24357726,-5.2106457,0.0,0.0,0.0
1220949621,12.533678,8.587961,-28.405066,0.9418444,0.0,1.5198201,2.0752022,-0.06454468,0.045213792,0.22616926,-5.2450733,0.0,0.0,0.0
1221053581,12.711038,8.831803,-28.405066,0.9419051,0.0,1.5113997,2.0813417,-0.07556915,0.032827225,0.24929084,-5.1895175,0.0,0.0,0.0
1221154363,12.880941,9.065394,-28.405066,0.9420298,0.0,1.5031408,2.087314,-0.08648491,0.05345692,0.24487643,-5.2260227,0.0,0.0,0.0
1221258678,13.057972,9.308785,-28.405066,0.9422345,0.0,1.4936632,2.0941072,-0.09776878,0.030687273,0.2792955,-5.20097,0.0,0.0,0.0
1221362118,13.233809,9.550535,-28.405066,0.9422345,0.0,1.4835052,2.1013153,-0.10774803,0.014218203,0.26635557,-5.20745,0.0,0.0,0.0
1221466021,13.408777,9.79109,-28.405066,0.94252414,0.0,1.47175,2.1095655,-0.11273384,-0.022915121,0.25613177,-5.104183,0.0,0.0,0.0
1221565852,13.575134,10.019807,-28.405066,0.9426818,0.0,1.4609388,2.1170676,-0.11308479,0.0016274368,0.32402864,-5.1296787,0.0,0.0,0.0
1221669837,13.746082,10.254833,-28.405066,0.9428932,0.0,1.4467618,2.1267793,-0.11334801,-0.05492546,0.31717,-5.024539,0.0,0.0,0.0
1221770195,13.909328,10.479275,-28.405066,0.94307643,0.0,1.433317,2.1358647,-0.11190224,-0.029597796,0.3128751,-5.0639734,0.0,0.0,0.0
1221869744,14.071667,10.702464,-28.405066,0.9431882,0.0,1.4195758,2.1450233,-0.107658386,-0.0076956325,0.34259185,-5.107507,0.0,0.0,0.0
1221974008,14.240173,10.934136,-28.405066,0.9434826,0.0,1.4058709,2.154029,-0.10095787,-0.0790419,0.3780472,-5.0742555,0.0,0.0,0.0
1222074264,14.402009,11.156634,-28.405066,0.9437,0.0,1.3932441,2.162218,-0.097961426,-0.021845026,0.32028475,-5.1071553,0.0,0.0,0.0
1222178173,14.570395,11.388144,-28.405066,0.943857,0.0,1.3826413,2.169013,-0.09480095,-0.03707268,0.30403358,-5.144611,0.0,0.0,0.0
1222278287,14.732873,11.611525,-28.405066,0.9440206,0.0,1.3747102,2.1740494,-0.08765221,-0.040289488,0.26170844,-5.0794153,0.0,0.0,0.0
1222378006,14.896287,11.836193,-28.405066,0.9441176,0.0,1.3678546,2.1783664,-0.087120056,-0.04597886,0.2948622,-5.106653,0.0,0.0,0.0
1222482364,15.06688,12.070732,-28.405066,0.94425684,0.0,1.3632939,2.1812248,-0.08493805,-0.092010126,0.2738138,-5.0822706,0.0,0.0,0.0
1222586021,15.236864,12.304436,-28.405066,0.94432116,0.0,1.359641,2.1835034,-0.08258629,-0.014988776,0.2519795,-5.1256404,0.0,0.0,0.0
1222685623,15.4000025,12.528727,-28.405066,0.9443638,0.0,1.3576441,2.1847465,-0.079618454,-0.098477356,0.2475607,-5.055362,0.0,0.0,0.0
1222789808,15.569362,12.76157,-28.405066,0.9444065,0.0,1.3554027,2.1861382,-0.07508469,-0.05297218,0.28766084,-5.1011868,0.0,0.0,0.0
1222890112,15.732014,12.985192,-28.405066,0.9444285,0.0,1.3530389,2.187602,-0.06886482,-0.073928505,0.26170698,-5.067483,0.0,0.0,0.0
1222993963,15.900913,13.217403,-28.405066,0.9444921,0.0,1.349501,2.1897848,-0.06222534,-0.05004521,0.26291728,-4.9867077,0.0,0.0,0.0
1223098395,16.069471,13.449144,-28.405066,0.9445643,0.0,1.3462422,2.1917887,-0.05742073,-0.07704034,0.3180462,-5.0445485,0.0,0.0,0.0
1223201834,16.23781,13.680588,-28.405066,0.94462544,0.0,1.34134,2.194793,-0.049705505,-0.019162783,0.3269123,-5.0700946,0.0,0.0,0.0
1223301791,16.399149,13.902403,-28.405066,0.94471323,0.0,1.3379035,2.1968904,-0.042160034,0.03272559,0.29112273,-5.101658,0.0,0.0,0.0
1223405692,16.565805,14.131531,-28.405066,0.94478637,0.0,1.3320571,2.2004418,-0.03431511,-0.06582697,0.3043155,-4.9325643,0.0,0.0,0.0
1223506107,16.725513,14.351105,-28.405066,0.9448804,0.0,1.3278996,2.2029533,-0.023366928,-0.026823409,0.34491947,-4.971719,0.0,0.0,0.0
1223605853,16.884134,14.569185,-28.405066,0.9449451,0.0,1.3237356,2.2054565,-0.012138367,0.001682044,0.30516192,-5.0135474,0.0,0.0,0.0
1223709683,17.048326,14.794925,-28.405066,0.94498855,0.0,1.3224463,2.206231,0.0024871826,-0.028574746,0.33111694,-4.927795,0.0,0.0,0.0
1223809932,17.205563,15.011102,-28.405066,0.94502205,0.0,1.3211073,2.207032,0.012609482,-0.012257652,0.33505657,-4.919766,0.0,0.0,0.0
1223913918,17.368458,15.235057,-28.405066,0.9450126,0.0,1.3254552,2.2044227,0.022670746,0.080950454,0.29903913,-4.8540773,0.0,0.0,0.0
1224017870,17.530287,15.45755,-28.405066,0.94496703,0.0,1.3311212,2.2010055,0.034194946,0.073211566,0.294813,-4.8522377,0.0,0.0,0.0
1224117539,17.685259,15.670609,-28.405066,0.9447849,0.0,1.3430749,2.193734,0.046403885,0.13939747,0.23351608,-4.891383,0.0,0.0,0.0
1224221628,17.845572,15.891018,-28.405066,0.94459873,0.0,1.3565307,2.1854377,0.054750443,0.15123332,0.24494919,-4.972138,0.0,0.0,0.0
1224322438,17.999685,16.102901,-28.405066,0.9442637,0.0,1.374886,2.173938,0.058706284,0.2231001,0.17506637,-4.933284,0.0,0.0,0.0
1224421716,18.15363,16.314552,-28.405066,0.9439471,0.0,1.3956205,2.160687,0.06090927,0.28538555,0.14195316,-4.97683,0.0,0.0,0.0
1224525589,18.31445,16.535654,-28.405066,0.943745,0.0,1.4222965,2.1432204,0.0634079,0.35430604,0.09983278,-5.0147166,0.0,0.0,0.0
1224626400,18.468426,16.747345,-28.405066,0.94326526,0.0,1.4474015,2.1263454,0.06188774,0.33912432,0.054899648,-5.0454283,0.0,0.0,0.0
1224730521,18.629744,16.969137,-28.405066,0.94256914,0.0,1.4776181,2.1054597,0.061172485,0.3957559,-0.00032977996,-4.941849,0.0,0.0,0.0
1224833936,18.790155,17.189682,-28.405066,0.942079,0.0,1.5079743,2.0838263,0.05862236,0.4320395,-0.03779844,-4.9481306,0.0,0.0,0.0
1224933856,18.945349,17.403046,-28.405066,0.9415109,0.0,1.5411462,2.0594127,0.057935715,0.5258567,-0.059815805,-4.951991,0.0,0.0,0.0
1225037523,19.106047,17.623983,-28.405066,0.9412424,0.0,1.5748382,2.0337667,0.05639267,0.4934544,-0.11624944,-4.8615775,0.0,0.0,0.0
1225141561,19.267324,17.845718,-28.405066,0.9409454,0.0,1.6093944,2.006529,0.05817032,0.4661006,-0.10437687,-4.8561316,0.0,0.0,0.0
1225243736,19.424437,18.06172,-28.405066,0.93973744,0.0,1.6395966,1.9819287,0.060142517,0.42663142,-0.079940856,-4.8317494,0.0,0.0,0.0
1225347543,19.584852,18.282269,-28.405066,0.9394584,0.0,1.6677058,1.9583312,0.061120987,0.462317,-0.06763377,-4.815235,0.0,0.0,0.0
1225447335,19.738077,18.492931,-28.405066,0.93896294,0.0,1.6893826,1.939666,0.061826706,0.49513286,-0.036838837,-4.837217,0.0,0.0,0.0
1225548619,19.890808,18.702913,-28.405066,0.9385763,0.0,1.7073683,1.9238511,0.05623436,0.43031597,0.00955865,-4.887715,0.0,0.0,0.0
1225651706,20.047722,18.918646,-28.405066,0.93813974,0.0,1.7207878,1.9118594,0.04819107,0.5020912,0.00817558,-4.9532948,0.0,0.0,0.0
1225751235,20.19838,19.125778,-28.405066,0.9379237,0.0,1.731522,1.9021417,0.042087555,0.49176127,0.028601917,-4.9884515,0.0,0.0,0.0
1225855314,20.35456,19.340504,-28.405066,0.9378638,0.0,1.7370105,1.8971335,0.039051056,0.4387358,0.006072178,-4.9086704,0.0,0.0,0.0
1225956119,20.505428,19.547922,-28.405066,0.9377297,0.0,1.7392428,1.8950859,0.038898468,0.42415565,0.037922703,-4.9659166,0.0,0.0,0.0
1226059656,20.66367,19.76548,-28.405066,0.9377625,0.0,1.7367278,1.8973925,0.043123245,0.3409696,0.09494278,-4.971257,0.0,0.0,0.0
1226163599,20.823511,19.985239,-28.405066,0.93780124,0.0,1.729373,1.9040968,0.051454544,0.25617325,0.089731984,-4.8977013,0.0,0.0,0.0
1226263486,20.978558,20.198406,-28.405066,0.93809575,0.0,1.7169682,1.9152876,0.06134796,0.16910677,0.14266744,-4.8220935,0.0,0.0,0.0
1226367170,21.140984,20.421717,-28.405066,0.9383775,0.0,1.7002308,1.930164,0.070207596,0.15974218,0.20043465,-4.92154,0.0,0.0,0.0
1226468004,21.298262,20.637949,-28.405066,0.938764,0.0,1.6795707,1.9481679,0.075611115,0.11428137,0.16373456,-4.843431,0.0,0.0,0.0
1226567324,21.456774,20.85588,-28.405066,0.939147,0.0,1.6587908,1.9658927,0.07659531,0.15040845,0.16338803,-4.962268,0.0,0.0,0.0
1226671286,21.623655,21.085318,-28.405066,0.9393742,0.0,1.6364619,1.9845163,0.07423401,0.070192754,0.0867585,-4.9453025,0.0,0.0,0.0
1226771666,21.785301,21.307558,-28.405066,0.9393742,0.0,1.6161785,2.0010705,0.06978607,0.11369636,0.11572469,-5.0068636,0.0,0.0,0.0
1226871231,21.947416,21.530443,-28.405066,0.9402063,0.0,1.5971853,2.016262,0.06678772,-0.0110328505,0.11743185,-5.0080504,0.0,0.0,0.0
1226975136,22.117134,21.763777,-28.405066,0.94053835,0.0,1.5800222,2.0297396,0.061756134,0.048810318,0.061549406,-5.044332,0.0,0.0,0.0
1227075651,22.281027,21.989105,-28.405066,0.94082487,0.0,1.5660917,2.0405064,0.060531616,0.06991693,0.08859491,-5.030275,0.0,0.0,0.0
1227179944,22.451435,22.22339,-28.405066,0.9410498,0.0,1.5546762,2.0492184,0.058511734,0.06733997,0.093067944,-5.0591755,0.0,0.0,0.0
1227283977,22.621803,22.45762,-28.405066,0.9413183,0.0,1.5458573,2.0558794,0.053634644,0.08296695,0.069965445,-5.060313,0.0,0.0,0.0
1227383188,22.785118,22.682154,-28.405066,0.9414638,0.0,1.5380839,2.0617049,0.04464531,0.08538992,0.13713937,-5.09494,0.0,0.0,0.0
1227487175,22.954828,22.915482,-28.405066,0.9415348,0.0,1.5297198,2.0679162,0.035879135,0.03723355,0.1048771,-5.0428863,0.0,0.0,0.0
1227587496,23.11748,23.139101,-28.405066,0.9415348,0.0,1.520669,2.074577,0.031078339,-0.025986493,0.09520288,-5.0360856,0.0,0.0,0.0
1227687211,23.28012,23.36271,-28.405066,0.9419168,0.0,1.5088567,2.083184,0.026636124,-0.031555615,0.13448733,-5.073655,0.0,0.0,0.0
1227791174,23.450172,23.596508,-28.405066,0.94216704,0.0,1.4932953,2.094371,0.02252388,-0.15248722,0.17226586,-5.0539827,0.0,0.0,0.0
1227891606,23.613853,23.821543,-28.405066,0.9426656,0.0,1.4748422,2.107403,0.019802094,-0.17086281,0.17227115,-5.078114,0.0,0.0,0.0
1227991074,23.77784,24.046999,-28.405066,0.94307,0.0,1.4537923,2.121982,0.015474319,-0.12874168,0.22944726,-5.078661,0.0,0.0,0.0
1228095246,23.947124,24.279741,-28.405066,0.94307,0.0,1.4297528,2.13825,0.015817642,-0.16516525,0.3000095,-4.9752316,0.0,0.0,0.0
1228195682,24.10869,24.501867,-28.405066,0.9438483,0.0,1.4045917,2.154864,0.021453857,-0.20982704,0.3460013,-4.87905,0.0,0.0,0.0
1228299805,24.273691,24.728722,-28.405066,0.9443342,0.0,1.378963,2.171353,0.025970459,-0.125338,0.36493185,-4.854943,0.0,0.0,0.0
1228403999,24.436657,24.952776,-28.405066,0.94479334,0.0,1.3534883,2.1873221,0.029165268,-0.21184027,0.4324125,-4.858654,0.0,0.0,0.0
1228503200,24.590126,25.16377,-28.405066,0.94525194,0.0,1.3315344,2.200758,0.029855728,-0.15609011,0.41181844,-4.788307,0.0,0.0,0.0
1228607227,24.74751,25.380152,-28.405066,0.9456344,0.0,1.3128021,2.2119815,0.026220322,-0.17041115,0.48589188,-4.856577,0.0,0.0,0.0
1228707526,24.897385,25.586206,-28.405066,0.94593346,0.0,1.2995764,2.2197802,0.016500473,-0.12968034,0.43280753,-4.8653703,0.0,0.0,0.0
1228806950,25.045872,25.790356,-28.405066,0.94616246,0.0,1.2896867,2.2255404,0.0066661835,-0.07491708,0.40685034,-4.9402256,0.0,0.0,0.0
1228911218,25.199722,26.001877,-28.405066,0.94625854,0.0,1.281685,2.2301557,-5.722046e-05,-0.11233836,0.46887496,-4.9019747,0.0,0.0,0.0
1229011831,25.346634,26.203857,-28.405066,0.94650465,0.0,1.2762924,2.2332468,-0.0026569366,-0.14765243,0.4728848,-4.851797,0.0,0.0,0.0
1229111440,25.493345,26.405561,-28.405066,0.9466069,0.0,1.2722499,2.2355516,-0.0017929077,-0.14253943,0.44730717,-4.882657,0.0,0.0,0.0
1229215006,25.644833,26.613834,-28.405066,0.9466824,0.0,1.2690102,2.2373946,0.0040893555,-0.13143429,0.4600905,-4.937961,0.0,0.0,0.0
1229315514,25.791218,26.815092,-28.405066,0.9467658,0.0,1.2654804,2.2393913,0.011356354,-0.1594103,0.40881616,-4.9566345,0.0,0.0,0.0
1229419965,25.943096,27.023905,-28.405066,0.946843,0.0,1.2625757,2.2410312,0.022457123,-0.23665683,0.45479843,-4.84396,0.0,0.0,0.0
1229523619,26.096792,27.235212,-28.405066,0.9469284,0.0,1.2578031,2.243711,0.041059494,-0.320863,0.47814113,-4.7132254,0.0,0.0,0.0
1229625300,26.246624,27.441208,-28.405066,0.9470493,0.0,1.2517347,2.247103,0.05923271,-0.31989947,0.42300403,-4.697882,0.0,0.0,0.0
1229724872,26.395178,27.645449,-28.405066,0.9470493,0.0,1.2419192,2.2525408,0.070114136,-0.2875209,0.53996044,-4.719136,0.0,0.0,0.0
1229825628,26.542887,27.848524,-28.405066,0.94748217,0.0,1.2283819,2.2599518,0.07703018,-0.45307517,0.5525516,-4.6435723,0.0,0.0,0.0
1229929331,26.69777,28.061466,-28.405066,0.9478037,0.0,1.2101969,2.2697456,0.0798893,-0.506858,0.5722297,-4.7442207,0.0,0.0,0.0
