timestamp,states[0],states[1],states[2],states[3],states[4],states[5],states[6],states[7],states[8],states[9],states[10],states[11],states[12],states[13],states[14],states[15],states[16],states[17],states[18],states[19],states[20],states[21],states[22],states[23],n_states,vibe[0],vibe[1],vibe[2],covariances[0],covariances[1],covariances[2],covariances[3],covariances[4],covariances[5],covariances[6],covariances[7],covariances[8],covariances[9],covariances[10],covariances[11],covariances[12],covariances[13],covariances[14],covariances[15],covariances[16],covariances[17],covariances[18],covariances[19],covariances[20],covariances[21],covariances[22],covariances[23],control_mode_flags,pos_horiz_accuracy,pos_vert_accuracy,mag_test_ratio,vel_test_ratio,pos_test_ratio,hgt_test_ratio,tas_test_ratio,hagl_test_ratio,beta_test_ratio,time_slip,gps_check_fail_flags,filter_fault_flags,innovation_check_flags,solution_status_flags,nan_flags,health_flags,timeout_flags,pre_flt_fail
1184732700,-0.99782133,0.0017095435,-0.006896179,0.06559144,0.058899548,0.08821495,-0.009218124,7.1407175,-7.3201504,2.0620463,-0.00017145685,0.0002260821,-5.35368e-06,-0.00021354675,0.00030038322,-0.00027734993,0.1959121,0.052494485,0.36977926,0.0,0.0,0.0,0.0,0.0,0.0,1.1377249e-09,1.0201492e-05,0.00023554784,1.0571182e-06,5.5357636e-06,5.540323e-06,4.2071923e-05,0.01100777,0.011007929,0.0089226505,0.038368985,0.038368933,0.055449877,1.0390579e-11,1.0389301e-11,1.8977276e-11,5.3752068e-08,5.3749062e-08,5.0000036e-08,0.0,0.0,0.0,0.0,0.0,0.0,0.0,0.0,663,0.2770161,0.23547797,0.014023938,0.033647425,0.01748428,0.0042140987,0.0,0.0,0.0,8.7e-05,0,0,0,831,0,0,0,0
1184934355,-0.99782664,0.001748658,-0.006966275,0.06550214,0.058096834,0.09042051,-0.010818683,7.1501684,-7.299271,2.052272,-0.00017142366,0.00022604817,-5.368171e-06,-0.00021354377,0.00030038026,-0.00027498594,0.1959121,0.052494485,0.36977926,0.0,0.0,0.0,0.0,0.0,0.0,1.1257155e-09,1.037772e-05,0.00049417315,1.0571156e-06,5.372276e-06,5.3767335e-06,4.2141633e-05,0.009728026,0.009728143,0.008793874,0.032522917,0.032522894,0.055068143,1.0286375e-11,1.0285024e-11,1.8990155e-11,5.3752963e-08,5.3749957e-08,5e-08,0.0,0.0,0.0,0.0,0.0,0.0,0.0,0.0,663,0.2550408,0.23466602,0.000573823,0.03129689,0.016962396,0.028677545,0.0,0.0,0.0,0.000141,0,0,0,831,0,0,0,0
1185138379,-0.997833,0.0017861993,-0.0069191456,0.065409325,0.061410405,0.09101141,-0.0133964075,7.1637425,-7.280637,2.0390077,-0.00017139218,0.00022604837,-5.413285e-06,-0.00021353371,0.00030039146,-0.00027183472,0.1959121,0.052494485,0.36977926,0.0,0.0,0.0,0.0,0.0,0.0,2.2285727e-08,0.000136855,0.0025947809,1.0572352e-06,5.3778967e-06,5.382337e-06,4.215166e-05,0.009765539,0.009765654,0.008760805,0.032683842,0.032683846,0.054624256,1.0288754e-11,1.0287376e-11,1.8990377e-11,5.375389e-08,5.3750885e-08,5e-08,0.0,0.0,0.0,0.0,0.0,0.0,0.0,0.0,663,0.25567105,0.23371832,0.01567339,0.044485778,0.019319251,0.056957982,0.0,0.0,0.0,0.000166,0,0,0,831,0,0,0,0
1185338327,-0.99784005,0.0021890567,-0.007009563,0.06528044,0.059135426,0.07059102,-0.020716216,7.180569,-7.258431,2.027429,-0.00017139556,0.00022606854,-5.3962085e-06,-0.00021352537,0.00030040412,-0.00026850926,0.1959121,0.052494485,0.36977926,0.0,0.0,0.0,0.0,0.0,0.0,3.4223504e-08,0.000174217,0.0038022422,1.0560359e-06,5.376851e-06,5.3813856e-06,4.2063733e-05,0.009761549,0.00976151,0.008769787,0.032665733,0.03266575,0.054734692,1.0287504e-11,1.0286098e-11,1.8973528e-11,5.3754786e-08,5.3751776e-08,5e-08,0.0,0.0,0.0,0.0,0.0,0.0,0.0,0.0,663,0.25560024,0.23395446,0.011593172,0.023146199,0.018908244,0.024336213,0.0,0.0,0.0,0.000114,0,0,0,831,0,0,0,0
1185542314,-0.9977943,0.0029313392,-0.007624167,0.06587783,0.075059354,0.09126842,-0.008064507,7.1939096,-7.2392898,2.0462987,-0.00017139553,0.00022606824,-5.3957583e-06,-0.00021353734,0.0003003904,-0.0002746832,0.1959121,0.052494485,0.36977926,0.0,0.0,0.0,0.0,0.0,0.0,2.36142e-08,0.00013247968,0.0031196019,1.0593437e-06,5.5392497e-06,5.5438754e-06,4.2051342e-05,0.011032086,0.0110321995,0.008918773,0.03851193,0.038511977,0.055351835,1.0389921e-11,1.0388536e-11,1.8971902e-11,5.3755688e-08,5.375268e-08,5e-08,0.0,0.0,0.0,0.0,0.0,0.0,0.0,0.0,663,0.2775318,0.23526971,0.022825716,0.023146199,0.018908244,0.022703132,0.0,0.0,0.0,8.9e-05,0,0,0,831,0,0,0,0
1185747815,-0.99785,0.0026260107,-0.006807271,0.065133154,0.06788892,0.0975833,-0.016442603,7.2026286,-7.2184486,2.038658,-0.00017133747,0.00022600034,-5.3905355e-06,-0.00021352281,0.0003003927,-0.0002723212,0.1959121,0.052494485,0.36977926,0.0,0.0,0.0,0.0,0.0,0.0,2.5004534e-08,0.00012053641,0.003058738,1.05498e-06,5.3787962e-06,5.383574e-06,4.1991105e-05,0.009782236,0.009782234,0.008815462,0.03279256,0.032792587,0.0552206,1.0287623e-11,1.0286164e-11,1.8959648e-11,5.3756622e-08,5.3753613e-08,5e-08,0.0,0.0,0.0,0.0,0.0,0.0,0.0,0.0,663,0.25609598,0.23499064,0.043113526,0.03434935,0.015872048,0.010321577,0.0,0.0,0.0,2e-06,0,0,0,831,0,0,0,0
1185952053,-0.99783826,0.009610138,-0.008301322,0.0644802,0.06638848,0.10713449,-0.030643735,7.220324,-7.1979265,2.0342026,-0.00017132086,0.00022599833,-5.3801095e-06,-0.00021352083,0.00030038698,-0.00027122593,0.1959121,0.052494485,0.36977926,0.0,0.0,0.0,0.0,0.0,0.0,9.4842255e-07,0.0005609395,0.009556009,1.0529006e-06,5.380882e-06,5.390526e-06,4.1983978e-05,0.009808682,0.009808562,0.008826807,0.032852843,0.03285287,0.0553731,1.0291782e-11,1.0290305e-11,1.8962158e-11,5.3757553e-08,5.3754544e-08,5.000007e-08,0.0,0.0,0.0,0.0,0.0,0.0,0.0,0.0,663,0.25633126,0.23531489,0.03619323,0.0258263,0.022467103,0.010153939,0.0,0.0,0.0,0.000179,0,0,0,831,0,0,0,0
1186151785,-0.9956689,0.06586687,-0.015096446,0.063852236,0.012279158,-0.28331882,-0.35829556,7.23838,-7.1856327,1.9984982,-0.00017137168,0.00022600021,-5.3367216e-06,-0.00021357549,0.0003003046,-0.00027304917,0.1959121,0.052494485,0.36977926,0.0,0.0,0.0,0.0,0.0,0.0,8.430713e-07,0.00073060207,0.012485589,1.078067e-06,5.357003e-06,5.5494443e-06,4.181595e-05,0.010006353,0.009983518,0.008836008,0.032870296,0.032870304,0.055473227,1.029064e-11,1.0289066e-11,1.8960451e-11,5.3758303e-08,5.3755254e-08,5.000007e-08,0.0,0.0,0.0,0.0,0.0,0.0,0.0,0.0,663,0.2563993,0.23552755,0.013089159,0.14680506,0.029123487,0.021884255,0.0,0.0,0.0,-2.9e-05,0,0,0,831,0,0,0,0
1186355921,-0.99622136,0.054831754,-0.029656295,0.06047413,-0.04422713,-0.44906253,-0.85329336,7.234046,-7.2623396,1.7999464,-0.00017131123,0.00022596397,-5.3532763e-06,-0.0002137971,0.00030001186,-0.0002550239,0.1959121,0.052494485,0.36977926,0.0,0.0,0.0,0.0,0.0,0.0,1.2130632e-06,0.0010355032,0.016534314,1.0538421e-06,5.386443e-06,5.48998e-06,4.1792915e-05,0.010319328,0.01027778,0.008800664,0.033135675,0.0331352,0.055069875,1.0290728e-11,1.0289052e-11,1.8947868e-11,5.3758125e-08,5.3754942e-08,5.0000036e-08,0.0,0.0,0.0,0.0,0.0,0.0,0.0,0.0,663,0.2574313,0.23466972,0.020316735,0.062403247,0.027699007,0.029928194,0.0,0.0,0.0,0.000108,0,0,0,831,0,0,0,0
1186559796,-0.9980849,0.006906817,-0.025261054,0.056043137,-0.14847974,-0.57899016,-1.005577,7.217545,-7.365714,1.551246,-0.00017129433,0.0002259541,-5.3443805e-06,-0.00021390984,0.00029989786,-0.00023787464,0.1959121,0.052494485,0.36977926,0.0,0.0,0.0,0.0,0.0,0.0,1.0475907e-06,0.0010606049,0.016984953,1.0103075e-06,5.3873464e-06,5.3712793e-06,4.191896e-05,0.010383727,0.010329014,0.008813018,0.033202697,0.03320052,0.055180613,1.0285934e-11,1.0284197e-11,1.8945375e-11,5.37575e-08,5.3754196e-08,5.0000075e-08,0.0,0.0,0.0,0.0,0.0,0.0,0.0,0.0,663,0.25768822,0.23490554,0.0073343785,0.033290792,0.024708286,0.122756235,0.0,0.0,0.0,-1.7e-05,0,0,0,831,0,0,0,0
1186759938,-0.99819,-0.019425515,-0.021570787,0.05267021,-0.22067304,-0.5529797,-0.9952783,7.190669,-7.4815245,1.2644738,-0.00017124845,0.00022597662,-5.383748e-06,-0.00021386222,0.00029972306,-0.00021417454,0.1959121,0.052494485,0.36977926,0.0,0.0,0.0,0.0,0.0,0.0,8.386249e-07,0.0009910816,0.016122319,9.921235e-07,5.370273e-06,5.3750646e-06,4.1908548e-05,0.010306599,0.010269461,0.008824482,0.03323063,0.033226077,0.05530429,1.0280111e-11,1.0278417e-11,1.8942823e-11,5.3757002e-08,5.3753634e-08,5.000007e-08,0.0,0.0,0.0,0.0,0.0,0.0,0.0,0.0,663,0.25779197,0.23516864,0.0037623006,0.05145798,0.035931177,0.04401113,0.0,0.0,0.0,0.000123,0,0,0,831,0,0,0,0
1186959944,-0.9979741,-0.03529865,-0.011295377,0.051712405,-0.24516074,-0.45119417,-0.9636662,7.156001,-7.5933633,1.0135772,-0.00017115822,0.00022601966,-5.3993913e-06,-0.00021368227,0.00029944192,-0.0001985674,0.1959121,0.052494485,0.36977926,0.0,0.0,0.0,0.0,0.0,0.0,5.930022e-07,0.0009773644,0.01610312,9.890608e-07,5.346608e-06,5.4015673e-06,4.187453e-05,0.010226004,0.010212388,0.008762733,0.03327862,0.0332722,0.05465933,1.0276351e-11,1.0274767e-11,1.8940915e-11,5.3756743e-08,5.3753208e-08,5e-08,0.0,0.0,0.0,0.0,0.0,0.0,0.0,0.0,663,0.25797445,0.23379335,0.044492412,0.08249474,0.039733816,0.008204092,0.0,0.0,0.0,0.000131,0,0,0,831,0,0,0,0
1187163984,-0.997953,-0.038040373,-0.003133942,0.05131268,-0.22661784,-0.31690544,-0.9131487,7.119856,-7.6798916,0.8403729,-0.00017112173,0.00022605983,-5.3765752e-06,-0.00021357666,0.00029924457,-0.0002051961,0.1959121,0.052494485,0.36977926,0.0,0.0,0.0,0.0,0.0,0.0,4.6049917e-07,0.0009831175,0.016641578,9.883869e-07,5.339547e-06,5.407127e-06,4.19599e-05,0.010204122,0.010204915,0.008801668,0.03353369,0.03352675,0.055055592,1.027742e-11,1.0275983e-11,1.8958475e-11,5.3756708e-08,5.3753023e-08,5.0000075e-08,0.0,0.0,0.0,0.0,0.0,0.0,0.0,0.0,663,0.2589603,0.23463929,0.010225305,0.03126618,0.0443777,0.06683297,0.0,0.0,0.0,0.000125,0,0,0,831,0,0,0,0
1187367973,-0.9981462,-0.032446183,0.0028483022,0.051413313,-0.18467848,-0.18456735,-0.85855085,7.0812335,-7.731526,0.68688846,-0.00017110974,0.00022601937,-5.3485273e-06,-0.0002137227,0.00029903586,-0.0002124248,0.1959121,0.052494485,0.36977926,0.0,0.0,0.0,0.0,0.0,0.0,3.872752e-07,0.0009895636,0.017432624,9.88581e-07,5.332538e-06,5.382124e-06,4.1964984e-05,0.010140261,0.010144208,0.008745189,0.033552203,0.033546355,0.054445796,1.0274776e-11,1.0273493e-11,1.8957117e-11,5.3756715e-08,5.375289e-08,5e-08,0.0,0.0,0.0,0.0,0.0,0.0,0.0,0.0,663,0.2590339,0.23333623,0.017755551,0.07465955,0.042456195,0.024689473,0.0,0.0,0.0,0.00016,0,0,0,831,0,0,0,0
1187571916,-0.9983093,-0.026685068,0.0019727051,0.0516003,-0.14413007,-0.08210624,-0.85208064,7.0543675,-7.760121,0.52115786,-0.00017110688,0.00022601709,-5.3292047e-06,-0.0002137261,0.0002989972,-0.00021403922,0.1959121,0.052494485,0.36977926,0.0,0.0,0.0,0.0,0.0,0.0,3.712161e-07,0.001017703,0.01795603,9.88589e-07,5.3320714e-06,5.3672666e-06,4.1991752e-05,0.010158225,0.010159755,0.008787579,0.033783775,0.033779826,0.054852378,1.0276901e-11,1.0275756e-11,1.8959948e-11,5.3756867e-08,5.375287e-08,5.0000036e-08,0.0,0.0,0.0,0.0,0.0,0.0,0.0,0.0,663,0.25992998,0.23420584,0.027976347,0.04791546,0.037491668,0.028186271,0.0,0.0,0.0,9.7e-05,0,0,0,831,0,0,0,0
1187771955,-0.9983867,-0.023957262,-0.0006949982,0.05147376,-0.11251054,-0.0070226123,-0.84399146,7.0286055,-7.7816358,0.36682776,-0.00017100439,0.00022598247,-5.2867017e-06,-0.00021362802,0.00029861627,-0.0002182404,0.1959121,0.052494485,0.36977926,0.0,0.0,0.0,0.0,0.0,0.0,3.5495898e-07,0.0010344259,0.018002937,9.867077e-07,5.322055e-06,5.351838e-06,4.183493e-05,0.0101091275,0.010106143,0.008800527,0.03372382,0.03372179,0.054991145,1.02731825e-11,1.0272167e-11,1.8929526e-11,5.3757002e-08,5.3752817e-08,5.000007e-08,0.0,0.0,0.0,0.0,0.0,0.0,0.0,0.0,663,0.25970292,0.23450191,0.06867926,0.07952904,0.029004972,0.026162833,0.0,0.0,0.0,0.000141,0,0,0,831,0,0,0,0
1187971806,-0.99843955,-0.019686295,-0.003250231,0.05215721,-0.074381776,0.06294391,-0.82483596,7.0332465,-7.784436,0.23315427,-0.0001709602,0.00022611732,-5.2380883e-06,-0.0002132926,0.00029862215,-0.00022859982,0.1959121,0.052494485,0.36977926,0.0,0.0,0.0,0.0,0.0,0.0,3.5406745e-07,0.0010329392,0.017549763,9.889415e-07,5.317571e-06,5.33934e-06,4.1912543e-05,0.010086681,0.010078349,0.008747365,0.033728965,0.033728518,0.054394893,1.0272679e-11,1.0271758e-11,1.894353e-11,5.37572e-08,5.375282e-08,5e-08,0.0,0.0,0.0,0.0,0.0,0.0,0.0,0.0,663,0.25972578,0.23322713,0.027744109,0.0759338,0.036782116,0.045365926,0.0,0.0,0.0,-7e-06,0,0,0,831,0,0,0,0
1188175730,-0.99843675,-0.01525956,-0.0033925264,0.053663597,-0.07110402,0.12651548,-0.81687343,7.0201893,-7.7678804,0.09946106,-0.0001709392,0.00022607874,-5.196198e-06,-0.00021329378,0.00029837346,-0.00023651659,0.1959121,0.052494485,0.36977926,0.0,0.0,0.0,0.0,0.0,0.0,3.6098945e-07,0.0010903185,0.018496497,9.95305e-07,5.3136705e-06,5.328467e-06,4.198452e-05,0.010071037,0.010057509,0.008765512,0.033730768,0.03373128,0.054561175,1.0272571e-11,1.0271736e-11,1.8957254e-11,5.3757443e-08,5.3752867e-08,5.000004e-08,0.0,0.0,0.0,0.0,0.0,0.0,0.0,0.0,663,0.25973457,0.23358333,0.021530509,0.06643846,0.03353787,0.024379268,0.0,0.0,0.0,-8.3e-05,0,0,0,831,0,0,0,0
1188379904,-0.9984172,-0.00984956,-0.0040081674,0.055227865,-0.0697755,0.16594271,-0.80327517,6.990152,-7.7322774,-0.057124585,-0.00017095741,0.00022591796,-5.1767533e-06,-0.00021352069,0.0002979639,-0.00024028818,0.1959121,0.052494485,0.36977926,0.0,0.0,0.0,0.0,0.0,0.0,3.7778491e-07,0.0011678356,0.019318344,1.0024138e-06,5.3165736e-06,5.3253743e-06,4.199715e-05,0.010097364,0.010081421,0.008812598,0.033949528,0.03395035,0.05499949,1.0276649e-11,1.0275905e-11,1.8959796e-11,5.3757738e-08,5.3752945e-08,5.000007e-08,0.0,0.0,0.0,0.0,0.0,0.0,0.0,0.0,663,0.26057607,0.2345197,0.035845164,0.15567307,0.021545883,0.01422974,0.0,0.0,0.0,9.1e-05,0,0,0,831,0,0,0,0
1188579940,-0.998395,-0.0053141285,-0.004729453,0.056186266,-0.06535967,0.17695983,-0.81534785,6.9776564,-7.7092094,-0.2044011,-0.0001708702,0.00022589884,-5.111828e-06,-0.00021332224,0.00029779883,-0.00024218948,0.1959121,0.052494485,0.36977926,0.0,0.0,0.0,0.0,0.0,0.0,3.806802e-07,0.0012345958,0.019682204,1.0063027e-06,5.312129e-06,5.318113e-06,4.1909138e-05,0.010076348,0.0100602,0.008758427,0.03391352,0.03391399,0.0544077,1.0275884e-11,1.02752355e-11,1.894349e-11,5.3758033e-08,5.375303e-08,5e-08,0.0,0.0,0.0,0.0,0.0,0.0,0.0,0.0,663,0.26043716,0.23325458,0.04112985,0.07015858,0.020798728,0.013466051,0.0,0.0,0.0,0.000127,0,0,0,831,0,0,0,0
1188779808,-0.9983502,-0.0013332337,-0.0045291376,0.057224974,-0.04961368,0.1709312,-0.8103665,6.971037,-7.6848927,-0.35431656,-0.00017079875,0.00022591474,-5.053297e-06,-0.00021314136,0.00029771822,-0.00024542594,0.1959121,0.052494485,0.36977926,0.0,0.0,0.0,0.0,0.0,0.0,3.0342375e-07,0.001075445,0.01685421,1.0113407e-06,5.308582e-06,5.31381e-06,4.197631e-05,0.0100483075,0.010034132,0.008775002,0.033879373,0.03387913,0.054575756,1.02755695e-11,1.0275024e-11,1.8956737e-11,5.3758367e-08,5.375316e-08,5.0000036e-08,0.0,0.0,0.0,0.0,0.0,0.0,0.0,0.0,663,0.26030463,0.23361455,0.057304,0.056204766,0.02132742,0.0152688855,0.0,0.0,0.0,-5e-06,0,0,0,831,0,0,0,0
1188983931,-0.99829066,0.0031126076,-0.0023024667,0.05831762,-0.04861025,0.15248202,-0.8155408,6.95502,-7.658298,-0.5070846,-0.00017075417,0.00022584753,-4.9545365e-06,-0.00021305255,0.0002974957,-0.0002476167,0.1959121,0.052494485,0.36977926,0.0,0.0,0.0,0.0,0.0,0.0,2.4642273e-07,0.0010268971,0.015537963,1.016498e-06,5.3055396e-06,5.311667e-06,4.1963693e-05,0.010027127,0.010016422,0.008790392,0.03384765,0.033846587,0.05474036,1.0275651e-11,1.0275219e-11,1.8955226e-11,5.3758747e-08,5.375331e-08,5.0000036e-08,0.0,0.0,0.0,0.0,0.0,0.0,0.0,0.0,663,0.26018116,0.23396657,0.10922579,0.08061553,0.019267686,0.0013809567,0.0,0.0,0.0,0.000103,0,0,0,831,0,0,0,0
1189187926,-0.99824667,0.004409798,0.0013911745,0.05901053,-0.038010884,0.13164848,-0.82688886,6.943254,-7.622766,-0.6553481,-0.00017079947,0.0002257961,-4.960997e-06,-0.00021315242,0.0002973041,-0.0002532959,0.1959121,0.052494485,0.36977926,0.0,0.0,0.0,0.0,0.0,0.0,2.3698053e-07,0.0011046934,0.016767291,1.0207111e-06,5.312392e-06,5.3183617e-06,4.1972635e-05,0.010073536,0.01006695,0.008832786,0.034071628,0.034069818,0.055162802,1.0281106e-11,1.0280789e-11,1.8957747e-11,5.37592e-08,5.375355e-08,5.0000075e-08,0.0,0.0,0.0,0.0,0.0,0.0,0.0,0.0,663,0.26103917,0.23486763,0.013360028,0.054558236,0.016451119,0.032258444,0.0,0.0,0.0,0.000114,0,0,0,831,0,0,0,0
1189387811,-0.9982116,0.0019214168,0.0037483538,0.05963198,-0.012360384,0.0916306,-0.8469292,6.9288855,-7.6030893,-0.7991251,-0.00017077007,0.00022571743,-4.918883e-06,-0.00021310126,0.00029707528,-0.00025811573,0.1959121,0.052494485,0.36977926,0.0,0.0,0.0,0.0,0.0,0.0,2.4796813e-07,0.0012710833,0.01933332,1.0233273e-06,5.3141816e-06,5.318041e-06,4.204021e-05,0.010075793,0.010074044,0.008774998,0.034073874,0.034071673,0.054555427,1.0282474e-11,1.0282265e-11,1.8971009e-11,5.3759656e-08,5.3753777e-08,5e-08,0.0,0.0,0.0,0.0,0.0,0.0,0.0,0.0,663,0.261047,0.23357104,0.0064155636,0.07724192,0.007279705,0.056453835,0.0,0.0,0.0,-5.6e-05,0,0,0,831,0,0,0,0
1189591805,-0.9981751,0.00036527572,0.0031723385,0.060301386,0.015794864,0.08319535,-0.8488582,6.9276376,-7.5856714,-0.9429802,-0.00017076838,0.00022569265,-4.8397087e-06,-0.00021311016,0.0002969105,-0.00026522126,0.1959121,0.052494485,0.36977926,0.0,0.0,0.0,0.0,0.0,0.0,2.6710535e-07,0.0012339579,0.01946186,1.025283e-06,5.31484e-06,5.3188005e-06,4.202951e-05,0.01007199,0.010072738,0.008788935,0.034073137,0.03407092,0.054710876,1.0283625e-11,1.0283511e-11,1.8969154e-11,5.3760143e-08,5.3754047e-08,5.0000036e-08,0.0,0.0,0.0,0.0,0.0,0.0,0.0,0.0,663,0.26104414,0.23390356,0.0057378504,0.027954383,0.00724809,0.0534938,0.0,0.0,0.0,-1e-05,0,0,0,831,0,0,0,0
1189791925,-0.99813664,0.0014596303,0.001371757,0.06098607,0.05128874,0.04801037,-0.84553295,6.935177,-7.5848165,-1.0938445,-0.00017068798,0.00022569716,-4.806787e-06,-0.0002129685,0.0002968632,-0.00026956413,0.1959121,0.052494485,0.36977926,0.0,0.0,0.0,0.0,0.0,0.0,2.744442e-07,0.0011401911,0.018172752,1.0284809e-06,5.31653e-06,5.3218437e-06,4.2096446e-05,0.010075024,0.01007919,0.008801078,0.034104068,0.03410214,0.054854646,1.0285825e-11,1.0285789e-11,1.8981988e-11,5.376067e-08,5.3754334e-08,5.0000036e-08,0.0,0.0,0.0,0.0,0.0,0.0,0.0,0.0,663,0.26116318,0.23421068,0.060989633,0.06430872,0.006425664,0.0266481,0.0,0.0,0.0,7.9e-05,0,0,0,831,0,0,0,0
1189995747,-0.9980749,-0.0004011501,-0.0015750631,0.06199843,0.06618157,0.022589266,-0.8580426,6.9344015,-7.584305,-1.2583088,-0.00017063394,0.0002256109,-4.751258e-06,-0.00021286456,0.00029667772,-0.00027285918,0.1959121,0.052494485,0.36977926,0.0,0.0,0.0,0.0,0.0,0.0,2.6497233e-07,0.0010917134,0.017886378,1.0325192e-06,5.3236427e-06,5.3292083e-06,4.218345e-05,0.010124251,0.010130419,0.008772601,0.034324393,0.034323048,0.054521147,1.0290706e-11,1.02907335e-11,1.8998692e-11,5.3761266e-08,5.3754682e-08,5e-08,0.0,0.0,0.0,0.0,0.0,0.0,0.0,0.0,663,0.26200658,0.23349763,0.05659189,0.077718444,0.008818022,0.010915744,0.0,0.0,0.0,-6.6e-05,0,0,0,831,0,0,0,0
1190197587,-0.99798536,-0.0023685312,-0.0035564124,0.063300475,0.058720365,0.015618183,-0.88696975,6.9426017,-7.5888247,-1.4146194,-0.00017058312,0.00022559284,-4.6991568e-06,-0.00021280709,0.0002965849,-0.00027731017,0.1959121,0.052494485,0.36977926,0.0,0.0,0.0,0.0,0.0,0.0,2.8826506e-07,0.001195155,0.01892455,1.0379479e-06,5.3241906e-06,5.3294734e-06,4.2167496e-05,0.010129831,0.01013543,0.008787141,0.03431097,0.034310374,0.054701835,1.0292212e-11,1.02923e-11,1.8998154e-11,5.3761884e-08,5.3755073e-08,5e-08,0.0,0.0,0.0,0.0,0.0,0.0,0.0,0.0,663,0.26195675,0.23388423,0.018960766,0.031445682,0.011410541,0.007814587,0.0,0.0,0.0,0.000174,0,0,0,831,0,0,0,0
1190397510,-0.99791557,-0.00210361,-0.004899884,0.0643129,0.05856223,-0.0036462024,-0.8960459,6.92934,-7.591692,-1.5896943,-0.00017054175,0.00022543098,-4.656369e-06,-0.00021267294,0.00029639818,-0.0002767356,0.1959121,0.052494485,0.36977926,0.0,0.0,0.0,0.0,0.0,0.0,3.3274517e-07,0.0013928459,0.021522198,1.0429178e-06,5.322568e-06,5.3276385e-06,4.222873e-05,0.010100147,0.010106453,0.008794665,0.034198944,0.0341991,0.054749463,1.0288785e-11,1.0288918e-11,1.9006996e-11,5.3762495e-08,5.3755457e-08,5.0000036e-08,0.0,0.0,0.0,0.0,0.0,0.0,0.0,0.0,663,0.2615302,0.23398603,0.02548341,0.122712135,0.020900141,0.025989613,0.0,0.0,0.0,7e-05,0,0,0,831,0,0,0,0
1190601538,-0.99787337,-0.0040192995,-0.0028351545,0.06499635,0.060709342,-0.00037826225,-0.87926924,6.9234776,-7.5883765,-1.7546071,-0.0001705602,0.000225326,-4.616563e-06,-0.00021265751,0.00029613997,-0.00028253155,0.1959121,0.052494485,0.36977926,0.0,0.0,0.0,0.0,0.0,0.0,3.0294512e-07,0.0013776263,0.02176718,1.0457142e-06,5.3313042e-06,5.336386e-06,4.2157048e-05,0.01014474,0.010151137,0.008835529,0.034436226,0.034437172,0.05516886,1.0294182e-11,1.0294346e-11,1.8993411e-11,5.3763205e-08,5.3755933e-08,5.000007e-08,0.0,0.0,0.0,0.0,0.0,0.0,0.0,0.0,663,0.2624374,0.23488052,0.01438297,0.06581706,0.023512363,0.012915186,0.0,0.0,0.0,0.000125,0,0,0,831,0,0,0,0
1190801365,-0.99781764,-0.0074391104,-0.0040061986,0.06548766,0.049256273,0.015747454,-0.891957,6.9164677,-7.5818715,-1.9200037,-0.00017058759,0.00022520576,-4.569171e-06,-0.00021258899,0.00029597786,-0.00028365187,0.1959121,0.052494485,0.36977926,0.0,0.0,0.0,0.0,0.0,0.0,2.8261434e-07,0.0013283077,0.02130673,1.0468855e-06,5.331228e-06,5.336507e-06,4.2064472e-05,0.010131387,0.010136996,0.00877624,0.034382008,0.034383647,0.05456157,1.0293112e-11,1.02933035e-11,1.8976104e-11,5.3763905e-08,5.375636e-08,5e-08,0.0,0.0,0.0,0.0,0.0,0.0,0.0,0.0,663,0.26223207,0.23358418,0.018520765,0.082836024,0.017245099,0.026178028,0.0,0.0,0.0,-5.7e-05,0,0,0,831,0,0,0,0
1191001419,-0.99782807,-0.0067031044,-0.0025842614,0.065480635,0.064689346,0.026379272,-0.88107353,6.9095974,-7.5768337,-2.0763586,-0.00017058672,0.00022508863,-4.5286756e-06,-0.00021250674,0.00029578188,-0.00028927505,0.1959121,0.052494485,0.36977926,0.0,0.0,0.0,0.0,0.0,0.0,2.7976967e-07,0.0012572929,0.02024467,1.0466676e-06,5.3341864e-06,5.3392264e-06,4.20561e-05,0.010132965,0.010139261,0.008789431,0.034397792,0.03440004,0.054717585,1.0294588e-11,1.0294788e-11,1.8973994e-11,5.3764623e-08,5.375682e-08,5e-08,0.0,0.0,0.0,0.0,0.0,0.0,0.0,0.0,663,0.2622934,0.2339179,0.04220012,0.08307879,0.018479304,0.025160292,0.0,0.0,0.0,6e-06,0,0,0,831,0,0,0,0
1191205593,-0.9978573,-0.006426557,-0.00027541918,0.06511215,0.085722044,0.029958943,-0.898288,6.914833,-7.570825,-2.256059,-0.0001705856,0.00022504143,-4.447581e-06,-0.00021246236,0.00029576785,-0.00028824745,0.1959121,0.052494485,0.36977926,0.0,0.0,0.0,0.0,0.0,0.0,3.368822e-07,0.0014208206,0.02269516,1.044149e-06,5.3354956e-06,5.3402396e-06,4.2050848e-05,0.01013419,0.010141132,0.008797016,0.034380533,0.034383304,0.054840736,1.0294713e-11,1.0294908e-11,1.8972197e-11,5.376536e-08,5.3757297e-08,5e-08,0.0,0.0,0.0,0.0,0.0,0.0,0.0,0.0,663,0.2622286,0.23418099,0.010599245,0.02842748,0.0124118775,0.007296568,0.0,0.0,0.0,0.00018,0,0,0,831,0,0,0,0
1191405553,-0.9978738,-0.005165118,0.0006637561,0.06496866,0.08671928,0.038098097,-0.91246796,6.922666,-7.5633745,-2.422621,-0.00017058347,0.00022497676,-4.399009e-06,-0.00021240168,0.00029571206,-0.00029065183,0.1959121,0.052494485,0.36977926,0.0,0.0,0.0,0.0,0.0,0.0,3.6418567e-07,0.0014571457,0.022782778,1.0432011e-06,5.338726e-06,5.3431113e-06,4.2043688e-05,0.010147934,0.010154296,0.008805851,0.03439767,0.034400962,0.05496749,1.029593e-11,1.0296104e-11,1.8970282e-11,5.3766097e-08,5.3757773e-08,5.0000036e-08,0.0,0.0,0.0,0.0,0.0,0.0,0.0,0.0,663,0.26229492,0.23445146,0.027245155,0.048810508,0.0069879442,0.01699191,0.0,0.0,0.0,0.00014,0,0,0,831,0,0,0,0
1191609416,-0.9979168,-0.004226721,-0.0008745079,0.06436963,0.12073771,0.03171047,-0.9036573,6.9429283,-7.5552707,-2.591053,-0.00017058788,0.0002249587,-4.3830933e-06,-0.00021241025,0.00029557748,-0.00029720465,0.1959121,0.052494485,0.36977926,0.0,0.0,0.0,0.0,0.0,0.0,3.6237225e-07,0.0013989952,0.021914165,1.0400402e-06,5.3452377e-06,5.3496506e-06,4.2059244e-05,0.010178983,0.010186394,0.008840434,0.034576125,0.03457996,0.055349313,1.0298878e-11,1.0299005e-11,1.8972294e-11,5.3766872e-08,5.375829e-08,5.000007e-08,0.0,0.0,0.0,0.0,0.0,0.0,0.0,0.0,663,0.26297542,0.23526435,0.033874415,0.021737384,0.0033156734,0.017053042,0.0,0.0,0.0,3e-06,0,0,0,831,0,0,0,0
1191813389,-0.99793696,-0.0049630716,-0.0048726355,0.06382458,0.1305355,0.030845739,-0.9161231,6.9560704,-7.555287,-2.753485,-0.00017054027,0.00022486754,-4.3816085e-06,-0.00021230902,0.0002955588,-0.00030264063,0.1959121,0.052494485,0.36977926,0.0,0.0,0.0,0.0,0.0,0.0,3.8231437e-07,0.001405857,0.021644551,1.0371346e-06,5.3473696e-06,5.3508156e-06,4.212967e-05,0.010173967,0.01018126,0.008845629,0.034533348,0.03453761,0.055455185,1.02980315e-11,1.02980844e-11,1.898493e-11,5.3767597e-08,5.3758747e-08,5.000007e-08,0.0,0.0,0.0,0.0,0.0,0.0,0.0,0.0,663,0.26281354,0.23548925,0.031198597,0.08329256,0.0061764778,0.0007209363,0.0,0.0,0.0,-2.4e-05,0,0,0,831,0,0,0,0
1192013597,-0.99793863,-0.005052621,-0.0062757763,0.0636674,0.13037854,0.030141545,-0.90129507,6.9868855,-7.549446,-2.9223552,-0.00017055539,0.00022489288,-4.3231735e-06,-0.00021235716,0.0002954766,-0.00030572567,0.1959121,0.052494485,0.36977926,0.0,0.0,0.0,0.0,0.0,0.0,3.7287384e-07,0.0014424444,0.022623006,1.0356125e-06,5.3525914e-06,5.3550884e-06,4.212072e-05,0.010177051,0.010182925,0.008782498,0.03456028,0.034564886,0.05480588,1.0299474e-11,1.0299457e-11,1.8982845e-11,5.376834e-08,5.375921e-08,5e-08,0.0,0.0,0.0,0.0,0.0,0.0,0.0,0.0,663,0.26291665,0.23410656,0.011089879,0.018752415,0.0057910485,0.007652338,0.0,0.0,0.0,0.000178,0,0,0,831,0,0,0,0
1192213628,-0.99792606,-0.0044715614,-0.0077152234,0.06375007,0.13030697,0.021185383,-0.925587,7.015006,-7.5430813,-3.1008801,-0.00017056681,0.00022488236,-4.3162763e-06,-0.00021232877,0.00029547026,-0.00030616295,0.1959121,0.052494485,0.36977926,0.0,0.0,0.0,0.0,0.0,0.0,3.7846436e-07,0.0014144509,0.022911035,1.0357295e-06,5.357613e-06,5.3589492e-06,4.203107e-05,0.0101979785,0.010202638,0.008792724,0.03458508,0.03458985,0.05493304,1.0300568e-11,1.0300483e-11,1.8965952e-11,5.376907e-08,5.375968e-08,5.0000036e-08,0.0,0.0,0.0,0.0,0.0,0.0,0.0,0.0,663,0.26301128,0.234378,0.05733006,0.02166996,0.014287839,0.015696302,0.0,0.0,0.0,0.000215,0,0,0,831,0,0,0,0
1192417554,-0.997862,-0.0042063715,-0.009669155,0.06449935,0.12280253,0.031208137,-0.92562705,7.0398326,-7.5276766,-3.2950912,-0.00017062892,0.000224846,-4.272553e-06,-0.00021224741,0.0002954064,-0.00030620623,0.1959121,0.052494485,0.36977926,0.0,0.0,0.0,0.0,0.0,0.0,3.4704277e-07,0.001273071,0.02023815,1.038856e-06,5.369583e-06,5.3691306e-06,4.196049e-05,0.010254275,0.010257717,0.008829133,0.034836825,0.03484158,0.055313766,1.0305511e-11,1.0305351e-11,1.8953393e-11,5.376983e-08,5.3760164e-08,5.0000075e-08,0.0,0.0,0.0,0.0,0.0,0.0,0.0,0.0,663,0.26396668,0.23518878,0.02147945,0.053416006,0.012531583,0.011485556,0.0,0.0,0.0,0.000114,0,0,0,831,0,0,0,0
1192621516,-0.9977619,-0.005310506,-0.011113686,0.06572423,0.09570379,0.034359522,-0.93655723,7.061615,-7.511641,-3.468983,-0.0001706857,0.00022482775,-4.2380566e-06,-0.00021221598,0.00029527541,-0.00030971688,0.1959121,0.052494485,0.36977926,0.0,0.0,0.0,0.0,0.0,0.0,3.8723772e-07,0.001475702,0.023697952,1.0449694e-06,5.3746535e-06,5.3724316e-06,4.202355e-05,0.010266803,0.010268593,0.008837369,0.034859188,0.034863714,0.055427846,1.0306068e-11,1.0305844e-11,1.8966568e-11,5.377056e-08,5.3760626e-08,5.0000075e-08,0.0,0.0,0.0,0.0,0.0,0.0,0.0,0.0,663,0.26405096,0.2354312,0.0050333585,0.0430796,0.006977853,0.03750814,0.0,0.0,0.0,0.000103,0,0,0,831,0,0,0,0
1192825553,-0.99766463,-0.0065957545,-0.0123647135,0.0668505,0.07455595,0.05411515,-0.93880945,7.070246,-7.4846673,-3.6453404,-0.0001707879,0.00022474141,-4.1619373e-06,-0.00021208308,0.00029511162,-0.00031426022,0.1959121,0.052494485,0.36977926,0.0,0.0,0.0,0.0,0.0,0.0,3.4672786e-07,0.0013622156,0.022264509,1.0499823e-06,5.382387e-06,5.3786316e-06,4.203042e-05,0.010302202,0.010303308,0.008802814,0.035043076,0.035047222,0.05504636,1.03081805e-11,1.0307914e-11,1.8968832e-11,5.3771316e-08,5.3761095e-08,5.000004e-08,0.0,0.0,0.0,0.0,0.0,0.0,0.0,0.0,663,0.2647457,0.2346196,0.008917577,0.08105651,0.0135650765,0.047489822,0.0,0.0,0.0,9.9e-05,0,0,0,831,0,0,0,0
1193025416,-0.997639,-0.005252673,-0.012719166,0.06728332,0.034809873,0.0661733,-0.9476984,7.058899,-7.457563,-3.820043,-0.00017085207,0.00022458298,-4.1056755e-06,-0.00021185979,0.00029507367,-0.0003180136,0.1959121,0.052494485,0.36977926,0.0,0.0,0.0,0.0,0.0,0.0,2.9041803e-07,0.0012840169,0.020654218,1.0518817e-06,5.3845024e-06,5.3802873e-06,4.202087e-05,0.010303904,0.010304541,0.008813559,0.035034228,0.03503782,0.055173557,1.03075985e-11,1.0307309e-11,1.896708e-11,5.377201e-08,5.3761518e-08,5.000007e-08,0.0,0.0,0.0,0.0,0.0,0.0,0.0,0.0,663,0.26471126,0.23489052,0.016295476,0.11226034,0.019645438,0.055815246,0.0,0.0,0.0,3e-06,0,0,0,831,0,0,0,0
1193229544,-0.99771386,-0.00400913,-0.010538208,0.06663364,0.025558705,0.086866006,-0.9469086,7.0572104,-7.423321,-3.992745,-0.00017095247,0.0002245287,-4.0684167e-06,-0.00021173453,0.00029485306,-0.00032435404,0.1959121,0.052494485,0.36977926,0.0,0.0,0.0,0.0,0.0,0.0,2.931874e-07,0.0012966876,0.02096314,1.048646e-06,5.385712e-06,5.38371e-06,4.209801e-05,0.010312959,0.010313535,0.008824249,0.035060693,0.035063677,0.055298373,1.0308175e-11,1.0307878e-11,1.8980132e-11,5.3772684e-08,5.3761926e-08,5.000007e-08,0.0,0.0,0.0,0.0,0.0,0.0,0.0,0.0,663,0.26481006,0.23515606,0.09113514,0.0662453,0.025834346,0.036155492,0.0,0.0,0.0,0.000131,0,0,0,831,0,0,0,0
1193433410,-0.9978077,-0.0013234196,-0.007123877,0.06578372,0.014077604,0.08033735,-0.94923246,7.0481305,-7.393301,-4.1761227,-0.00017100759,0.00022444782,-4.01847e-06,-0.00021160909,0.00029477937,-0.00032844752,0.1959121,0.052494485,0.36977926,0.0,0.0,0.0,0.0,0.0,0.0,2.9758212e-07,0.0012297442,0.020351136,1.0443832e-06,5.3920403e-06,5.3934264e-06,4.211834e-05,0.010371954,0.010372217,0.008792878,0.035316873,0.035319276,0.054928817,1.0312549e-11,1.0312257e-11,1.8982052e-11,5.3773384e-08,5.3762346e-08,5e-08,0.0,0.0,0.0,0.0,0.0,0.0,0.0,0.0,663,0.26577464,0.23436898,0.07407403,0.05361488,0.022633102,0.03731967,0.0,0.0,0.0,-3e-06,0,0,0,831,0,0,0,0
1193637349,-0.9978579,0.0016701684,-0.005709293,0.06514812,-0.0018512665,0.067992,-0.96936953,7.0367823,-7.3653817,-4.356345,-0.00017106411,0.00022436105,-3.934506e-06,-0.00021146731,0.00029474695,-0.00033131187,0.1959121,0.052494485,0.36977926,0.0,0.0,0.0,0.0,0.0,0.0,3.0963605e-07,0.0012565507,0.021010118,1.0408924e-06,5.3917447e-06,5.3954564e-06,4.2114138e-05,0.010377003,0.010376818,0.008801983,0.035306383,0.035308298,0.055043075,1.0311481e-11,1.0311208e-11,1.8980123e-11,5.3774045e-08,5.3762744e-08,5.0000036e-08,0.0,0.0,0.0,0.0,0.0,0.0,0.0,0.0,663,0.26573423,0.23461261,0.021858951,0.06143042,0.02174409,0.022216074,0.0,0.0,0.0,-6.4e-05,0,0,0,831,0,0,0,0
1193837483,-0.9978997,0.0023170619,-0.0045011006,0.064580485,0.006087493,0.04758984,-0.9894687,7.036268,-7.3446736,-4.5331697,-0.00017110616,0.00022434938,-3.9340844e-06,-0.00021143176,0.0002946073,-0.00033640166,0.1959121,0.052494485,0.36977926,0.0,0.0,0.0,0.0,0.0,0.0,3.3102384e-07,0.0013053977,0.021893708,1.0383238e-06,5.3905446e-06,5.3950853e-06,4.2108408e-05,0.01037295,0.010371881,0.008810758,0.03526547,0.035266962,0.055158038,1.0309412e-11,1.0309153e-11,1.89781e-11,5.377472e-08,5.3763156e-08,5.000004e-08,0.0,0.0,0.0,0.0,0.0,0.0,0.0,0.0,663,0.26557943,0.23485748,0.052104454,0.01911859,0.018466758,0.010470094,0.0,0.0,0.0,7e-05,0,0,0,831,0,0,0,0
1194037541,-0.9979127,0.0021810494,-0.0035222475,0.064445384,0.017959997,0.014198752,-0.9969789,7.0339413,-7.335503,-4.7410645,-0.00017110792,0.00022431873,-3.9023594e-06,-0.00021140398,0.0002947311,-0.0003315083,0.1959121,0.052494485,0.36977926,0.0,0.0,0.0,0.0,0.0,0.0,3.5109974e-07,0.0013300275,0.021623056,1.0371324e-06,5.3916797e-06,5.3962763e-06,4.2022803e-05,0.010369869,0.010367322,0.0088180825,0.035260737,0.035261814,0.05525754,1.0308581e-11,1.0308332e-11,1.8961336e-11,5.3775384e-08,5.376356e-08,5.0000036e-08,0.0,0.0,0.0,0.0,0.0,0.0,0.0,0.0,663,0.2655608,0.23506923,0.017487168,0.057891022,0.011786049,0.0061231675,0.0,0.0,0.0,0.000128,0,0,0,831,0,0,0,0
1194241512,-0.9978743,0.004098698,-0.0042712814,0.06489985,0.027225597,-0.0076817963,-1.0094227,7.0396767,-7.3229504,-4.950999,-0.0001711766,0.00022431789,-3.829398e-06,-0.00021132836,0.00029469238,-0.00032928257,0.1959121,0.052494485,0.36977926,0.0,0.0,0.0,0.0,0.0,0.0,3.0953652e-07,0.0013051105,0.02055593,1.039132e-06,5.3996855e-06,5.4051825e-06,4.203399e-05,0.010422123,0.010418208,0.008784062,0.035491176,0.035491806,0.054867417,1.0311935e-11,1.03116795e-11,1.8963785e-11,5.377609e-08,5.3763994e-08,5e-08,0.0,0.0,0.0,0.0,0.0,0.0,0.0,0.0,663,0.2664263,0.23423795,0.044001315,0.050365776,0.012836494,0.0054568746,0.0,0.0,0.0,9.9e-05,0,0,0,831,0,0,0,0
1194443392,-0.9978315,0.00441041,-0.004484468,0.0655193,0.032554734,-0.036346015,-1.0254933,7.0484567,-7.3235373,-5.148484,-0.00017119643,0.00022432918,-3.779131e-06,-0.00021133052,0.00029464366,-0.00032947445,0.1959121,0.052494485,0.36977926,0.0,0.0,0.0,0.0,0.0,0.0,3.110003e-07,0.0012596503,0.020451235,1.041552e-06,5.401375e-06,5.4066727e-06,4.1944997e-05,0.010427202,0.010421793,0.008791248,0.035489682,0.035489798,0.054963216,1.0311263e-11,1.0310996e-11,1.8947462e-11,5.3776752e-08,5.3764413e-08,5e-08,0.0,0.0,0.0,0.0,0.0,0.0,0.0,0.0,663,0.26641974,0.23444235,0.121776946,0.037113417,0.009193236,0.022676593,0.0,0.0,0.0,0.000345,0,0,0,831,0,0,0,0
1194647000,-0.997815,0.0021907475,-0.003773785,0.065925375,0.04195348,-0.06346423,-1.0293411,7.0512333,-7.3250475,-5.346159,-0.00017124288,0.00022428483,-3.7515626e-06,-0.00021124439,0.00029462003,-0.00033063482,0.1959121,0.052494485,0.36977926,0.0,0.0,0.0,0.0,0.0,0.0,3.433835e-07,0.0013968685,0.022187382,1.0433218e-06,5.4044995e-06,5.4082047e-06,4.2017808e-05,0.0104382895,0.010431137,0.008803982,0.035536442,0.035535973,0.055125363,1.0314455e-11,1.03141645e-11,1.896475e-11,5.3777455e-08,5.376488e-08,5.000004e-08,0.0,0.0,0.0,0.0,0.0,0.0,0.0,0.0,663,0.2665941,0.23478791,0.013002171,0.03805454,0.010474865,0.03349406,0.0,0.0,0.0,-1.3e-05,0,0,0,831,0,0,0,0
1194850989,-0.9977981,-0.0005357906,-0.005282732,0.066113055,0.050896928,-0.07854183,-1.0390495,7.055242,-7.3312926,-5.549972,-0.00017128597,0.00022424216,-3.6896931e-06,-0.00021116919,0.00029459776,-0.000332131,0.1959121,0.052494485,0.36977926,0.0,0.0,0.0,0.0,0.0,0.0,3.386131e-07,0.0013082679,0.020419234,1.0430997e-06,5.411723e-06,5.4131624e-06,4.2030893e-05,0.010476842,0.010468919,0.008840151,0.0357283,0.03572713,0.055491332,1.0316437e-11,1.0316117e-11,1.8966974e-11,5.3778173e-08,5.3765362e-08,5.000007e-08,0.0,0.0,0.0,0.0,0.0,0.0,0.0,0.0,663,0.26731148,0.23556598,0.044758584,0.04215238,0.011848355,0.019396618,0.0,0.0,0.0,-2.4e-05,0,0,0,831,0,0,0,0
1195055139,-0.9977473,-0.002835217,-0.008195982,0.06652301,0.05718593,-0.0835344,-1.0624793,7.071587,-7.345583,-5.764918,-0.00017129334,0.00022428508,-3.6649744e-06,-0.00021120888,0.00029457637,-0.0003293434,0.1959121,0.052494485,0.36977926,0.0,0.0,0.0,0.0,0.0,0.0,3.1519076e-07,0.0012754021,0.019030372,1.0447344e-06,5.417443e-06,5.416181e-06,4.2096555e-05,0.010493066,0.010485531,0.008779708,0.035759967,0.035758108,0.05483621,1.0316953e-11,1.0316598e-11,1.897978e-11,5.377886e-08,5.3765817e-08,5e-08,0.0,0.0,0.0,0.0,0.0,0.0,0.0,0.0,663,0.26742864,0.23417133,0.04648803,0.039344907,0.010498096,0.0005375823,0.0,0.0,0.0,0.000126,0,0,0,831,0,0,0,0
1195255183,-0.997703,-0.0037528235,-0.010883505,0.06675558,0.045458846,-0.0860352,-1.0760899,7.0753665,-7.3552947,-5.981727,-0.00017132824,0.000224247,-3.6372214e-06,-0.0002111541,0.00029462916,-0.00032697528,0.1959121,0.052494485,0.36977926,0.0,0.0,0.0,0.0,0.0,0.0,2.6566724e-07,0.0011223087,0.017053189,1.045453e-06,5.4224e-06,5.418637e-06,4.208306e-05,0.010501742,0.010494706,0.008789288,0.03578971,0.035787277,0.05493981,1.0317138e-11,1.03167665e-11,1.8977608e-11,5.377956e-08,5.376632e-08,5e-08,0.0,0.0,0.0,0.0,0.0,0.0,0.0,0.0,663,0.26753876,0.23439243,0.048440877,0.04616572,0.009248273,0.011287944,0.0,0.0,0.0,0.000141,0,0,0,831,0,0,0,0
1195459206,-0.9976606,-0.003458982,-0.013036006,0.06701864,0.021197764,-0.07921545,-1.0913793,7.081538,-7.365464,-6.2038164,-0.00017136165,0.00022424803,-3.6268304e-06,-0.00021112499,0.00029459735,-0.00032656227,0.1959121,0.052494485,0.36977926,0.0,0.0,0.0,0.0,0.0,0.0,2.5369653e-07,0.0012179847,0.01830081,1.0472069e-06,5.433197e-06,5.4271263e-06,4.216979e-05,0.010561274,0.010555689,0.008828765,0.03605332,0.036050357,0.055319715,1.0321179e-11,1.03208015e-11,1.899413e-11,5.3780298e-08,5.3766865e-08,5.0000075e-08,0.0,0.0,0.0,0.0,0.0,0.0,0.0,0.0,663,0.26852128,0.23520143,0.030904852,0.046178553,0.009417939,0.005058763,0.0,0.0,0.0,0.00016,0,0,0,831,0,0,0,0
1195663157,-0.99766403,-0.0033543375,-0.012847509,0.06700817,-0.0045247795,-0.07333499,-1.1128519,7.0859065,-7.379632,-6.4277973,-0.00017136341,0.00022427285,-3.5977844e-06,-0.00021115091,0.0002945937,-0.00032415427,0.1959121,0.052494485,0.36977926,0.0,0.0,0.0,0.0,0.0,0.0,2.3489844e-07,0.0011897419,0.018554972,1.0472241e-06,5.4345446e-06,5.428737e-06,4.223868e-05,0.010570174,0.010566408,0.008842266,0.03607716,0.036073923,0.055448588,1.032098e-11,1.03206246e-11,1.9006446e-11,5.378099e-08,5.3767373e-08,5.0000107e-08,0.0,0.0,0.0,0.0,0.0,0.0,0.0,0.0,663,0.26860952,0.23547524,0.052994944,0.042386636,0.006222182,0.03506493,0.0,0.0,0.0,0.000144,0,0,0,831,0,0,0,0
1195867234,-0.9976955,-0.004159851,-0.00977687,0.067014754,-0.016528144,-0.08149636,-1.1159359,7.0871477,-7.4014745,-6.6537437,-0.00017132224,0.00022430166,-3.5452933e-06,-0.00021122972,0.00029455498,-0.00032536732,0.1959121,0.052494485,0.36977926,0.0,0.0,0.0,0.0,0.0,0.0,2.3801356e-07,0.0011517212,0.018940886,1.0464465e-06,5.435749e-06,5.433168e-06,4.2172986e-05,0.010598828,0.010596031,0.008809866,0.036267716,0.03626436,0.05506396,1.032248e-11,1.0322188e-11,1.8992787e-11,5.3781736e-08,5.3767913e-08,5e-08,0.0,0.0,0.0,0.0,0.0,0.0,0.0,0.0,663,0.2693178,0.23465711,0.01012892,0.040702935,0.0054711793,0.05638087,0.0,0.0,0.0,0.000208,0,0,0,831,0,0,0,0
1196067172,-0.9977197,-0.0041779783,-0.006486004,0.067051455,-0.031854667,-0.08166676,-1.1319542,7.0839996,-7.4263887,-6.8653216,-0.0001712709,0.00022430977,-3.5317541e-06,-0.00021130759,0.0002945312,-0.00032754883,0.1959121,0.052494485,0.36977926,0.0,0.0,0.0,0.0,0.0,0.0,2.2709747e-07,0.0010830074,0.018104253,1.0467685e-06,5.4349275e-06,5.434882e-06,4.2164458e-05,0.010609435,0.010608062,0.008819649,0.036294382,0.036291067,0.055168707,1.0322639e-11,1.0322422e-11,1.8990335e-11,5.3782443e-08,5.376846e-08,5.000004e-08,0.0,0.0,0.0,0.0,0.0,0.0,0.0,0.0,663,0.26941687,0.2348802,0.005058561,0.03965416,0.009201856,0.007568902,0.0,0.0,0.0,0.000128,0,0,0,831,0,0,0,0
1196271187,-0.9977286,-0.0050873905,-0.0048503703,0.06699389,-0.030089313,-0.07424325,-1.1358402,7.068179,-7.4398694,-7.088375,-0.00017129052,0.0002242266,-3.4747093e-06,-0.00021126459,0.0002946281,-0.00032711166,0.1959121,0.052494485,0.36977926,0.0,0.0,0.0,0.0,0.0,0.0,2.8688214e-07,0.0012163603,0.019895582,1.0455884e-06,5.435528e-06,5.436604e-06,4.207663e-05,0.0106098335,0.010608813,0.008831897,0.03631615,0.036313042,0.055287715,1.0322502e-11,1.0322369e-11,1.8973073e-11,5.3783154e-08,5.3769018e-08,5.0000068e-08,0.0,0.0,0.0,0.0,0.0,0.0,0.0,0.0,663,0.26949802,0.2351334,0.0045021106,0.074710876,0.0075350055,0.036589704,0.0,0.0,0.0,0.000174,0,0,0,831,0,0,0,0
1196475138,-0.99774486,-0.006028594,-0.0046917615,0.06668637,-0.014413082,-0.063026614,-1.141278,7.0744443,-7.4541545,-7.3080707,-0.0001713114,0.00022428762,-3.5241978e-06,-0.00021126003,0.00029448114,-0.00033179513,0.1959121,0.052494485,0.36977926,0.0,0.0,0.0,0.0,0.0,0.0,2.603909e-07,0.0011979103,0.019609531,1.044664e-06,5.4416873e-06,5.4430816e-06,4.2089578e-05,0.0106531065,0.010652488,0.008804182,0.03654193,0.03653907,0.05493126,1.0325278e-11,1.0325222e-11,1.8975141e-11,5.3783907e-08,5.3769615e-08,5.0000036e-08,0.0,0.0,0.0,0.0,0.0,0.0,0.0,0.0,663,0.270335,0.2343742,0.061862122,0.043011494,0.012097873,0.06653739,0.0,0.0,0.0,0.000125,0,0,0,831,0,0,0,0
1196675227,-0.9977477,-0.0052779894,-0.0043160436,0.066731535,-0.0072359117,-0.061569892,-1.1614017,7.0821877,-7.4645095,-7.5438924,-0.00017133524,0.00022432917,-3.4895702e-06,-0.00021125593,0.00029443475,-0.0003305669,0.1959121,0.052494485,0.36977926,0.0,0.0,0.0,0.0,0.0,0.0,3.003383e-07,0.0012751364,0.020606827,1.0444332e-06,5.442806e-06,5.4441534e-06,4.200286e-05,0.010661907,0.010661455,0.008820927,0.036563374,0.036560845,0.055081356,1.0325246e-11,1.0325261e-11,1.8958574e-11,5.378464e-08,5.3770208e-08,5.000007e-08,0.0,0.0,0.0,0.0,0.0,0.0,0.0,0.0,663,0.2704149,0.23469418,0.006178496,0.021293644,0.01752691,0.021754503,0.0,0.0,0.0,0.000214,0,0,0,831,0,0,0,0
1196875127,-0.99772197,-0.0048683197,-0.004599198,0.067126945,0.025792649,-0.065087944,-1.1733978,7.0996947,-7.4836845,-7.7793145,-0.0001713033,0.00022441782,-3.4548732e-06,-0.00021133183,0.00029434287,-0.00033025024,0.1959121,0.052494485,0.36977926,0.0,0.0,0.0,0.0,0.0,0.0,3.2671343e-07,0.001341047,0.022147544,1.0465343e-06,5.4407074e-06,5.441849e-06,4.207156e-05,0.010642856,0.0106420545,0.008768359,0.0365122,0.03651003,0.054489847,1.0322887e-11,1.0322959e-11,1.8971685e-11,5.3785367e-08,5.3770805e-08,5e-08,0.0,0.0,0.0,0.0,0.0,0.0,0.0,0.0,663,0.27022627,0.23343061,0.007617241,0.049762014,0.022627952,0.007215058,0.0,0.0,0.0,0.000114,0,0,0,831,0,0,0,0
1197075260,-0.9977115,-0.0051633674,-0.0054726,0.06719586,0.03276367,-0.061202906,-1.2025338,7.1179986,-7.5012836,-8.014032,-0.00017128028,0.00022448234,-3.4597326e-06,-0.00021137774,0.00029425838,-0.00033154158,0.1959121,0.052494485,0.36977926,0.0,0.0,0.0,0.0,0.0,0.0,3.4010162e-07,0.0013615038,0.021363838,1.0466305e-06,5.441158e-06,5.442024e-06,4.19835e-05,0.010648569,0.010648057,0.008787685,0.0365029,0.03650104,0.05466344,1.0322066e-11,1.0322204e-11,1.8955233e-11,5.378611e-08,5.3771444e-08,5.0000036e-08,0.0,0.0,0.0,0.0,0.0,0.0,0.0,0.0,663,0.2701924,0.23380214,0.03593275,0.029580595,0.024051558,0.006933645,0.0,0.0,0.0,0.000213,0,0,0,831,0,0,0,0
1197279215,-0.9977011,-0.0061465013,-0.008203422,0.0669892,0.03676418,-0.046832975,-1.2117201,7.1341443,-7.5062428,-8.255289,-0.00017133531,0.0002245083,-3.415588e-06,-0.00021134829,0.00029422712,-0.000330187,0.1959121,0.052494485,0.36977926,0.0,0.0,0.0,0.0,0.0,0.0,3.430905e-07,0.0013110898,0.02080787,1.0447972e-06,5.444705e-06,5.444297e-06,4.1975036e-05,0.0106533235,0.010653036,0.008807987,0.036528185,0.036526624,0.054843318,1.0322362e-11,1.0322544e-11,1.895364e-11,5.3786863e-08,5.3772094e-08,5.0000033e-08,0.0,0.0,0.0,0.0,0.0,0.0,0.0,0.0,663,0.27028653,0.2341865,0.01123287,0.04676532,0.02113749,0.019327462,0.0,0.0,0.0,0.000195,0,0,0,831,0,0,0,0
1197483172,-0.9976771,-0.0074785952,-0.01132876,0.06675455,0.036111984,-0.037340418,-1.2165213,7.151158,-7.5148497,-8.511653,-0.00017134925,0.0002245388,-3.4013472e-06,-0.0002113583,0.00029420943,-0.000328179,0.1959121,0.052494485,0.36977926,0.0,0.0,0.0,0.0,0.0,0.0,3.741189e-07,0.0013082352,0.021419829,1.0432947e-06,5.455447e-06,5.453087e-06,4.1987387e-05,0.010706167,0.010706033,0.008784035,0.036793996,0.03679272,0.05452573,1.03267195e-11,1.0326943e-11,1.8956383e-11,5.378766e-08,5.3772784e-08,5e-08,0.0,0.0,0.0,0.0,0.0,0.0,0.0,0.0,663,0.27126873,0.23350745,0.0023051305,0.022829652,0.023446728,0.011716271,0.0,0.0,0.0,0.000127,0,0,0,831,0,0,0,0
1197687257,-0.9976507,-0.005968134,-0.013911573,0.06681402,0.014583738,-0.028545253,-1.214887,7.167011,-7.5183563,-8.762907,-0.00017137852,0.00022457432,-3.37559e-06,-0.00021136252,0.00029419822,-0.0003247043,0.1959121,0.052494485,0.36977926,0.0,0.0,0.0,0.0,0.0,0.0,3.7003264e-07,0.0013368336,0.02077736,1.0435748e-06,5.4592015e-06,5.4536076e-06,4.1978026e-05,0.0107015995,0.010701993,0.008800561,0.036811173,0.03681025,0.054686476,1.0326801e-11,1.0327059e-11,1.8954774e-11,5.3788433e-08,5.3773455e-08,5e-08,0.0,0.0,0.0,0.0,0.0,0.0,0.0,0.0,663,0.27133268,0.2338514,0.0025136652,0.027474495,0.025763547,0.011740278,0.0,0.0,0.0,0.000245,0,0,0,831,0,0,0,0
1197887196,-0.99763966,-0.006545367,-0.01483875,0.06672506,-0.010584102,-0.028202614,-1.2208222,7.181264,-7.52825,-8.99922,-0.0001713555,0.00022463143,-3.3745325e-06,-0.00021140186,0.00029412302,-0.00032627126,0.1959121,0.052494485,0.36977926,0.0,0.0,0.0,0.0,0.0,0.0,3.2256432e-07,0.0012698605,0.019876957,1.043443e-06,5.4581124e-06,5.4518114e-06,4.2047537e-05,0.0106812185,0.010682396,0.008815351,0.036755655,0.036755104,0.054843847,1.03246986e-11,1.0324998e-11,1.8967817e-11,5.3789208e-08,5.377414e-08,5.0000033e-08,0.0,0.0,0.0,0.0,0.0,0.0,0.0,0.0,663,0.27112868,0.23418763,0.007377988,0.024740161,0.028588127,0.007750684,0.0,0.0,0.0,0.000169,0,0,0,831,0,0,0,0
1198091111,-0.9976821,-0.0067339963,-0.014306161,0.06618577,-0.029115885,-0.013496646,-1.2162992,7.195717,-7.534296,-9.239841,-0.00017136152,0.00022470833,-3.3769584e-06,-0.0002114193,0.00029400495,-0.0003290295,0.1959121,0.052494485,0.36977926,0.0,0.0,0.0,0.0,0.0,0.0,2.9082997e-07,0.0012463544,0.01999735,1.0408799e-06,5.4657557e-06,5.4603456e-06,4.2063963e-05,0.010734152,0.010735991,0.008856957,0.037021257,0.037021115,0.05525519,1.0329388e-11,1.0329744e-11,1.8970044e-11,5.3790018e-08,5.3774883e-08,5.000007e-08,0.0,0.0,0.0,0.0,0.0,0.0,0.0,0.0,663,0.27210727,0.23506422,0.01568716,0.032372747,0.036203973,0.0028679061,0.0,0.0,0.0,9.8e-05,0,0,0,831,0,0,0,0
1198295163,-0.9977617,-0.007054141,-0.011928176,0.06541896,-0.04393582,-0.004281074,-1.2039174,7.2001586,-7.53025,-9.480732,-0.0001714107,0.00022474155,-3.3302142e-06,-0.00021140241,0.00029394735,-0.0003290086,0.1959121,0.052494485,0.36977926,0.0,0.0,0.0,0.0,0.0,0.0,2.9684836e-07,0.0012084426,0.019150538,1.0365388e-06,5.4631546e-06,5.4605925e-06,4.2062544e-05,0.01071677,0.010719032,0.0088669425,0.037003156,0.03700341,0.055380728,1.032875e-11,1.03291715e-11,1.8968284e-11,5.379081e-08,5.3775608e-08,5.0000068e-08,0.0,0.0,0.0,0.0,0.0,0.0,0.0,0.0,663,0.27204147,0.2353311,0.09568684,0.036497932,0.030919844,0.0065275095,0.0,0.0,0.0,0.00014999999,0,0,0,831,0,0,0,0
1198499133,-0.9978371,-0.008994534,-0.012351426,0.06393536,-0.07097352,0.019899575,-1.2046099,7.181716,-7.5253835,-9.730417,-0.00017142581,0.00022466882,-3.3582537e-06,-0.0002113545,0.00029398888,-0.00032900216,0.1959121,0.052494485,0.36977926,0.0,0.0,0.0,0.0,0.0,0.0,2.5832233e-07,0.0011275447,0.018504294,1.0293772e-06,5.471979e-06,5.4703582e-06,4.208089e-05,0.010771835,0.010774299,0.008834816,0.03726788,0.03726854,0.05501136,1.03334554e-11,1.0333948e-11,1.8970499e-11,5.379166e-08,5.3776382e-08,5e-08,0.0,0.0,0.0,0.0,0.0,0.0,0.0,0.0,663,0.2730136,0.234545,0.0076681706,0.0760825,0.01667621,0.03732572,0.0,0.0,0.0,0.000121,0,0,0,831,0,0,0,0
1198699139,-0.997937,-0.009684233,-0.0129271895,0.062137004,-0.08614849,0.03783115,-1.2091974,7.1802163,-7.5159736,-9.983074,-0.00017145947,0.00022473154,-3.351888e-06,-0.00021137082,0.0002939554,-0.00032596424,0.1959121,0.052494485,0.36977926,0.0,0.0,0.0,0.0,0.0,0.0,2.5339745e-07,0.0010939592,0.01775781,1.0208133e-06,5.4727907e-06,5.471175e-06,4.2158303e-05,0.010763277,0.010766015,0.0088453,0.037248205,0.03724925,0.055137392,1.0332926e-11,1.0333489e-11,1.8983377e-11,5.3792473e-08,5.3777132e-08,5.000004e-08,0.0,0.0,0.0,0.0,0.0,0.0,0.0,0.0,663,0.27294222,0.23481353,0.011879142,0.034656536,0.02356154,0.030800428,0.0,0.0,0.0,9.5e-05,0,0,0,831,0,0,0,0
1198904583,-0.99804455,-0.006997706,-0.012088414,0.060925577,-0.10394402,0.062335413,-1.203113,7.1741834,-7.4979043,-10.2372055,-0.00017151634,0.0002247758,-3.346341e-06,-0.00021137975,0.0002939365,-0.0003205332,0.1959121,0.052494485,0.36977926,0.0,0.0,0.0,0.0,0.0,0.0,2.5005286e-07,0.0011118703,0.018107546,1.0157212e-06,5.4704324e-06,5.4682864e-06,4.2235704e-05,0.010738027,0.010740863,0.008857428,0.037192214,0.037193634,0.055274483,1.0331415e-11,1.0332046e-11,1.8995878e-11,5.379329e-08,5.3777885e-08,5.000007e-08,0.0,0.0,0.0,0.0,0.0,0.0,0.0,0.0,663,0.2727377,0.23510526,0.0335694,0.04704323,0.028307885,0.014687659,0.0,0.0,0.0,-2.9e-05,0,0,0,831,0,0,0,0
1199104787,-0.9980915,-0.0038135508,-0.009910548,0.060833026,-0.10928446,0.058811333,-1.2118711,7.1651115,-7.4860053,-10.468633,-0.00017151104,0.00022482776,-3.3855033e-06,-0.00021138573,0.0002938722,-0.00032320665,0.1959121,0.052494485,0.36977926,0.0,0.0,0.0,0.0,0.0,0.0,2.3142945e-07,0.0011122548,0.017555723,1.0161586e-06,5.472317e-06,5.4711486e-06,4.215079e-05,0.010763216,0.010766099,0.008805011,0.037264574,0.0372663,0.054719873,1.0336286e-11,1.0336994e-11,1.898256e-11,5.3794146e-08,5.3778667e-08,5e-08,0.0,0.0,0.0,0.0,0.0,0.0,0.0,0.0,663,0.27300343,0.2339228,0.046047043,0.026782297,0.030036367,0.014721411,0.0,0.0,0.0,0.000174,0,0,0,831,0,0,0,0
1199304733,-0.99807787,-0.0012963574,-0.007602707,0.06149194,-0.11721329,0.053012736,-1.2125622,7.153887,-7.4763956,-10.718891,-0.00017150093,0.000224872,-3.3324777e-06,-0.00021141303,0.00029386772,-0.00032135067,0.1959121,0.052494485,0.36977926,0.0,0.0,0.0,0.0,0.0,0.0,2.6488874e-07,0.0012370513,0.018233992,1.0194093e-06,5.4707534e-06,5.470927e-06,4.2139352e-05,0.010753711,0.010756723,0.008816309,0.037242357,0.037244312,0.054848842,1.033583e-11,1.03366005e-11,1.8980205e-11,5.3794984e-08,5.377944e-08,5e-08,0.0,0.0,0.0,0.0,0.0,0.0,0.0,0.0,663,0.27292246,0.2341983,0.024887724,0.015803108,0.029587971,0.023312623,0.0,0.0,0.0,0.00012,0,0,0,831,0,0,0,0
1199508761,-0.99804586,3.6292667e-07,-0.0073167956,0.062056508,-0.13147771,0.03638298,-1.2289932,7.131353,-7.471046,-10.981156,-0.0001714726,0.00022486015,-3.3509612e-06,-0.00021142533,0.0002938925,-0.00031654368,0.1959121,0.052494485,0.36977926,0.0,0.0,0.0,0.0,0.0,0.0,2.6004747e-07,0.0012413424,0.018626805,1.0225403e-06,5.478977e-06,5.479574e-06,4.2069256e-05,0.010816518,0.010819859,0.008854508,0.03750635,0.03750852,0.05523284,1.0340649e-11,1.0341468e-11,1.89673e-11,5.3795866e-08,5.378026e-08,5.000003e-08,0.0,0.0,0.0,0.0,0.0,0.0,0.0,0.0,663,0.27388844,0.23501669,0.06137197,0.07443911,0.025227305,0.0022397006,0.0,0.0,0.0,0.000133,0,0,0,831,0,0,0,0
1199712571,-0.99801826,-0.00047639088,-0.0073991893,0.062486753,-0.1411248,0.026593708,-1.2247053,7.1015587,-7.46075,-11.215814,-0.00017149592,0.00022480535,-3.3065362e-06,-0.00021139422,0.00029384313,-0.00031673393,0.1959121,0.052494485,0.36977926,0.0,0.0,0.0,0.0,0.0,0.0,2.503949e-07,0.0012115629,0.01949751,1.0241588e-06,5.4810303e-06,5.4816937e-06,4.2059157e-05,0.010817853,0.010820923,0.008866625,0.037521046,0.03752335,0.055363365,1.0341231e-11,1.0342092e-11,1.8965676e-11,5.379672e-08,5.3781076e-08,5.000007e-08,0.0,0.0,0.0,0.0,0.0,0.0,0.0,0.0,663,0.27394232,0.23529421,0.038864817,0.08138336,0.021043621,0.012118159,0.0,0.0,0.0,-4.2e-05,0,0,0,831,0,0,0,0
1199912764,-0.9979855,-0.0008411019,-0.006344253,0.06311877,-0.14341496,0.0021889377,-1.2235647,7.0863194,-7.4667635,-11.461914,-0.00017145237,0.0002248697,-3.2312014e-06,-0.00021142182,0.00029387028,-0.00031341755,0.1959121,0.052494485,0.36977926,0.0,0.0,0.0,0.0,0.0,0.0,2.662827e-07,0.0011995326,0.018995073,1.0262236e-06,5.4793054e-06,5.480356e-06,4.1970987e-05,0.010795835,0.010798776,0.008875431,0.03746145,0.037463844,0.055477515,1.0339584e-11,1.0340486e-11,1.8949528e-11,5.379758e-08,5.3781896e-08,5.000007e-08,0.0,0.0,0.0,0.0,0.0,0.0,0.0,0.0,663,0.27372485,0.23553665,0.015451946,0.08816565,0.024944456,0.0074923383,0.0,0.0,0.0,0.000148,0,0,0,831,0,0,0,0
1200112594,-0.99796736,-0.0014633246,-0.0054738815,0.063475974,-0.14564273,-0.013378119,-1.2283596,7.060994,-7.476521,-11.695131,-0.0001714061,0.00022486996,-3.271964e-06,-0.0002114021,0.00029386,-0.00031390545,0.1959121,0.052494485,0.36977926,0.0,0.0,0.0,0.0,0.0,0.0,2.7964072e-07,0.0012275652,0.019430015,1.0285031e-06,5.481844e-06,5.483108e-06,4.196211e-05,0.010806063,0.010808441,0.008883408,0.03748056,0.037483,0.055579346,1.0340559e-11,1.0341498e-11,1.8948364e-11,5.3798452e-08,5.378273e-08,5.0000068e-08,0.0,0.0,0.0,0.0,0.0,0.0,0.0,0.0,663,0.27379474,0.23575272,0.02508957,0.07642525,0.021584772,0.015453104,0.0,0.0,0.0,-1.9e-05,0,0,0,831,0,0,0,0
1200316828,-0.9979419,-0.0017698118,-0.0048801526,0.06391379,-0.15805493,-0.024963943,-1.2255137,7.020032,-7.482707,-11.934525,-0.00017139569,0.00022479522,-3.242233e-06,-0.00021134932,0.0002938074,-0.00031622144,0.1959121,0.052494485,0.36977926,0.0,0.0,0.0,0.0,0.0,0.0,2.531403e-07,0.0012083908,0.018860089,1.0302657e-06,5.490646e-06,5.4920424e-06,4.189691e-05,0.010864397,0.010866319,0.008850582,0.03774739,0.03774984,0.055194285,1.0345447e-11,1.0346411e-11,1.8936528e-11,5.379935e-08,5.378359e-08,5e-08,0.0,0.0,0.0,0.0,0.0,0.0,0.0,0.0,663,0.2747676,0.23493464,0.010475898,0.07101856,0.007134144,0.065571845,0.0,0.0,0.0,0.000169,0,0,0,831,0,0,0,0
1200520733,-0.9979471,-0.0034916035,-0.0014815155,0.06393155,-0.15378974,-0.03536447,-1.2227657,6.9863224,-7.489063,-12.189587,-0.00017140295,0.00022478375,-3.2363955e-06,-0.00021135551,0.0002938293,-0.00031220217,0.1959121,0.052494485,0.36977926,0.0,0.0,0.0,0.0,0.0,0.0,2.4151785e-07,0.0012066906,0.018538266,1.0307274e-06,5.4946204e-06,5.495915e-06,4.1969135e-05,0.010876688,0.010877821,0.008859806,0.037799444,0.037801787,0.05529767,1.0347151e-11,1.034813e-11,1.8950301e-11,5.3800214e-08,5.378442e-08,5e-08,0.0,0.0,0.0,0.0,0.0,0.0,0.0,0.0,663,0.2749568,0.23515457,0.0018712304,0.037165567,0.0048856847,0.040436406,0.0,0.0,0.0,0.00012,0,0,0,831,0,0,0,0
1200725046,-0.9979406,-0.0072911317,0.0008322148,0.06372331,-0.14453806,-0.030522542,-1.2268503,6.9546366,-7.493499,-12.411598,-0.00017142715,0.00022477533,-3.2536796e-06,-0.00021134397,0.00029373815,-0.00032200618,0.1959121,0.052494485,0.36977926,0.0,0.0,0.0,0.0,0.0,0.0,2.2024413e-07,0.0011650089,0.017945753,1.0297697e-06,5.503841e-06,5.505385e-06,4.198291e-05,0.010939531,0.0109399855,0.0088960305,0.0380609,0.038063027,0.055662565,1.0351513e-11,1.0352491e-11,1.8953136e-11,5.3801102e-08,5.378527e-08,5.0000065e-08,0.0,0.0,0.0,0.0,0.0,0.0,0.0,0.0,663,0.27590564,0.23592915,0.05255029,0.023832884,0.002489769,0.0778538,0.0,0.0,0.0,0.000433,0,0,0,831,0,0,0,0
1200924922,-0.9979422,-0.008921029,0.0011655398,0.063485794,-0.1181772,-0.023310145,-1.2314516,6.9339004,-7.499121,-12.64599,-0.00017143822,0.0002248034,-3.2460805e-06,-0.00021135242,0.00029372025,-0.0003244284,0.1959121,0.052494485,0.36977926,0.0,0.0,0.0,0.0,0.0,0.0,2.4365823e-07,0.0011848011,0.017658196,1.0284405e-06,5.502352e-06,5.5044675e-06,4.1976004e-05,0.010922289,0.010922119,0.00890364,0.037997194,0.03799892,0.05576144,1.0349508e-11,1.0350473e-11,1.8951809e-11,5.3801955e-08,5.3786092e-08,5.0000065e-08,0.0,0.0,0.0,0.0,0.0,0.0,0.0,0.0,663,0.27567393,0.23613861,0.043420274,0.027045475,0.008161921,0.017091557,0.0,0.0,0.0,0.000304,0,0,0,831,0,0,0,0
1201124718,-0.99793965,-0.0076496103,0.0023603481,0.063658826,-0.09926261,-0.013619111,-1.2419902,6.915472,-7.50523,-12.894709,-0.00017143028,0.00022480727,-3.2378516e-06,-0.00021134882,0.00029372354,-0.0003233398,0.1959121,0.052494485,0.36977926,0.0,0.0,0.0,0.0,0.0,0.0,2.5936825e-07,0.0011855313,0.01809601,1.029695e-06,5.5047744e-06,5.5055752e-06,4.196874e-05,0.010933054,0.010932714,0.008910899,0.038016103,0.038017336,0.055851497,1.0350203e-11,1.0351139e-11,1.8950543e-11,5.380281e-08,5.3786913e-08,5.0000065e-08,0.0,0.0,0.0,0.0,0.0,0.0,0.0,0.0,663,0.27574164,0.23632921,0.006118321,0.022795072,0.014904731,0.025089083,0.0,0.0,0.0,8.4e-05,0,0,0,831,0,0,0,0
1201328754,-0.9979222,-0.004825851,0.006144606,0.06395569,-0.060000833,-0.013538094,-1.2391372,6.9050856,-7.5018725,-13.133925,-0.00017147708,0.0002248176,-3.3247154e-06,-0.00021138035,0.00029366903,-0.00032577084,0.1959121,0.052494485,0.36977926,0.0,0.0,0.0,0.0,0.0,0.0,2.520082e-07,0.0011334434,0.016886162,1.0331229e-06,5.5080704e-06,5.5052087e-06,4.18816e-05,0.010936394,0.010936408,0.008846681,0.038030963,0.038031667,0.055167567,1.0350552e-11,1.0351444e-11,1.8934696e-11,5.380367e-08,5.3787737e-08,5e-08,0.0,0.0,0.0,0.0,0.0,0.0,0.0,0.0,663,0.27579457,0.23487777,0.001429328,0.04274214,0.017543763,0.055439495,0.0,0.0,0.0,0.000141,0,0,0,831,0,0,0,0
1201532613,-0.9978515,-0.0025028894,0.006512571,0.06514474,-0.019498162,-0.0281967,-1.2478678,6.906071,-7.5064783,-13.384215,-0.00017148106,0.0002248631,-3.3690612e-06,-0.00021139879,0.00029366484,-0.00032860303,0.1959121,0.052494485,0.36977926,0.0,0.0,0.0,0.0,0.0,0.0,2.8100058e-07,0.0012272776,0.017424196,1.0403207e-06,5.515885e-06,5.5125274e-06,4.18916e-05,0.010998973,0.01099992,0.008886386,0.038299765,0.038299985,0.055547208,1.03550345e-11,1.03558655e-11,1.8937829e-11,5.380457e-08,5.3788604e-08,5.0000065e-08,0.0,0.0,0.0,0.0,0.0,0.0,0.0,0.0,663,0.2767666,0.23568454,0.040213693,0.02361218,0.017018918,0.001323659,0.0,0.0,0.0,0.0,0,0,0,831,0,0,0,0
1201736754,-0.99771124,-0.0029105912,0.0054610544,0.06733507,0.019519418,-0.04949506,-1.2381085,6.915155,-7.5152144,-13.596054,-0.00017148686,0.00022489662,-3.3378049e-06,-0.00021141497,0.00029360183,-0.00033849454,0.1959121,0.052494485,0.36977926,0.0,0.0,0.0,0.0,0.0,0.0,2.8666744e-07,0.0014542037,0.020060992,1.0511058e-06,5.5148703e-06,5.5125083e-06,4.187555e-05,0.010989946,0.010992088,0.00889708,0.03827408,0.03827394,0.055655237,1.0354106e-11,1.0354863e-11,1.8936621e-11,5.3805422e-08,5.3789424e-08,5.000006e-08,0.0,0.0,0.0,0.0,0.0,0.0,0.0,0.0,663,0.27667314,0.23591362,0.0056274147,0.010593812,0.020912133,0.0073860977,0.0,0.0,0.0,0.000117999996,0,0,0,831,0,0,0,0
1201936733,-0.9975631,-0.0089376,0.0014189974,0.06918036,0.05674848,-0.055183902,-1.246173,6.941584,-7.5146346,-13.862136,-0.00017157495,0.00022496103,-3.3454812e-06,-0.00021145685,0.00029364164,-0.00033154374,0.1959121,0.052494485,0.36977926,0.0,0.0,0.0,0.0,0.0,0.0,2.8597438e-07,0.0013662102,0.019561244,1.059806e-06,5.353659e-06,5.355577e-06,4.193648e-05,0.009718765,0.009721904,0.008767749,0.032464087,0.032463912,0.055250414,1.0251581e-11,1.0252142e-11,1.8949875e-11,5.380624e-08,5.3790206e-08,5e-08,0.0,0.0,0.0,0.0,0.0,0.0,0.0,0.0,663,0.25480974,0.23505406,0.034216452,0.035257243,0.02008165,0.020938186,0.0,0.0,0.0,0.000111,0,0,0,831,0,0,0,0
1202140723,-0.9975033,-0.014521656,-0.004223195,0.06898256,0.06921104,-0.030257316,-1.2446756,6.96235,-7.519121,-14.122223,-0.00017160481,0.00022499818,-3.3926863e-06,-0.00021147665,0.00029364706,-0.0003310279,0.1959121,0.052494485,0.36977926,0.0,0.0,0.0,0.0,0.0,0.0,2.9011292e-07,0.0012672252,0.018402057,1.0582496e-06,5.362053e-06,5.3689832e-06,4.1947267e-05,0.00976951,0.009773109,0.008736494,0.03268973,0.03268951,0.054859705,1.0256158e-11,1.0256601e-11,1.8952485e-11,5.3807142e-08,5.379107e-08,5.0000025e-08,0.0,0.0,0.0,0.0,0.0,0.0,0.0,0.0,663,0.25569364,0.23422149,0.01056104,0.023134626,0.012938401,0.02732793,0.0,0.0,0.0,0.000103,0,0,0,831,0,0,0,0
1202340506,-0.9975524,-0.016540641,-0.008049065,0.0674599,0.05811502,0.012037491,-1.2162483,6.976081,-7.516295,-14.372602,-0.00017163035,0.00022499278,-3.3944825e-06,-0.00021147446,0.00029364886,-0.00032955458,0.1959121,0.052494485,0.36977926,0.0,0.0,0.0,0.0,0.0,0.0,2.9693112e-07,0.0011229386,0.016661692,1.0498279e-06,5.3637186e-06,5.3714243e-06,4.1944266e-05,0.009746804,0.009749659,0.008747957,0.032670565,0.03267043,0.054972574,1.0255575e-11,1.0255891e-11,1.8950782e-11,5.3808e-08,5.3791894e-08,5e-08,0.0,0.0,0.0,0.0,0.0,0.0,0.0,0.0,663,0.25561884,0.2344623,0.024718734,0.014175227,0.00864871,0.027325261,0.0,0.0,0.0,-0.000121,0,0,0,831,0,0,0,0
1202544743,-0.99769735,-0.012060536,-0.009985554,0.06599126,0.044057563,0.043561276,-1.2155536,6.9902897,-7.510353,-14.648128,-0.00017162983,0.00022501891,-3.405158e-06,-0.00021145554,0.0002937362,-0.00031950264,0.1959121,0.052494485,0.36977926,0.0,0.0,0.0,0.0,0.0,0.0,3.0327755e-07,0.0010578701,0.015695408,1.0427295e-06,5.365154e-06,5.367218e-06,4.1948417e-05,0.009736004,0.009737655,0.008758005,0.03265223,0.03265222,0.055076912,1.0255216e-11,1.0255404e-11,1.894933e-11,5.3808854e-08,5.379269e-08,5e-08,0.0,0.0,0.0,0.0,0.0,0.0,0.0,0.0,663,0.25554734,0.2346847,0.017822793,0.02559903,0.004920582,0.026350323,0.0,0.0,0.0,0.000112,0,0,0,831,0,0,0,0
