timestamp,voltage_v,voltage_filtered_v,current_a,current_filtered_a,average_current_a,discharged_mah,remaining,scale,temperature,cell_count,capacity,cycle_count,run_time_to_empty,average_time_to_empty,serial_number,connected,system_source,priority,is_powering_off,warning
1184732568,25.165285,25.16629,0.0744,0.07043861,0.0,21.98686,1.0,1.0,0.0,6,0,0,0,0,0,1,1,0,0,0
1185226291,25.14509,25.154608,0.0744,0.07063084,0.0,21.996479,1.0,1.0,0.0,6,0,0,0,0,0,1,1,0,0,0
1185743777,24.741152,25.135967,0.0744,0.070626915,0.0,22.006552,1.0,1.0,0.0,6,0,0,0,0,0,1,1,0,0,0
1186247689,24.599773,24.860693,0.0744,0.07041269,0.0,22.016392,1.0,1.0,0.0,6,0,0,0,0,0,1,1,0,0,0
1186751948,24.55938,24.776001,0.062,0.06886466,0.0,22.02586,1.0,1.0,0.0,6,0,0,0,0,0,1,1,0,0,0
1187255733,24.55938,24.706266,0.024799999,0.067562096,0.0,22.035152,1.0,1.0,0.0,6,0,0,0,0,0,1,1,0,0,0
1187759916,24.518986,24.65077,0.0744,0.06959589,0.0,22.045033,1.0,1.0,0.0,6,0,0,0,0,0,1,1,0,0,0
1188263956,24.518986,24.60627,0.0744,0.0710251,0.0,22.055122,1.0,1.0,0.0,6,0,0,0,0,0,1,1,0,0,0
1188767911,24.518986,24.575575,0.062,0.071833745,0.0,22.065283,1.0,1.0,0.0,6,0,0,0,0,0,1,1,0,0,0
1189271931,24.518986,24.551825,0.0744,0.069975846,0.0,22.07474,1.0,1.0,0.0,6,0,0,0,0,0,1,1,0,0,0
1189775699,24.518986,24.53732,0.062,0.06967528,0.0,22.084404,1.0,1.0,0.0,6,0,0,0,0,0,1,1,0,0,0
1190281603,24.518986,24.52573,0.062,0.070312485,0.0,22.09435,1.0,1.0,0.0,6,0,0,0,0,0,1,1,0,0,0
1190785265,24.498789,24.514372,0.0744,0.06962886,0.0,22.104017,1.0,1.0,0.0,6,0,0,0,0,0,1,1,0,0,0
1191289307,24.4382,24.507038,0.062,0.06965297,0.0,22.113768,1.0,1.0,0.0,6,0,0,0,0,0,1,1,0,0,0
1191793567,24.498789,24.498236,0.062,0.06879657,0.0,22.123363,1.0,1.0,0.0,6,0,0,0,0,0,1,1,0,0,0
1192297581,24.478592,24.49097,0.0744,0.07012033,0.0,22.133284,1.0,1.0,0.0,6,0,0,0,0,0,1,1,0,0,0
1192801352,24.478592,24.481325,0.062,0.07074856,0.0,22.143238,1.0,1.0,0.0,6,0,0,0,0,0,1,1,0,0,0
1193305330,24.4382,24.469206,0.0744,0.06921387,0.0,22.152748,1.0,1.0,0.0,6,0,0,0,0,0,1,1,0,0,0
1193809382,24.418003,24.459469,0.0744,0.069530465,0.0,22.162596,1.0,1.0,0.0,6,0,0,0,0,0,1,1,0,0,0
1194301505,24.458397,24.449797,0.062,0.06904021,0.0,22.172058,1.0,1.0,0.0,6,0,0,0,0,0,1,1,0,0,0
1194806953,24.418003,24.437773,0.0744,0.06928386,0.0,22.181759,1.0,1.0,0.0,6,0,0,0,0,0,1,1,0,0,0
1195310972,24.37761,24.430351,0.0744,0.06975355,0.0,22.191559,1.0,1.0,0.0,6,0,0,0,0,0,1,1,0,0,0
1195814947,24.397806,24.421274,0.0744,0.07044471,0.0,22.201513,1.0,1.0,0.0,6,0,0,0,0,0,1,1,0,0,0
1196306984,24.397806,24.41115,0.0744,0.0702999,0.0,22.211063,1.0,1.0,0.0,6,0,0,0,0,0,1,1,0,0,0
1196810990,24.37761,24.399551,0.0744,0.069912024,0.0,22.22078,1.0,1.0,0.0,6,0,0,0,0,0,1,1,0,0,0
1197315111,24.37761,24.396847,0.024799999,0.06954773,0.0,22.23058,1.0,1.0,0.0,6,0,0,0,0,0,1,1,0,0,0
1197818888,24.317019,24.391832,0.062,0.06962542,0.0,22.240374,1.0,1.0,0.0,6,0,0,0,0,0,1,1,0,0,0
1198322916,24.337215,24.388329,0.062,0.068381764,0.0,22.249805,1.0,1.0,0.0,6,0,0,0,0,0,1,1,0,0,0
1198827078,24.37761,24.380358,0.0744,0.068724275,0.0,22.259438,1.0,1.0,0.0,6,0,0,0,0,0,1,1,0,0,0
1199332470,24.37761,24.376814,0.0744,0.069202416,0.0,22.269217,1.0,1.0,0.0,6,0,0,0,0,0,1,1,0,0,0
1199836559,24.397806,24.37448,0.0744,0.06979442,0.0,22.279013,1.0,1.0,0.0,6,0,0,0,0,0,1,1,0,0,0
1200328568,24.357412,24.370901,0.0744,0.06932465,0.0,22.288477,1.0,1.0,0.0,6,0,0,0,0,0,1,1,0,0,0
1200832521,24.4382,24.366194,0.0744,0.06961542,0.0,22.298225,1.0,1.0,0.0,6,0,0,0,0,0,1,1,0,0,0
1201336900,24.37761,24.361942,0.0744,0.06979531,0.0,22.30799,1.0,1.0,0.0,6,0,0,0,0,0,1,1,0,0,0
1201840524,24.357412,24.358418,0.0744,0.07018053,0.0,22.317823,1.0,1.0,0.0,6,0,0,0,0,0,1,1,0,0,0
1202344770,24.357412,24.353676,0.062,0.07061298,0.0,22.327698,1.0,1.0,0.0,6,0,0,0,0,0,1,1,0,0,0
1202848708,24.337215,24.344505,0.0744,0.06992059,0.0,22.337446,1.0,1.0,0.0,6,0,0,0,0,0,1,1,0,0,0
1203342119,24.337215,24.339874,0.0744,0.06853846,0.0,22.346727,1.0,1.0,0.0,6,0,0,0,0,0,1,1,0,0,0
1203846118,24.418003,24.34267,0.0744,0.06898868,0.0,22.356396,1.0,1.0,0.0,6,0,0,0,0,0,1,1,0,0,0
1204350102,24.317019,24.346037,0.062,0.069013484,0.0,22.366024,1.0,1.0,0.0,6,0,0,0,0,0,1,1,0,0,0
1204854153,24.337215,24.343204,0.062,0.06790101,0.0,22.37541,1.0,1.0,0.0,6,0,0,0,0,0,1,1,0,0,0
1205358346,24.357412,24.338013,0.062,0.068241276,0.0,22.38495,1.0,1.0,0.0,6,0,0,0,0,0,1,1,0,0,0
1205862212,24.317019,24.327396,0.0744,0.068368115,0.0,22.394495,1.0,1.0,0.0,6,0,0,0,0,0,1,1,0,0,0
1206366062,24.23623,24.318417,0.062,0.068973035,0.0,22.404203,1.0,1.0,0.0,6,0,0,0,0,0,1,1,0,0,0
1206870339,24.317019,24.317097,0.0868,0.07067044,0.0,22.414213,1.0,1.0,0.0,6,0,0,0,0,0,1,1,0,0,0
1207374360,24.337215,24.317627,0.062,0.06921857,0.0,22.423847,1.0,1.0,0.0,6,0,0,0,0,0,1,1,0,0,0
1207867786,24.317019,24.314718,0.0744,0.06991197,0.0,22.433504,1.0,1.0,0.0,6,0,0,0,0,0,1,1,0,0,0
1208371645,24.337215,24.316496,0.0744,0.069635496,0.0,22.443178,1.0,1.0,0.0,6,0,0,0,0,0,1,1,0,0,0
1208875915,24.337215,24.319609,0.0744,0.06942341,0.0,22.452856,1.0,1.0,0.0,6,0,0,0,0,0,1,1,0,0,0
1209379685,24.317019,24.31936,0.062,0.069715224,0.0,22.46269,1.0,1.0,0.0,6,0,0,0,0,0,1,1,0,0,0
1209884019,24.317019,24.30186,0.062,0.06855695,0.0,22.472242,1.0,1.0,0.0,6,0,0,0,0,0,1,1,0,0,0
1210387702,24.296822,24.306572,0.062,0.06869475,0.0,22.481865,1.0,1.0,0.0,6,0,0,0,0,0,1,1,0,0,0
1210891744,24.317019,24.304464,0.0744,0.06964929,0.0,22.491657,1.0,1.0,0.0,6,0,0,0,0,0,1,1,0,0,0
1211395785,24.276625,24.30291,0.062,0.06879991,0.0,22.501205,1.0,1.0,0.0,6,0,0,0,0,0,1,1,0,0,0
1211899805,24.216034,24.299019,0.062,0.06822594,0.0,22.51071,1.0,1.0,0.0,6,0,0,0,0,0,1,1,0,0,0
1212405389,24.4382,24.310804,0.062,0.06853122,0.0,22.520283,1.0,1.0,0.0,6,0,0,0,0,0,1,1,0,0,0
1212909326,24.317019,24.329739,0.0744,0.06943054,0.0,22.530077,1.0,1.0,0.0,6,0,0,0,0,0,1,1,0,0,0
1213401319,24.296822,24.31321,0.0744,0.06894235,0.0,22.539415,1.0,1.0,0.0,6,0,0,0,0,0,1,1,0,0,0
1213905408,24.23623,24.31569,0.0744,0.06965687,0.0,22.54921,1.0,1.0,0.0,6,0,0,0,0,0,1,1,0,0,0
1214409362,24.337215,24.326508,0.062,0.0689371,0.0,22.558798,1.0,1.0,0.0,6,0,0,0,0,0,1,1,0,0,0
1214913381,24.357412,24.338669,0.062,0.069722004,0.0,22.568634,1.0,1.0,0.0,6,0,0,0,0,0,1,1,0,0,0
1215417251,24.337215,24.34063,0.0744,0.06994681,0.0,22.578356,1.0,1.0,0.0,6,0,0,0,0,0,1,1,0,0,0
1215921308,24.317019,24.340965,0.0744,0.06988115,0.0,22.588158,1.0,1.0,0.0,6,0,0,0,0,0,1,1,0,0,0
1216426132,24.337215,24.338621,0.062,0.06961238,0.0,22.59788,1.0,1.0,0.0,6,0,0,0,0,0,1,1,0,0,0
1216918915,24.23623,24.32816,0.0744,0.06983686,0.0,22.607485,1.0,1.0,0.0,6,0,0,0,0,0,1,1,0,0,0
1217423019,24.337215,24.32449,0.062,0.07010106,0.0,22.617329,1.0,1.0,0.0,6,0,0,0,0,0,1,1,0,0,0
1217926856,24.337215,24.325405,0.0744,0.0704181,0.0,22.627121,1.0,1.0,0.0,6,0,0,0,0,0,1,1,0,0,0
1218431242,24.337215,24.32754,0.062,0.06957246,0.0,22.636759,1.0,1.0,0.0,6,0,0,0,0,0,1,1,0,0,0
1218935299,24.337215,24.326761,0.0744,0.07059231,0.0,22.646713,1.0,1.0,0.0,6,0,0,0,0,0,1,1,0,0,0
1219427091,24.296822,24.325876,0.062,0.069710866,0.0,22.656178,1.0,1.0,0.0,6,0,0,0,0,0,1,1,0,0,0
1219943421,24.317019,24.322538,0.0744,0.06954964,0.0,22.6661,1.0,1.0,0.0,6,0,0,0,0,0,1,1,0,0,0
1220446855,24.317019,24.310316,0.0744,0.06939186,0.0,22.67576,1.0,1.0,0.0,6,0,0,0,0,0,1,1,0,0,0
1220940861,24.216034,24.30329,0.0744,0.06865113,0.0,22.685186,1.0,1.0,0.0,6,0,0,0,0,0,1,1,0,0,0
1221444572,24.317019,24.300665,0.062,0.068219304,0.0,22.694683,1.0,1.0,0.0,6,0,0,0,0,0,1,1,0,0,0
1221948747,24.317019,24.30361,0.062,0.06888934,0.0,22.704361,1.0,1.0,0.0,6,0,0,0,0,0,1,1,0,0,0
1222452616,24.337215,24.303608,0.0868,0.0702936,0.0,22.714275,1.0,1.0,0.0,6,0,0,0,0,0,1,1,0,0,0
1222956748,24.276625,24.302877,0.0744,0.0696384,0.0,22.723959,1.0,1.0,0.0,6,0,0,0,0,0,1,1,0,0,0
1223460735,24.337215,24.310806,0.0744,0.069872536,0.0,22.733795,1.0,1.0,0.0,6,0,0,0,0,0,1,1,0,0,0
1223964685,24.357412,24.317108,0.0744,0.07030773,0.0,22.743708,1.0,1.0,0.0,6,0,0,0,0,0,1,1,0,0,0
1224468923,24.296822,24.320417,0.0744,0.06974784,0.0,22.753426,1.0,1.0,0.0,6,0,0,0,0,0,1,1,0,0,0
1224972615,24.418003,24.326195,0.062,0.06899585,0.0,22.763012,1.0,1.0,0.0,6,0,0,0,0,0,1,1,0,0,0
1225466338,24.37761,24.330427,0.062,0.06993172,0.0,22.772804,1.0,1.0,0.0,6,0,0,0,0,0,1,1,0,0,0
1225970212,24.337215,24.325062,0.0744,0.069992885,0.0,22.782637,1.0,1.0,0.0,6,0,0,0,0,0,1,1,0,0,0
1226474351,24.256428,24.327412,0.0744,0.06896127,0.0,22.792103,1.0,1.0,0.0,6,0,0,0,0,0,1,1,0,0,0
1226978345,24.216034,24.318773,0.0744,0.06822155,0.0,22.801605,1.0,1.0,0.0,6,0,0,0,0,0,1,1,0,0,0
1227482320,24.357412,24.311434,0.0744,0.06893143,0.0,22.811274,1.0,1.0,0.0,6,0,0,0,0,0,1,1,0,0,0
1227986228,24.296822,24.310616,0.062,0.068967804,0.0,22.820946,1.0,1.0,0.0,6,0,0,0,0,0,1,1,0,0,0
1228490179,24.317019,24.314472,0.062,0.06971049,0.0,22.83082,1.0,1.0,0.0,6,0,0,0,0,0,1,1,0,0,0
1228994227,24.337215,24.315353,0.062,0.06926493,0.0,22.840445,1.0,1.0,0.0,6,0,0,0,0,0,1,1,0,0,0
1229498342,24.317019,24.323318,0.062,0.069326624,0.0,22.850245,1.0,1.0,0.0,6,0,0,0,0,0,1,1,0,0,0
1229991728,24.337215,24.335901,0.0744,0.06910457,0.0,22.859695,1.0,1.0,0.0,6,0,0,0,0,0,1,1,0,0,0
1230495811,24.317019,24.331734,0.0744,0.06898756,0.0,22.869368,1.0,1.0,0.0,6,0,0,0,0,0,1,1,0,0,0
1230999747,24.276625,24.335285,0.0744,0.069917224,0.0,22.879202,1.0,1.0,0.0,6,0,0,0,0,0,1,1,0,0,0
1234013526,24.135246,24.227226,0.062,0.06856196,0.0,22.936716,1.0,1.0,0.0,6,0,0,0,0,0,1,1,0,0,0
1234517316,24.17564,24.21495,0.062,0.067636825,0.0,22.946047,1.0,1.0,0.0,6,0,0,0,0,0,1,1,0,0,0
1235021517,24.195837,24.195955,0.0744,0.06844199,0.0,22.955719,1.0,1.0,0.0,6,0,0,0,0,0,1,1,0,0,0
1235525395,24.195837,24.192354,0.0744,0.06879199,0.0,22.96535,1.0,1.0,0.0,6,0,0,0,0,0,1,1,0,0,0
1236029529,24.17564,24.19586,0.062,0.06884193,0.0,22.974985,1.0,1.0,0.0,6,0,0,0,0,0,1,1,0,0,0
1236533623,24.17564,24.199728,0.062,0.06955184,0.0,22.984825,1.0,1.0,0.0,6,0,0,0,0,0,1,1,0,0,0
1237037313,24.216034,24.18946,0.062,0.06837068,0.0,22.994406,1.0,1.0,0.0,6,0,0,0,0,0,1,1,0,0,0
1237541398,24.23623,24.198812,0.0744,0.06810332,0.0,23.003912,1.0,1.0,0.0,6,0,0,0,0,0,1,1,0,0,0
1238045419,24.23623,24.208303,0.062,0.06966778,0.0,23.013786,1.0,1.0,0.0,6,0,0,0,0,0,1,1,0,0,0
1238551000,24.256428,24.21822,0.062,0.06952993,0.0,23.023579,1.0,1.0,0.0,6,0,0,0,0,0,1,1,0,0,0
1239042890,24.195837,24.22134,0.0744,0.06857248,0.0,23.032879,1.0,1.0,0.0,6,0,0,0,0,0,1,1,0,0,0
1239547171,24.276625,24.235415,0.0744,0.069763824,0.0,23.042805,1.0,1.0,0.0,6,0,0,0,0,0,1,1,0,0,0
1240050927,24.216034,24.23773,0.0744,0.06891433,0.0,23.052303,1.0,1.0,0.0,6,0,0,0,0,0,1,1,0,0,0
1240555152,24.216034,24.234375,0.0744,0.06855645,0.0,23.061901,1.0,1.0,0.0,6,0,0,0,0,0,1,1,0,0,0
1241046975,24.256428,24.237843,0.062,0.067806326,0.0,23.071032,1.0,1.0,0.0,6,0,0,0,0,0,1,1,0,0,0
1241550848,24.216034,24.234066,0.0744,0.06941701,0.0,23.080946,1.0,1.0,0.0,6,0,0,0,0,0,1,1,0,0,0
1242054993,24.23623,24.234047,0.0744,0.06927304,0.0,23.090586,1.0,1.0,0.0,6,0,0,0,0,0,1,1,0,0,0
1242558996,24.195837,24.227272,0.062,0.069841295,0.0,23.100378,1.0,1.0,0.0,6,0,0,0,0,0,1,1,0,0,0
1243064608,24.216034,24.223124,0.0744,0.06935439,0.0,23.110035,1.0,1.0,0.0,6,0,0,0,0,0,1,1,0,0,0
1243568577,24.11505,24.216492,0.062,0.06941267,0.0,23.119785,1.0,1.0,0.0,6,0,0,0,0,0,1,1,0,0,0
1244072590,24.23623,24.218039,0.0744,0.0687538,0.0,23.12938,1.0,1.0,0.0,6,0,0,0,0,0,1,1,0,0,0
1244576705,24.23623,24.217716,0.0744,0.06828403,0.0,23.138895,1.0,1.0,0.0,6,0,0,0,0,0,1,1,0,0,0
1245080736,24.256428,24.228043,0.0744,0.07036023,0.0,23.149027,1.0,1.0,0.0,6,0,0,0,0,0,1,1,0,0,0
1245584751,24.216034,24.234686,0.0744,0.069342725,0.0,23.158623,1.0,1.0,0.0,6,0,0,0,0,0,1,1,0,0,0
1246088605,24.276625,24.235867,0.024799999,0.067498736,0.0,23.167965,1.0,1.0,0.0,6,0,0,0,0,0,1,1,0,0,0
1246592585,24.256428,24.235676,0.062,0.067773625,0.0,23.17743,1.0,1.0,0.0,6,0,0,0,0,0,1,1,0,0,0
1247085614,24.296822,24.244883,0.0744,0.06945698,0.0,23.18708,1.0,1.0,0.0,6,0,0,0,0,0,1,1,0,0,0
1247590131,24.256428,24.24954,0.0744,0.06980994,0.0,23.196886,1.0,1.0,0.0,6,0,0,0,0,0,1,1,0,0,0
1248094317,24.23623,24.24857,0.062,0.068998,0.0,23.206482,1.0,1.0,0.0,6,0,0,0,0,0,1,1,0,0,0
1248598365,24.296822,24.241938,0.062,0.06896366,0.0,23.216148,1.0,1.0,0.0,6,0,0,0,0,0,1,1,0,0,0
1249090365,24.256428,24.236465,0.062,0.0686301,0.0,23.225496,1.0,1.0,0.0,6,0,0,0,0,0,1,1,0,0,0
1249594142,24.256428,24.244644,0.0744,0.06910182,0.0,23.235216,1.0,1.0,0.0,6,0,0,0,0,0,1,1,0,0,0
1250098331,24.216034,24.249844,0.062,0.06875058,0.0,23.244806,1.0,1.0,0.0,6,0,0,0,0,0,1,1,0,0,0
1250602157,24.074656,24.247375,0.0744,0.06787707,0.0,23.254103,1.0,1.0,0.0,6,0,0,0,0,0,1,1,0,0,0
1251106216,23.973671,24.08994,0.062,0.06897734,0.0,23.26387,1.0,1.0,0.0,6,0,0,0,0,0,1,1,0,0,0
1251611704,24.11505,24.081442,0.062,0.06929973,0.0,23.273647,1.0,1.0,0.0,6,0,0,0,0,0,1,1,0,0,0
1252115711,24.155443,24.080202,0.062,0.06762749,0.0,23.28295,1.0,1.0,0.0,6,0,0,0,0,0,1,1,0,0,0
1252619721,24.094852,24.10903,0.0744,0.068187475,0.0,23.292534,1.0,1.0,0.0,6,0,0,0,0,0,1,1,0,0,0
1253123781,24.094852,24.099558,0.0744,0.06840512,0.0,23.302122,1.0,1.0,0.0,6,0,0,0,0,0,1,1,0,0,0
1253615910,24.17564,24.103596,0.062,0.06760541,0.0,23.311258,1.0,1.0,0.0,6,0,0,0,0,0,1,1,0,0,0
1254119782,24.11505,24.101105,0.062,0.067773715,0.0,23.320724,1.0,1.0,0.0,6,0,0,0,0,0,1,1,0,0,0
1254623918,24.135246,24.107552,0.0744,0.068467215,0.0,23.330393,1.0,1.0,0.0,6,0,0,0,0,0,1,1,0,0,0
1255127640,24.195837,24.121683,0.0744,0.069481574,0.0,23.340227,1.0,1.0,0.0,6,0,0,0,0,0,1,1,0,0,0
1255631708,24.11505,24.120827,0.062,0.067837596,0.0,23.349564,1.0,1.0,0.0,6,0,0,0,0,0,1,1,0,0,0
1256125516,24.054459,24.119488,0.062,0.06858084,0.0,23.359015,1.0,1.0,0.0,6,0,0,0,0,0,1,1,0,0,0
1256629361,24.155443,24.127554,0.0744,0.06747874,0.0,23.36831,1.0,1.0,0.0,6,0,0,0,0,0,1,1,0,0,0
1257133413,24.074656,24.123604,0.062,0.06768901,0.0,23.377815,1.0,1.0,0.0,6,0,0,0,0,0,1,1,0,0,0
1257637285,24.195837,24.120787,0.0744,0.066652,0.0,23.387072,1.0,1.0,0.0,6,0,0,0,0,0,1,1,0,0,0
1258141311,24.155443,24.12923,0.024799999,0.06741907,0.0,23.396667,1.0,1.0,0.0,6,0,0,0,0,0,1,1,0,0,0
1258645403,24.135246,24.135542,0.062,0.0682303,0.0,23.406332,1.0,1.0,0.0,6,0,0,0,0,0,1,1,0,0,0
1259149499,24.135246,24.13686,0.062,0.06927973,0.0,23.416132,1.0,1.0,0.0,6,0,0,0,0,0,1,1,0,0,0
1259653413,24.034262,24.111061,0.062,0.06774696,0.0,23.42543,1.0,1.0,0.0,6,0,0,0,0,0,1,1,0,0,0
1260157320,24.135246,24.101215,0.062,0.068368845,0.0,23.435024,1.0,1.0,0.0,6,0,0,0,0,0,1,1,0,0,0
1260663056,24.054459,24.10911,0.062,0.06778371,0.0,23.44448,1.0,1.0,0.0,6,0,0,0,0,0,1,1,0,0,0
1261154876,24.155443,24.109222,0.0744,0.06945618,0.0,23.454147,1.0,1.0,0.0,6,0,0,0,0,0,1,1,0,0,0
1261658927,24.094852,24.107122,0.062,0.06893703,0.0,23.463776,1.0,1.0,0.0,6,0,0,0,0,0,1,1,0,0,0
1262162911,24.135246,24.118376,0.062,0.06858905,0.0,23.473312,1.0,1.0,0.0,6,0,0,0,0,0,1,1,0,0,0
1262666970,24.195837,24.12355,0.0744,0.06894108,0.0,23.482988,1.0,1.0,0.0,6,0,0,0,0,0,1,1,0,0,0
1263171133,24.094852,24.11001,0.0744,0.06941906,0.0,23.4927,1.0,1.0,0.0,6,0,0,0,0,0,1,1,0,0,0
1263674991,24.034262,24.094608,0.0744,0.06931041,0.0,23.502369,1.0,1.0,0.0,6,0,0,0,0,0,1,1,0,0,0
1264179118,24.034262,24.09417,0.062,0.06808067,0.0,23.51188,1.0,1.0,0.0,6,0,0,0,0,0,1,1,0,0,0
1264682910,24.074656,24.08467,0.062,0.06779328,0.0,23.521385,1.0,1.0,0.0,6,0,0,0,0,0,1,1,0,0,0
1265188761,24.094852,24.09864,0.062,0.06893501,0.0,23.531178,1.0,1.0,0.0,6,0,0,0,0,0,1,1,0,0,0
1265692889,24.074656,24.094204,0.062,0.06838346,0.0,23.540691,1.0,1.0,0.0,6,0,0,0,0,0,1,1,0,0,0
1266184724,24.074656,24.09178,0.062,0.06859498,0.0,23.55007,1.0,1.0,0.0,6,0,0,0,0,0,1,1,0,0,0
1266688769,24.074656,24.086617,0.062,0.068301335,0.0,23.559658,1.0,1.0,0.0,6,0,0,0,0,0,1,1,0,0,0
1267192544,24.11505,24.08976,0.062,0.06843097,0.0,23.569204,1.0,1.0,0.0,6,0,0,0,0,0,1,1,0,0,0
1267696534,24.034262,24.082214,0.0744,0.06740332,0.0,23.578463,1.0,1.0,0.0,6,0,0,0,0,0,1,1,0,0,0
1268200671,24.074656,24.086462,0.049599998,0.06729852,0.0,23.58801,1.0,1.0,0.0,6,0,0,0,0,0,1,1,0,0,0
1268704525,24.034262,24.07803,0.0744,0.069050126,0.0,23.597843,1.0,1.0,0.0,6,0,0,0,0,0,1,1,0,0,0
1269210167,24.054459,24.070232,0.0744,0.06850788,0.0,23.607332,1.0,1.0,0.0,6,0,0,0,0,0,1,1,0,0,0
1269714197,24.23623,24.086346,0.062,0.06948143,0.0,23.61713,1.0,1.0,0.0,6,0,0,0,0,0,1,1,0,0,0
1270206100,24.11505,24.111506,0.0744,0.067749545,0.0,23.626219,1.0,1.0,0.0,6,0,0,0,0,0,1,1,0,0,0
1270710207,24.135246,24.123884,0.062,0.06819801,0.0,23.63581,1.0,1.0,0.0,6,0,0,0,0,0,1,1,0,0,0
1271214129,24.155443,24.124468,0.0744,0.06793704,0.0,23.645311,1.0,1.0,0.0,6,0,0,0,0,0,1,1,0,0,0
1271718326,24.135246,24.137793,0.0744,0.06858729,0.0,23.654987,1.0,1.0,0.0,6,0,0,0,0,0,1,1,0,0,0
1272222134,24.155443,24.136053,0.0744,0.068910316,0.0,23.664658,1.0,1.0,0.0,6,0,0,0,0,0,1,1,0,0,0
1272726291,24.034262,24.120148,0.049599998,0.067960076,0.0,23.674128,1.0,1.0,0.0,6,0,0,0,0,0,1,1,0,0,0
1273230163,24.11505,24.111284,0.0744,0.069729365,0.0,23.68409,1.0,1.0,0.0,6,0,0,0,0,0,1,1,0,0,0
1273735819,24.074656,24.092054,0.0744,0.06791484,0.0,23.693422,1.0,1.0,0.0,6,0,0,0,0,0,1,1,0,0,0
1274227731,24.014065,24.077776,0.062,0.06839872,0.0,23.702848,1.0,1.0,0.0,6,0,0,0,0,0,1,1,0,0,0
1274731749,24.074656,24.070229,0.0744,0.06783794,0.0,23.712313,1.0,1.0,0.0,6,0,0,0,0,0,1,1,0,0,0
1275235762,24.034262,24.077524,0.062,0.06748518,0.0,23.721735,1.0,1.0,0.0,6,0,0,0,0,0,1,1,0,0,0
1275739820,24.11505,24.076302,0.0372,0.06746537,0.0,23.731243,1.0,1.0,0.0,6,0,0,0,0,0,1,1,0,0,0
1276243736,24.094852,24.084047,0.062,0.067566626,0.0,23.740711,1.0,1.0,0.0,6,0,0,0,0,0,1,1,0,0,0
1276747692,24.094852,24.081148,0.0744,0.06774162,0.0,23.750292,1.0,1.0,0.0,6,0,0,0,0,0,1,1,0,0,0
1277251784,24.11505,24.092447,0.062,0.06854911,0.0,23.760008,1.0,1.0,0.0,6,0,0,0,0,0,1,1,0,0,0
1277755777,24.135246,24.10003,0.0744,0.067342415,0.0,23.769304,1.0,1.0,0.0,6,0,0,0,0,0,1,1,0,0,0
1278261338,24.094852,24.113781,0.0744,0.06884567,0.0,23.77913,1.0,1.0,0.0,6,0,0,0,0,0,1,1,0,0,0
1278765525,24.11505,24.116842,0.0744,0.069109015,0.0,23.78884,1.0,1.0,0.0,6,0,0,0,0,0,1,1,0,0,0
1279257331,24.074656,24.111118,0.062,0.07005365,0.0,23.798468,1.0,1.0,0.0,6,0,0,0,0,0,1,1,0,0,0
1279761306,24.074656,24.095728,0.062,0.07030997,0.0,23.808384,1.0,1.0,0.0,6,0,0,0,0,0,1,1,0,0,0
1280265349,24.195837,24.100185,0.0744,0.07003182,0.0,23.81813,1.0,1.0,0.0,6,0,0,0,0,0,1,1,0,0,0
1280769377,24.054459,24.109636,0.0744,0.06869992,0.0,23.827631,1.0,1.0,0.0,6,0,0,0,0,0,1,1,0,0,0
1281273339,24.11505,24.113274,0.062,0.066725,0.0,23.836773,1.0,1.0,0.0,6,0,0,0,0,0,1,1,0,0,0
1281777328,24.155443,24.125967,0.062,0.067156225,0.0,23.846243,1.0,1.0,0.0,6,0,0,0,0,0,1,1,0,0,0
1282281314,24.11505,24.131294,0.0744,0.06741387,0.0,23.85558,1.0,1.0,0.0,6,0,0,0,0,0,1,1,0,0,0
1282786939,24.17564,24.150316,0.0744,0.067978546,0.0,23.865154,1.0,1.0,0.0,6,0,0,0,0,0,1,1,0,0,0
1283290985,24.155443,24.139786,0.0744,0.06775132,0.0,23.874584,1.0,1.0,0.0,6,0,0,0,0,0,1,1,0,0,0
1283782998,24.216034,24.149426,0.0744,0.066844344,0.0,23.883686,1.0,1.0,0.0,6,0,0,0,0,0,1,1,0,0,0
1284287212,24.17564,24.159527,0.062,0.067995556,0.0,23.893318,1.0,1.0,0.0,6,0,0,0,0,0,1,1,0,0,0
1284791014,24.135246,24.142273,0.0744,0.06886133,0.0,23.903023,1.0,1.0,0.0,6,0,0,0,0,0,1,1,0,0,0
1285294904,24.135246,24.128475,0.0744,0.06922537,0.0,23.912735,1.0,1.0,0.0,6,0,0,0,0,0,1,1,0,0,0
1285798870,24.11505,24.1168,0.0744,0.06775554,0.0,23.922031,1.0,1.0,0.0,6,0,0,0,0,0,1,1,0,0,0
1286303017,24.11505,24.117685,0.0744,0.06928219,0.0,23.931873,1.0,1.0,0.0,6,0,0,0,0,0,1,1,0,0,0
1286806853,24.054459,24.109972,0.062,0.06971125,0.0,23.941715,1.0,1.0,0.0,6,0,0,0,0,0,1,1,0,0,0
1287300584,24.11505,24.107561,0.0744,0.06761882,0.0,23.950796,1.0,1.0,0.0,6,0,0,0,0,0,1,1,0,0,0
1287804570,24.135246,24.125854,0.062,0.06792182,0.0,23.960297,1.0,1.0,0.0,6,0,0,0,0,0,1,1,0,0,0
1288308780,24.034262,24.100475,0.0744,0.06730403,0.0,23.969597,1.0,1.0,0.0,6,0,0,0,0,0,1,1,0,0,0
1288812563,24.074656,24.077862,0.062,0.066819765,0.0,23.97894,1.0,1.0,0.0,6,0,0,0,0,0,1,1,0,0,0
1289316581,24.155443,24.090267,0.0744,0.06840835,0.0,23.988691,1.0,1.0,0.0,6,0,0,0,0,0,1,1,0,0,0
1289820581,24.094852,24.102493,0.062,0.067587525,0.0,23.998074,1.0,1.0,0.0,6,0,0,0,0,0,1,1,0,0,0
1290324602,24.094852,24.103712,0.062,0.067123055,0.0,24.007458,1.0,1.0,0.0,6,0,0,0,0,0,1,1,0,0,0
1290828592,24.11505,24.099993,0.0744,0.06835145,0.0,24.017132,1.0,1.0,0.0,6,0,0,0,0,0,1,1,0,0,0
1291332587,24.11505,24.095926,0.062,0.067405455,0.0,24.026518,1.0,1.0,0.0,6,0,0,0,0,0,1,1,0,0,0
1291826144,24.094852,24.095745,0.0744,0.06846362,0.0,24.036013,1.0,1.0,0.0,6,0,0,0,0,0,1,1,0,0,0
1292330209,24.135246,24.083923,0.0744,0.06752423,0.0,24.045347,1.0,1.0,0.0,6,0,0,0,0,0,1,1,0,0,0
1292834177,24.014065,24.072987,0.062,0.066500016,0.0,24.054558,1.0,1.0,0.0,6,0,0,0,0,0,1,1,0,0,0
1293338333,24.074656,24.066902,0.0744,0.068169385,0.0,24.064192,1.0,1.0,0.0,6,0,0,0,0,0,1,1,0,0,0
1293842198,24.054459,24.053968,0.0744,0.06774697,0.0,24.07357,1.0,1.0,0.0,6,0,0,0,0,0,1,1,0,0,0
1294346208,24.014065,24.037384,0.0744,0.069272354,0.0,24.083412,1.0,1.0,0.0,6,0,0,0,0,0,1,1,0,0,0
1294850173,23.993868,24.034145,0.0372,0.066792645,0.0,24.092583,1.0,1.0,0.0,6,0,0,0,0,0,1,1,0,0,0
1295354215,24.094852,24.030542,0.0372,0.06500331,0.0,24.10159,1.0,1.0,0.0,6,0,0,0,0,0,1,1,0,0,0
1295858415,24.054459,24.042517,0.062,0.06656507,0.0,24.111063,1.0,1.0,0.0,6,0,0,0,0,0,1,1,0,0,0
1296363974,24.074656,24.052856,0.0744,0.06749224,0.0,24.12064,1.0,1.0,0.0,6,0,0,0,0,0,1,1,0,0,0
1296855730,24.054459,24.046452,0.062,0.06735244,0.0,24.129854,1.0,1.0,0.0,6,0,0,0,0,0,1,1,0,0,0
1297359715,23.993868,24.038681,0.0744,0.06829921,0.0,24.13952,1.0,1.0,0.0,6,0,0,0,0,0,1,1,0,0,0
1297864012,24.014065,24.029432,0.0744,0.06902138,0.0,24.149242,1.0,1.0,0.0,6,0,0,0,0,0,1,1,0,0,0
1298367742,24.054459,24.0301,0.062,0.0673209,0.0,24.158577,1.0,1.0,0.0,6,0,0,0,0,0,1,1,0,0,0
1298871929,24.054459,24.02464,0.049599998,0.06769606,0.0,24.168169,1.0,1.0,0.0,6,0,0,0,0,0,1,1,0,0,0
1299375817,23.953474,24.020828,0.0744,0.06962114,0.0,24.178173,1.0,1.0,0.0,6,0,0,0,0,0,1,1,0,0,0
1299879895,23.993868,24.011816,0.062,0.0670807,0.0,24.187218,1.0,1.0,0.0,6,0,0,0,0,0,1,1,0,0,0
1300383815,23.993868,24.00391,0.062,0.067906365,0.0,24.19676,1.0,1.0,0.0,6,0,0,0,0,0,1,1,0,0,0
1300887882,24.014065,23.995836,0.062,0.06744608,0.0,24.206104,1.0,1.0,0.0,6,0,0,0,0,0,1,1,0,0,0
1301381304,23.933277,23.989367,0.062,0.06638162,0.0,24.21513,1.0,1.0,0.0,6,0,0,0,0,0,1,1,0,0,0
1301885562,23.993868,23.986423,0.0744,0.06678973,0.0,24.224558,1.0,1.0,0.0,6,0,0,0,0,0,1,1,0,0,0
1302389403,23.973671,23.98155,0.062,0.06659592,0.0,24.233902,1.0,1.0,0.0,6,0,0,0,0,0,1,1,0,0,0
1302893547,23.933277,23.97889,0.0744,0.066809446,0.0,24.243252,1.0,1.0,0.0,6,0,0,0,0,0,1,1,0,0,0
1303397294,24.034262,23.975405,0.062,0.06733424,0.0,24.25271,1.0,1.0,0.0,6,0,0,0,0,0,1,1,0,0,0
1303901567,23.91308,23.985376,0.062,0.0676801,0.0,24.262262,1.0,1.0,0.0,6,0,0,0,0,0,1,1,0,0,0
1304405547,24.014065,23.981041,0.062,0.06826698,0.0,24.271933,1.0,1.0,0.0,6,0,0,0,0,0,1,1,0,0,0
1304909326,24.014065,23.985958,0.062,0.068636976,0.0,24.281517,1.0,1.0,0.0,6,0,0,0,0,0,1,1,0,0,0
1305413568,24.054459,24.001087,0.062,0.06741436,0.0,24.290821,1.0,1.0,0.0,6,0,0,0,0,0,1,1,0,0,0
1305918877,24.034262,24.025284,0.062,0.066311955,0.0,24.299986,1.0,1.0,0.0,6,0,0,0,0,0,1,1,0,0,0
1306410930,24.11505,24.07156,0.062,0.068023264,0.0,24.309456,1.0,1.0,0.0,6,0,0,0,0,0,1,1,0,0,0
1306915009,23.973671,24.064894,0.062,0.06814403,0.0,24.319008,1.0,1.0,0.0,6,0,0,0,0,0,1,1,0,0,0
1307419010,23.953474,24.041859,0.0744,0.06779058,0.0,24.328472,1.0,1.0,0.0,6,0,0,0,0,0,1,1,0,0,0
1307923146,23.973671,24.030981,0.062,0.067378126,0.0,24.337864,1.0,1.0,0.0,6,0,0,0,0,0,1,1,0,0,0
1308426916,24.034262,24.033062,0.0744,0.067697234,0.0,24.347412,1.0,1.0,0.0,6,0,0,0,0,0,1,1,0,0,0
1308931084,24.034262,24.03878,0.0744,0.06852301,0.0,24.35709,1.0,1.0,0.0,6,0,0,0,0,0,1,1,0,0,0
1309434970,24.074656,24.045477,0.062,0.06746014,0.0,24.366432,1.0,1.0,0.0,6,0,0,0,0,0,1,1,0,0,0
1309939014,24.014065,24.047483,0.0744,0.06826873,0.0,24.3761,1.0,1.0,0.0,6,0,0,0,0,0,1,1,0,0,0
1310443015,24.054459,24.035341,0.0744,0.06823884,0.0,24.385563,1.0,1.0,0.0,6,0,0,0,0,0,1,1,0,0,0
1310936614,23.91308,24.026632,0.0744,0.06768616,0.0,24.39481,1.0,1.0,0.0,6,0,0,0,0,0,1,1,0,0,0
1311440593,23.892883,23.98302,0.062,0.06832316,0.0,24.404398,1.0,1.0,0.0,6,0,0,0,0,0,1,1,0,0,0
1311944616,23.953474,23.961365,0.0744,0.06827475,0.0,24.413908,1.0,1.0,0.0,6,0,0,0,0,0,1,1,0,0,0
1312448782,23.993868,23.954742,0.062,0.06709791,0.0,24.423174,1.0,1.0,0.0,6,0,0,0,0,0,1,1,0,0,0
1312952760,23.933277,23.958265,0.0744,0.06741442,0.0,24.432678,1.0,1.0,0.0,6,0,0,0,0,0,1,1,0,0,0
1313456765,23.973671,23.957165,0.062,0.0667009,0.0,24.441893,1.0,1.0,0.0,6,0,0,0,0,0,1,1,0,0,0
1313960512,23.973671,23.955965,0.062,0.06607047,0.0,24.451065,1.0,1.0,0.0,6,0,0,0,0,0,1,1,0,0,0
1314464706,23.973671,23.957924,0.0744,0.0668613,0.0,24.460491,1.0,1.0,0.0,6,0,0,0,0,0,1,1,0,0,0
1314968754,23.953474,23.956709,0.062,0.06623061,0.0,24.46963,1.0,1.0,0.0,6,0,0,0,0,0,1,1,0,0,0
1315462136,23.91308,23.947,0.062,0.06589619,0.0,24.478668,1.0,1.0,0.0,6,0,0,0,0,0,1,1,0,0,0
1315966401,23.953474,23.947868,0.062,0.06599524,0.0,24.487972,1.0,1.0,0.0,6,0,0,0,0,0,1,1,0,0,0
1316470363,23.973671,23.955849,0.062,0.0647456,0.0,24.496983,1.0,1.0,0.0,6,0,0,0,0,0,1,1,0,0,0
1316974370,23.993868,23.957994,0.049599998,0.06575411,0.0,24.506285,1.0,1.0,0.0,6,0,0,0,0,0,1,1,0,0,0
1317478362,23.872686,23.956123,0.062,0.06609977,0.0,24.515554,1.0,1.0,0.0,6,0,0,0,0,0,1,1,0,0,0
1317982215,23.973671,23.871284,0.062,0.06540956,0.0,24.524645,1.0,1.0,0.0,6,0,0,0,0,0,1,1,0,0,0
1318486320,23.832293,23.898155,0.062,0.065222,0.0,24.533787,1.0,1.0,0.0,6,0,0,0,0,0,1,1,0,0,0
1318990166,23.933277,23.927017,0.0744,0.06811891,0.0,24.543541,1.0,1.0,0.0,6,0,0,0,0,0,1,1,0,0,0
1319494367,23.91308,23.927122,0.062,0.06621115,0.0,24.552597,1.0,1.0,0.0,6,0,0,0,0,0,1,1,0,0,0
1319998296,23.953474,23.917822,0.062,0.06783668,0.0,24.562304,1.0,1.0,0.0,6,0,0,0,0,0,1,1,0,0,0
1320491737,23.973671,23.930384,0.0744,0.06654947,0.0,24.571255,1.0,1.0,0.0,6,0,0,0,0,0,1,1,0,0,0
1320995744,23.872686,23.933962,0.062,0.06638354,0.0,24.580515,1.0,1.0,0.0,6,0,0,0,0,0,1,1,0,0,0
1321499805,23.832293,23.925606,0.062,0.06556173,0.0,24.5896,1.0,1.0,0.0,6,0,0,0,0,0,1,1,0,0,0
1322003711,23.91308,23.927095,0.062,0.06594468,0.0,24.598862,1.0,1.0,0.0,6,0,0,0,0,0,1,1,0,0,0
1322507704,23.973671,23.93248,0.062,0.066219576,0.0,24.60815,1.0,1.0,0.0,6,0,0,0,0,0,1,1,0,0,0
1323011680,23.933277,23.929754,0.062,0.06636475,0.0,24.617487,1.0,1.0,0.0,6,0,0,0,0,0,1,1,0,0,0
1326529272,23.953474,23.958185,0.062,0.0667691,0.0,24.682402,1.0,1.0,0.0,6,0,0,0,0,0,1,1,0,0,0
1327033538,23.933277,23.957209,0.062,0.06641011,0.0,24.691704,1.0,1.0,0.0,6,0,0,0,0,0,1,1,0,0,0
1327525527,23.953474,23.955675,0.062,0.06717195,0.0,24.701086,1.0,1.0,0.0,6,0,0,0,0,0,1,1,0,0,0
1328029336,23.91308,23.955896,0.062,0.066697285,0.0,24.710377,1.0,1.0,0.0,6,0,0,0,0,0,1,1,0,0,0
1328533546,23.973671,23.950048,0.062,0.06694419,0.0,24.719803,1.0,1.0,0.0,6,0,0,0,0,0,1,1,0,0,0
1329037343,23.953474,23.936918,0.062,0.066302605,0.0,24.729015,1.0,1.0,0.0,6,0,0,0,0,0,1,1,0,0,0
1329541487,23.993868,23.935577,0.062,0.06514686,0.0,24.737944,1.0,1.0,0.0,6,0,0,0,0,0,1,1,0,0,0
1330045346,23.91308,23.925726,0.0744,0.06709873,0.0,24.747534,1.0,1.0,0.0,6,0,0,0,0,0,1,1,0,0,0
1330551173,23.933277,23.927023,0.0744,0.06750138,0.0,24.757069,1.0,1.0,0.0,6,0,0,0,0,0,1,1,0,0,0
1331043012,23.933277,23.933664,0.062,0.06733011,0.0,24.766203,1.0,1.0,0.0,6,0,0,0,0,0,1,1,0,0,0
1331547118,24.034262,23.93283,0.0744,0.06681134,0.0,24.775461,1.0,1.0,0.0,6,0,0,0,0,0,1,1,0,0,0
1332050904,23.933277,23.939474,0.062,0.06649762,0.0,24.784714,1.0,1.0,0.0,6,0,0,0,0,0,1,1,0,0,0
1332555166,23.91308,23.938602,0.062,0.067053445,0.0,24.794142,1.0,1.0,0.0,6,0,0,0,0,0,1,1,0,0,0
1333058945,23.872686,23.940304,0.049599998,0.06538059,0.0,24.803148,1.0,1.0,0.0,6,0,0,0,0,0,1,1,0,0,0
1333562925,23.933277,23.941025,0.062,0.06440875,0.0,24.81212,1.0,1.0,0.0,6,0,0,0,0,0,1,1,0,0,0
1334067186,23.933277,23.93719,0.062,0.065109655,0.0,24.8213,1.0,1.0,0.0,6,0,0,0,0,0,1,1,0,0,0
1334570934,23.933277,23.928492,0.0744,0.06648688,0.0,24.830763,1.0,1.0,0.0,6,0,0,0,0,0,1,1,0,0,0
1335075086,23.973671,23.934874,0.0744,0.066297166,0.0,24.840063,1.0,1.0,0.0,6,0,0,0,0,0,1,1,0,0,0
1335578993,23.85249,23.932674,0.062,0.06684966,0.0,24.84941,1.0,1.0,0.0,6,0,0,0,0,0,1,1,0,0,0
1336084791,23.933277,23.924892,0.062,0.0669995,0.0,24.858868,1.0,1.0,0.0,6,0,0,0,0,0,1,1,0,0,0
1336588719,23.933277,23.923277,0.062,0.06659821,0.0,24.868122,1.0,1.0,0.0,6,0,0,0,0,0,1,1,0,0,0
1337080565,23.91308,23.922327,0.062,0.06625359,0.0,24.877136,1.0,1.0,0.0,6,0,0,0,0,0,1,1,0,0,0
1337584538,23.91308,23.913671,0.062,0.06625665,0.0,24.886349,1.0,1.0,0.0,6,0,0,0,0,0,1,1,0,0,0
1338088734,23.872686,23.912115,0.062,0.06551107,0.0,24.895489,1.0,1.0,0.0,6,0,0,0,0,0,1,1,0,0,0
1338592605,23.933277,23.91173,0.0744,0.06638925,0.0,24.904905,1.0,1.0,0.0,6,0,0,0,0,0,1,1,0,0,0
1339096767,23.892883,23.912611,0.062,0.064649105,0.0,24.913755,1.0,1.0,0.0,6,0,0,0,0,0,1,1,0,0,0
1339600756,23.85249,23.917305,0.062,0.066098034,0.0,24.923182,1.0,1.0,0.0,6,0,0,0,0,0,1,1,0,0,0
1340104548,23.872686,23.914257,0.062,0.065258265,0.0,24.932304,1.0,1.0,0.0,6,0,0,0,0,0,1,1,0,0,0
1340608549,23.85249,23.909939,0.0744,0.065280996,0.0,24.941437,1.0,1.0,0.0,6,0,0,0,0,0,1,1,0,0,0
1341112517,23.91308,23.903385,0.062,0.06519172,0.0,24.950489,1.0,1.0,0.0,6,0,0,0,0,0,1,1,0,0,0
1341618346,23.993868,23.906593,0.062,0.06482118,0.0,24.959566,1.0,1.0,0.0,6,0,0,0,0,0,1,1,0,0,0
1342122204,23.91308,23.907297,0.062,0.06523953,0.0,24.9687,1.0,1.0,0.0,6,0,0,0,0,0,1,1,0,0,0
1342614124,23.872686,23.895397,0.062,0.06617809,0.0,24.977833,1.0,1.0,0.0,6,0,0,0,0,0,1,1,0,0,0
1343118200,23.973671,23.901566,0.062,0.06638187,0.0,24.987177,1.0,1.0,0.0,6,0,0,0,0,0,1,1,0,0,0
1343622317,23.973671,23.923367,0.0744,0.066964716,0.0,24.996605,1.0,1.0,0.0,6,0,0,0,0,0,1,1,0,0,0
1344126206,23.933277,23.927315,0.062,0.06572475,0.0,25.005651,1.0,1.0,0.0,6,0,0,0,0,0,1,1,0,0,0
1344630182,23.973671,23.916908,0.0744,0.06644159,0.0,25.014992,1.0,1.0,0.0,6,0,0,0,0,0,1,1,0,0,0
1345134181,23.91308,23.916622,0.0744,0.066668026,0.0,25.024298,1.0,1.0,0.0,6,0,0,0,0,0,1,1,0,0,0
1345638036,23.91308,23.911789,0.062,0.06447112,0.0,25.033094,1.0,1.0,0.0,6,0,0,0,0,0,1,1,0,0,0
1346142108,23.953474,23.910421,0.062,0.064213224,0.0,25.042107,1.0,1.0,0.0,6,0,0,0,0,0,1,1,0,0,0
1346646178,23.933277,23.907831,0.062,0.06406147,0.0,25.051117,1.0,1.0,0.0,6,0,0,0,0,0,1,1,0,0,0
1347151934,23.91308,23.908049,0.062,0.06355622,0.0,25.059954,1.0,1.0,0.0,6,0,0,0,0,0,1,1,0,0,0
1347643908,23.953474,23.910769,0.062,0.0632454,0.0,25.068632,1.0,1.0,0.0,6,0,0,0,0,0,1,1,0,0,0
1348148153,23.933277,23.908915,0.062,0.06372914,0.0,25.077557,1.0,1.0,0.0,6,0,0,0,0,0,1,1,0,0,0
1348651673,23.91308,23.908154,0.0744,0.06504869,0.0,25.086765,1.0,1.0,0.0,6,0,0,0,0,0,1,1,0,0,0
1349155669,23.892883,23.903934,0.0744,0.065717876,0.0,25.096102,1.0,1.0,0.0,6,0,0,0,0,0,1,1,0,0,0
1349659796,23.91308,23.901297,0.0744,0.06438436,0.0,25.104944,1.0,1.0,0.0,6,0,0,0,0,0,1,1,0,0,0
1350163914,23.872686,23.895586,0.0744,0.064251505,0.0,25.113916,1.0,1.0,0.0,6,0,0,0,0,0,1,1,0,0,0
1350667719,23.892883,23.889868,0.062,0.06482153,0.0,25.123049,1.0,1.0,0.0,6,0,0,0,0,0,1,1,0,0,0
1351171708,23.892883,23.885647,0.062,0.065103404,0.0,25.132175,1.0,1.0,0.0,6,0,0,0,0,0,1,1,0,0,0
1351675760,23.85249,23.880795,0.062,0.06483943,0.0,25.14123,1.0,1.0,0.0,6,0,0,0,0,0,1,1,0,0,0
1352179749,23.872686,23.880045,0.062,0.06446152,0.0,25.150198,1.0,1.0,0.0,6,0,0,0,0,0,1,1,0,0,0
1352685418,23.85249,23.874521,0.062,0.06528,0.0,25.159441,1.0,1.0,0.0,6,0,0,0,0,0,1,1,0,0,0
1353177345,23.85249,23.869223,0.062,0.06513776,0.0,25.168331,1.0,1.0,0.0,6,0,0,0,0,0,1,1,0,0,0
1353681358,23.872686,23.863682,0.062,0.06475034,0.0,25.177345,1.0,1.0,0.0,6,0,0,0,0,0,1,1,0,0,0
1354185353,23.872686,23.8532,0.0744,0.06554646,0.0,25.1866,1.0,1.0,0.0,6,0,0,0,0,0,1,1,0,0,0
1354689386,23.812096,23.856121,0.0744,0.06510185,0.0,25.195698,1.0,1.0,0.0,6,0,0,0,0,0,1,1,0,0,0
1355193397,23.85249,23.858261,0.062,0.06521895,0.0,25.204878,1.0,1.0,0.0,6,0,0,0,0,0,1,1,0,0,0
1355697648,23.872686,23.857464,0.062,0.065389566,0.0,25.214098,1.0,1.0,0.0,6,0,0,0,0,0,1,1,0,0,0
1356201321,23.85249,23.857882,0.0744,0.06529032,0.0,25.223223,1.0,1.0,0.0,6,0,0,0,0,0,1,1,0,0,0
1356705309,23.892883,23.859108,0.062,0.065732665,0.0,25.232477,1.0,1.0,0.0,6,0,0,0,0,0,1,1,0,0,0
1357209387,23.85249,23.862633,0.062,0.06496746,0.0,25.241533,1.0,1.0,0.0,6,0,0,0,0,0,1,1,0,0,0
1357713418,23.85249,23.863567,0.062,0.06556582,0.0,25.250744,1.0,1.0,0.0,6,0,0,0,0,0,1,1,0,0,0
1358217339,23.832293,23.867239,0.062,0.065496266,0.0,25.259958,1.0,1.0,0.0,6,0,0,0,0,0,1,1,0,0,0
1358723003,23.832293,23.868465,0.062,0.06470167,0.0,25.268908,1.0,1.0,0.0,6,0,0,0,0,0,1,1,0,0,0
1359226934,23.91308,23.86137,0.062,0.06435757,0.0,25.277922,1.0,1.0,0.0,6,0,0,0,0,0,1,1,0,0,0
1359718883,23.872686,23.86106,0.0744,0.064715825,0.0,25.286846,1.0,1.0,0.0,6,0,0,0,0,0,1,1,0,0,0
1360222989,23.832293,23.85755,0.062,0.06561201,0.0,25.29602,1.0,1.0,0.0,6,0,0,0,0,0,1,1,0,0,0
1360727008,23.872686,23.853317,0.062,0.064207636,0.0,25.304863,1.0,1.0,0.0,6,0,0,0,0,0,1,1,0,0,0
1361230967,23.872686,23.848011,0.062,0.06494588,0.0,25.314,1.0,1.0,0.0,6,0,0,0,0,0,1,1,0,0,0
1361734864,23.812096,23.842676,0.062,0.063835405,0.0,25.322844,1.0,1.0,0.0,6,0,0,0,0,0,1,1,0,0,0
1362238857,23.791899,23.835289,0.062,0.06440288,0.0,25.331942,1.0,1.0,0.0,6,0,0,0,0,0,1,1,0,0,0
1362742902,23.812096,23.832249,0.0744,0.06540042,0.0,25.341242,1.0,1.0,0.0,6,0,0,0,0,0,1,1,0,0,0
1363246992,23.791899,23.825115,0.062,0.06456963,0.0,25.350176,1.0,1.0,0.0,6,0,0,0,0,0,1,1,0,0,0
1363750890,23.832293,23.816908,0.062,0.06321019,0.0,25.358854,1.0,1.0,0.0,6,0,0,0,0,0,1,1,0,0,0
1364255011,23.832293,23.81301,0.062,0.0641621,0.0,25.367983,1.0,1.0,0.0,6,0,0,0,0,0,1,1,0,0,0
1364760541,23.812096,23.813726,0.0744,0.06480544,0.0,25.377096,1.0,1.0,0.0,6,0,0,0,0,0,1,1,0,0,0
1365252556,23.832293,23.813154,0.062,0.06349063,0.0,25.38557,1.0,1.0,0.0,6,0,0,0,0,0,1,1,0,0,0
1365756598,23.832293,23.818434,0.062,0.064147495,0.0,25.394585,1.0,1.0,0.0,6,0,0,0,0,0,1,1,0,0,0
1366260724,23.832293,23.82203,0.062,0.06482774,0.0,25.40372,1.0,1.0,0.0,6,0,0,0,0,0,1,1,0,0,0
1366764606,23.85249,23.822584,0.062,0.06511763,0.0,25.412855,1.0,1.0,0.0,6,0,0,0,0,0,1,1,0,0,0
1367268743,23.892883,23.829481,0.062,0.064712614,0.0,25.42191,1.0,1.0,0.0,6,0,0,0,0,0,1,1,0,0,0
1367772563,23.832293,23.826162,0.062,0.06375458,0.0,25.430754,1.0,1.0,0.0,6,0,0,0,0,0,1,1,0,0,0
1368276786,23.812096,23.822979,0.062,0.06466141,0.0,25.439884,1.0,1.0,0.0,6,0,0,0,0,0,1,1,0,0,0
1368780733,23.812096,23.822514,0.0744,0.064159915,0.0,25.448727,1.0,1.0,0.0,6,0,0,0,0,0,1,1,0,0,0
1369284717,23.832293,23.826664,0.0744,0.0644941,0.0,25.457779,1.0,1.0,0.0,6,0,0,0,0,0,1,1,0,0,0
1369788783,23.791899,23.827984,0.0744,0.06441132,0.0,25.46671,1.0,1.0,0.0,6,0,0,0,0,0,1,1,0,0,0
1370292590,23.832293,23.82746,0.062,0.06567737,0.0,25.476004,1.0,1.0,0.0,6,0,0,0,0,0,1,1,0,0,0
1370786036,23.791899,23.829952,0.049599998,0.06447078,0.0,25.484755,1.0,1.0,0.0,6,0,0,0,0,0,1,1,0,0,0
1371290378,23.832293,23.829426,0.0744,0.06561682,0.0,25.494017,1.0,1.0,0.0,6,0,0,0,0,0,1,1,0,0,0
1371794160,23.832293,23.826014,0.062,0.064717665,0.0,25.50298,1.0,1.0,0.0,6,0,0,0,0,0,1,1,0,0,0
1372298417,23.771704,23.82166,0.0744,0.06405037,0.0,25.511835,1.0,1.0,0.0,6,0,0,0,0,0,1,1,0,0,0
1372802071,23.791899,23.812132,0.062,0.064309955,0.0,25.520924,1.0,1.0,0.0,6,0,0,0,0,0,1,1,0,0,0
1373306230,23.711113,23.806484,0.062,0.064274766,0.0,25.5299,1.0,1.0,0.0,6,0,0,0,0,0,1,1,0,0,0
1373810221,23.791899,23.801464,0.062,0.06373032,0.0,25.53878,1.0,1.0,0.0,6,0,0,0,0,0,1,1,0,0,0
1374314209,23.771704,23.794218,0.0744,0.06285101,0.0,25.547466,1.0,1.0,0.0,6,0,0,0,0,0,1,1,0,0,0
1374818205,23.771704,23.79364,0.062,0.062725775,0.0,25.556223,1.0,1.0,0.0,6,0,0,0,0,0,1,1,0,0,0
1375310135,23.812096,23.773634,0.062,0.06402436,0.0,25.565119,1.0,1.0,0.0,6,0,0,0,0,0,1,1,0,0,0
1375814348,23.711113,23.768991,0.062,0.06387488,0.0,25.574047,1.0,1.0,0.0,6,0,0,0,0,0,1,1,0,0,0
1376318204,23.690916,23.759342,0.062,0.061923746,0.0,25.582438,1.0,1.0,0.0,6,0,0,0,0,0,1,1,0,0,0
1376822041,23.67072,23.732815,0.049599998,0.06199425,0.0,25.591146,1.0,1.0,0.0,6,0,0,0,0,0,1,1,0,0,0
1377327781,23.711113,23.717707,0.0744,0.06390314,0.0,25.600359,1.0,1.0,0.0,6,0,0,0,0,0,1,1,0,0,0
1377819699,23.791899,23.715603,0.062,0.06528973,0.0,25.609411,1.0,1.0,0.0,6,0,0,0,0,0,1,1,0,0,0
1378336604,23.751507,23.722897,0.062,0.06402749,0.0,25.618483,1.0,1.0,0.0,6,0,0,0,0,0,1,1,0,0,0
1378839801,23.690916,23.726315,0.049599998,0.06349022,0.0,25.627354,1.0,1.0,0.0,6,0,0,0,0,0,1,1,0,0,0
1379331698,23.711113,23.726564,0.0744,0.064120315,0.0,25.636112,1.0,1.0,0.0,6,0,0,0,0,0,1,1,0,0,0
1379835783,23.73131,23.727318,0.0744,0.06357323,0.0,25.64491,1.0,1.0,0.0,6,0,0,0,0,0,1,1,0,0,0
1380339700,23.751507,23.72934,0.062,0.063261285,0.0,25.653757,1.0,1.0,0.0,6,0,0,0,0,0,1,1,0,0,0
1380843802,23.73131,23.730135,0.0744,0.0630353,0.0,25.662521,1.0,1.0,0.0,6,0,0,0,0,0,1,1,0,0,0
1381347691,23.73131,23.733822,0.0744,0.06480515,0.0,25.67169,1.0,1.0,0.0,6,0,0,0,0,0,1,1,0,0,0
1381851732,23.711113,23.7312,0.062,0.06450015,0.0,25.680696,1.0,1.0,0.0,6,0,0,0,0,0,1,1,0,0,0
1382355754,23.711113,23.730858,0.062,0.06498858,0.0,25.689787,1.0,1.0,0.0,6,0,0,0,0,0,1,1,0,0,0
1382859770,23.751507,23.729652,0.062,0.063986726,0.0,25.698753,1.0,1.0,0.0,6,0,0,0,0,0,1,1,0,0,0
1383351886,23.67072,23.72832,0.062,0.0632482,0.0,25.707396,1.0,1.0,0.0,6,0,0,0,0,0,1,1,0,0,0
1383855808,23.751507,23.727465,0.012399999,0.06283088,0.0,25.71624,1.0,1.0,0.0,6,0,0,0,0,0,1,1,0,0,0
1384361365,23.73131,23.729574,0.062,0.06382296,0.0,25.725315,1.0,1.0,0.0,6,0,0,0,0,0,1,1,0,0,0
1384865329,23.73131,23.729443,0.012399999,0.0641318,0.0,25.734377,1.0,1.0,0.0,6,0,0,0,0,0,1,1,0,0,0
1385357358,23.751507,23.73109,0.062,0.06318153,0.0,25.742931,1.0,1.0,0.0,6,0,0,0,0,0,1,1,0,0,0
1385861407,23.73131,23.729736,0.062,0.06347234,0.0,25.751892,1.0,1.0,0.0,6,0,0,0,0,0,1,1,0,0,0
1386365525,23.711113,23.72963,0.062,0.064059936,0.0,25.760904,1.0,1.0,0.0,6,0,0,0,0,0,1,1,0,0,0
1386869524,23.690916,23.727495,0.062,0.063230716,0.0,25.769707,1.0,1.0,0.0,6,0,0,0,0,0,1,1,0,0,0
1387361383,23.650522,23.724842,0.062,0.063119575,0.0,25.778343,1.0,1.0,0.0,6,0,0,0,0,0,1,1,0,0,0
1387865527,23.73131,23.723255,0.0744,0.06327135,0.0,25.787148,1.0,1.0,0.0,6,0,0,0,0,0,1,1,0,0,0
1388369430,23.690916,23.720232,0.062,0.063026346,0.0,25.79595,1.0,1.0,0.0,6,0,0,0,0,0,1,1,0,0,0
1388873536,23.630325,23.71356,0.062,0.063772716,0.0,25.804962,1.0,1.0,0.0,6,0,0,0,0,0,1,1,0,0,0
1389377355,23.711113,23.714237,0.062,0.06340168,0.0,25.813726,1.0,1.0,0.0,6,0,0,0,0,0,1,1,0,0,0
1389881400,23.751507,23.717548,0.062,0.06314463,0.0,25.822573,1.0,1.0,0.0,6,0,0,0,0,0,1,1,0,0,0
1390385341,23.73131,23.71719,0.0744,0.064090826,0.0,25.831587,1.0,1.0,0.0,6,0,0,0,0,0,1,1,0,0,0
1390889390,23.67072,23.702738,0.062,0.06554204,0.0,25.840929,1.0,1.0,0.0,6,0,0,0,0,0,1,1,0,0,0
1391395010,23.711113,23.706089,0.062,0.06437685,0.0,25.849852,1.0,1.0,0.0,6,0,0,0,0,0,1,1,0,0,0
1391886973,23.751507,23.708824,0.0744,0.06234973,0.0,25.8582,1.0,1.0,0.0,6,0,0,0,0,0,1,1,0,0,0
1392390991,23.711113,23.70979,0.0744,0.06338791,0.0,25.867178,1.0,1.0,0.0,6,0,0,0,0,0,1,1,0,0,0
1392894993,23.711113,23.705091,0.062,0.06451322,0.0,25.876312,1.0,1.0,0.0,6,0,0,0,0,0,1,1,0,0,0
1393398962,23.73131,23.701756,0.062,0.06407276,0.0,25.885279,1.0,1.0,0.0,6,0,0,0,0,0,1,1,0,0,0
1393902965,23.73131,23.701212,0.062,0.06432337,0.0,25.894413,1.0,1.0,0.0,6,0,0,0,0,0,1,1,0,0,0
1394407003,23.711113,23.700682,0.062,0.06385625,0.0,25.903301,1.0,1.0,0.0,6,0,0,0,0,0,1,1,0,0,0
1394910997,23.690916,23.697931,0.062,0.06375906,0.0,25.912224,1.0,1.0,0.0,6,0,0,0,0,0,1,1,0,0,0
1395415148,23.67072,23.695662,0.062,0.06361841,0.0,25.921156,1.0,1.0,0.0,6,0,0,0,0,0,1,1,0,0,0
1395919146,23.67072,23.694426,0.062,0.063300446,0.0,25.929958,1.0,1.0,0.0,6,0,0,0,0,0,1,1,0,0,0
1396422934,23.73131,23.69371,0.062,0.06424136,0.0,25.939043,1.0,1.0,0.0,6,0,0,0,0,0,1,1,0,0,0
1396926987,23.711113,23.69271,0.062,0.06396854,0.0,25.947971,1.0,1.0,0.0,6,0,0,0,0,0,1,1,0,0,0
1397430957,23.67072,23.68629,0.062,0.063647956,0.0,25.956858,1.0,1.0,0.0,6,0,0,0,0,0,1,1,0,0,0
1397935015,23.67072,23.68139,0.062,0.06311807,0.0,25.965664,1.0,1.0,0.0,6,0,0,0,0,0,1,1,0,0,0
1398438996,23.650522,23.679216,0.0744,0.06339998,0.0,25.974543,1.0,1.0,0.0,6,0,0,0,0,0,1,1,0,0,0
1398944722,23.690916,23.675524,0.0744,0.06330446,0.0,25.983421,1.0,1.0,0.0,6,0,0,0,0,0,1,1,0,0,0
1399436581,23.690916,23.671589,0.0744,0.06261727,0.0,25.991852,1.0,1.0,0.0,6,0,0,0,0,0,1,1,0,0,0
1399940516,23.650522,23.66541,0.0744,0.062619925,0.0,26.000624,1.0,1.0,0.0,6,0,0,0,0,0,1,1,0,0,0
1400444564,23.630325,23.643805,0.062,0.06413491,0.0,26.009764,1.0,1.0,0.0,6,0,0,0,0,0,1,1,0,0,0
1400948841,23.569735,23.639278,0.062,0.06405307,0.0,26.018782,1.0,1.0,0.0,6,0,0,0,0,0,1,1,0,0,0
1401452602,23.569735,23.618692,0.062,0.06296589,0.0,26.027544,1.0,1.0,0.0,6,0,0,0,0,0,1,1,0,0,0
1401956739,23.448553,23.592651,0.062,0.06357514,0.0,26.036472,1.0,1.0,0.0,6,0,0,0,0,0,1,1,0,0,0
1402460728,23.610128,23.584816,0.062,0.064066075,0.0,26.045485,1.0,1.0,0.0,6,0,0,0,0,0,1,1,0,0,0
1402964544,23.711113,23.603222,0.0744,0.062155586,0.0,26.053993,1.0,1.0,0.0,6,0,0,0,0,0,1,1,0,0,0
1403468873,23.73131,23.636736,0.062,0.06303329,0.0,26.062925,1.0,1.0,0.0,6,0,0,0,0,0,1,1,0,0,0
1403972474,23.73131,23.664688,0.062,0.06366853,0.0,26.07189,1.0,1.0,0.0,6,0,0,0,0,0,1,1,0,0,0
1404476586,23.711113,23.682064,0.062,0.06348346,0.0,26.080776,1.0,1.0,0.0,6,0,0,0,0,0,1,1,0,0,0
1404980600,23.711113,23.683598,0.062,0.06333418,0.0,26.089628,1.0,1.0,0.0,6,0,0,0,0,0,1,1,0,0,0
1405484880,23.711113,23.690626,0.0744,0.06429556,0.0,26.098726,1.0,1.0,0.0,6,0,0,0,0,0,1,1,0,0,0
1405988712,23.67072,23.681553,0.062,0.063171014,0.0,26.10744,1.0,1.0,0.0,6,0,0,0,0,0,1,1,0,0,0
1406494402,23.690916,23.679565,0.062,0.06431407,0.0,26.116606,1.0,1.0,0.0,6,0,0,0,0,0,1,1,0,0,0
1406986123,23.690916,23.683271,0.062,0.06384998,0.0,26.125277,1.0,1.0,0.0,6,0,0,0,0,0,1,1,0,0,0
1407490187,23.690916,23.677399,0.062,0.06274458,0.0,26.133966,1.0,1.0,0.0,6,0,0,0,0,0,1,1,0,0,0
1407994203,23.650522,23.677334,0.062,0.06360877,0.0,26.142975,1.0,1.0,0.0,6,0,0,0,0,0,1,1,0,0,0
1408498416,23.690916,23.671394,0.062,0.062235128,0.0,26.151573,1.0,1.0,0.0,6,0,0,0,0,0,1,1,0,0,0
1409002126,23.630325,23.670347,0.0744,0.0613641,0.0,26.160034,1.0,1.0,0.0,6,0,0,0,0,0,1,1,0,0,0
1409506133,23.73131,23.67181,0.062,0.06256753,0.0,26.16896,1.0,1.0,0.0,6,0,0,0,0,0,1,1,0,0,0
1410010220,23.711113,23.672586,0.062,0.062293682,0.0,26.177595,1.0,1.0,0.0,6,0,0,0,0,0,1,1,0,0,0
1410514468,23.650522,23.670052,0.062,0.062883504,0.0,26.186483,1.0,1.0,0.0,6,0,0,0,0,0,1,1,0,0,0
1411018341,23.711113,23.672657,0.049599998,0.06273739,0.0,26.195246,1.0,1.0,0.0,6,0,0,0,0,0,1,1,0,0,0
1411522115,23.67072,23.669903,0.0744,0.062916085,0.0,26.20405,1.0,1.0,0.0,6,0,0,0,0,0,1,1,0,0,0
1412026199,23.650522,23.667555,0.062,0.062762834,0.0,26.212854,1.0,1.0,0.0,6,0,0,0,0,0,1,1,0,0,0
1412530311,23.690916,23.666151,0.0744,0.06283593,0.0,26.221659,1.0,1.0,0.0,6,0,0,0,0,0,1,1,0,0,0
1413034209,23.650522,23.660831,0.062,0.062260438,0.0,26.2303,1.0,1.0,0.0,6,0,0,0,0,0,1,1,0,0,0
1413538345,23.630325,23.655096,0.062,0.06198994,0.0,26.23882,1.0,1.0,0.0,6,0,0,0,0,0,1,1,0,0,0
1414042125,23.630325,23.652798,0.062,0.062334158,0.0,26.24762,1.0,1.0,0.0,6,0,0,0,0,0,1,1,0,0,0
1414546103,23.630325,23.650635,0.062,0.062432457,0.0,26.256388,1.0,1.0,0.0,6,0,0,0,0,0,1,1,0,0,0
1415051616,23.569735,23.644983,0.062,0.062632784,0.0,26.265219,1.0,1.0,0.0,6,0,0,0,0,0,1,1,0,0,0
1415543946,23.589931,23.642225,0.062,0.06320865,0.0,26.2739,1.0,1.0,0.0,6,0,0,0,0,0,1,1,0,0,0
1416047687,23.650522,23.638214,0.062,0.062310442,0.0,26.282576,1.0,1.0,0.0,6,0,0,0,0,0,1,1,0,0,0
1416551699,23.610128,23.633806,0.062,0.062135946,0.0,26.291264,1.0,1.0,0.0,6,0,0,0,0,0,1,1,0,0,0
1417055953,23.630325,23.630035,0.062,0.062781766,0.0,26.300114,1.0,1.0,0.0,6,0,0,0,0,0,1,1,0,0,0
1417559915,23.630325,23.629435,0.062,0.06279629,0.0,26.308918,1.0,1.0,0.0,6,0,0,0,0,0,1,1,0,0,0
1418063953,23.589931,23.63025,0.062,0.06346668,0.0,26.317846,1.0,1.0,0.0,6,0,0,0,0,0,1,1,0,0,0
1418567742,23.610128,23.642395,0.062,0.06264238,0.0,26.326567,1.0,1.0,0.0,6,0,0,0,0,0,1,1,0,0,0
1419071821,23.569735,23.63466,0.062,0.062423047,0.0,26.33533,1.0,1.0,0.0,6,0,0,0,0,0,1,1,0,0,0
1419575919,23.67072,23.635685,0.062,0.06292237,0.0,26.344173,1.0,1.0,0.0,6,0,0,0,0,0,1,1,0,0,0
1420079809,23.67072,23.63059,0.062,0.062120326,0.0,26.352764,1.0,1.0,0.0,6,0,0,0,0,0,1,1,0,0,0
1420583904,23.67072,23.632042,0.0744,0.06310074,0.0,26.361654,1.0,1.0,0.0,6,0,0,0,0,0,1,1,0,0,0
1421087731,23.589931,23.630077,0.062,0.0617125,0.0,26.370129,1.0,1.0,0.0,6,0,0,0,0,0,1,1,0,0,0
1421591744,23.589931,23.626177,0.0744,0.062130198,0.0,26.37893,1.0,1.0,0.0,6,0,0,0,0,0,1,1,0,0,0
1422095755,23.67072,23.631876,0.062,0.0630483,0.0,26.387856,1.0,1.0,0.0,6,0,0,0,0,0,1,1,0,0,0
1422599808,23.610128,23.63173,0.062,0.06287745,0.0,26.396622,1.0,1.0,0.0,6,0,0,0,0,0,1,1,0,0,0
1423103783,23.589931,23.6303,0.062,0.063201524,0.0,26.405508,1.0,1.0,0.0,6,0,0,0,0,0,1,1,0,0,0
1423597309,23.67072,23.631887,0.062,0.06285949,0.0,26.414087,1.0,1.0,0.0,6,0,0,0,0,0,1,1,0,0,0
1424101345,23.630325,23.636501,0.049599998,0.061739214,0.0,26.422638,1.0,1.0,0.0,6,0,0,0,0,0,1,1,0,0,0
1424605297,23.589931,23.633572,0.0744,0.06378842,0.0,26.431734,1.0,1.0,0.0,6,0,0,0,0,0,1,1,0,0,0
1425109528,23.650522,23.634186,0.062,0.06307161,0.0,26.440468,1.0,1.0,0.0,6,0,0,0,0,0,1,1,0,0,0
1425601365,23.67072,23.631853,0.0744,0.062898435,0.0,26.44902,1.0,1.0,0.0,6,0,0,0,0,0,1,1,0,0,0
1426105548,23.589931,23.627575,0.062,0.062647834,0.0,26.45779,1.0,1.0,0.0,6,0,0,0,0,0,1,1,0,0,0
1426609371,23.630325,23.623976,0.062,0.06325485,0.0,26.466753,1.0,1.0,0.0,6,0,0,0,0,0,1,1,0,0,0
1427113517,23.589931,23.616993,0.062,0.06267161,0.0,26.47543,1.0,1.0,0.0,6,0,0,0,0,0,1,1,0,0,0
1427617336,23.589931,23.630512,0.062,0.0632231,0.0,26.484356,1.0,1.0,0.0,6,0,0,0,0,0,1,1,0,0,0
1428121335,23.630325,23.61782,0.062,0.062472172,0.0,26.49304,1.0,1.0,0.0,6,0,0,0,0,0,1,1,0,0,0
1428625378,23.589931,23.614296,0.062,0.06378704,0.0,26.502089,1.0,1.0,0.0,6,0,0,0,0,0,1,1,0,0,0
1429129542,23.589931,23.611143,0.062,0.062493477,0.0,26.510645,1.0,1.0,0.0,6,0,0,0,0,0,1,1,0,0,0
1429633413,23.589931,23.608414,0.062,0.062914036,0.0,26.519527,1.0,1.0,0.0,6,0,0,0,0,0,1,1,0,0,0
1430137389,23.549538,23.6031,0.062,0.063863836,0.0,26.52849,1.0,1.0,0.0,6,0,0,0,0,0,1,1,0,0,0
1430641387,23.589931,23.600315,0.062,0.06381756,0.0,26.537468,1.0,1.0,0.0,6,0,0,0,0,0,1,1,0,0,0
1431145374,23.610128,23.595789,0.062,0.06291449,0.0,26.54619,1.0,1.0,0.0,6,0,0,0,0,0,1,1,0,0,0
1431649387,23.569735,23.592794,0.062,0.062089507,0.0,26.55483,1.0,1.0,0.0,6,0,0,0,0,0,1,1,0,0,0
1432153503,23.589931,23.588245,0.0744,0.061148003,0.0,26.563303,1.0,1.0,0.0,6,0,0,0,0,0,1,1,0,0,0
1432657496,23.52934,23.581917,0.062,0.062186334,0.0,26.572193,1.0,1.0,0.0,6,0,0,0,0,0,1,1,0,0,0
1433162959,23.589931,23.571835,0.062,0.06349039,0.0,26.581238,1.0,1.0,0.0,6,0,0,0,0,0,1,1,0,0,0
1433666983,23.509144,23.566708,0.062,0.06297918,0.0,26.589954,1.0,1.0,0.0,6,0,0,0,0,0,1,1,0,0,0
1434170998,23.509144,23.557364,0.0744,0.06285953,0.0,26.598715,1.0,1.0,0.0,6,0,0,0,0,0,1,1,0,0,0
1434675016,23.549538,23.546667,0.062,0.06230535,0.0,26.607386,1.0,1.0,0.0,6,0,0,0,0,0,1,1,0,0,0
1435179035,23.52934,23.536572,0.062,0.06274913,0.0,26.616188,1.0,1.0,0.0,6,0,0,0,0,0,1,1,0,0,0
1435682895,23.549538,23.534777,0.062,0.06296408,0.0,26.624985,1.0,1.0,0.0,6,0,0,0,0,0,1,1,0,0,0
1436186898,23.46875,23.535183,0.062,0.06299628,0.0,26.633785,1.0,1.0,0.0,6,0,0,0,0,0,1,1,0,0,0
1436690903,23.549538,23.531078,0.0744,0.06274189,0.0,26.642466,1.0,1.0,0.0,6,0,0,0,0,0,1,1,0,0,0
1437195011,23.509144,23.52086,0.062,0.06335444,0.0,26.651361,1.0,1.0,0.0,6,0,0,0,0,0,1,1,0,0,0
1437698921,23.488947,23.515846,0.062,0.06358313,0.0,26.660248,1.0,1.0,0.0,6,0,0,0,0,0,1,1,0,0,0
1438202964,23.509144,23.51163,0.062,0.06351424,0.0,26.66913,1.0,1.0,0.0,6,0,0,0,0,0,1,1,0,0,0
1438707018,23.428356,23.50937,0.0744,0.06347474,0.0,26.678053,1.0,1.0,0.0,6,0,0,0,0,0,1,1,0,0,0
1439210995,23.488947,23.504719,0.062,0.06260189,0.0,26.686731,1.0,1.0,0.0,6,0,0,0,0,0,1,1,0,0,0
1439702947,23.52934,23.495594,0.062,0.06280113,0.0,26.695326,1.0,1.0,0.0,6,0,0,0,0,0,1,1,0,0,0
1440206950,23.387962,23.538145,0.062,0.06250213,0.0,26.704084,1.0,1.0,0.0,6,0,0,0,0,0,1,1,0,0,0
1440711006,23.428356,23.503965,0.062,0.06296145,0.0,26.712973,1.0,1.0,0.0,6,0,0,0,0,0,1,1,0,0,0
1441215035,23.387962,23.465683,0.0744,0.062801704,0.0,26.721737,1.0,1.0,0.0,6,0,0,0,0,0,1,1,0,0,0
1441706992,23.428356,23.441837,0.062,0.063119866,0.0,26.730415,1.0,1.0,0.0,6,0,0,0,0,0,1,1,0,0,0
1442210852,23.387962,23.409575,0.062,0.06243659,0.0,26.739006,1.0,1.0,0.0,6,0,0,0,0,0,1,1,0,0,0
1442714873,23.488947,23.412802,0.062,0.061993234,0.0,26.747646,1.0,1.0,0.0,6,0,0,0,0,0,1,1,0,0,0
1443220510,23.52934,23.444658,0.012399999,0.060219113,0.0,26.75589,1.0,1.0,0.0,6,0,0,0,0,0,1,1,0,0,0
1443712615,23.549538,23.479996,0.062,0.062814295,0.0,26.764732,1.0,1.0,0.0,6,0,0,0,0,0,1,1,0,0,0
1444216520,23.509144,23.506655,0.049599998,0.06257906,0.0,26.773485,1.0,1.0,0.0,6,0,0,0,0,0,1,1,0,0,0
1444720458,23.589931,23.52412,0.062,0.062215324,0.0,26.78217,1.0,1.0,0.0,6,0,0,0,0,0,1,1,0,0,0
1445224474,23.549538,23.536966,0.062,0.06182853,0.0,26.790808,1.0,1.0,0.0,6,0,0,0,0,0,1,1,0,0,0
1445728569,23.46875,23.524126,0.062,0.06327316,0.0,26.799818,1.0,1.0,0.0,6,0,0,0,0,0,1,1,0,0,0
1446232520,23.428356,23.504416,0.062,0.062384058,0.0,26.808414,1.0,1.0,0.0,6,0,0,0,0,0,1,1,0,0,0
1446736501,23.46875,23.501427,0.062,0.06312713,0.0,26.817303,1.0,1.0,0.0,6,0,0,0,0,0,1,1,0,0,0
1447240533,23.509144,23.498741,0.062,0.06271941,0.0,26.826073,1.0,1.0,0.0,6,0,0,0,0,0,1,1,0,0,0
1447744617,23.46875,23.49341,0.0744,0.06191071,0.0,26.834679,1.0,1.0,0.0,6,0,0,0,0,0,1,1,0,0,0
1448248781,23.509144,23.49314,0.062,0.06145861,0.0,26.843235,1.0,1.0,0.0,6,0,0,0,0,0,1,1,0,0,0
1448752748,23.46875,23.489414,0.062,0.060639616,0.0,26.85166,1.0,1.0,0.0,6,0,0,0,0,0,1,1,0,0,0
1449256775,23.448553,23.479456,0.062,0.0622678,0.0,26.860502,1.0,1.0,0.0,6,0,0,0,0,0,1,1,0,0,0
1449760894,23.46875,23.477043,0.062,0.06261322,0.0,26.869312,1.0,1.0,0.0,6,0,0,0,0,0,1,1,0,0,0
1450264572,23.387962,23.462679,0.062,0.06320703,0.0,26.878199,1.0,1.0,0.0,6,0,0,0,0,0,1,1,0,0,0
1450768596,23.448553,23.448143,0.062,0.06321826,0.0,26.886995,1.0,1.0,0.0,6,0,0,0,0,0,1,1,0,0,0
1451272603,23.428356,23.444162,0.062,0.06297992,0.0,26.895802,1.0,1.0,0.0,6,0,0,0,0,0,1,1,0,0,0
1451776584,23.488947,23.446995,0.062,0.06357758,0.0,26.904726,1.0,1.0,0.0,6,0,0,0,0,0,1,1,0,0,0
1452280861,23.509144,23.449883,0.062,0.061334558,0.0,26.913078,1.0,1.0,0.0,6,0,0,0,0,0,1,1,0,0,0
1452784537,23.387962,23.442072,0.062,0.060340453,0.0,26.921427,1.0,1.0,0.0,6,0,0,0,0,0,1,1,0,0,0
1453288894,23.448553,23.441874,0.0744,0.061182722,0.0,26.930075,1.0,1.0,0.0,6,0,0,0,0,0,1,1,0,0,0
1453792485,23.46875,23.456705,0.0744,0.062145934,0.0,26.938871,1.0,1.0,0.0,6,0,0,0,0,0,1,1,0,0,0
1454284611,23.46875,23.475042,0.062,0.061434273,0.0,26.94718,1.0,1.0,0.0,6,0,0,0,0,0,1,1,0,0,0
1454790177,23.428356,23.465405,0.062,0.062474273,0.0,26.956095,1.0,1.0,0.0,6,0,0,0,0,0,1,1,0,0,0
1455294221,23.46875,23.436602,0.062,0.06222087,0.0,26.964819,1.0,1.0,0.0,6,0,0,0,0,0,1,1,0,0,0
1455798095,23.448553,23.439886,0.062,0.061120126,0.0,26.973326,1.0,1.0,0.0,6,0,0,0,0,0,1,1,0,0,0
1456290308,23.387962,23.439451,0.062,0.06099731,0.0,26.981636,1.0,1.0,0.0,6,0,0,0,0,0,1,1,0,0,0
1456794106,23.428356,23.432531,0.062,0.061556995,0.0,26.990313,1.0,1.0,0.0,6,0,0,0,0,0,1,1,0,0,0
1457298379,23.46875,23.438147,0.062,0.061439723,0.0,26.998913,1.0,1.0,0.0,6,0,0,0,0,0,1,1,0,0,0
1457802105,23.428356,23.437895,0.062,0.06030429,0.0,27.007225,1.0,1.0,0.0,6,0,0,0,0,0,1,1,0,0,0
1458306154,23.347569,23.436832,0.049599998,0.060927935,0.0,27.015772,1.0,1.0,0.0,6,0,0,0,0,0,1,1,0,0,0
1458810209,23.347569,23.436947,0.062,0.062634386,0.0,27.024696,1.0,1.0,0.0,6,0,0,0,0,0,1,1,0,0,0
1459314114,23.387962,23.409561,0.062,0.062867984,0.0,27.033459,1.0,1.0,0.0,6,0,0,0,0,0,1,1,0,0,0
1459818306,23.327372,23.409956,0.049599998,0.06270764,0.0,27.042223,1.0,1.0,0.0,6,0,0,0,0,0,1,1,0,0,0
1460322170,23.347569,23.412321,0.062,0.06262779,0.0,27.050983,1.0,1.0,0.0,6,0,0,0,0,0,1,1,0,0,0
1460826178,23.40816,23.414497,0.062,0.060997613,0.0,27.059376,1.0,1.0,0.0,6,0,0,0,0,0,1,1,0,0,0
1461330207,23.40816,23.413078,0.062,0.061521854,0.0,27.068089,1.0,1.0,0.0,6,0,0,0,0,0,1,1,0,0,0
1461834114,23.428356,23.417349,0.062,0.06149519,0.0,27.076597,1.0,1.0,0.0,6,0,0,0,0,0,1,1,0,0,0
1462338354,23.448553,23.434528,0.062,0.060686544,0.0,27.08507,1.0,1.0,0.0,6,0,0,0,0,0,1,1,0,0,0
1462842096,23.509144,23.4428,0.062,0.061901573,0.0,27.093786,1.0,1.0,0.0,6,0,0,0,0,0,1,1,0,0,0
1463334194,23.46875,23.44389,0.062,0.063162595,0.0,27.102623,1.0,1.0,0.0,6,0,0,0,0,0,1,1,0,0,0
1463838282,23.46875,23.454208,0.012399999,0.060777716,0.0,27.110981,1.0,1.0,0.0,6,0,0,0,0,0,1,1,0,0,0
1464342174,23.488947,23.51269,0.0744,0.06167001,0.0,27.119658,1.0,1.0,0.0,6,0,0,0,0,0,1,1,0,0,0
1464834116,23.52934,23.50857,0.062,0.061672293,0.0,27.128128,1.0,1.0,0.0,6,0,0,0,0,0,1,1,0,0,0
1465338207,23.509144,23.531065,0.062,0.061856147,0.0,27.136805,1.0,1.0,0.0,6,0,0,0,0,0,1,1,0,0,0
1465842083,23.46875,23.532272,0.062,0.061056606,0.0,27.145235,1.0,1.0,0.0,6,0,0,0,0,0,1,1,0,0,0
1466346218,23.509144,23.534607,0.062,0.061228864,0.0,27.1538,1.0,1.0,0.0,6,0,0,0,0,0,1,1,0,0,0
1466850152,23.589931,23.546108,0.062,0.06185628,0.0,27.162556,1.0,1.0,0.0,6,0,0,0,0,0,1,1,0,0,0
1467355786,23.549538,23.551556,0.062,0.061162453,0.0,27.171059,1.0,1.0,0.0,6,0,0,0,0,0,1,1,0,0,0
1467859801,23.549538,23.550903,0.062,0.06162859,0.0,27.179733,1.0,1.0,0.0,6,0,0,0,0,0,1,1,0,0,0
1468352044,23.509144,23.554914,0.062,0.06271435,0.0,27.188461,1.0,1.0,0.0,6,0,0,0,0,0,1,1,0,0,0
1468855718,23.589931,23.553291,0.062,0.06263968,0.0,27.197218,1.0,1.0,0.0,6,0,0,0,0,0,1,1,0,0,0
1469359721,23.549538,23.547604,0.062,0.06279204,0.0,27.206022,1.0,1.0,0.0,6,0,0,0,0,0,1,1,0,0,0
1469863915,23.549538,23.544306,0.062,0.06331879,0.0,27.214907,1.0,1.0,0.0,6,0,0,0,0,0,1,1,0,0,0
1470367799,23.549538,23.548187,0.062,0.06258405,0.0,27.223576,1.0,1.0,0.0,6,0,0,0,0,0,1,1,0,0,0
1470871975,23.549538,23.55144,0.0744,0.06401355,0.0,27.23267,1.0,1.0,0.0,6,0,0,0,0,0,1,1,0,0,0
1471375680,23.569735,23.550291,0.062,0.06280663,0.0,27.241385,1.0,1.0,0.0,6,0,0,0,0,0,1,1,0,0,0
1471879713,23.569735,23.548203,0.049599998,0.061610855,0.0,27.249939,1.0,1.0,0.0,6,0,0,0,0,0,1,1,0,0,0
1472383747,23.569735,23.553833,0.062,0.06151623,0.0,27.258543,1.0,1.0,0.0,6,0,0,0,0,0,1,1,0,0,0
1472887808,23.549538,23.550158,0.0744,0.06246305,0.0,27.267347,1.0,1.0,0.0,6,0,0,0,0,0,1,1,0,0,0
1473391733,23.569735,23.556154,0.062,0.062034227,0.0,27.276024,1.0,1.0,0.0,6,0,0,0,0,0,1,1,0,0,0
1473895794,23.549538,23.56242,0.012399999,0.05910672,0.0,27.28417,1.0,1.0,0.0,6,0,0,0,0,0,1,1,0,0,0
1474387910,23.549538,23.562975,0.062,0.061134435,0.0,27.29272,1.0,1.0,0.0,6,0,0,0,0,0,1,1,0,0,0
1474891758,23.569735,23.562426,0.062,0.06108729,0.0,27.30123,1.0,1.0,0.0,6,0,0,0,0,0,1,1,0,0,0
1475395648,23.569735,23.567024,0.062,0.061399598,0.0,27.309866,1.0,1.0,0.0,6,0,0,0,0,0,1,1,0,0,0
1475899910,23.589931,23.57082,0.062,0.060669478,0.0,27.318258,1.0,1.0,0.0,6,0,0,0,0,0,1,1,0,0,0
1476403883,23.610128,23.578733,0.049599998,0.061088677,0.0,27.326889,1.0,1.0,0.0,6,0,0,0,0,0,1,1,0,0,0
1476907920,23.589931,23.579594,0.062,0.06140262,0.0,27.335493,1.0,1.0,0.0,6,0,0,0,0,0,1,1,0,0,0
1477411697,23.569735,23.57828,0.062,0.06058181,0.0,27.34396,1.0,1.0,0.0,6,0,0,0,0,0,1,1,0,0,0
1477903724,23.569735,23.57608,0.049599998,0.061364852,0.0,27.352434,1.0,1.0,0.0,6,0,0,0,0,0,1,1,0,0,0
1478407824,23.549538,23.575249,0.062,0.06114205,0.0,27.360909,1.0,1.0,0.0,6,0,0,0,0,0,1,1,0,0,0
1478911702,23.549538,23.57498,0.062,0.06071324,0.0,27.369343,1.0,1.0,0.0,6,0,0,0,0,0,1,1,0,0,0
1479415649,23.509144,23.562565,0.062,0.061294127,0.0,27.377987,1.0,1.0,0.0,6,0,0,0,0,0,1,1,0,0,0
1479919681,23.549538,23.552448,0.062,0.061691243,0.0,27.386667,1.0,1.0,0.0,6,0,0,0,0,0,1,1,0,0,0
1480423698,23.52934,23.546043,0.099199995,0.061784685,0.0,27.395264,1.0,1.0,0.0,6,0,0,0,0,0,1,1,0,0,0
1480927718,23.52934,23.532856,0.0744,0.061860587,0.0,27.40394,1.0,1.0,0.0,6,0,0,0,0,0,1,1,0,0,0
1481433532,23.509144,23.530462,0.0744,0.061735526,0.0,27.41261,1.0,1.0,0.0,6,0,0,0,0,0,1,1,0,0,0
1481925411,23.569735,23.5234,0.049599998,0.062232524,0.0,27.421206,1.0,1.0,0.0,6,0,0,0,0,0,1,1,0,0,0
1482429344,23.448553,23.518373,0.049599998,0.06222006,0.0,27.429926,1.0,1.0,0.0,6,0,0,0,0,0,1,1,0,0,0
1482933579,23.46875,23.520544,0.062,0.061295934,0.0,27.43844,1.0,1.0,0.0,6,0,0,0,0,0,1,1,0,0,0
1483437380,23.448553,23.513344,0.062,0.06060741,0.0,27.446836,1.0,1.0,0.0,6,0,0,0,0,0,1,1,0,0,0
1483941414,23.428356,23.486418,0.062,0.061652254,0.0,27.455563,1.0,1.0,0.0,6,0,0,0,0,0,1,1,0,0,0
1484445228,23.428356,23.476562,0.062,0.062135797,0.0,27.464275,1.0,1.0,0.0,6,0,0,0,0,0,1,1,0,0,0
1484949394,23.367765,23.453024,0.062,0.062292963,0.0,27.472954,1.0,1.0,0.0,6,0,0,0,0,0,1,1,0,0,0
1485453545,23.367765,23.426256,0.062,0.06230173,0.0,27.48164,1.0,1.0,0.0,6,0,0,0,0,0,1,1,0,0,0
1485957525,23.448553,23.419025,0.049599998,0.061960086,0.0,27.490353,1.0,1.0,0.0,6,0,0,0,0,0,1,1,0,0,0
1486461408,23.307175,23.416449,0.049599998,0.06208839,0.0,27.499025,1.0,1.0,0.0,6,0,0,0,0,0,1,1,0,0,0
1486965515,23.40816,23.405233,0.049599998,0.061738554,0.0,27.507662,1.0,1.0,0.0,6,0,0,0,0,0,1,1,0,0,0
1487469538,23.327372,23.397743,0.062,0.06125903,0.0,27.516169,0.99946564,1.0000494,0.0,6,0,0,0,0,0,1,1,0,0,0
1487973405,23.307175,23.378065,0.062,0.06229887,0.0,27.524971,0.9903638,1.0008903,0.0,6,0,0,0,0,0,1,1,0,0,0
1488477551,23.387962,23.36164,0.062,0.060840674,0.0,27.533272,0.9827487,1.001595,0.0,6,0,0,0,0,0,1,1,0,0,0
1488981264,23.387962,23.368385,0.062,0.06055446,0.0,27.541698,0.98586816,1.0013062,0.0,6,0,0,0,0,0,1,1,0,0,0
1489485577,23.327372,23.369587,0.0744,0.060583048,0.0,27.55013,0.98642415,1.0012547,0.0,6,0,0,0,0,0,1,1,0,0,0
1489989375,23.428356,23.371822,0.062,0.061655425,0.0,27.558847,0.9874684,1.0011581,0.0,6,0,0,0,0,0,1,1,0,0,0
1490493639,23.367765,23.374905,0.062,0.061389107,0.0,27.567486,0.9888932,1.0010263,0.0,6,0,0,0,0,0,1,1,0,0,0
1490997370,23.387962,23.37866,0.049599998,0.06161331,0.0,27.576199,0.99063367,1.0008653,0.0,6,0,0,0,0,0,1,1,0,0,0
1491501408,23.327372,23.371302,0.0744,0.061523158,0.0,27.584757,0.9872262,1.0011805,0.0,6,0,0,0,0,0,1,1,0,0,0
1492005521,23.448553,23.37011,0.062,0.061384317,0.0,27.593319,0.98667306,1.0012317,0.0,6,0,0,0,0,0,1,1,0,0,0
1492509512,23.347569,23.3682,0.062,0.061809383,0.0,27.602041,0.9857928,1.0013131,0.0,6,0,0,0,0,0,1,1,0,0,0
1493013486,23.40816,23.368507,0.062,0.061936297,0.0,27.610723,0.98593587,1.0012999,0.0,6,0,0,0,0,0,1,1,0,0,0
1493517532,23.347569,23.375221,0.099199995,0.0638496,0.0,27.61982,0.9890601,1.0010109,0.0,6,0,0,0,0,0,1,1,0,0,0
1494021496,23.428356,23.373476,0.049599998,0.062727235,0.0,27.628534,0.9882428,1.0010865,0.0,6,0,0,0,0,0,1,1,0,0,0
1494525554,23.448553,23.386236,0.049599998,0.061681088,0.0,27.63705,0.9941413,1.0005411,0.0,6,0,0,0,0,0,1,1,0,0,0
1495029318,23.367765,23.403156,0.062,0.062053815,0.0,27.64576,1.0,1.0,0.0,6,0,0,0,0,0,1,1,0,0,0
1495533582,23.40816,23.409332,0.062,0.062451463,0.0,27.654572,1.0,1.0,0.0,6,0,0,0,0,0,1,1,0,0,0
1496037499,23.347569,23.398554,0.062,0.062386803,0.0,27.663288,0.99985,1.0000138,0.0,6,0,0,0,0,0,1,1,0,0,0
1496541603,23.40816,23.391277,0.062,0.06139302,0.0,27.671764,0.996473,1.0003257,0.0,6,0,0,0,0,0,1,1,0,0,0
1497045384,23.428356,23.399399,0.062,0.061351128,0.0,27.680357,1.0,1.0,0.0,6,0,0,0,0,0,1,1,0,0,0
1497549508,23.387962,23.398054,0.062,0.06276729,0.0,27.68933,0.99962205,1.0000349,0.0,6,0,0,0,0,0,1,1,0,0,0
1498053484,23.40816,23.422216,0.062,0.060902353,0.0,27.697592,1.0,1.0,0.0,6,0,0,0,0,0,1,1,0,0,0
1498545397,23.327372,23.311342,0.062,0.061420783,0.0,27.706064,0.95946664,1.0037556,0.0,6,0,0,0,0,0,1,1,0,0,0
1499049397,23.347569,23.318962,0.062,0.062112663,0.0,27.714867,0.963,1.003427,0.0,6,0,0,0,0,0,1,1,0,0,0
1499555144,23.428356,23.332022,0.062,0.060870633,0.0,27.723324,0.9690358,1.0028664,0.0,6,0,0,0,0,0,1,1,0,0,0
1500059007,23.347569,23.332354,0.062,0.061932314,0.0,27.732128,0.9691979,1.0028514,0.0,6,0,0,0,0,0,1,1,0,0,0
