timestamp,roll_body,pitch_body,yaw_body,yaw_sp_move_rate,q_d[0],q_d[1],q_d[2],q_d[3],thrust,landing_gear,q_d_valid,roll_reset_integral,pitch_reset_integral,yaw_reset_integral,fw_control_yaw,disable_mc_yaw_control,apply_flaps
1184734026,-0.058230914,0.029615995,-0.13149804,0.0,0.9973354,-0.028072797,0.016681654,-0.06523648,0.48070213,-1.0,1,0,0,0,0,0,0
1184939627,-0.059827764,0.030545207,-0.13149804,0.0,0.9973066,-0.028838368,0.017197063,-0.065208815,0.52203405,-1.0,1,0,0,0,0,0,0
1185039226,-0.059928577,0.03173058,-0.13149804,0.0,0.9972971,-0.028849442,0.0177914,-0.06518962,0.5416168,-1.0,1,0,0,0,0,0,0
1185143004,-0.05935176,0.030800555,-0.13149804,0.0,0.9973117,-0.028592566,0.017308868,-0.06520901,0.5605642,-1.0,1,0,0,0,0,0,0
1185244077,-0.055191625,0.022844821,-0.13149804,0.0,0.997415,-0.026780726,0.013205887,-0.06535787,0.5835677,-1.0,1,0,0,0,0,0,0
1185347709,-0.061812684,0.030888217,-0.13149804,0.0,0.99727523,-0.029816793,0.017432796,-0.06518626,0.60518074,-1.0,1,0,0,0,0,0,0
1185451703,-0.06356349,0.033237718,-0.13149804,0.0,0.9972324,-0.030612065,0.018661287,-0.065132484,0.6269499,-1.0,1,0,0,0,0,0,0
1185551196,-0.0659222,0.027118392,-0.13149804,0.0,0.997235,-0.03199055,0.015687143,-0.06521407,0.6489231,-1.0,1,0,0,0,0,0,0
1185652922,-0.07165863,0.032192163,-0.13149804,0.0,0.9971076,-0.034682803,0.018403536,-0.06507567,0.67089915,-1.0,1,0,0,0,0,0,0
1185757228,-0.06672093,0.036171425,-0.13149804,0.0,0.9971606,-0.032089233,0.020226685,-0.06505247,0.6919246,-1.0,1,0,0,0,0,0,0
1185861522,-0.06734281,0.034780663,-0.13149804,0.0,0.9971614,-0.032445353,0.019553559,-0.065070346,0.6994426,-1.0,1,0,0,0,0,0,0
1185961153,0.030880133,0.04023001,-0.13149804,0.0,0.9974981,0.01672432,0.019053606,-0.06599041,0.6388201,-1.0,1,0,0,0,0,0,0
1186064816,-0.00035851984,0.023761261,-0.13149804,0.0,0.99776906,0.00060169876,0.011866457,-0.0656949,0.5867772,-1.0,1,0,0,0,0,0,0
1186165392,0.031011729,0.03505789,-0.13149804,0.0,0.9975482,0.016620845,0.016469508,-0.06595486,0.5419974,-1.0,1,0,0,0,0,0,0
1186264791,0.05526164,0.026066829,-0.13149804,0.0,0.9973501,0.028421238,0.011184914,-0.0660303,0.5156895,-1.0,1,0,0,0,0,0,0
1186368720,0.0694456,0.020007178,-0.13149804,0.0,0.99716514,0.035295926,0.0076950174,-0.0660053,0.5093032,-1.0,1,0,0,0,0,0,0
1186469565,0.063152075,0.020137683,-0.13149804,0.0,0.9972705,0.032162182,0.007967759,-0.065982774,0.50847507,-1.0,1,0,0,0,0,0,0
1186569030,0.08093838,0.0010449422,-0.13149804,0.0,0.99702084,0.04040502,-0.0021372517,-0.06566894,0.5108267,-1.0,1,0,0,0,0,0,0
1186672599,0.07317052,0.0055021644,-0.13149804,0.0,0.99716115,0.036678556,0.00034013056,-0.065757856,0.51385176,-1.0,1,0,0,0,0,0,0
1186772929,0.075730264,-0.0075940085,-0.13149804,0.0,0.99712634,0.03752473,-0.0062732645,-0.06551066,0.519409,-1.0,1,0,0,0,0,0,0
1186877133,0.07295771,-0.01279067,-0.13149804,0.0,0.99717045,0.035971314,-0.008773368,-0.065423876,0.5223631,-1.0,1,0,0,0,0,0,0
1186981535,0.070329726,-0.0062954584,-0.13149804,0.0,0.99722475,0.034874793,-0.0054488834,-0.06555028,0.52264273,-1.0,1,0,0,0,0,0,0
1187080729,0.06793378,-0.0071282964,-0.13149804,0.0,0.99726534,0.033652738,-0.005785627,-0.06554257,0.5258704,-1.0,1,0,0,0,0,0,0
1187184701,0.058468096,-0.0016366864,-0.13149804,0.0,0.99741423,0.029112974,-0.0027366774,-0.065649696,0.5303794,-1.0,1,0,0,0,0,0,0
1187285143,0.061094303,-0.005929019,-0.13149804,0.0,0.99737537,0.030281592,-0.004963397,-0.065580375,0.5334295,-1.0,1,0,0,0,0,0,0
1187384687,0.056564532,-0.0053553246,-0.13149804,0.0,0.99744165,0.028041437,-0.0045287427,-0.0655996,0.5335758,-1.0,1,0,0,0,0,0,0
1187488921,0.046491753,-0.0003183166,-0.13149804,0.0,0.9975699,0.023183107,-0.0016859269,-0.06568022,0.5335298,-1.0,1,0,0,0,0,0,0
1187589204,0.04872045,0.00013533275,-0.13149804,0.0,0.99754316,0.024309631,-0.001532849,-0.065683804,0.53380597,-1.0,1,0,0,0,0,0,0
1187688793,0.03649098,-0.011774003,-0.13149804,0.0,0.997663,0.017818023,-0.007071941,-0.06558242,0.5365788,-1.0,1,0,0,0,0,0,0
1187792534,0.03464805,-0.0050019873,-0.13149804,0.0,0.9976893,0.017121378,-0.0036333692,-0.06564836,0.5365748,-1.0,1,0,0,0,0,0,0
1187893051,0.029250303,-0.0044569434,-0.13149804,0.0,0.9977322,0.014446598,-0.0031842773,-0.06566196,0.53474504,-1.0,1,0,0,0,0,0,0
1187997115,0.030252231,-0.0021435136,-0.13149804,0.0,0.99772567,0.015022442,-0.0020630911,-0.06567793,0.5390691,-1.0,1,0,0,0,0,0,0
1188100984,0.017105972,-0.0033951148,-0.13149804,0.0,0.9978023,0.008422861,-0.0022557643,-0.06568468,0.5400646,-1.0,1,0,0,0,0,0,0
1188200575,0.020919621,-0.0022471573,-0.13149804,0.0,0.99778485,0.010363197,-0.0018083034,-0.06568629,0.5440661,-1.0,1,0,0,0,0,0,0
1188304743,0.013015184,-0.0067739445,-0.13149804,0.0,0.99781394,0.006270923,-0.0038071298,-0.065677896,0.5448425,-1.0,1,0,0,0,0,0,0
1188404934,0.012689601,-0.005048026,-0.13149804,0.0,0.9978171,0.0061652004,-0.0029353658,-0.065684155,0.54449815,-1.0,1,0,0,0,0,0,0
1188504609,0.008821364,-0.008401956,-0.13149804,0.0,0.997822,0.0041250912,-0.0044816337,-0.06568195,0.5445852,-1.0,1,0,0,0,0,0,0
1188608619,0.00787342,-0.015856137,-0.13149804,0.0,0.99780226,0.0034071929,-0.008169434,-0.06566796,0.5465906,-1.0,1,0,0,0,0,0,0
1188709026,0.011401928,-0.011232482,-0.13149804,0.0,0.99780947,0.0053195376,-0.0059785405,-0.06566762,0.5442221,-1.0,1,0,0,0,0,0,0
1188808599,0.009410598,-0.009963005,-0.13149804,0.0,0.99781746,0.0043677688,-0.005279804,-0.06567674,0.54507643,-1.0,1,0,0,0,0,0,0
1188912617,0.01383972,-0.00949782,-0.13149804,0.0,0.9978063,0.0065927724,-0.0051931553,-0.06566656,0.5422511,-1.0,1,0,0,0,0,0,0
1189013372,0.012578372,-0.014094049,-0.13149804,0.0,0.99779767,0.0058124117,-0.0074447975,-0.06565451,0.54597265,-1.0,1,0,0,0,0,0,0
1189117157,0.015447971,-0.009513165,-0.13149804,0.0,0.99780065,0.007394628,-0.0052536135,-0.0656623,0.5413792,-1.0,1,0,0,0,0,0,0
1189221362,0.022587795,-0.0057131415,-0.13149804,0.0,0.99777377,0.011081539,-0.0035922215,-0.065665014,0.54148954,-1.0,1,0,0,0,0,0,0
1189320584,0.016837101,-0.005076567,-0.13149804,0.0,0.99780214,0.008233472,-0.0030858112,-0.0656778,0.5413616,-1.0,1,0,0,0,0,0,0
1189424560,0.021645976,-0.0017130047,-0.13149804,0.0,0.9977811,0.010743117,-0.0015656757,-0.065688536,0.5409059,-1.0,1,0,0,0,0,0,0
1189525418,0.015112978,-0.00792225,-0.13149804,0.0,0.99780494,0.0072797863,-0.0044489084,-0.065669395,0.5422288,-1.0,1,0,0,0,0,0,0
1189624615,0.018221755,-0.0021964354,-0.13149804,0.0,0.9977979,0.009018909,-0.0016943902,-0.065688916,0.541576,-1.0,1,0,0,0,0,0,0
1189728720,0.013308109,-0.00211389,-0.13149804,0.0,0.99781716,0.0065701827,-0.0014918166,-0.06569314,0.54160815,-1.0,1,0,0,0,0,0,0
1189829244,0.022131577,0.0074808276,-0.13149804,0.0,0.9977685,0.011287312,0.0030050739,-0.06573848,0.53725797,-1.0,1,0,0,0,0,0,0
1189928612,0.025232874,0.0070714154,-0.13149804,0.0,0.99775076,0.012821048,0.0026988864,-0.06574053,0.5371622,-1.0,1,0,0,0,0,0,0
1190033414,0.027937375,0.012394212,-0.13149804,0.0,0.9977171,0.014344903,0.0052653546,-0.065780364,0.5359983,-1.0,1,0,0,0,0,0,0
1190134338,0.027620466,0.008693367,-0.13149804,0.0,0.9977308,0.014065381,0.0034295463,-0.06575467,0.5362884,-1.0,1,0,0,0,0,0,0
1190234670,0.019408893,0.0038534647,-0.13149804,0.0,0.99778926,0.009809893,0.0012848903,-0.0657171,0.5385098,-1.0,1,0,0,0,0,0,0
1190339696,0.02576149,0.0022625881,-0.13149804,0.0,0.997755,0.012926872,0.00028249336,-0.06571071,0.5362584,-1.0,1,0,0,0,0,0,0
1190442840,0.029194256,0.008280441,-0.13149804,0.0,0.9977205,0.014836937,0.0031718095,-0.065754406,0.5368666,-1.0,1,0,0,0,0,0,0
1190542307,0.028484982,0.00874138,-0.13149804,0.0,0.99772453,0.014498234,0.0034250752,-0.065756485,0.53668356,-1.0,1,0,0,0,0,0,0
1190646190,0.023561565,0.0012697282,-0.13149804,0.0,0.99776936,0.011796762,-0.00014055059,-0.065704554,0.53857833,-1.0,1,0,0,0,0,0,0
1190747546,0.02390158,0.003645639,-0.13149804,0.0,0.997765,0.012044417,0.0010335832,-0.06571859,0.5392645,-1.0,1,0,0,0,0,0,0
1190850949,0.021964176,0.0058323527,-0.13149804,0.0,0.99777275,0.011149678,0.002188172,-0.06572939,0.5373658,-1.0,1,0,0,0,0,0,0
1190954727,0.02514648,0.0024824557,-0.13149804,0.0,0.9977586,0.012627276,0.0004123874,-0.06571199,0.53571385,-1.0,1,0,0,0,0,0,0
1191054365,0.019186448,0.00036930485,-0.13149804,0.0,0.9977933,0.009584481,-0.00044603614,-0.065700404,0.53883606,-1.0,1,0,0,0,0,0,0
1191155017,0.023842854,0.017225925,-0.13149804,0.0,0.9977247,0.012460784,0.0078104255,-0.06579701,0.53374445,-1.0,1,0,0,0,0,0,0
1191258680,0.020813733,0.013799235,-0.13149804,0.0,0.99775684,0.010837235,0.0062005627,-0.06576818,0.534108,-1.0,1,0,0,0,0,0,0
1191363056,0.02135966,0.014507143,-0.13149804,0.0,0.99775106,0.011132811,0.0065357722,-0.06577349,0.534756,-1.0,1,0,0,0,0,0,0
1191462317,0.01841814,0.01640372,-0.13149804,0.0,0.9977585,0.0097275805,0.0075786766,-0.06577202,0.53556055,-1.0,1,0,0,0,0,0,0
1191566497,0.024859527,0.01909857,-0.13149804,0.0,0.997709,0.013029369,0.008711174,-0.06581203,0.5343855,-1.0,1,0,0,0,0,0,0
1191667222,0.020235106,0.012580651,-0.13149804,0.0,0.9977643,0.010508581,0.0056116562,-0.0657605,0.53541857,-1.0,1,0,0,0,0,0,0
1191766396,0.016143296,0.015183599,-0.13149804,0.0,0.997774,0.00855266,0.007044777,-0.06575877,0.5353723,-1.0,1,0,0,0,0,0,0
1191870319,0.013705914,0.017165925,-0.13149804,0.0,0.99777526,0.0074017392,0.00811388,-0.06575639,0.5354299,-1.0,1,0,0,0,0,0,0
1191970672,0.023234263,0.025084632,-0.13149804,0.0,0.99768394,0.012414832,0.0117508555,-0.06583744,0.5337291,-1.0,1,0,0,0,0,0,0
1192075153,0.015013469,0.022614857,-0.13149804,0.0,0.9977418,0.008232846,0.0107892705,-0.065780304,0.5360865,-1.0,1,0,0,0,0,0,0
1192178928,0.019879356,0.028356656,-0.13149804,0.0,0.9976805,0.0108485045,0.013493544,-0.06583243,0.5347323,-1.0,1,0,0,0,0,0,0
1192282994,0.017364688,0.023685629,-0.13149804,0.0,0.997725,0.009440914,0.0112461075,-0.06579717,0.5370292,-1.0,1,0,0,0,0,0,0
1192382406,0.016394487,0.028231284,-0.13149804,0.0,0.9976988,0.009105985,0.013545689,-0.06580837,0.53527606,-1.0,1,0,0,0,0,0,0
1192486205,0.016079843,0.031028202,-0.13149804,0.0,0.9976788,0.009040727,0.0149512915,-0.06581608,0.5369736,-1.0,1,0,0,0,0,0,0
1192586860,0.013382055,0.025219236,-0.13149804,0.0,0.9977321,0.0075044218,0.012142183,-0.06577916,0.5391541,-1.0,1,0,0,0,0,0,0
1192690697,0.0086476095,0.02013786,-0.13149804,0.0,0.99777657,0.0049757585,0.009762845,-0.06574116,0.5402394,-1.0,1,0,0,0,0,0,0
1192795122,0.0100446455,0.026372913,-0.13149804,0.0,0.9977356,0.0058773514,0.012827473,-0.0657612,0.5374255,-1.0,1,0,0,0,0,0,0
1192894346,0.0014503283,0.02105801,-0.13149804,0.0,0.99778324,0.0014153172,0.010458416,-0.06570562,0.54236066,-1.0,1,0,0,0,0,0,0
1192998196,0.0033666017,0.016206095,-0.13149804,0.0,0.9978042,0.002211985,0.007974846,-0.06571301,0.539325,-1.0,1,0,0,0,0,0,0
1193098526,-0.0053790603,0.014903642,-0.13149804,0.0,0.99780935,-0.0021940502,0.0076123257,-0.06567961,0.54355186,-1.0,1,0,0,0,0,0,0
1193198200,-0.0023392995,0.016310722,-0.13149804,0.0,0.99780613,-0.00063126895,0.008214489,-0.065689914,0.54263806,-1.0,1,0,0,0,0,0,0
1193302152,-0.0067007365,0.00665118,-0.13149804,0.0,0.99782896,-0.0031246091,0.0035385028,-0.06568982,0.54253757,-1.0,1,0,0,0,0,0,0
1193402512,-0.011382781,0.008603038,-0.13149804,0.0,0.99781555,-0.0053963987,0.004666071,-0.06567557,0.5431216,-1.0,1,0,0,0,0,0,0
1193502214,-0.0047027324,0.015958272,-0.13149804,0.0,0.997806,-0.0018219731,0.008116272,-0.06568067,0.5399606,-1.0,1,0,0,0,0,0,0
1193606130,-0.0033390531,0.009083054,-0.13149804,0.0,0.9978281,-0.0013675168,0.004641382,-0.06569333,0.5395384,-1.0,1,0,0,0,0,0,0
1193706722,-0.012303024,0.009413116,-0.13149804,0.0,0.99781126,-0.005828892,0.0051004402,-0.0656708,0.54221994,-1.0,1,0,0,0,0,0,0
1193810514,-0.0063270973,0.01462372,-0.13149804,0.0,0.9978092,-0.002676229,0.0075038043,-0.065676495,0.541612,-1.0,1,0,0,0,0,0,0
1193914529,-0.015371194,0.009277312,-0.13149804,0.0,0.9978014,-0.0073640756,0.005133426,-0.06566345,0.5447791,-1.0,1,0,0,0,0,0,0
1194014210,-0.0050566895,0.016804442,-0.13149804,0.0,0.9978023,-0.0019707587,0.00855005,-0.06567793,0.5419213,-1.0,1,0,0,0,0,0,0
1194118383,-0.0041972976,0.010790369,-0.13149804,0.0,0.99782336,-0.0017396121,0.0055213715,-0.06568927,0.54288954,-1.0,1,0,0,0,0,0,0
1194219222,-0.005783913,0.01236147,-0.13149804,0.0,0.9978173,-0.0024795686,0.0063573173,-0.06568231,0.54517215,-1.0,1,0,0,0,0,0,0
1194318308,-0.008410138,0.015778333,-0.13149804,0.0,0.9978016,-0.0036775193,0.00814824,-0.06566594,0.54684436,-1.0,1,0,0,0,0,0,0
1194422341,-0.0006468442,0.018750923,-0.13149804,0.0,0.9977956,0.00029326516,0.0093763145,-0.065695755,0.54273933,-1.0,1,0,0,0,0,0,0
1194524476,-0.007983258,0.017017677,-0.13149804,0.0,0.9977975,-0.0034238163,0.0087525295,-0.06566487,0.54866207,-1.0,1,0,0,0,0,0,0
1194628244,0.0003550674,0.023820983,-0.13149804,0.0,0.9977684,0.00095965806,0.011872812,-0.065699115,0.5437807,-1.0,1,0,0,0,0,0,0
1194727811,-0.0013841611,0.018333446,-0.13149804,0.0,0.99779755,-8.829575e-05,0.009192254,-0.06569256,0.5472254,-1.0,1,0,0,0,0,0,0
1194831955,0.0008265457,0.023527145,-0.13149804,0.0,0.9977699,0.0011852195,0.011710731,-0.06570196,0.5437241,-1.0,1,0,0,0,0,0,0
1194933808,0.00026029052,0.021126768,-0.13149804,0.0,0.99778354,0.0008238757,0.010531813,-0.06569937,0.5458659,-1.0,1,0,0,0,0,0,0
1195036262,-0.0009632597,0.02086689,-0.13149804,0.0,0.9977853,0.00020491905,0.010442353,-0.065693066,0.5462668,-1.0,1,0,0,0,0,0,0
1195140242,0.0011069481,0.022898069,-0.13149804,0.0,0.9977733,0.0013044459,0.011387683,-0.06570367,0.5424143,-1.0,1,0,0,0,0,0,0
1195244393,0.000556082,0.016703766,-0.13149804,0.0,0.99780434,0.0008261568,0.008315473,-0.06570169,0.54471236,-1.0,1,0,0,0,0,0,0
1195343816,0.0021222765,0.016680446,-0.13149804,0.0,0.9978035,0.0016067683,0.008252385,-0.06570817,0.54571944,-1.0,1,0,0,0,0,0,0
1195447914,-0.0020776913,0.012297455,-0.13149804,0.0,0.9978203,-0.00063260226,0.0062036524,-0.065694004,0.5445029,-1.0,1,0,0,0,0,0,0
1195548150,0.00032769472,0.012006268,-0.13149804,0.0,0.9978213,0.0005579038,0.0059793615,-0.065701455,0.5436608,-1.0,1,0,0,0,0,0,0
1195647991,0.0065185674,0.009509927,-0.13149804,0.0,0.99782175,0.0035646046,0.004530508,-0.06571603,0.5444835,-1.0,1,0,0,0,0,0,0
1195751915,-0.00027224477,0.009825409,-0.13149804,0.0,0.9978273,0.00018694492,0.004911013,-0.06570021,0.545702,-1.0,1,0,0,0,0,0,0
1195852360,0.007278764,0.0106808925,-0.13149804,0.0,0.9978172,0.003982331,0.005089737,-0.065719694,0.54503834,-1.0,1,0,0,0,0,0,0
1195956275,0.002189702,0.0062693264,-0.13149804,0.0,0.9978336,0.0012984318,0.0030559497,-0.06570472,0.5463956,-1.0,1,0,0,0,0,0,0
1196060765,0.012556561,0.012986359,-0.13149804,0.0,0.99779594,0.0066911443,0.0060664946,-0.06573966,0.5456394,-1.0,1,0,0,0,0,0,0
1196164573,0.0106649175,0.010325049,-0.13149804,0.0,0.99781,0.00566002,0.0048009283,-0.065727316,0.5486608,-1.0,1,0,0,0,0,0,0
1196264001,0.010434037,0.014748529,-0.13149804,0.0,0.9977961,0.005690071,0.007015407,-0.065737374,0.5458042,-1.0,1,0,0,0,0,0,0
1196367938,0.014581827,0.0138499355,-0.13149804,0.0,0.99778557,0.0077298866,0.0064307568,-0.06574872,0.5473025,-1.0,1,0,0,0,0,0,0
1196468825,0.010064747,0.009417534,-0.13149804,0.0,0.99781406,0.0053307926,0.004367886,-0.065723754,0.54705554,-1.0,1,0,0,0,0,0,0
1196572155,0.009741201,0.018234503,-0.13149804,0.0,0.99778306,0.005458859,0.008777326,-0.065742455,0.54863673,-1.0,1,0,0,0,0,0,0
1196676307,0.0102145765,0.015711954,-0.13149804,0.0,0.99779284,0.005612212,0.0075032744,-0.06573882,0.5470025,-1.0,1,0,0,0,0,0,0
1196775978,0.013467607,0.022331325,-0.13149804,0.0,0.99774957,0.007452355,0.010698664,-0.065771095,0.54835135,-1.0,1,0,0,0,0,0,0
1196876379,0.01868101,0.028010342,-0.13149804,0.0,0.99768937,0.010239366,0.013360226,-0.065822884,0.5448665,-1.0,1,0,0,0,0,0,0
1196980416,0.021913115,0.027009202,-0.13149804,0.0,0.9976787,0.0118188625,0.01275442,-0.06583936,0.5440399,-1.0,1,0,0,0,0,0,0
1197080036,0.015422776,0.028212491,-0.13149804,0.0,0.99770325,0.00862063,0.013568285,-0.06580171,0.5462229,-1.0,1,0,0,0,0,0,0
1197183738,0.019835383,0.036025386,-0.13149804,0.0,0.99761665,0.011077837,0.017320426,-0.06586602,0.54581,-1.0,1,0,0,0,0,0,0
1197284357,0.018912368,0.032349724,-0.13149804,0.0,0.99765414,0.010496999,0.015517292,-0.06584274,0.54427487,-1.0,1,0,0,0,0,0,0
1197383780,0.011458301,0.024855895,-0.13149804,0.0,0.9977412,0.006532801,0.0120241875,-0.06576656,0.54805356,-1.0,1,0,0,0,0,0,0
1197487786,0.019175207,0.033689644,-0.13149804,0.0,0.99764127,0.010672012,0.016177034,-0.06585046,0.5450891,-1.0,1,0,0,0,0,0,0
1197588339,0.013903005,0.02983456,-0.13149804,0.0,0.99769735,0.007915685,0.014427466,-0.06579624,0.54636645,-1.0,1,0,0,0,0,0,0
1197692535,0.01685761,0.02647894,-0.13149804,0.0,0.99770904,0.009279555,0.012656278,-0.06580492,0.5461355,-1.0,1,0,0,0,0,0,0
1197796519,0.019709501,0.03233689,-0.13149804,0.0,0.99764997,0.010894209,0.015484645,-0.06584887,0.5439736,-1.0,1,0,0,0,0,0,0
1197895702,0.0150591815,0.02923243,-0.13149804,0.0,0.99769723,0.008472696,0.014089052,-0.065802604,0.5417186,-1.0,1,0,0,0,0,0,0
1197999756,0.017355895,0.035288382,-0.13149804,0.0,0.9976364,0.009816889,0.017034428,-0.06584174,0.54424596,-1.0,1,0,0,0,0,0,0
1198100074,0.017674297,0.02986439,-0.13149804,0.0,0.9976805,0.009797951,0.014318252,-0.065823436,0.5454446,-1.0,1,0,0,0,0,0,0
1198199800,0.012858714,0.025814902,-0.13149804,0.0,0.99773014,0.007262887,0.012456557,-0.06577764,0.54473305,-1.0,1,0,0,0,0,0,0
1198303815,0.008102918,0.027382564,-0.13149804,0.0,0.99773395,0.0049418192,0.013394998,-0.06575031,0.54706544,-1.0,1,0,0,0,0,0,0
1198404460,0.011311482,0.026814234,-0.13149804,0.0,0.9977287,0.006523812,0.013005977,-0.065770365,0.54456455,-1.0,1,0,0,0,0,0,0
1198503791,0.011221119,0.021224542,-0.13149804,0.0,0.9977635,0.0062953117,0.010220374,-0.065756336,0.54547155,-1.0,1,0,0,0,0,0,0
1198608024,0.013084868,0.025079291,-0.13149804,0.0,0.9977341,0.0073515754,0.012082145,-0.065776944,0.54544324,-1.0,1,0,0,0,0,0,0
1198708315,0.0003490163,0.013648835,-0.13149804,0.0,0.99781597,0.0006224991,0.0067981537,-0.06570132,0.54911506,-1.0,1,0,0,0,0,0,0
1198812429,0.0033318687,0.017636208,-0.13149804,0.0,0.99779814,0.002241625,0.008689474,-0.065713674,0.5453427,-1.0,1,0,0,0,0,0,0
1198913346,3.0676107e-05,0.011283521,-0.13149804,0.0,0.9978234,0.00038597573,0.0056285327,-0.0657007,0.5463454,-1.0,1,0,0,0,0,0,0
1199017402,3.6125253e-05,0.014847511,-0.13149804,0.0,0.99781185,0.0005057717,0.00740646,-0.065699995,0.5442767,-1.0,1,0,0,0,0,0,0
1199118068,-0.002111782,0.011453402,-0.13149804,0.0,0.99782276,-0.0006773406,0.005783666,-0.06569452,0.5465098,-1.0,1,0,0,0,0,0,0
1199221601,-0.000100529476,0.009563783,-0.13149804,0.0,0.9978279,0.00026402148,0.004774844,-0.06570068,0.5471329,-1.0,1,0,0,0,0,0,0
1199325884,-0.0038157755,0.0068227043,-0.13149804,0.0,0.9978321,-0.0016796226,0.0035293188,-0.06569467,0.54530704,-1.0,1,0,0,0,0,0,0
1199425354,0.0036592968,0.0044878144,-0.13149804,0.0,0.99783486,0.0019731177,0.0021188427,-0.06570549,0.54469985,-1.0,1,0,0,0,0,0,0
1199526395,0.005429331,0.006540116,-0.13149804,0.0,0.9978297,0.0029236295,0.0030846181,-0.065709926,0.5424673,-1.0,1,0,0,0,0,0,0
1199629928,0.008325746,0.0061379583,-0.13149804,0.0,0.99782515,0.004355482,0.002788811,-0.06571354,0.5417905,-1.0,1,0,0,0,0,0,0
1199729449,0.0077255038,-0.0012909923,-0.13149804,0.0,0.9978319,0.003811985,-0.00089788495,-0.06569867,0.54476756,-1.0,1,0,0,0,0,0,0
1199833513,0.010464867,0.0022466455,-0.13149804,0.0,0.99782467,0.0052949036,0.00077710225,-0.06570659,0.54384637,-1.0,1,0,0,0,0,0,0
1199934887,0.010122954,-0.0074404557,-0.13149804,0.0,0.9978209,0.004806062,-0.0040446767,-0.06568158,0.5461949,-1.0,1,0,0,0,0,0,0
1200033585,0.011693495,-0.0074819587,-0.13149804,0.0,0.9978167,0.0055882563,-0.0041169594,-0.065678254,0.54188377,-1.0,1,0,0,0,0,0,0
1200135285,0.018323833,-0.012114459,-0.13149804,0.0,0.99778277,0.008743874,-0.0066457847,-0.065642335,0.54151547,-1.0,1,0,0,0,0,0,0
1200238315,0.025941752,-0.008016906,-0.13149804,0.0,0.99775076,0.012679044,-0.0048516225,-0.06564373,0.5398012,-1.0,1,0,0,0,0,0,0
1200341953,0.018562384,-0.016738895,-0.13149804,0.0,0.9977665,0.008710824,-0.008960666,-0.065619014,0.54358816,-1.0,1,0,0,0,0,0,0
1200445714,0.022790594,-0.013730731,-0.13149804,0.0,0.9977562,0.010919128,-0.0075986884,-0.0656178,0.5406577,-1.0,1,0,0,0,0,0,0
1200545485,0.014676179,-0.019646557,-0.13149804,0.0,0.99776906,0.0066764364,-0.010283728,-0.065624796,0.54480094,-1.0,1,0,0,0,0,0,0
1200645953,0.023131626,-0.020921636,-0.13149804,0.0,0.9977259,0.0108527,-0.011197162,-0.065572955,0.54161954,-1.0,1,0,0,0,0,0,0
1200750844,0.013572472,-0.02351743,-0.13149804,0.0,0.9977526,0.0059985206,-0.012178599,-0.06561598,0.54441017,-1.0,1,0,0,0,0,0,0
1200853843,0.015060093,-0.02515054,-0.13149804,0.0,0.99773836,0.0066869403,-0.013042105,-0.06560012,0.5427381,-1.0,1,0,0,0,0,0,0
1200953763,0.019828625,-0.020022327,-0.13149804,0.0,0.99774677,0.009234527,-0.010640219,-0.06559612,0.539525,-1.0,1,0,0,0,0,0,0
1201057419,0.017097017,-0.020262277,-0.13149804,0.0,0.9977573,0.007863898,-0.010670321,-0.06560948,0.5431151,-1.0,1,0,0,0,0,0,0
1201158642,0.026230203,-0.017234636,-0.13149804,0.0,0.9977239,0.012519788,-0.009459482,-0.06558081,0.53884137,-1.0,1,0,0,0,0,0,0
1201262029,0.018082548,-0.019968912,-0.13149804,0.0,0.99775475,0.008365207,-0.010556298,-0.06560564,0.54307705,-1.0,1,0,0,0,0,0,0
1201365959,0.021442289,-0.013706468,-0.13149804,0.0,0.99776334,0.010247285,-0.0075423475,-0.06562303,0.544115,-1.0,1,0,0,0,0,0,0
1201465499,0.029571174,-0.008377293,-0.13149804,0.0,0.99772555,0.0144778015,-0.0051505207,-0.06563212,0.54133266,-1.0,1,0,0,0,0,0,0
1201569485,0.023404902,-0.010600252,-0.13149804,0.0,0.9977611,0.011328534,-0.00605713,-0.065634355,0.5449699,-1.0,1,0,0,0,0,0,0
1201670435,0.02658912,-0.0042592622,-0.13149804,0.0,0.99775076,0.013125505,-0.002998287,-0.06566746,0.54231215,-1.0,1,0,0,0,0,0,0
1201769483,0.030171113,-0.0035221803,-0.13149804,0.0,0.99772596,0.014936673,-0.0027481911,-0.06566757,0.5416263,-1.0,1,0,0,0,0,0,0
1201873379,0.02606751,-0.0033625194,-0.13149804,0.0,0.9977546,0.012894752,-0.0025337976,-0.065674126,0.5441352,-1.0,1,0,0,0,0,0,0
1201974450,0.022973994,0.0024907843,-0.13149804,0.0,0.99777174,0.011543736,0.00048792132,-0.06571156,0.5442891,-1.0,1,0,0,0,0,0,0
1202073419,0.017828178,0.0033889571,-0.13149804,0.0,0.9977973,0.009006023,0.0011050873,-0.065714024,0.5467933,-1.0,1,0,0,0,0,0,0
1202177551,0.015677039,0.00025049684,-0.13149804,0.0,0.9978086,0.00782973,-0.00039002448,-0.06570062,0.54960924,-1.0,1,0,0,0,0,0,0
1202278403,0.014539281,-0.0040646913,-0.13149804,0.0,0.99781185,0.0071203294,-0.0025055215,-0.06568504,0.55017954,-1.0,1,0,0,0,0,0,0
1202381975,0.008049209,-0.001179459,-0.13149804,0.0,0.9978313,0.003977151,-0.00085287285,-0.06569875,0.5499341,-1.0,1,0,0,0,0,0,0
1202485890,0.007062653,-0.0033186767,-0.13149804,0.0,0.9978321,0.0034146635,-0.0018877551,-0.065695316,0.5514983,-1.0,1,0,0,0,0,0,0
1202585654,0.007446214,-0.004017296,-0.13149804,0.0,0.99783087,0.0035830762,-0.0022489058,-0.06569362,0.5490569,-1.0,1,0,0,0,0,0,0
1202689809,0.0066578425,0.0007798475,-0.13149804,0.0,0.99783367,0.0033473403,0.00017036386,-0.06570259,0.5487614,-1.0,1,0,0,0,0,0,0
1202790193,0.009155985,0.0014601584,-0.13149804,0.0,0.9978283,0.0046160505,0.00042771347,-0.06570429,0.5467517,-1.0,1,0,0,0,0,0,0
1202889612,-0.00035128993,0.0001371195,-0.13149804,0.0,0.99783933,-0.00017076096,7.995177e-05,-0.06570164,0.5509775,-1.0,1,0,0,0,0,0,0
1202993418,0.010218423,0.0028426594,-0.13149804,0.0,0.9978248,0.0051915273,0.001082558,-0.06570798,0.55040675,-1.0,1,0,0,0,0,0,0
1203093933,0.00834995,0.005192703,-0.13149804,0.0,0.9978265,0.0043365113,0.0023164153,-0.065711685,0.55247265,-1.0,1,0,0,0,0,0,0
1203193528,0.012265991,0.010671778,-0.13149804,0.0,0.9978042,0.006470187,0.0049212947,-0.06573214,0.55041695,-1.0,1,0,0,0,0,0,0
1203295004,0.015489504,0.00813833,-0.13149804,0.0,0.99779904,0.007995219,0.003551406,-0.0657306,0.54667103,-1.0,1,0,0,0,0,0,0
1203399139,0.024944337,0.013695102,-0.13149804,0.0,0.9977327,0.012894463,0.0060127694,-0.06578023,0.5468702,-1.0,1,0,0,0,0,0,0
1203499503,0.033413026,0.016855892,-0.13149804,0.0,0.9976554,0.017222693,0.0073109055,-0.065830655,0.5443476,-1.0,1,0,0,0,0,0,0
1203603646,0.04468275,0.019130522,-0.13149804,0.0,0.9975306,0.022918515,0.008074391,-0.065895475,0.5397933,-1.0,1,0,0,0,0,0,0
1203707619,0.04326513,0.014502113,-0.13149804,0.0,0.99756926,0.022059865,0.0058124857,-0.065841064,0.547709,-1.0,1,0,0,0,0,0,0
1203807158,0.05481852,0.019937297,-0.13149804,0.0,0.997397,0.02799995,0.008142689,-0.06594632,0.5432225,-1.0,1,0,0,0,0,0,0
1203911006,0.05996686,0.034667045,-0.13149804,0.0,0.99720687,0.03104794,0.015318058,-0.066180766,0.53787696,-1.0,1,0,0,0,0,0,0
1204011936,0.06074631,0.036196392,-0.13149804,0.0,0.9971796,0.03148637,0.016054843,-0.066209,0.5352393,-1.0,1,0,0,0,0,0,0
1204110925,0.07076607,0.039165072,-0.13149804,0.0,0.996978,0.036578167,0.01720295,-0.06633914,0.53703755,-1.0,1,0,0,0,0,0,0
1204215236,0.07158321,0.038331714,-0.13149804,0.0,0.996972,0.036958437,0.016760394,-0.06633183,0.5373167,-1.0,1,0,0,0,0,0,0
1204315461,0.07717477,0.039445627,-0.13149804,0.0,0.99685264,0.039781734,0.017130138,-0.06639916,0.5371719,-1.0,1,0,0,0,0,0,0
1204415123,0.07268618,0.043559402,-0.13149804,0.0,0.9968919,0.037677888,0.019329866,-0.066432305,0.53966695,-1.0,1,0,0,0,0,0,0
1204519189,0.07100795,0.04678924,-0.13149804,0.0,0.996883,0.036946084,0.020995693,-0.06647083,0.5379957,-1.0,1,0,0,0,0,0,0
1204620018,0.073919065,0.04872496,-0.13149804,0.0,0.9968028,0.03845974,0.021863805,-0.0665355,0.5411272,-1.0,1,0,0,0,0,0,0
1204723589,0.069652766,0.044174165,-0.13149804,0.0,0.9969405,0.036185797,0.019737074,-0.06641315,0.5415345,-1.0,1,0,0,0,0,0,0
1204827267,0.06278242,0.044338863,-0.13149804,0.0,0.9970569,0.032766275,0.02004721,-0.066347405,0.5432945,-1.0,1,0,0,0,0,0,0
1204927275,0.056892887,0.045156017,-0.13149804,0.0,0.99713916,0.029856605,0.020649947,-0.06629907,0.54636246,-1.0,1,0,0,0,0,0,0
1205031127,0.061265063,0.03497039,-0.13149804,0.0,0.9971835,0.0317051,0.015426355,-0.066195145,0.54672486,-1.0,1,0,0,0,0,0,0
1205131762,0.059895504,0.035232592,-0.13149804,0.0,0.99720246,0.03103078,0.015602423,-0.066188335,0.5462132,-1.0,1,0,0,0,0,0,0
1205231017,0.055923212,0.027048789,-0.13149804,0.0,0.99733317,0.028783204,0.0116527695,-0.06604727,0.54526085,-1.0,1,0,0,0,0,0,0
1205335018,0.0502333,0.022664296,-0.13149804,0.0,0.9974418,0.02580243,0.009653928,-0.0659607,0.54482627,-1.0,1,0,0,0,0,0,0
1205435810,0.041949455,0.015959114,-0.13149804,0.0,0.997577,0.02145136,0.0065825502,-0.06585211,0.5481368,-1.0,1,0,0,0,0,0,0
1205535005,0.038330227,0.012429198,-0.13149804,0.0,0.997629,0.019530395,0.004940914,-0.06580716,0.54894966,-1.0,1,0,0,0,0,0,0
1205639087,0.03505138,0.006288581,-0.13149804,0.0,0.9976775,0.017693393,0.0019856077,-0.06574623,0.55494773,-1.0,1,0,0,0,0,0,0
1205739538,0.035952948,0.0049747964,-0.13149804,0.0,0.9976721,0.018100016,0.001300603,-0.06573547,0.55395174,-1.0,1,0,0,0,0,0,0
1205843996,0.033684682,0.002388077,-0.13149804,0.0,0.99769574,0.016883578,8.4772815e-05,-0.06571236,0.5557799,-1.0,1,0,0,0,0,0,0
1205947570,0.029447723,-0.00045121234,-0.13149804,0.0,0.9977313,0.014676695,-0.0011924414,-0.06569122,0.5514948,-1.0,1,0,0,0,0,0,0
1206047172,0.030820651,0.0011279432,-0.13149804,0.0,0.99772006,0.015413468,-0.0004497577,-0.06570252,0.5508812,-1.0,1,0,0,0,0,0,0
1206151084,0.020980231,-0.0072072656,-0.13149804,0.0,0.9977804,0.010230439,-0.004284842,-0.0656599,0.5535068,-1.0,1,0,0,0,0,0,0
1206251647,0.013654249,-0.0054289624,-0.13149804,0.0,0.9978136,0.006633953,-0.003157098,-0.06568139,0.54996234,-1.0,1,0,0,0,0,0,0
1206351019,0.0069163647,-0.0057834447,-0.13149804,0.0,0.99782985,0.0032606993,-0.0031126598,-0.065691024,0.55449426,-1.0,1,0,0,0,0,0,0
1206455120,0.005749246,-0.008149557,-0.13149804,0.0,0.9978277,0.0026006661,-0.004254811,-0.06568916,0.55711627,-1.0,1,0,0,0,0,0,0
1206555691,0.009374398,0.0014487996,-0.13149804,0.0,0.9978279,0.004724647,0.0004148711,-0.065704316,0.5524167,-1.0,1,0,0,0,0,0,0
1206655149,0.0055484865,0.0006482263,-0.13149804,0.0,0.9978354,0.0027895398,0.00014113942,-0.065702304,0.54988784,-1.0,1,0,0,0,0,0,0
1206758939,0.0033851026,0.001903709,-0.13149804,0.0,0.9978373,0.0017514308,0.00083859294,-0.06570314,0.54930156,-1.0,1,0,0,0,0,0,0
1206859713,0.0014636816,0.0016851749,-0.13149804,0.0,0.9978387,0.0007856185,0.0007926834,-0.065702245,0.5492631,-1.0,1,0,0,0,0,0,0
1206963525,0.00019638291,0.007687493,-0.13149804,0.0,0.99783194,0.0003505185,0.0038289805,-0.06570156,0.54409564,-1.0,1,0,0,0,0,0,0
1207067570,-0.003252992,0.006127179,-0.13149804,0.0,0.99783367,-0.0014216909,0.003163824,-0.0656963,0.54125696,-1.0,1,0,0,0,0,0,0
1207167017,-0.0043356353,0.0038878992,-0.13149804,0.0,0.9978354,-0.0020354076,0.002082172,-0.065697186,0.54288316,-1.0,1,0,0,0,0,0,0
1207270993,-0.0019279998,0.011594202,-0.13149804,0.0,0.99782246,-0.00058102375,0.0058478746,-0.06569496,0.5442314,-1.0,1,0,0,0,0,0,0
1207372017,-0.008203461,0.011125568,-0.13149804,0.0,0.997817,-0.0037273145,0.0058201756,-0.06567733,0.5436073,-1.0,1,0,0,0,0,0,0
1207471004,-0.0032066146,0.016700061,-0.13149804,0.0,0.99780416,-0.0010511827,0.008437217,-0.06568592,0.5416595,-1.0,1,0,0,0,0,0,0
1207575043,-0.006389292,0.01366357,-0.13149804,0.0,0.9978124,-0.00273881,0.0070268237,-0.065678015,0.5442484,-1.0,1,0,0,0,0,0,0
1207677351,-0.0055212146,0.023138607,-0.13149804,0.0,0.99777085,-0.0019943516,0.011725368,-0.06566514,0.5424415,-1.0,1,0,0,0,0,0,0
1207780880,-0.0013960993,0.030242575,-0.13149804,0.0,0.99772567,0.0002969938,0.015133894,-0.065683596,0.5435699,-1.0,1,0,0,0,0,0,0
1207880715,8.556718e-05,0.026636144,-0.13149804,0.0,0.9977508,0.0009176808,0.01328609,-0.065696396,0.5426138,-1.0,1,0,0,0,0,0,0
1207984708,0.007129408,0.03843594,-0.13149804,0.0,0.9976442,0.0048189047,0.018940981,-0.06575747,0.5387345,-1.0,1,0,0,0,0,0,0
1208085570,-0.00018808742,0.035162687,-0.13149804,0.0,0.9976852,0.0010612381,0.01754863,-0.065689854,0.5404073,-1.0,1,0,0,0,0,0,0
1208184712,0.0039530518,0.034440596,-0.13149804,0.0,0.9976872,0.0031033051,0.017052362,-0.065725744,0.5392422,-1.0,1,0,0,0,0,0,0
1208289373,0.0053247567,0.036664415,-0.13149804,0.0,0.99766487,0.0038605605,0.018116614,-0.06573909,0.5428738,-1.0,1,0,0,0,0,0,0
1208392526,0.005190915,0.035581052,-0.13149804,0.0,0.997675,0.003758238,0.017580593,-0.06573713,0.54052144,-1.0,1,0,0,0,0,0,0
1208493678,0.012478749,0.035401788,-0.13149804,0.0,0.99765635,0.0073877717,0.017251508,-0.065800294,0.53983307,-1.0,1,0,0,0,0,0,0
1208597238,0.0055039446,0.034209583,-0.13149804,0.0,0.9976865,0.0038693752,0.016886154,-0.065738775,0.54376554,-1.0,1,0,0,0,0,0,0
1208697052,0.012461959,0.038670983,-0.13149804,0.0,0.9976255,0.007486584,0.018882832,-0.06580832,0.54023516,-1.0,1,0,0,0,0,0,0
1208800586,0.015871877,0.038716562,-0.13149804,0.0,0.99761087,0.009188976,0.018793339,-0.06584056,0.53804016,-1.0,1,0,0,0,0,0,0
1208901657,0.019084739,0.031609505,-0.13149804,0.0,0.9976594,0.010558725,0.015142367,-0.06584095,0.5384295,-1.0,1,0,0,0,0,0,0
1209000555,0.013359309,0.033655997,-0.13149804,0.0,0.9976684,0.00776978,0.016351676,-0.06580306,0.54129755,-1.0,1,0,0,0,0,0,0
1209104771,0.012725225,0.036207996,-0.13149804,0.0,0.99764806,0.0075371545,0.017645564,-0.065804504,0.53797823,-1.0,1,0,0,0,0,0,0
1209205121,0.01847666,0.0351251,-0.13149804,0.0,0.9976322,0.010370597,0.016916081,-0.06585062,0.53606564,-1.0,1,0,0,0,0,0,0
1209304703,0.018268272,0.035109423,-0.13149804,0.0,0.99763346,0.010266135,0.016915122,-0.06584878,0.5348118,-1.0,1,0,0,0,0,0,0
1209408892,0.023001537,0.046692252,-0.13149804,0.0,0.9974838,0.013006177,0.02253663,-0.0659473,0.53537905,-1.0,1,0,0,0,0,0,0
1209509044,0.020922882,0.041622765,-0.13149804,0.0,0.9975543,0.011803555,0.020076608,-0.06590107,0.53492814,-1.0,1,0,0,0,0,0,0
1209613299,0.02417029,0.040587366,-0.13149804,0.0,0.9975448,0.0133893965,0.019453134,-0.065928034,0.5363278,-1.0,1,0,0,0,0,0,0
1209717375,0.027413733,0.05018927,-0.13149804,0.0,0.9974088,0.015320946,0.024135182,-0.066017985,0.5329423,-1.0,1,0,0,0,0,0,0
1209816552,0.028806599,0.04323956,-0.13149804,0.0,0.9974822,0.015788522,0.020623082,-0.06599018,0.5346351,-1.0,1,0,0,0,0,0,0
1209920688,0.03656915,0.048437227,-0.13149804,0.0,0.9973509,0.019829482,0.022958975,-0.06611322,0.53478444,-1.0,1,0,0,0,0,0,0
1210021037,0.027543554,0.047976106,-0.13149804,0.0,0.9974359,0.015313387,0.023027116,-0.06600613,0.5378539,-1.0,1,0,0,0,0,0,0
1210120553,0.034349862,0.051422276,-0.13149804,0.0,0.99733335,0.018820142,0.02452098,-0.06611082,0.5367375,-1.0,1,0,0,0,0,0,0
1210224696,0.030644737,0.052277252,-0.13149804,0.0,0.99735504,0.017000394,0.025069797,-0.06607108,0.5367087,-1.0,1,0,0,0,0,0,0
1210325146,0.027750155,0.057131298,-0.13149804,0.0,0.9973102,0.01571538,0.027586091,-0.06606397,0.5372761,-1.0,1,0,0,0,0,0,0
1210424677,0.022889595,0.05018803,-0.13149804,0.0,0.99744093,0.013064663,0.024283838,-0.065963216,0.5377493,-1.0,1,0,0,0,0,0,0
1210528595,0.02637161,0.05655257,-0.13149804,0.0,0.99732924,0.015009064,0.027343018,-0.06604167,0.53716713,-1.0,1,0,0,0,0,0,0
1210629983,0.02494093,0.05519852,-0.13149804,0.0,0.9973591,0.014251405,0.026714994,-0.06601491,0.5386375,-1.0,1,0,0,0,0,0,0
1210733259,0.024646798,0.04610453,-0.13149804,0.0,0.9974798,0.0138075175,0.02218924,-0.06596266,0.54125714,-1.0,1,0,0,0,0,0,0
1210837196,0.018053362,0.0496124,-0.13149804,0.0,0.997477,0.010633858,0.024156174,-0.06590218,0.5413578,-1.0,1,0,0,0,0,0,0
1210936578,0.012248422,0.044040035,-0.13149804,0.0,0.9975698,0.0075560664,0.021567982,-0.06581906,0.541947,-1.0,1,0,0,0,0,0,0
1211040734,0.019426527,0.052559577,-0.13149804,0.0,0.997431,0.011415122,0.025580803,-0.06593055,0.541494,-1.0,1,0,0,0,0,0,0
1211141967,0.015645655,0.054031968,-0.13149804,0.0,0.9974308,0.009577723,0.02643973,-0.06588654,0.54143417,-1.0,1,0,0,0,0,0,0
1211240629,0.01555087,0.05124707,-0.13149804,0.0,0.99746853,0.009439283,0.025053913,-0.065876886,0.54311705,-1.0,1,0,0,0,0,0,0
1211344869,0.0126431165,0.04927992,-0.13149804,0.0,0.9975063,0.007924632,0.024168532,-0.065835826,0.54376245,-1.0,1,0,0,0,0,0,0
1211445106,0.015155351,0.052386142,-0.13149804,0.0,0.99745536,0.009279317,0.025635041,-0.06587527,0.5403525,-1.0,1,0,0,0,0,0,0
1211544596,0.012129549,0.039809167,-0.13149804,0.0,0.99761534,0.007358088,0.019461516,-0.06580789,0.54323375,-1.0,1,0,0,0,0,0,0
1211648853,0.013196071,0.044009432,-0.13149804,0.0,0.9975665,0.008027736,0.021521527,-0.06582919,0.54158926,-1.0,1,0,0,0,0,0,0
1211750413,0.017230878,0.04034545,-0.13149804,0.0,0.99758786,0.009920211,0.019561097,-0.065859266,0.54290754,-1.0,1,0,0,0,0,0,0
1211853229,0.014572585,0.035529006,-0.13149804,0.0,0.9976469,0.008436402,0.017246073,-0.065818705,0.5443683,-1.0,1,0,0,0,0,0,0
1211957207,0.019568304,0.033513464,-0.13149804,0.0,0.99764067,0.010862326,0.016076209,-0.06585287,0.5417971,-1.0,1,0,0,0,0,0,0
1212057381,0.015009685,0.03531749,-0.13149804,0.0,0.9976469,0.008647505,0.01712618,-0.065821804,0.54187584,-1.0,1,0,0,0,0,0,0
1212158507,0.017862564,0.030171426,-0.13149804,0.0,0.99767715,0.009901932,0.014465221,-0.06582601,0.53836983,-1.0,1,0,0,0,0,0,0
1212262398,0.01826097,0.031982612,-0.13149804,0.0,0.9976605,0.010160033,0.015355606,-0.06583621,0.52417314,-1.0,1,0,0,0,0,0,0
1212362941,0.016770033,0.032495588,-0.13149804,0.0,0.99766356,0.009433119,0.015660575,-0.06582661,0.5073397,-1.0,1,0,0,0,0,0,0
1212462332,0.028839232,0.0387869,-0.13149804,0.0,0.99752957,0.015659224,0.018401142,-0.06596149,0.49386415,-1.0,1,0,0,0,0,0,0
1212566358,0.02802622,0.032365732,-0.13149804,0.0,0.9975958,0.015043636,0.015225076,-0.06591287,0.49216175,-1.0,1,0,0,0,0,0,0
1212666730,0.020261748,0.02679369,-0.13149804,0.0,0.99768966,0.010988028,0.012701268,-0.0658278,0.49328935,-1.0,1,0,0,0,0,0,0
1212766418,0.14122461,0.41424274,-0.13149804,0.0,0.97312564,0.08237396,0.20015153,-0.07861474,0.49577817,1.0,1,0,0,0,0,0,0
1212870230,0.13789697,0.41530436,-0.13149804,0.0,0.97315025,0.08078127,0.20079964,-0.078310154,0.5152633,1.0,1,0,0,0,0,0,0
1212971213,0.4057443,-0.039417952,0.9915708,0.0,0.8595002,0.18637258,0.07885231,0.46936867,0.5228164,1.0,1,0,0,0,0,0,0
1213074833,0.37610075,-0.039086234,0.99106663,0.0,0.8623042,0.17355447,0.07198687,0.4702427,0.5239061,1.0,1,0,0,0,0,0,0
1213178994,0.3293237,-0.035822954,0.99106663,0.0,0.86628085,0.15257996,0.062387973,0.47157672,0.52064776,1.0,1,0,0,0,0,0,0
1213278521,0.28955632,-0.03476164,0.98956764,0.0,0.8695419,0.13511765,0.053360835,0.4720093,0.51984876,1.0,1,0,0,0,0,0,0
1213379638,0.23952161,-0.029265689,0.9884356,0.0,0.87311155,0.11205815,0.043876804,0.47243416,0.5282838,1.0,1,0,0,0,0,0,0
1213482765,0.2024519,-0.015260197,0.9884356,0.0,0.8754424,0.09255927,0.04124985,0.4725801,0.5325148,1.0,1,0,0,0,0,0,0
1213582370,0.17039071,-0.016494581,0.9884356,0.0,0.8767844,0.078805454,0.03312759,0.47322455,0.53735083,1.0,1,0,0,0,0,0,0
1213686841,0.1531217,-0.012857434,0.98427135,0.0,0.87849355,0.07043646,0.03049047,0.47154862,0.5373449,1.0,1,0,0,0,0,0,0
1213790502,0.12732102,-0.016775928,0.9823124,0.0,0.8797193,0.06004329,0.02262254,0.47114438,0.5314153,1.0,1,0,0,0,0,0,0
1213890864,0.12657695,-0.016759928,0.98020566,0.0,0.8802377,0.05973585,0.02239138,0.47022527,0.5262724,1.0,1,0,0,0,0,0,0
1213994803,0.11309692,-0.017157266,0.9767823,0.0,0.8814174,0.053927526,0.018954255,0.46886668,0.5206996,1.0,1,0,0,0,0,0,0
1214098972,0.1266958,-0.013695871,0.9767823,0.0,0.8810935,0.059109733,0.02366747,0.46863657,0.5106736,1.0,1,0,0,0,0,0,0
1214198455,0.10991794,-0.018837903,0.97238654,0.0,0.8825022,0.05295802,0.017351495,0.46699488,0.5141342,1.0,1,0,0,0,0,0,0
1214302444,0.108934455,-0.024108429,0.96991265,0.0,0.8830132,0.05377042,0.014728341,0.46602514,0.51422334,1.0,1,0,0,0,0,0,0
1214402856,0.07318665,-0.059260465,0.96863073,0.0,0.8835086,0.046148088,-0.009174519,0.4660458,0.50265586,1.0,1,0,0,0,0,0,0
1214502498,0.0383034,-0.10951183,0.96490073,0.0,0.8838846,0.042326,-0.039601393,0.46409944,0.49549735,1.0,1,0,0,0,0,0,0
1214606369,-0.005463711,-0.15835953,0.9624027,0.0,0.88375896,0.034195457,-0.07137495,0.46120107,0.49441522,1.0,1,0,0,0,0,0,0
1214710433,-0.030521778,-0.20427737,0.9624027,0.0,0.88243717,0.033729844,-0.097398244,0.4589994,0.49407163,1.0,1,0,0,0,0,0,0
1214810866,-0.06471429,-0.24260718,0.9571998,0.0,0.88245964,0.027193211,-0.12214348,0.45343852,0.49744356,1.0,1,0,0,0,0,0,0
1214914924,-0.08391321,-0.28428933,0.9548568,0.0,0.8811784,0.028159639,-0.14479339,0.44918442,0.5064145,1.0,1,0,0,0,0,0,0
1215014444,-0.09105695,-0.3168133,0.95359695,0.0,0.87973076,0.032389626,-0.16063225,0.4463428,0.5039512,1.0,1,0,0,0,0,0,0
1215114986,-0.08614806,-0.3462703,0.95009995,0.0,0.87855524,0.041000843,-0.17245454,0.44353014,0.50672376,1.0,1,0,0,0,0,0,0
1215222650,-0.08328575,-0.3392787,0.94816697,0.0,0.8793887,0.040498815,-0.16880967,0.44332683,0.5031166,1.0,1,0,0,0,0,0,0
1215322844,-0.09309476,-0.33621985,0.94816697,0.0,0.8797732,0.03548719,-0.16964743,0.44267318,0.51316905,1.0,1,0,0,0,0,0,0
1215426945,-0.06846187,-0.3027805,0.94509757,0.0,0.8820605,0.038478136,-0.14960583,0.44509196,0.49871504,1.0,1,0,0,0,0,0,0
1215530954,-0.07998274,-0.28446952,0.94363046,0.0,0.8836206,0.02912401,-0.14415504,0.44450623,0.5093779,1.0,1,0,0,0,0,0,0
1215630339,-0.068049565,-0.27039042,0.9430371,0.0,0.8843221,0.03115909,-0.135318,0.44574943,0.51527786,1.0,1,0,0,0,0,0,0
1215734668,-0.053763237,-0.23584987,0.94114625,0.0,0.8862324,0.02953318,-0.116928115,0.44726712,0.51378286,1.0,1,0,0,0,0,0,0
1215838396,-0.0485791,-0.2110539,0.9402552,0.0,0.88744855,0.026169153,-0.10481706,0.44806656,0.5209297,1.0,1,0,0,0,0,0,0
1215940380,-0.047993664,-0.19737694,0.9402552,0.0,0.8879881,0.02333321,-0.09863041,0.44855842,0.52410126,1.0,1,0,0,0,0,0,0
1216044357,-0.03114506,-0.17766418,0.9387918,0.0,0.8888424,0.026292378,-0.08612655,0.44927737,0.5229473,1.0,1,0,0,0,0,0,0
1216151129,-0.033731475,-0.17013255,0.93828666,0.0,0.88925207,0.023420144,-0.08337056,0.44914532,0.5224286,1.0,1,0,0,0,0,0,0
1216254952,-0.018452886,-0.15732324,0.9380813,0.0,0.88953394,0.027314857,-0.07424871,0.44996712,0.51733536,1.0,1,0,0,0,0,0,0
1216354816,-0.018762205,-0.15640879,0.93757737,0.0,0.8896815,0.026952323,-0.07391866,0.44975147,0.5226564,1.0,1,0,0,0,0,0,0
1216456134,-0.00025534705,-0.14329787,0.93733394,0.0,0.8898863,0.032222334,-0.06392595,0.45053035,0.5143737,1.0,1,0,0,0,0,0,0
1216560221,-0.010398091,-0.14712839,0.93733394,0.0,0.8899188,0.02857247,-0.06791382,0.45012873,0.52040964,1.0,1,0,0,0,0,0,0
1216660447,-0.00056204124,-0.13752456,0.9371136,0.0,0.89012116,0.030778375,-0.061429415,0.4505146,0.51964825,1.0,1,0,0,0,0,0,0
1216760033,-0.006547973,-0.13742487,0.9370838,0.0,0.89021903,0.02809074,-0.06273357,0.45031717,0.52834463,1.0,1,0,0,0,0,0,0
1216864104,0.005523711,-0.12672591,0.93701786,0.0,0.8903697,0.03105199,-0.05525246,0.45080453,0.52598995,1.0,1,0,0,0,0,0,0
1216964338,-0.008191679,-0.12211286,0.93701786,0.0,0.8906854,0.023905402,-0.056288898,0.4504882,0.5317707,1.0,1,0,0,0,0,0,0
1217064357,-0.012056321,-0.1227801,0.93690526,0.0,0.89073795,0.022331506,-0.057457592,0.4503175,0.5294385,1.0,1,0,0,0,0,0,0
1217168462,-0.010339404,-0.112105675,0.93690103,0.0,0.8909865,0.020689007,-0.052317813,0.45053068,0.52186596,1.0,1,0,0,0,0,0,0
1217268526,-0.019302461,-0.11568803,0.9368793,0.0,0.8909919,0.01750348,-0.055931646,0.45022056,0.52485967,1.0,1,0,0,0,0,0,0
1217372328,-0.021154143,-0.12217416,0.93687916,0.0,0.8908513,0.018141923,-0.059235957,0.45005095,0.5267163,1.0,1,0,0,0,0,0,0
1217476862,-0.028333345,-0.11216165,0.9368293,0.0,0.8911514,0.0126827145,-0.05639444,0.45000884,0.5251991,1.0,1,0,0,0,0,0,0
1217575999,-0.018825041,-0.10871282,0.9368293,0.0,0.8911587,0.01614112,-0.052718543,0.45032924,0.51781464,1.0,1,0,0,0,0,0,0
1217680476,-0.03090557,-0.114199154,0.93676466,0.0,0.89113724,0.011994652,-0.05788059,0.44986698,0.52029383,1.0,1,0,0,0,0,0,0
1217784048,-0.035169337,-0.11312061,0.9367294,0.0,0.8911918,0.009850293,-0.058359593,0.44974917,0.5165998,1.0,1,0,0,0,0,0,0
1217884695,-0.031659342,-0.11443306,0.93664783,0.0,0.8911629,0.011708192,-0.05815494,0.44978848,0.51209897,1.0,1,0,0,0,0,0,0
1217988930,-0.030936295,-0.11445506,0.93663234,0.0,0.89116156,0.012034887,-0.058002222,0.44980213,0.5098071,1.0,1,0,0,0,0,0,0
1218092582,-0.037044764,-0.1140554,0.936604,0.0,0.89120907,0.009221956,-0.05919798,0.4496187,0.5130762,1.0,1,0,0,0,0,0,0
1218191998,-0.027409174,-0.11295833,0.936604,0.0,0.89117867,0.013267941,-0.056542676,0.44991937,0.515595,1.0,1,0,0,0,0,0,0
1218296391,-0.019769909,-0.10954123,0.9366264,0.0,0.8911936,0.015901608,-0.05330182,0.4502,0.5126598,1.0,1,0,0,0,0,0,0
1218399953,-0.02981298,-0.100620724,0.9366816,0.0,0.8914288,0.009414303,-0.051589064,0.45011625,0.51704633,1.0,1,0,0,0,0,0,0
1218504051,-0.022933306,-0.10431167,0.93668824,0.0,0.89131486,0.013313658,-0.051684383,0.4502325,0.5203656,1.0,1,0,0,0,0,0,0
1218604404,-0.022415483,-0.10662287,0.9368369,0.0,0.8912294,0.01406984,-0.052596122,0.45027313,0.52104026,1.0,1,0,0,0,0,0,0
1218708395,-0.014285562,-0.0956069,0.9369717,0.0,0.8913651,0.015210366,-0.04585695,0.45070395,0.5164577,1.0,1,0,0,0,0,0,0
1218808354,-0.019246658,-0.09288127,0.93704116,0.0,0.8914358,0.012385635,-0.04576008,0.4506604,0.5189681,1.0,1,0,0,0,0,0,0
1218912297,-0.021075135,-0.09171831,0.93727994,0.0,0.8914141,0.011313564,-0.045652613,0.4507424,0.52186733,1.0,1,0,0,0,0,0,0
1219012450,-0.011495011,-0.09122542,0.93745077,0.0,0.8913206,0.015475792,-0.043272085,0.45103845,0.52227366,1.0,1,0,0,0,0,0,0
1219112287,-0.005745976,-0.08715244,0.93745077,0.0,0.89135075,0.017118538,-0.040160473,0.45120716,0.51768696,1.0,1,0,0,0,0,0,0
1219215959,-0.00467896,-0.09172789,0.9377983,0.0,0.89117426,0.018634027,-0.041955333,0.4513324,0.5255364,1.0,1,0,0,0,0,0,0
1219316491,0.0046318136,-0.08402922,0.93803114,0.0,0.89118016,0.021049313,-0.036420595,0.45169505,0.5205029,1.0,1,0,0,0,0,0,0
1219420247,0.022095494,-0.07724888,0.9381675,0.0,0.89107037,0.027302364,-0.02945115,0.452085,0.51682365,1.0,1,0,0,0,0,0,0
1219520460,0.028020792,-0.07799258,0.93864405,0.0,0.8908625,0.030116726,-0.028435975,0.45238066,0.5113692,1.0,1,0,0,0,0,0,0
1219621860,0.02450595,-0.07603657,0.9389756,0.0,0.89087814,0.028114202,-0.028354539,0.45248404,0.5161421,1.0,1,0,0,0,0,0,0
1219724295,0.024525499,-0.07318868,0.9389756,0.0,0.89093316,0.02747975,-0.027080921,0.45249277,0.52088666,1.0,1,0,0,0,0,0,0
1219831928,0.019970452,-0.07423534,0.9397295,0.0,0.8908032,0.025697757,-0.028568184,0.45276168,0.52417403,1.0,1,0,0,0,0,0,0
1219932358,0.022095375,-0.06681748,0.94004065,0.0,0.89084005,0.024971198,-0.024777854,0.45295304,0.5205151,1.0,1,0,0,0,0,0,0
1220036564,0.024950275,-0.05870604,0.9403792,0.0,0.8908632,0.024411885,-0.020512562,0.45315132,0.5234161,1.0,1,0,0,0,0,0,0
1220136418,0.017977636,-0.066469535,0.9405158,0.0,0.89078784,0.023064395,-0.025549855,0.45311394,0.52474254,1.0,1,0,0,0,0,0,0
1220236562,0.022690756,-0.06282043,0.9407537,0.0,0.8907391,0.024340587,-0.02285325,0.45328712,0.5263988,1.0,1,0,0,0,0,0,0
1220341808,0.019867402,-0.058328208,0.9410294,0.0,0.8907808,0.022069221,-0.021488613,0.45338815,0.52135015,1.0,1,0,0,0,0,0,0
1220444317,0.015155437,-0.05994185,0.94121176,0.0,0.8907649,0.020338058,-0.02327377,0.45341218,0.5273667,1.0,1,0,0,0,0,0,0
1220544031,0.013722133,-0.048808254,0.94121176,0.0,0.8909315,0.017177474,-0.018638538,0.4534299,0.5220427,1.0,1,0,0,0,0,0,0
1220647958,0.004930983,-0.055372085,0.9414769,0.0,0.8908584,0.014751695,-0.023553723,0.4534302,0.53004503,1.0,1,0,0,0,0,0,0
1220749393,0.018818282,-0.04071292,0.9415933,0.0,0.89089626,0.017616203,-0.013872763,0.45365307,0.52582073,1.0,1,0,0,0,0,0,0
1220850176,0.014857227,-0.046953794,0.9417461,0.0,0.8908233,0.017267652,-0.017550327,0.45368236,0.53191805,1.0,1,0,0,0,0,0,0
1220949620,0.018380148,-0.039919067,0.9418444,0.0,0.890852,0.017242812,-0.013616286,0.45376217,0.5353618,1.0,1,0,0,0,0,0,0
1221053580,0.02311741,-0.042542268,0.9419051,0.0,0.8907639,0.019947916,-0.013709498,0.45382142,0.5297794,1.0,1,0,0,0,0,0,0
1221154362,0.019265227,-0.043883834,0.9420298,0.0,0.8907565,0.018537285,-0.015180073,0.453849,0.5334721,1.0,1,0,0,0,0,0,0
1221253948,0.025542313,-0.03694573,0.94216883,0.0,0.8907449,0.019760631,-0.010663381,0.45394862,0.52775717,1.0,1,0,0,0,0,0,0
1221357701,0.030187147,-0.0437388,0.9422345,0.0,0.8905974,0.023369787,-0.012634409,0.454016,0.5249436,1.0,1,0,0,0,0,0,0
1221458375,0.033772275,-0.03781131,0.94252414,0.0,0.89056486,0.02362372,-0.0091766985,0.4541497,0.5204359,1.0,1,0,0,0,0,0,0
1221562497,0.0362256,-0.046056908,0.9426818,0.0,0.8903885,0.026586773,-0.012290205,0.4542581,0.5190961,1.0,1,0,0,0,0,0,0
1221666015,0.029290672,-0.05298085,0.9428932,0.0,0.89032793,0.025071273,-0.016946372,0.45431316,0.52586,1.0,1,0,0,0,0,0,0
1221765596,0.040348746,-0.051777247,0.94307643,0.0,0.89015365,0.0297219,-0.013895484,0.4544778,0.520195,1.0,1,0,0,0,0,0,0
1221869743,0.040527403,-0.053358268,0.9431882,0.0,0.89009976,0.030160755,-0.014557245,0.45453355,0.52182055,1.0,1,0,0,0,0,0,0
1221970035,0.032164384,-0.049575355,0.9434826,0.0,0.89020836,0.025582502,-0.01476941,0.45459476,0.5234397,1.0,1,0,0,0,0,0,0
1222069877,0.04597818,-0.04570868,0.9437,0.0,0.8900222,0.030854344,-0.009904176,0.45476404,0.5203878,1.0,1,0,0,0,0,0,0
1222173658,0.042396627,-0.038964365,0.94378567,0.0,0.8901526,0.027730068,-0.0077143363,0.4547525,0.5212219,1.0,1,0,0,0,0,0,0
1222274756,0.045221627,-0.042201858,0.9440206,0.0,0.8900133,0.029723221,-0.008510003,0.45488515,0.52690315,1.0,1,0,0,0,0,0,0
1222378006,0.041096836,-0.041464787,0.9441176,0.0,0.8900609,0.02772069,-0.009118625,0.45490652,0.52161694,1.0,1,0,0,0,0,0,0
1222482363,0.046197444,-0.033015817,0.94425684,0.0,0.8900701,0.028072318,-0.004194853,0.45493916,0.519071,1.0,1,0,0,0,0,0,0
1222586020,0.031158742,-0.038092032,0.94432116,0.0,0.8901832,0.022532493,-0.009874957,0.45493802,0.52328455,1.0,1,0,0,0,0,0,0
1222685622,0.04444304,-0.028244017,0.9443638,0.0,0.89012665,0.026207719,-0.0024680407,0.45495233,0.51618797,1.0,1,0,0,0,0,0,0
1222789807,0.041414376,-0.0395769,0.9444065,0.0,0.89001673,0.027434485,-0.0082019,0.45502785,0.5209619,1.0,1,0,0,0,0,0,0
1222890111,0.042045437,-0.033275984,0.9444285,0.0,0.8900842,0.026284017,-0.005252876,0.45500737,0.5174119,1.0,1,0,0,0,0,0,0
1222989727,0.0403623,-0.042859152,0.9444921,0.0,0.88996637,0.027712269,-0.009901312,0.4550756,0.5201887,1.0,1,0,0,0,0,0,0
1223093702,0.04198462,-0.03858445,0.9445643,0.0,0.88998634,0.027463418,-0.00762816,0.45509553,0.5144021,1.0,1,0,0,0,0,0,0
1223194044,0.048031498,-0.047228638,0.9445787,0.0,0.88976616,0.03211738,-0.010099924,0.45517316,0.5165497,1.0,1,0,0,0,0,0,0
1223298056,0.06368392,-0.039326046,0.94471323,0.0,0.88959026,0.037286237,-0.0030174882,0.4552249,0.50085866,1.0,1,0,0,0,0,0,0
1223401922,0.053936884,-0.046667755,0.94478637,0.0,0.8896295,0.034617987,-0.008502638,0.45528966,0.51188153,1.0,1,0,0,0,0,0,0
1223501546,0.052455246,-0.04457159,0.9448804,0.0,0.8896673,0.033483244,-0.00790533,0.45531142,0.507181,1.0,1,0,0,0,0,0,0
1223602768,0.059590362,-0.043576866,0.9449451,0.0,0.8895439,0.03643127,-0.0058370265,0.45535734,0.50120157,1.0,1,0,0,0,0,0,0
1223705924,0.046597883,-0.052425254,0.94498855,0.0,0.8896105,0.032662198,-0.01273271,0.45537257,0.50651807,1.0,1,0,0,0,0,0,0
1223805539,0.028568856,-0.059712518,0.94502205,0.0,0.88974655,0.02629804,-0.020080134,0.45525402,0.50575465,1.0,1,0,0,0,0,0,0
1223909808,0.02772359,-0.060790684,0.9450126,0.0,0.8897419,0.026166918,-0.020752512,0.45524055,0.5061901,1.0,1,0,0,0,0,0,0
1224010391,0.020458227,-0.062164336,0.94496703,0.0,0.88981944,0.023246313,-0.023017997,0.4551386,0.49700347,1.0,1,0,0,0,0,0,0
1224109868,0.005478344,-0.054178506,0.9447849,0.0,0.8901184,0.01476283,-0.022873543,0.4549154,0.50001836,1.0,1,0,0,0,0,0,0
1224213624,-0.0025178988,-0.06707689,0.94459873,0.0,0.8900423,0.01413445,-0.030433603,0.45464134,0.5062957,1.0,1,0,0,0,0,0,0
1224314382,-0.021872036,-0.053667184,0.9444901,0.0,0.8903089,0.0024686889,-0.028865103,0.4544345,0.5046188,1.0,1,0,0,0,0,0,0
1224417763,-0.02351685,-0.06292478,0.9439471,0.0,0.8903386,0.0038333833,-0.033359278,0.45405912,0.51141316,1.0,1,0,0,0,0,0,0
1224522194,-0.034987114,-0.04874439,0.943745,0.0,0.8905117,-0.004500705,-0.029652314,0.4539707,0.50818044,1.0,1,0,0,0,0,0,0
1224621560,-0.0557967,-0.04875154,0.94326526,0.0,0.8905254,-0.013772504,-0.034373976,0.45342386,0.5066134,1.0,1,0,0,0,0,0,0
1224725540,-0.06791423,-0.0578247,0.9428362,0.0,0.8904851,-0.017113643,-0.04115253,0.45282432,0.51159626,1.0,1,0,0,0,0,0,0
1224826830,-0.07115796,-0.04386242,0.94233406,0.0,0.8906152,-0.021739895,-0.035670586,0.45283496,0.50223744,1.0,1,0,0,0,0,0,0
1224925591,-0.09089006,-0.052259523,0.9418175,0.0,0.8904709,-0.02862948,-0.04386313,0.45201543,0.5055135,1.0,1,0,0,0,0,0,0
1225029595,-0.10126565,-0.045673016,0.9412424,0.0,0.8904365,-0.034756504,-0.04326918,0.45171082,0.4976022,1.0,1,0,0,0,0,0,0
1225129954,-0.0994201,-0.048637964,0.9412424,0.0,0.89047045,-0.033262078,-0.04417086,0.45166913,0.5042174,1.0,1,0,0,0,0,0,0
1225231200,-0.1046095,-0.04870249,0.94001114,0.0,0.89065903,-0.03558575,-0.045349445,0.45100287,0.50444907,1.0,1,0,0,0,0,0,0
1225331644,-0.09045557,-0.046535037,0.9394584,0.0,0.8910141,-0.029784339,-0.041183952,0.45112163,0.4975867,1.0,1,0,0,0,0,0,0
1225435686,-0.10079842,-0.04916852,0.93896294,0.0,0.8909617,-0.033806298,-0.04467954,0.45060855,0.50949234,1.0,1,0,0,0,0,0,0
1225535337,-0.098516755,-0.06062713,0.9385763,0.0,0.8910743,-0.03020451,-0.04925739,0.4501644,0.5085815,1.0,1,0,0,0,0,0,0
1225639214,-0.08203468,-0.060476188,0.93827164,0.0,0.89136225,-0.022901285,-0.045475263,0.45042306,0.50634116,1.0,1,0,0,0,0,0,0
1225739679,-0.07258812,-0.056696866,0.93802935,0.0,0.8915334,-0.019551152,-0.04166216,0.45061094,0.5054085,1.0,1,0,0,0,0,0,0
1225839203,-0.07411416,-0.05116407,0.9378638,0.0,0.8915757,-0.021486262,-0.039540373,0.45063037,0.5025816,1.0,1,0,0,0,0,0,0
1225943745,-0.05681306,-0.05514123,0.9378638,0.0,0.8917066,-0.012873566,-0.03741264,0.45088127,0.5070998,1.0,1,0,0,0,0,0,0
1226047175,-0.052065276,-0.056357816,0.93774194,0.0,0.89175415,-0.01048386,-0.03688359,0.4508927,0.51009184,1.0,1,0,0,0,0,0,0
1226148062,-0.03054223,-0.046206996,0.93780124,0.0,0.891883,-0.0031802126,-0.027504599,0.45141786,0.5007188,1.0,1,0,0,0,0,0,0
1226251734,-0.027934998,-0.05311334,0.9379817,0.0,0.891791,-0.00045388754,-0.0299948,0.45145205,0.5048942,1.0,1,0,0,0,0,0,0
1226351240,-0.017777061,-0.053553883,0.9382306,0.0,0.8917212,0.0041785147,-0.027897382,0.4517051,0.5091493,1.0,1,0,0,0,0,0,0
1226452108,0.009679186,-0.037518013,0.9385774,0.0,0.89168173,0.01279881,-0.014541474,0.4522482,0.49331343,1.0,1,0,0,0,0,0,0
1226556224,0.01468546,-0.036590707,0.939147,0.0,0.8915273,0.014824879,-0.012991694,0.4525379,0.5012693,1.0,1,0,0,0,0,0,0
1226655242,-0.0027634471,-0.025002265,0.9393742,0.0,0.8916473,0.004425951,-0.011772413,0.4525561,0.5051213,1.0,1,0,0,0,0,0,0
1226756540,0.00054232567,-0.027988533,0.9393742,0.0,0.8916209,0.006575475,-0.0123557,0.45256636,0.5111023,1.0,1,0,0,0,0,0,0
1226859928,-0.0042592534,-0.02139156,0.9402063,0.0,0.8914789,0.0029463538,-0.010499933,0.452931,0.5284148,1.0,1,0,0,0,0,0,0
1226959256,-0.0049082036,-0.024866061,0.94053835,0.0,0.8913886,0.003446041,-0.012194992,0.45306265,0.51588637,1.0,1,0,0,0,0,0,0
1227063316,-0.0021248874,-0.037419055,0.94082487,0.0,0.8912339,0.0075327912,-0.017157815,0.4531567,0.5199004,1.0,1,0,0,0,0,0,0
1227163608,-0.004460449,-0.018940842,0.9410498,0.0,0.8912978,0.0023056038,-0.009452162,0.45331398,0.51866937,1.0,1,0,0,0,0,0,0
1227263270,-0.0029744066,-0.025629051,0.9412397,0.0,0.8912219,0.004485022,-0.0120954,0.45338413,0.5176233,1.0,1,0,0,0,0,0,0
1227367213,-0.0017942174,-0.030756852,0.9413867,0.0,0.8911545,0.006174448,-0.014112333,0.4534383,0.5202536,1.0,1,0,0,0,0,0,0
1227468411,0.0071626124,-0.017772736,0.9415348,0.0,0.89116514,0.0072221146,-0.0062952517,0.4535779,0.5181904,1.0,1,0,0,0,0,0,0
1227571593,0.009122962,-0.015683455,0.9415348,0.0,0.8911676,0.007621847,-0.004919682,0.4535836,0.5172361,1.0,1,0,0,0,0,0,0
1227676075,0.02834933,-0.017631441,0.9419168,0.0,0.890953,0.016630206,-0.0014239413,0.45378867,0.5125338,1.0,1,0,0,0,0,0,0
1227779813,0.02663533,-0.01852451,0.94216704,0.0,0.89090383,0.016069466,-0.0022087211,0.45390224,0.51685965,1.0,1,0,0,0,0,0,0
1227879308,0.05448585,-0.01041197,0.9424905,0.0,0.89059657,0.026632825,0.0077296775,0.45394796,0.5151517,1.0,1,0,0,0,0,0,0
1227983169,0.049009573,-0.023496605,0.94288707,0.0,0.89045393,0.027161991,0.0006641881,0.4542616,0.51506263,1.0,1,0,0,0,0,0,0
1228083813,0.06633103,-0.02188608,0.94307,0.0,0.890164,0.034507137,0.0053186216,0.4543006,0.5046964,1.0,1,0,0,0,0,0,0
1228187981,0.07347074,-0.034318667,0.9438483,0.0,0.88967675,0.040502857,0.0014210478,0.45478874,0.5051656,1.0,1,0,0,0,0,0,0
1228291632,0.069407925,-0.04293928,0.9443342,0.0,0.8895046,0.04065163,-0.0033303935,0.45510215,0.49404797,1.0,1,0,0,0,0,0,0
1228391112,0.082809314,-0.045649845,0.94479334,0.0,0.8890555,0.047225934,-0.0014762292,0.45535466,0.4945155,1.0,1,0,0,0,0,0,0
1228495318,0.06741855,-0.04343948,0.94525194,0.0,0.88932705,0.039882164,-0.0039874148,0.45551172,0.49692655,1.0,1,0,0,0,0,0,0
1228595706,0.061276603,-0.05761472,0.9456344,0.0,0.8891001,0.040372144,-0.011686696,0.4557792,0.5027854,1.0,1,0,0,0,0,0,0
1228695480,0.066409886,-0.05889314,0.94593346,0.0,0.8888991,0.042945933,-0.011079224,0.455951,0.50543064,1.0,1,0,0,0,0,0,0
1228799116,0.058647458,-0.060929712,0.94616246,0.0,0.88896614,0.039959837,-0.013750313,0.45601904,0.50353765,1.0,1,0,0,0,0,0,0
1228899754,0.062477745,-0.06405452,0.94625854,0.0,0.8888004,0.042372778,-0.014265049,0.4561084,0.50421697,1.0,1,0,0,0,0,0,0
1228999143,0.06847746,-0.067401715,0.94650465,0.0,0.8885381,0.04580071,-0.014380022,0.4562845,0.50259835,1.0,1,0,0,0,0,0,0
1229103575,0.074154034,-0.053814687,0.9466069,0.0,0.88867915,0.045236774,-0.0070392047,0.4562385,0.5011661,1.0,1,0,0,0,0,0,0
1229203455,0.06664336,-0.05423353,0.9466824,0.0,0.88881725,0.041994717,-0.008937211,0.45624608,0.51040226,1.0,1,0,0,0,0,0,0
1229307762,0.07604037,-0.05585294,0.9467658,0.0,0.88855726,0.046538617,-0.007511776,0.45633727,0.5073008,1.0,1,0,0,0,0,0,0
1229412053,0.09045732,-0.04406598,0.946843,0.0,0.8884334,0.05026513,0.0010212358,0.45624384,0.49527812,1.0,1,0,0,0,0,0,0
1229515560,0.10910725,-0.0415569,0.9469284,0.0,0.8879616,0.057977464,0.0063933716,0.45620373,0.48151642,1.0,1,0,0,0,0,0,0
1229617112,0.09786158,-0.04150026,0.9470493,0.0,0.88824713,0.05297061,0.0038565109,0.4562852,0.48546532,1.0,1,0,0,0,0,0,0
1229717116,0.13029414,-0.051251143,0.9470493,0.0,0.8870263,0.06957854,0.0069229673,0.45639366,0.47719043,1.0,1,0,0,0,0,0,0
1229820732,0.11901728,-0.048171446,0.94748217,0.0,0.8873815,0.06387606,0.0057319533,0.4565535,0.48160845,1.0,1,0,0,0,0,0,0
1229921339,0.15394247,-0.032603703,0.9478037,0.0,0.88647,0.07582905,0.020625664,0.45606527,0.48228872,1.0,1,0,0,0,0,0,0
1230025149,0.14056215,-0.031698346,0.9482001,0.0,0.88688797,0.06968763,0.017989872,0.4563439,0.49956635,1.0,1,0,0,0,0,0,0
1230129326,0.1615792,-0.019762475,0.94860375,0.0,0.8863027,0.07628785,0.028094443,0.45591497,0.5018293,1.0,1,0,0,0,0,0,0
1230228878,0.14013593,-0.02053531,0.94900274,0.0,0.8869628,0.06695229,0.02287511,0.45638928,0.5084826,1.0,1,0,0,0,0,0,0
1230332878,0.14086679,-0.017745722,0.9493588,0.0,0.8869137,0.06663725,0.024291739,0.4564575,0.5115948,1.0,1,0,0,0,0,0,0
1230433904,0.13209768,-0.014894055,0.9496522,0.0,0.8871837,0.062094875,0.02356499,0.4566114,0.5013082,1.0,1,0,0,0,0,0,0
1230532826,0.15077624,-0.009560777,0.9496522,0.0,0.88667136,0.069163136,0.030193739,0.45620024,0.49820656,1.0,1,0,0,0,0,0,0
1230636836,0.1331479,-0.017672444,0.95001477,0.0,0.8870159,0.06318967,0.022583142,0.45683682,0.5004224,1.0,1,0,0,0,0,0,0
1230737375,0.12164864,-0.017674977,0.95005506,0.0,0.88735527,0.058088817,0.019956183,0.45697704,0.49930602,1.0,1,0,0,0,0,0,0
1230837110,0.10832908,-0.016836371,0.94998807,0.0,0.8877514,0.051987246,0.017283063,0.45705152,0.49889594,1.0,1,0,0,0,0,0,0
1230940843,0.10224044,-0.016396606,0.9498503,0.0,0.8879438,0.04918517,0.016083509,0.45703167,0.49568686,1.0,1,0,0,0,0,0,0
1231041911,0.09234476,-0.022380913,0.9495911,0.0,0.8881466,0.04615816,0.01115737,0.45710018,0.48940745,1.0,1,0,0,0,0,0,0
1231149048,0.0891545,-0.030554717,0.94926697,0.0,0.88816184,0.046606675,0.0067886594,0.45711067,0.4947116,1.0,1,0,0,0,0,0,0
1231249594,0.08013574,-0.031047642,0.9488521,0.0,0.88844997,0.04271449,0.0044993674,0.45695943,0.48101524,1.0,1,0,0,0,0,0,0
1231348844,0.07688308,-0.034923106,0.9488521,0.0,0.8884558,0.04215286,0.0020334187,0.4570178,0.4878706,1.0,1,0,0,0,0,0,0
1231452817,0.065790765,-0.028202435,0.9488521,0.0,0.88877356,0.035692204,0.00248672,0.45694795,0.49142966,1.0,1,0,0,0,0,0,0
1232265217,0.00040908263,0.008767127,0.9488521,0.0,0.88954693,-0.0018205789,0.0039928476,0.45682278,0.5371773,1.0,1,0,0,0,0,0,0
1233797244,-0.008265087,0.021067774,0.9358611,0.0,0.89242685,-0.008439173,0.0075374427,0.45105025,0.5446912,1.0,1,0,0,0,0,0,0
1233897287,-0.0021441607,0.013059181,0.93579227,0.0,0.89249647,-0.0039017163,0.0053442316,0.45100594,0.5464692,1.0,1,0,0,0,0,0,0
1233998374,0.0027386195,0.014359156,0.9357863,0.0,0.8925011,-0.0020159027,0.007025411,0.4509861,0.5439844,1.0,1,0,0,0,0,0,0
1234102945,0.00043881053,0.017510144,0.93575025,0.0,0.8924952,-0.003752588,0.007912998,0.45097175,0.5458069,1.0,1,0,0,0,0,0,0
1234206471,0.0019899092,0.013133085,0.93575114,0.0,0.89251167,-0.0020734242,0.006309487,0.45097542,0.5530382,1.0,1,0,0,0,0,0,0
1234306839,-0.0027416863,0.01903455,0.9357736,0.0,0.8924762,-0.005515687,0.00787603,0.45099205,0.5507658,1.0,1,0,0,0,0,0,0
1234410892,-0.00110824,0.015963895,0.93581134,0.0,0.89248425,-0.004094508,0.0068740193,0.4510076,0.5529366,1.0,1,0,0,0,0,0,0
1234515635,-0.005605225,0.016822927,0.9358185,0.0,0.89246756,-0.0062949653,0.006243232,0.45102456,0.5562221,1.0,1,0,0,0,0,0,0
1234618713,-0.00510868,0.027153082,0.9358185,0.0,0.8924124,-0.00840267,0.010964877,0.45100912,0.5585829,1.0,1,0,0,0,0,0,0
1234718399,-0.0081076035,0.031124933,0.93591654,0.0,0.8923472,-0.010636878,0.012060386,0.451063,0.5623199,1.0,1,0,0,0,0,0,0
1234822307,-0.0038724204,0.03739043,0.9359526,0.0,0.892309,-0.010160281,0.01581092,0.4510337,0.5642038,1.0,1,0,0,0,0,0,0
1234922934,-0.0033354019,0.039578747,0.9360025,0.0,0.8922808,-0.01041454,0.016908119,0.4510439,0.5643229,1.0,1,0,0,0,0,0,0
1235026863,0.0031573859,0.04696842,0.9360159,0.0,0.8922382,-0.0091844145,0.021668935,0.45095134,0.5653414,1.0,1,0,0,0,0,0,0
