timestamp,roll,pitch,yaw,thrust
1430981826,0.0037049286,0.07339635,-0.00020470879,0.5106614
1431021825,0.0016443529,0.07303657,-0.000200924,0.51865464
1431065856,0.00042728914,0.07156052,-7.7258934e-05,0.5275781
1431105875,-0.0011281188,0.07024773,0.00013898306,0.5356506
1431146686,-0.004120795,0.06922266,0.00035839053,0.54378104
1431186665,-0.0058272043,0.07012628,0.00060266117,0.5519123
1431226661,0.013569329,0.06009613,0.00064277084,0.56151164
1431266678,0.0140203,0.072268054,-0.000405099,0.5690707
1431310626,-0.058008052,0.06213644,0.0010397885,0.5776783
1431351447,0.05614207,0.019147562,0.0009109526,0.5872803
1431391405,-0.053125232,0.09206857,0.0029245412,0.59415245
1431435423,-0.0542446,0.06458276,0.0038391422,0.60423625
1431479419,-0.007070912,0.048207074,0.0033017327,0.614801
1431519399,-0.009343933,0.08561842,0.0035077531,0.62224084
1431563456,-0.020975262,0.037216008,0.0030837124,0.6326127
1431604328,-0.014413801,0.07064351,0.0021709043,0.6409435
1431644303,-0.013576422,0.054838806,0.0014186697,0.65075314
1431688260,-0.028189693,0.053559665,0.00043265702,0.65926594
1431728262,-0.023764811,0.050407752,-0.000116772266,0.669711
1431772341,-0.02872154,0.06049035,-0.0003716071,0.67856085
1431812314,-0.037798643,0.05413365,-0.0005141394,0.6871422
1431869026,-0.045644272,0.060529713,-0.0005302973,0.69741774
1431913079,-0.01061932,0.02202092,-0.0021316623,0.70127434
1431953068,-0.024533518,-0.010049133,-0.004036338,0.6987259
1431997035,-0.020827806,-0.058468245,-0.006943326,0.6970971
1432037837,0.024227902,-0.13149156,-0.011035314,0.6945728
1432077863,0.032772,-0.23216796,-0.015166775,0.6809846
1432121890,0.07164672,-0.28452486,-0.017838161,0.6558768
1432161983,0.10869418,-0.16973464,-0.019937484,0.62400675
1432205874,-0.011336621,-0.08981464,-0.024951514,0.59012806
1432245884,0.03582543,-0.17619428,-0.03076873,0.5614419
1432289894,0.13784932,-0.24448107,-0.034899816,0.53463376
1432330710,0.07200488,-0.18584162,-0.03915355,0.52307665
1432370687,-0.023957212,-0.16274248,-0.04372394,0.509774
1432410693,0.038624868,-0.19423333,-0.04816419,0.50050557
1432454670,0.06410764,-0.17883666,-0.052063394,0.50017303
1432494666,0.10584386,-0.14940271,-0.055811595,0.49957275
1432539435,0.07933516,-0.13660693,-0.058855914,0.49997398
1432579431,0.14304748,-0.118655466,-0.061303053,0.50105035
1432623403,0.27370107,-0.09008805,-0.06329182,0.50035673
1432663396,0.25810894,-0.04813489,-0.06452287,0.5031904
1432704235,0.30392316,-0.02204262,-0.06597976,0.50440025
1432744228,0.29978165,0.022231808,-0.06689275,0.50410306
1432788261,0.34093767,0.041888963,-0.06882147,0.5072422
1432828273,0.34278706,0.07688041,-0.07021155,0.50746953
1432872283,0.33488306,0.10736821,-0.07049359,0.50962275
1432912271,0.3526912,0.11285794,-0.07145016,0.5104695
1432953029,0.35407215,0.14483543,-0.072483055,0.50843686
1432997117,0.3858363,0.16743463,-0.074881084,0.5095634
1433037103,0.36125177,0.1798797,-0.07433185,0.5089922
1433081037,0.29887503,0.19473676,-0.0735603,0.5107498
1433125077,0.32510138,0.18452677,-0.07475997,0.5119448
1433169851,0.30978543,0.18401895,-0.07417131,0.5157179
1433209828,0.33601952,0.17642817,-0.07469798,0.5159803
1433253930,0.28830585,0.1781283,-0.07340415,0.5149599
1433293872,0.28973153,0.16199918,-0.07264475,0.5164471
1433337875,0.31796545,0.14775836,-0.07278019,0.5183455
1433381886,0.29447234,0.15952906,-0.07121562,0.51629514
1433421909,0.29619068,0.14635792,-0.070584446,0.51863086
1433466681,0.302663,0.12596616,-0.06919009,0.5181638
1433510647,0.24464029,0.107987486,-0.06631283,0.5217713
1433554688,0.27368963,0.10444618,-0.06661359,0.5221797
1433594693,0.2347655,0.086380824,-0.064152025,0.5250802
1433634686,0.21543308,0.07994408,-0.062049888,0.5224911
1433679424,0.26141956,0.08840461,-0.06266923,0.52373487
1433719420,0.2444493,0.099244475,-0.061214782,0.5226746
1433763440,0.23940413,0.10493834,-0.060261145,0.525097
1433803486,0.25059646,0.091139704,-0.059019826,0.5272582
1433847410,0.19733381,0.10649022,-0.057595115,0.5252093
1433888226,0.20615663,0.10339246,-0.058074452,0.5248861
1433932283,0.28056246,0.085261896,-0.059891656,0.5219405
1433972322,0.2764944,0.08418112,-0.060301833,0.52122927
1434016280,0.2040014,0.0581928,-0.05782687,0.522087
1434056239,0.2346742,0.04969982,-0.05820616,0.5195252
1434097045,0.23332007,0.049692128,-0.05813975,0.5232206
1434141111,0.2399557,0.0150092,-0.05659765,0.521968
1434181073,0.20546708,0.03998615,-0.05684732,0.5194683
1434221119,0.22489159,0.033543658,-0.055992514,0.52409095
1434265035,0.19624911,0.0069410335,-0.053127125,0.5215922
1434305853,0.12944537,-0.016108664,-0.049843308,0.5255061
1434345841,0.13496245,-0.00751281,-0.048277237,0.52509046
1434389905,0.24392386,-0.0066595525,-0.04775667,0.52351946
1434429909,0.23477799,-0.018144848,-0.0449928,0.5249248
1434473869,0.147555,-0.022889452,-0.041790023,0.52509046
1434517901,0.19394976,-0.019719962,-0.040043116,0.5261836
1434561835,0.21018207,-0.014677319,-0.038733434,0.52146095
1434602652,0.17368408,-0.020913536,-0.036148384,0.5250222
1434642626,0.1474025,-0.012131477,-0.034444083,0.5265529
1434682625,0.19045982,-0.007765061,-0.033067424,0.525796
1434726661,0.21705139,-0.003613735,-0.031993125,0.5247816
1434766647,0.20872028,0.0062423577,-0.03093141,0.52470714
1434811477,0.26018184,0.03467285,-0.029894866,0.52201116
1434851452,0.2301706,0.07085623,-0.028788378,0.5184146
1434891403,0.20956384,0.049394153,-0.02599543,0.5214952
1434935430,0.17405114,0.07522884,-0.024953429,0.5166397
1434979421,0.22570811,0.11421535,-0.026305303,0.5180936
1435019451,0.19609277,0.10189822,-0.0245459,0.5193418
1435060228,0.17190449,0.09405386,-0.024065744,0.5204779
1435104267,0.1397716,0.11497277,-0.024485055,0.52212995
1435144262,0.14098354,0.11809135,-0.024556171,0.5204201
1435188230,0.11761929,0.100637466,-0.024182072,0.5209497
1435228273,0.09251091,0.1034738,-0.024407428,0.5223631
1435273068,0.16572043,0.1220613,-0.02749744,0.5243401
1435317174,0.098293915,0.09066422,-0.025130862,0.5220531
1435361069,0.13314973,0.07931854,-0.027211608,0.52613527
1435401122,0.1494695,0.08776315,-0.028615214,0.525553
1435441840,0.14115047,0.09084157,-0.029427527,0.52438194
1435485844,0.041731633,0.07312733,-0.028055662,0.52920043
1435525796,0.041919783,0.068624765,-0.028713413,0.5284667
1435569831,0.107605696,0.07391399,-0.031118726,0.53031003
1435609886,0.098261334,0.061028495,-0.03151673,0.53020906
1435653893,0.021852236,0.076896414,-0.030825486,0.52922696
1435693908,0.005220456,0.07485618,-0.03127375,0.5281307
1435738652,0.05787873,0.06628031,-0.032438546,0.528143
1435782658,0.039982874,0.068666175,-0.032366965,0.52560306
1435826630,0.018987268,0.047464788,-0.032271042,0.526291
1435866646,0.018856337,0.045099,-0.032193854,0.52614605
1435906651,-0.002416102,0.04110177,-0.03207603,0.526233
1435951467,0.026432637,0.036166325,-0.032650355,0.5306756
1435991479,0.030850071,0.030859021,-0.032931715,0.52968204
1436035407,-0.06015347,0.03185341,-0.031619336,0.53368753
1436075398,-0.077167705,0.036072984,-0.031646386,0.533802
1436120310,-0.021806952,0.057893757,-0.033561945,0.53401756
1436160311,-0.058311947,0.0655141,-0.032965668,0.53340906
1436200309,-0.0701285,0.07634362,-0.033149555,0.5329285
1436244277,-0.020968677,0.09532373,-0.035016306,0.5341391
1436288313,-0.041380227,0.10843615,-0.034116574,0.53417003
1436332324,-0.06256423,0.11712657,-0.034288608,0.5323566
1436372317,-0.059684295,0.13865742,-0.03519535,0.5319388
1436417038,0.0031625752,0.14388175,-0.037524283,0.5296595
1436457036,-0.032176357,0.14346097,-0.0375125,0.5295359
1436501021,-0.065136865,0.13738115,-0.037681155,0.5301771
1436541027,-0.05260798,0.13380037,-0.03895109,0.5301066
1436585043,-0.062182847,0.14017442,-0.040073574,0.53220004
1436625808,-0.07162754,0.14399993,-0.040909313,0.5301203
1436665819,-0.047531217,0.16061312,-0.04248657,0.5269298
1436705847,-0.05223596,0.15141866,-0.043153774,0.5274577
1436749795,-0.024598172,0.12444824,-0.04483752,0.5297723
1436789820,-0.05647455,0.10618407,-0.04380999,0.5295794
1436833861,-0.021701021,0.10046317,-0.043815967,0.52996737
1436874630,-0.02672668,0.08948924,-0.042412914,0.52918637
1436914655,-0.046265837,0.07728735,-0.040740356,0.52895784
1436958617,-0.037455045,0.067078575,-0.03843893,0.5306981
1436998636,-0.024379376,0.047442198,-0.03697828,0.53281313
1437038638,-0.04574868,0.053317156,-0.03433528,0.5342084
1437079445,-0.08363065,0.046540085,-0.03200279,0.5326
1437119447,-0.060068697,0.06868036,-0.029686868,0.5379845
1437163490,-0.031721547,0.09613733,-0.02740404,0.53646976
1437207404,-0.028743051,0.10316278,-0.025106624,0.5363789
1437247437,-0.034915924,0.106031545,-0.023210023,0.53782886
1437291460,-0.06248913,0.1331408,-0.019578889,0.53785145
1437332232,-0.026495315,0.14664017,-0.018133637,0.5383565
1437376280,-0.009237033,0.16356742,-0.016123468,0.5348034
1437416244,0.0053563085,0.16645378,-0.014627116,0.53618133
1437460248,-0.021392288,0.18997777,-0.0109892115,0.5347613
1437500243,0.004760612,0.20229971,-0.009788644,0.5336909
1437541031,0.0010941958,0.18524116,-0.008347143,0.5343862
1437585153,0.024849206,0.16111894,-0.008346549,0.53452754
1437625150,-0.012191056,0.1607421,-0.0068320334,0.5322615
1437669076,0.008158743,0.13717484,-0.006216537,0.5349337
1437709093,0.023713455,0.11927955,-0.0066845953,0.53375745
1437749091,-0.014241733,0.10321897,-0.005307262,0.5349105
1437789856,0.002138979,0.08797754,-0.0059057097,0.53418934
1437829845,0.017439602,0.06344569,-0.0066174157,0.5356402
1437873850,-0.027349005,0.0529477,-0.0066280207,0.5351504
1437917851,0.027084108,0.04313743,-0.008349206,0.53432703
1437957888,0.03596823,0.032180786,-0.009496766,0.5354358
1438001904,0.03765425,0.025226643,-0.010052087,0.5338187
1438042683,0.08183452,0.0028394356,-0.011576442,0.53383327
1438082697,0.06546875,-0.004931743,-0.01233341,0.5331363
1438126700,0.012172511,-0.04125119,-0.012603208,0.5365079
1438170676,0.08726847,-0.057041246,-0.014541955,0.5359635
1438210720,0.084083445,-0.06850354,-0.015302002,0.53282595
1438251500,0.07525163,-0.0801528,-0.016674168,0.5317877
1438295429,0.069526315,-0.08173116,-0.017336736,0.5341271
1438339479,0.10824621,-0.093284614,-0.018351825,0.53052837
1438383400,0.09616681,-0.12869628,-0.018750105,0.53177947
1438424235,0.08898914,-0.15091412,-0.018785879,0.53285503
1438468293,0.084126264,-0.15348217,-0.01849864,0.5377275
1438508261,0.09486998,-0.14554603,-0.017389232,0.535187
1438548257,0.12808488,-0.15571575,-0.0167926,0.5337945
1438588263,0.10469328,-0.15724374,-0.01591871,0.5332736
1438632235,0.082116604,-0.15922533,-0.014890678,0.53815067
1438673029,0.10442759,-0.14637421,-0.014920373,0.533715
1438717102,0.07748521,-0.13170396,-0.013579481,0.5319086
1438761045,0.15853097,-0.13099124,-0.013413366,0.53375924
1438801034,0.14685114,-0.12770452,-0.013365364,0.53171366
1438841027,0.1610393,-0.13236977,-0.013047925,0.53518885
1438881846,0.1103069,-0.12283132,-0.012019326,0.5338929
1438921807,0.1296488,-0.10089984,-0.011905423,0.53588206
1438965873,0.11277998,-0.08147075,-0.01205935,0.53505355
1439005832,0.10653856,-0.08253933,-0.011881593,0.5335811
1439049854,0.060132977,-0.05233444,-0.011365255,0.5346595
1439089833,0.049954873,-0.05248372,-0.010070089,0.5363816
1439133931,0.1179748,-0.023079772,-0.0109416535,0.5324895
1439174694,0.07279292,0.005530275,-0.010549334,0.5321036
1439214726,0.058944114,0.01558538,-0.0099214725,0.53305334
1439258658,0.090539485,0.01511955,-0.009274789,0.53718907
1439298665,0.08693173,0.031215668,-0.008560317,0.536939
1439343454,0.055153217,0.064649336,-0.0073978044,0.5327749
1439383478,0.034963787,0.07535009,-0.006466529,0.5319598
1439427453,0.017257301,0.07294088,-0.0047875787,0.53260916
1439467436,0.051601037,0.063049674,-0.0044317516,0.53646505
1439511484,0.024466783,0.055424087,-0.0022425603,0.5343674
1439551454,-0.013768373,0.05465304,-0.00013431335,0.5358505
1439592346,0.029426724,0.03906255,0.0002738459,0.53580195
1439632330,0.02880565,0.039148558,0.00197714,0.53700113
1439676237,9.5935335e-05,0.019731518,0.00530225,0.537587
1439716229,0.02322303,0.015792817,0.007198387,0.5385836
1439760276,0.00077385816,0.015955135,0.010218228,0.53904957
1439800281,0.02666346,0.024220262,0.011336295,0.5416619
1439841074,-0.023003278,0.028485054,0.013563918,0.54093605
1439885038,-0.0035221188,0.0201085,0.015222779,0.5409601
1439925050,-0.019925686,0.026368203,0.017274024,0.54209864
1439969072,0.0023641884,0.020984538,0.01867442,0.5437897
1440009070,-0.05994474,0.027466534,0.021081202,0.5438112
1440053796,-0.04624748,0.046315774,0.021453062,0.5422625
1440093806,-0.047743767,0.053465776,0.022498375,0.54276276
1440137823,-0.049457468,0.06768575,0.023178391,0.5404855
1440177823,-0.048969988,0.0638356,0.023699597,0.54335076
1440217867,-0.10275568,0.08047273,0.025204625,0.5425959
1440257869,-0.07994026,0.08352041,0.025047608,0.54552275
1440302660,-0.08696039,0.0981375,0.025409117,0.5451521
1440342627,-0.07195525,0.1105554,0.024791008,0.5428304
1440386679,-0.08376806,0.11498718,0.024609197,0.53973883
1440426671,-0.07131195,0.10297321,0.023257433,0.54047513
1440470661,-0.06694,0.07518375,0.021980979,0.5403167
1440511468,-0.09602918,0.066796355,0.020948736,0.5403108
1440551446,-0.10521272,0.06373896,0.019335689,0.5390697
1440595521,-0.08593011,0.045073114,0.017585523,0.5403735
1440635480,-0.065624356,0.040726755,0.015790537,0.5392368
1440679488,-0.044571564,0.027551258,0.013408942,0.5369346
1440719484,-0.03966897,0.012267409,0.011956594,0.53971946
1440764220,0.009195283,0.019317707,0.009759022,0.5386971
1440804310,0.010973308,0.011489192,0.008786555,0.5377993
1440848237,-0.00030486437,0.010073417,0.007411201,0.53934354
1440888286,0.012447724,-0.0018093088,0.0061510038,0.53639346
1440932315,-0.009732288,0.011464706,0.0059832083,0.53446764
1440973016,0.02383383,0.020070128,0.0036646766,0.5338999
1441013038,0.01927538,0.026172008,0.0027136905,0.5330754
1441057139,0.024268432,0.011793987,0.0012447741,0.5303506
1441101037,0.058679894,0.011038712,-0.0002776473,0.5322333
1441141021,0.09662284,0.01667736,-0.0020301042,0.5313542
1441181802,0.10575969,0.017084174,-0.003018694,0.5313926
1441225857,0.036171716,0.019723538,-0.0036291657,0.5291125
1441265802,0.022422213,0.02533482,-0.004531135,0.5266124
1441309805,0.10039666,0.018159792,-0.0074485056,0.5273077
1441349804,0.114985056,0.018813614,-0.008888007,0.5279123
1441393849,0.060542595,0.010743779,-0.009348053,0.52653974
1441433883,0.05016242,-0.0024140854,-0.010591678,0.5250631
1441478640,0.108763546,-0.022339428,-0.013379055,0.5289077
1441518642,0.12832889,-0.033809572,-0.015247693,0.5284169
1441562670,0.07018436,-0.04604663,-0.01606544,0.52716035
1441606676,0.13839133,-0.059043948,-0.018509809,0.52819914
1441646646,0.11710246,-0.056519113,-0.019780077,0.52956134
1441687484,0.13530418,-0.07802716,-0.0202957,0.52908885
1441727484,0.13467878,-0.091836564,-0.0210273,0.52637666
1441771520,0.16258162,-0.10030684,-0.021837592,0.5240105
1441811489,0.14077027,-0.105792865,-0.02154752,0.526544
1441855434,0.18681097,-0.09836451,-0.02139007,0.52940094
1441896281,0.17119864,-0.08208151,-0.020824188,0.5260732
1441940299,0.16732225,-0.0749818,-0.019150749,0.5246368
1441984220,0.14654166,-0.068198875,-0.017581936,0.5263591
1442028296,0.16128534,-0.07340125,-0.01640758,0.5247429
1442072405,0.11063433,-0.058493443,-0.013984287,0.5308037
1442113027,0.13406079,-0.06498756,-0.011770263,0.53765804
1442157047,0.118135564,-0.037795827,-0.009927923,0.53450125
1442197144,0.0794116,-0.025626931,-0.0076851808,0.5341582
1442241047,0.11008589,-0.0059762425,-0.0064644376,0.53670335
1442281032,0.114037246,-0.0013927339,-0.005175773,0.53839076
1442325850,0.10833103,0.029283158,-0.0034721103,0.53714496
1442365828,0.081719026,0.043154184,-0.0021492343,0.5372882
1442409879,0.07687437,0.049752258,-0.00050506496,0.535834
1442449829,0.10336009,0.06708787,-0.0010041465,0.5399977
1442489812,0.08575568,0.07942877,-0.00013661152,0.53981674
1442529802,0.084344596,0.07186888,0.0003641552,0.5415523
1442573822,0.08906309,0.08101116,0.00011478276,0.5401364
1442614688,0.10532285,0.072914,-0.0003299763,0.53928554
1442658688,0.0555334,0.08411653,0.0011789628,0.5427778
1442698646,0.07411158,0.072413445,0.00029234448,0.5450877
1442738632,0.06575636,0.06806846,0.0004923843,0.5428332
1442782685,0.053537793,0.07042172,0.0004114007,0.5395025
1442823514,0.054769207,0.065202296,0.00047867355,0.5409176
1442867533,0.10516474,0.059706207,-0.00070025306,0.5392391
1442907456,0.07444949,0.059062585,0.00038266907,0.5366073
1442952253,0.056641616,0.035409153,0.0016133904,0.539206
1442996264,0.033446677,0.034063656,0.0024458694,0.5406754
1443036281,0.03935286,0.039598934,0.0026752644,0.5363009
1443080238,0.080684446,0.021285005,0.0030745498,0.5381769
1443124285,0.09140648,0.03136989,0.0032862865,0.53591186
1443168231,0.07011403,0.020667542,0.0038606906,0.5348683
1443208252,0.05997396,0.02703398,0.004387002,0.5308041
1443252334,0.10584653,0.021946281,0.004364869,0.535451
1443293096,0.12806836,0.02998977,0.0034530086,0.53366816
1443337035,0.05713569,0.018515764,0.004985285,0.5347476
1443381103,0.114402145,0.024903977,0.0036509344,0.53715533
1443421111,0.087315015,0.029559346,0.003412681,0.5334445
1443465825,0.04477988,0.013821948,0.00426152,0.536898
1443505849,0.0950609,0.0016645539,0.002945534,0.54103625
1443549840,0.06578059,0.011040649,0.0024663224,0.53440017
1443589862,0.026509402,0.00019983076,0.002165847,0.534522
1443633801,0.055722505,-0.031446636,0.0016969413,0.53572726
1443678646,0.031096004,-0.020101868,0.0017003394,0.5368226
1443718662,0.031576663,-0.02465878,0.0018142853,0.5358775
1443758653,0.021085642,-0.037277687,0.0025164182,0.53988683
1443802646,-0.016791055,-0.02981408,0.0034990797,0.5371219
1443846632,0.06950653,-0.021786623,0.0030386117,0.5363687
1443886660,0.048084892,-0.016399167,0.003558178,0.53458625
1443930680,-0.00839493,-0.03995449,0.005251142,0.5373185
1443971476,0.025559595,-0.048324943,0.00536052,0.53586054
1444015494,-3.0242896e-05,-0.04471421,0.0060993917,0.5317678
1444055420,-0.008767433,-0.051491417,0.006237843,0.5301969
1444099476,0.05406159,-0.0655938,0.0057482426,0.5285678
1444140297,0.020210428,-0.07792018,0.006280654,0.530127
1444184289,-0.010578593,-0.06309275,0.0064933393,0.5299657
1444224293,0.038578685,-0.08028456,0.0061558723,0.53107816
1444268332,0.05199805,-0.072946295,0.005188572,0.53184694
1444308303,0.033186816,-0.0918439,0.005264744,0.5323584
1444352314,0.0106415525,-0.08334196,0.0058365935,0.52927005
1444396355,0.07690248,-0.06437952,0.0046595135,0.5282241
1444437052,0.08566673,-0.055958763,0.0047081048,0.52872765
1444481028,0.022370042,-0.07395683,0.0058447383,0.5317654
1444525045,0.06447349,-0.05874403,0.004857121,0.5296591
1444569017,0.007042492,-0.04344264,0.0048539955,0.5341214
1444609827,0.03681778,-0.031457096,0.0036314337,0.5320843
1444649816,0.050536286,-0.022832435,0.002556676,0.532268
1444693828,0.014328403,0.01985837,0.00178436,0.53335994
1444733821,-0.0049450067,0.02113034,0.0013286868,0.53461105
1444773848,-0.02015073,0.019300615,0.0006401751,0.53362453
1444817825,0.060557544,0.021514822,-0.0016337566,0.5390006
1444858644,0.0686269,0.015928868,-0.0032445008,0.54004425
1444898634,0.052983306,0.01780709,-0.0040657856,0.5413154
1444942680,-0.0035295251,0.031567533,-0.0043825884,0.5394501
1444982681,0.010331228,0.049722098,-0.005943525,0.5384527
1445026634,0.088350266,0.049909987,-0.008969178,0.54179955
1445066636,0.076401226,0.04579593,-0.010178587,0.5479558
1445111492,0.036632,0.03792714,-0.009994717,0.5419911
1445155510,0.07359379,0.04335514,-0.0121472385,0.54703856
1445195536,0.04490628,0.03729307,-0.012252526,0.54891837
1445235443,0.05319275,0.038404096,-0.012901977,0.546724
1445279523,0.030284027,0.07051873,-0.012967884,0.5475043
1445324249,0.028977431,0.06792317,-0.0132648675,0.5454187
1445364266,0.047360636,0.08737329,-0.014070086,0.5438285
1445408248,0.039552156,0.06822537,-0.013447795,0.5494097
1445448234,0.05492896,0.054017253,-0.013428233,0.54952484
1445492315,0.047915988,0.08904006,-0.013731074,0.5491039
1445532310,0.03908799,0.08687848,-0.013124665,0.54748124
1445577029,0.0402926,0.07720961,-0.013103817,0.54571843
1445617022,0.049442433,0.08728945,-0.0135411015,0.54535794
1445661068,-0.011478991,0.0843627,-0.011688486,0.54589635
1445701076,-0.0010194755,0.06396946,-0.011530828,0.5497862
1445741871,-0.015131048,0.07140465,-0.010765662,0.5495842
1445781876,0.040324617,0.07249896,-0.012371766,0.5487472
1445825820,-0.016852027,0.08481623,-0.010547289,0.5442975
1445869845,0.0032899075,0.06445144,-0.010821253,0.54761916
1445909840,0.026368296,0.063385464,-0.011310015,0.54734117
1445953800,0.00051568507,0.053144723,-0.010438526,0.5491883
1445993815,0.0071683764,0.044506103,-0.01009855,0.5491227
1446038707,-0.0002392898,0.05431487,-0.008947093,0.5507266
1446078669,-0.0035346972,0.059917007,-0.008471115,0.5503467
1446122677,-0.015079968,0.04939151,-0.0077302903,0.5479402
1446162647,-0.025144203,0.052948732,-0.00693928,0.5484353
1446206677,0.007999697,0.04664487,-0.0065693073,0.54687417
1446247521,-0.0013692878,0.039224055,-0.0054682237,0.5488822
1446291501,-0.005856775,0.038961783,-0.0047674756,0.5535505
1446331515,-0.028741991,0.06326179,-0.004318315,0.55236894
1446375533,-0.009780635,0.08674434,-0.0049149473,0.54818434
1446419446,0.019441348,0.0686072,-0.00498342,0.5482525
1446459536,0.03086796,0.08349265,-0.0064950315,0.5455468
1446500204,0.0342342,0.089572296,-0.0069025317,0.54742604
1446540241,0.0034522328,0.07911773,-0.006177623,0.54452336
1446584262,0.017010786,0.053845257,-0.006144607,0.5481451
1446624293,0.06573105,0.058393653,-0.0070655392,0.5462514
1446668235,0.015834475,0.0669381,-0.0061468403,0.54097503
1446709040,0.028746916,0.07171197,-0.0057910713,0.5422276
1446753054,0.06452672,0.08195392,-0.0065260064,0.5409075
1446793056,0.05741971,0.08922194,-0.0052561304,0.53406584
1446837031,0.10234981,0.10573773,-0.005146518,0.532574
1446877045,0.09246824,0.10068535,-0.004199206,0.52908134
1446917832,0.12901144,0.08334643,-0.004276546,0.5301725
1446961832,0.06976709,0.1013432,-0.0012088565,0.53228825
1447001822,0.071419,0.10094322,-0.00015729548,0.53189874
1447045803,0.11396457,0.084437646,-0.00079615606,0.53345525
1447085826,0.09931445,0.08078922,3.0233157e-06,0.53118783
1447125812,0.107411996,0.07780289,-9.26308e-06,0.53081155
1447166644,0.10228266,0.07584338,0.00011293098,0.530163
1447210665,0.06703477,0.09197281,0.0006304153,0.52759916
1447250678,0.040467612,0.09090905,0.0015845913,0.5275228
1447294630,0.098802865,0.08722576,0.00084269966,0.5297076
1447334629,0.0708079,0.059735335,0.002465886,0.5323946
1447379472,0.048333846,0.08204244,0.0027639964,0.53049976
1447419474,0.08536711,0.05869734,0.0033518318,0.53309613
1447463520,0.08464075,0.034647893,0.0047355285,0.5302076
1447503438,0.10249711,0.02671201,0.004584728,0.52882016
1447547476,0.07706828,0.014444865,0.0064730165,0.5313333
1447587462,0.076918155,-0.006728318,0.0065417057,0.5290027
1447628256,0.097332194,-0.014182103,0.005974543,0.5327967
1447668272,0.07766954,-0.010391951,0.006097782,0.5298843
1447712359,0.028790738,-0.015683267,0.0075617144,0.5266295
1447756274,0.08249826,-0.034906767,0.007826223,0.5325052
1447796308,0.07060036,-0.022790683,0.007796046,0.52923244
1447836293,0.063547045,-0.019494884,0.00817511,0.5327457
1447877117,0.046256494,-0.023176463,0.0079869125,0.53063625
1447921033,0.014261055,-0.009052075,0.00849565,0.5342396
1447961056,0.0021655343,-0.01434285,0.0086680055,0.5354866
1448005023,-0.013968002,-0.011087645,0.009143286,0.5383804
1448045844,0.026587933,0.0076485313,0.007954122,0.53965515
1448089864,0.019793935,0.015607329,0.0077103702,0.540696
1448133850,0.018760098,0.0021934574,0.007923301,0.5410841
1448177844,0.014422785,-0.013937507,0.008076833,0.5389174
1448221804,0.05752337,-0.015777813,0.0071479077,0.54147166
1448261810,0.056044713,-0.019186145,0.007010404,0.54239404
1448306706,0.007936149,0.002471532,0.007191207,0.5403106
1448346674,0.008468934,0.0010310629,0.007338064,0.54161876
1448390670,0.028294632,0.012926258,0.0068569165,0.53950876
1448430642,0.031527672,0.011084246,0.006862012,0.542845
1448474711,0.045034397,0.0026969565,0.0064326185,0.5397113
1448514678,0.021879222,0.0037356187,0.0066968948,0.53952384
1448559443,0.02367184,0.0038845977,0.0066076727,0.541217
1448603480,-0.020335257,-0.0095117595,0.0075117433,0.5408171
1448643544,0.019822668,0.0020292026,0.00603263,0.5401607
1448687438,0.0008552532,0.002354005,0.0059401966,0.54170775
1448727486,-0.015263183,0.00087456766,0.006181016,0.53963155
1448772236,0.0019497444,-0.025229841,0.00531698,0.5395192
1448812257,0.038301963,-0.010794914,0.004508398,0.5390692
1448856244,0.0022764537,-0.018780986,0.005546485,0.54551315
1448896229,-0.009856149,-0.009890982,0.0052358625,0.54128504
1448940250,-0.00374056,0.0014215552,0.005048265,0.53807944
1448980239,-0.0007752348,-0.007917111,0.0054253084,0.5401499
1449021044,0.0073075453,-0.0014517533,0.0048667714,0.53958356
1449061038,-0.0016139236,-0.020350013,0.0053708004,0.5420835
1449105035,-0.015242901,-0.014695405,0.0054450734,0.5424785
1449145025,0.0058593308,-0.011603458,0.0051152436,0.5414616
1449185837,0.005349452,-0.019073453,0.005715551,0.5409323
1449229854,-0.025467018,-0.015658293,0.0070427437,0.53885144
1449269914,0.0061005168,-0.024304295,0.0073663727,0.5424803
1449313798,0.07167357,-0.015320891,0.0071245297,0.5380198
1449353797,0.048438255,-0.005287263,0.0074884477,0.5369617
1449397809,0.025879342,-0.022141349,0.008717659,0.539579
1449438642,0.048866615,-0.016728658,0.008062387,0.53999406
1449478650,0.0784655,-0.0031659647,0.0073036607,0.5390196
1449518644,0.0605174,-0.0020648679,0.0069796653,0.5354856
1449562624,-0.01720967,-0.0106872665,0.008254533,0.5390758
1449602629,0.010541779,-0.0017077792,0.0070907176,0.53877306
1449646672,0.045776427,0.015982412,0.005546824,0.53665745
1449687475,0.020806115,0.031924013,0.003854658,0.5321531
1449731510,0.062054183,0.0153997615,0.0027072413,0.53600377
1449771429,0.06436315,0.046537295,0.0012558283,0.53234977
1449815536,0.029508173,0.045928303,0.00089382887,0.52969116
1449859516,0.040438406,0.0324389,-0.00011952647,0.5321573
1449899519,0.10637957,0.06283441,-0.0035529765,0.5291906
1449944199,0.023523243,0.04642824,-0.0033970214,0.53549266
1449984201,0.02381991,0.060287874,-0.0056855343,0.5330506
1450028274,0.09239538,0.08605727,-0.009452296,0.53376603
1450068260,0.07106574,0.099275954,-0.010830762,0.5302825
1450113033,0.0814282,0.101290345,-0.012579664,0.5269008
1450157047,0.039651178,0.09677513,-0.0121735465,0.52711916
1450197115,0.0351198,0.11305705,-0.013579518,0.5293663
1450237109,0.032521684,0.12754954,-0.013498982,0.52707094
1450281031,0.03242173,0.1419023,-0.013944656,0.5311993
1450321824,-0.007784448,0.14842916,-0.012576112,0.53355914
1450361821,0.0008805475,0.144195,-0.011871025,0.5351969
1450405869,0.0018854577,0.15680075,-0.010931887,0.5390311
1450445876,-0.020014603,0.1655409,-0.009976938,0.5384634
1450489805,-0.029773224,0.17590116,-0.008632921,0.5348623
1450533842,-0.07121519,0.14588782,-0.0052543357,0.54124916
1450578675,-0.004245603,0.14886524,-0.0062940875,0.5398954
1450618676,-0.05391201,0.1490781,-0.0038022578,0.5409118
1450658690,-0.049786024,0.13280839,-0.0022213417,0.54078007
1450702708,-0.0067923577,0.1217243,-0.002737748,0.5432706
1450746682,-0.0009588335,0.10071658,-0.0027970648,0.536421
1450790679,0.033690702,0.06257043,-0.0034296,0.54051787
1450831449,-0.0068367817,0.06208629,-0.003969717,0.5371372
1450875493,0.019602088,0.070836596,-0.005495945,0.5356085
1450915436,0.03807777,0.04112313,-0.0060831574,0.5396934
1450959416,0.06265184,0.045446202,-0.0073577813,0.5337838
1450999433,0.041341536,0.040116064,-0.0075046592,0.5342932
1451044270,0.060550034,0.04401478,-0.0075142058,0.5318957
1451084248,0.055528294,0.04011898,-0.007414048,0.5343394
1451128225,0.044637047,-0.004672802,-0.006156508,0.5336323
1451168208,0.07442598,0.0007493323,-0.0064103366,0.53509754
1451212335,0.052811265,-0.025000406,-0.005248314,0.5390524
1451256232,0.07194045,-0.044441134,-0.004889706,0.5422942
1451297101,0.05861077,-0.046058595,-0.004569541,0.5425186
1451341103,0.042290714,-0.052025687,-0.004828625,0.53853464
1451381097,0.0535118,-0.09640823,-0.0045378385,0.54506624
1451425071,0.11941129,-0.107757695,-0.0048052585,0.5450318
1451465833,0.09858169,-0.111246586,-0.003913229,0.54176426
1451509881,0.0022474835,-0.14004095,-0.0022757677,0.54804844
1451549922,0.029047407,-0.13146238,-0.0015880945,0.54939497
1451593823,0.051813208,-0.12995784,-0.0007517451,0.5495992
1451633829,0.015810398,-0.12618096,0.0006851588,0.5493811
1451677834,0.040491015,-0.11068179,0.0018309,0.5514982
1451722622,0.004349034,-0.09416956,0.0036846374,0.55325943
1451762626,0.04950267,-0.0817303,0.0055440506,0.5550237
1451802649,0.002468621,-0.055184886,0.0078083714,0.5550042
1451842627,-0.026798135,-0.025566522,0.009939738,0.55694914
1451886667,0.018138971,-0.0015655685,0.010967927,0.55598396
1451926651,-0.03918735,0.017270945,0.01408913,0.55580336
1451971438,-0.0018757704,0.048960626,0.014828427,0.5545503
1452011439,0.004577042,0.055477295,0.015476836,0.5560836
1452055447,-0.011260469,0.026284695,0.016492086,0.5589777
1452095628,0.0029052056,0.037683487,0.0158849,0.5594454
1452139423,0.006396476,0.07302587,0.014254483,0.5577655
1452179434,0.017003682,0.06803386,0.013455411,0.55788386
1452220217,-0.05412351,0.084472045,0.014463473,0.555266
1452264216,0.0008079199,0.118529536,0.01224697,0.5551865
1452304246,0.007993183,0.13650064,0.012224347,0.5525845
1452348222,-0.0365495,0.12510808,0.01339017,0.55805534
1452388247,-0.044095892,0.15186517,0.012740903,0.55358356
1452429051,0.013154093,0.16398606,0.010986178,0.5543359
1452469025,0.014036071,0.17026398,0.009118876,0.55197686
1452513077,0.014373347,0.16674952,0.007280837,0.5516585
1452553075,0.0134154465,0.16076335,0.0054657552,0.55216223
1452597044,-0.015078263,0.14000183,0.0050611906,0.5535515
1452637882,0.0004836245,0.11803826,0.0034546119,0.554493
1452681891,-0.050358176,0.14066717,0.0031378719,0.5571913
1452721881,-0.024314174,0.114932105,0.0025511496,0.5590845
1452765875,0.008676427,0.107378155,0.002038058,0.5588183
1452805837,-0.0075620622,0.10362783,0.002026305,0.5570994
1452849885,-0.017970059,0.083314806,0.0020180317,0.5537805
1452890632,0.031831108,0.058760818,0.0007710577,0.5571834
1452930730,-0.0011447225,0.05059274,0.0009802345,0.5592897
1452974621,0.019312054,0.03409117,0.00019421977,0.5541248
1453014684,0.04034521,0.027198207,-0.000556847,0.55408025
1453054670,0.03644249,0.0015976592,0.00014393617,0.55566347
1453094675,0.046841606,0.0054010823,-0.00019578986,0.55194694
1453139450,0.02769805,0.0053011873,-0.0003884243,0.5515194
1453179448,0.022103788,-0.0049296194,-0.0003227587,0.5539861
1453223461,0.030634,-0.010621771,-0.0005389701,0.5531756
1453263518,-0.0041879136,-0.00603718,-0.00015719641,0.5532137
1453307471,0.0010995653,0.026807347,-0.00073864596,0.5491717
1453348196,0.0076262085,0.031109396,-0.00034190956,0.5503672
1453392301,0.021656787,0.035285793,-0.0009480555,0.54766417
1453432254,0.006229944,0.046800554,-0.0002894615,0.54658496
1453476210,-0.015412091,0.03315219,0.0010188094,0.5523471
1453516226,-0.0034449068,0.02870889,0.0005492817,0.5529364
1453560223,0.01816488,0.03944057,-0.00065815105,0.5543624
1453601059,0.0010872087,0.046526663,-0.0002634572,0.5536421
1453641035,6.500879e-06,0.036910545,-0.00025218131,0.55361784
1453685032,0.009567554,0.028144559,-0.0007227324,0.5536493
1453729060,-0.03747086,0.026972432,-0.00037139183,0.5570178
1453769092,-0.026803127,0.010745905,-0.0002958822,0.5576934
1453809850,-0.013966078,-0.00017837409,-0.00076856196,0.5594968
1453853838,-0.016628888,0.0344109,-0.0019712355,0.55836755
1453893827,-0.00757139,0.005485808,-0.0017256321,0.56258965
1453937864,0.006770633,0.016224636,-0.0023723561,0.5612759
1453977792,0.0020763956,0.024599338,-0.0028744866,0.5592139
1454022695,0.0014198098,0.01393981,-0.0022874293,0.56267786
1454066661,-0.052047916,0.017711967,-0.001491868,0.5635799
1454106725,-0.035832692,0.019805333,-0.0017732757,0.55987453
1454146693,-0.020676566,0.026429603,-0.0020388707,0.56125146
1454190697,-0.047049165,0.0059052655,-0.0010743128,0.5651882
1454231445,-0.08955753,0.0017201619,-0.000692858,0.56427824
1454271510,-0.06906338,0.0047573685,-0.0007182211,0.5649174
1454315474,-0.05871314,0.026416402,-0.001180808,0.56976706
1454355527,-0.061422095,0.023757478,-0.0012628407,0.5674824
1454395516,-0.07420769,0.0116771795,-0.0010539852,0.5680148
1454435539,-0.07890378,0.0127412025,-0.0010332454,0.56557316
1454475438,-0.02605501,0.014507106,-0.0025444732,0.5660762
1454516321,-0.040754553,0.007825676,-0.0019833432,0.5675146
1454560262,-0.034618624,0.011356521,-0.0023505406,0.5716638
1454600251,-0.04328672,0.023828803,-0.0022920426,0.569399
1454644280,-0.023843268,0.010027748,-0.002598271,0.5664504
1454684314,-0.037829284,0.0060958387,-0.0025467472,0.56403786
1454725126,0.015940012,0.006852556,-0.0035813001,0.5674013
1454765146,0.0015919246,0.004063913,-0.0034325137,0.5676024
1454809019,-0.023136156,0.005992874,-0.0032301992,0.5660301
1454849070,0.020701615,0.012314859,-0.0043321247,0.56529003
1454893879,-0.03636115,0.008163432,-0.0028751027,0.5643433
1454933883,-0.009331072,-0.0025425924,-0.002455962,0.56653225
1454977822,-0.014450776,0.027391214,-0.0032298472,0.56317025
1455017834,-0.030506004,0.013426917,-0.0029374873,0.5668064
1455061878,0.026848702,0.016067544,-0.0042959386,0.5619956
1455101866,0.0064245323,0.0133602265,-0.0045131566,0.5598379
1455145805,0.019636756,-0.016115617,-0.004602681,0.5642449
1455186626,0.0028466992,-0.0035262613,-0.0046222974,0.5604362
1455226670,-0.005783517,-0.0056971763,-0.005639635,0.562191
1455266644,-0.015049659,-0.0060547297,-0.0059822327,0.560112
1455310665,-0.0024346032,-0.0052905586,-0.006888736,0.5618999
1455350654,0.02655996,-0.002173176,-0.0077766166,0.5584228
1455391509,0.046363883,-0.020646185,-0.0077308915,0.557077
1455435454,0.031837676,-0.016422827,-0.007121881,0.56132096
1455475502,0.04092271,-0.015769906,-0.007365247,0.5578749
1455519470,0.00817923,-0.01964781,-0.0063298084,0.5594256
1455559484,0.010081713,-0.011825481,-0.0062325224,0.5568576
1455603435,-0.011155772,-0.019283216,-0.0054267966,0.553901
1455644217,-0.0065455907,-0.032413147,-0.004911193,0.560579
1455688243,0.00025862837,-0.017306197,-0.0052040955,0.5591092
1455732279,-0.021650935,0.020293362,-0.0049944604,0.55988497
1455776267,0.010952425,0.01707181,-0.005362189,0.55521256
1455816292,-0.037927896,0.011327682,-0.004291238,0.5580102
1455857129,-0.04612192,0.04039651,-0.004343775,0.5580746
1455901028,-0.05134615,0.05307118,-0.0052368618,0.5520286
1455941057,-0.03730071,0.053323966,-0.0057207197,0.5507689
1455985101,-0.07976539,0.032829955,-0.0036146613,0.5522316
1456025842,-0.037263624,0.050350677,-0.005317633,0.5550068
1456069834,-0.08549701,0.039898105,-0.0047412394,0.55413437
1456109831,-0.09000829,0.047883563,-0.004381857,0.5521749
1456153877,-0.069894634,0.04677523,-0.0049249525,0.5515387
1456193892,-0.040074114,0.027175032,-0.005937597,0.55191195
1456237827,-0.08747647,0.037917454,-0.007240583,0.55466074
1456278607,-0.06721237,0.036507204,-0.00931649,0.5567368
1456318641,-0.05064371,0.028744224,-0.010313256,0.5540331
1456358623,-0.030873155,0.024975745,-0.011057231,0.55279404
1456402671,-0.043500338,0.06112098,-0.011549615,0.55100656
1456442681,-0.018856144,0.063561894,-0.012151731,0.5490625
1456486651,-0.047943994,0.048935965,-0.011150574,0.55263203
1456530659,0.00024311672,0.06396614,-0.012913106,0.54932666
1456571466,-0.020828828,0.09075749,-0.013364005,0.547706
1456615419,0.02521782,0.069537565,-0.014860272,0.546236
1456655429,0.044957057,0.059450768,-0.015674317,0.5465858
1456700261,-0.013034384,0.07776445,-0.016169695,0.54598886
1456740278,0.013162899,0.06931267,-0.01725214,0.5451115
1456784294,0.020486552,0.052251816,-0.017306298,0.54319876
1456824304,0.038957924,0.048850562,-0.018230844,0.5416996
1456868266,0.06512027,0.046103284,-0.019092081,0.5419107
1456908252,0.04168009,0.02782077,-0.017860977,0.54422903
1456952317,0.031234525,0.03997988,-0.017721176,0.5409142
1456993071,0.0037278335,0.03565934,-0.016153906,0.54156893
1457033111,0.010935189,0.045575455,-0.015484154,0.54356974
1457077037,0.05730127,0.014889607,-0.014364631,0.54573834
1457117115,-0.01018425,0.017190203,-0.012253257,0.5422621
1457161054,0.04250467,0.035300314,-0.012374177,0.543796
1457201871,0.056298435,0.032797825,-0.011201806,0.54427034
1457241893,-0.00530357,0.045718543,-0.008760649,0.542568
1457285823,-0.0007646612,0.03364387,-0.007711315,0.54456514
1457329946,0.0015408483,0.029806029,-0.0064518442,0.54398507
1457369852,0.026033534,0.018938236,-0.0057747583,0.5470218
1457413835,-0.038767096,0.027933292,-0.0039579826,0.544772
1457454632,-0.011032816,0.044897277,-0.0041102767,0.5445434
1457494646,0.002115504,0.034106884,-0.0031944583,0.54614955
1457534623,-0.013348417,0.03342382,-0.0017990367,0.5438507
1457578659,0.017835127,0.031663623,-0.0014630957,0.5444406
1457618686,0.021874132,0.026107157,-0.0011150747,0.5456161
1457662616,-0.029351199,0.012426973,0.000493859,0.5458988
1457703437,0.001112834,0.0029684813,0.00087319606,0.5471944
1457743435,-0.012718959,0.0076799253,0.0009732797,0.5485691
1457787474,0.01145697,0.025338707,0.0002439764,0.5465376
1457827502,0.035207514,0.017521815,0.00019751932,0.5470081
1457871437,-0.010779219,0.027800975,0.0010444947,0.5457761
1457912240,-0.006161607,0.022954086,0.0014001266,0.5446906
1457952272,0.035392027,0.015769932,0.001307864,0.5452699
1457992265,0.017026616,0.014842477,0.0021864604,0.5439853
1458036262,0.02052313,0.012121885,0.002487214,0.5469787
1458076257,0.042492714,0.007723253,0.0023545718,0.5475571
1458121036,0.0025385243,0.028389927,0.003290963,0.532328
1458165090,0.026052827,0.03688706,0.0035856762,0.5190749
1458205111,-0.013746237,0.03642545,0.0047339336,0.509777
1458245110,-0.009978842,0.03914301,0.004931849,0.5022494
1458289038,0.05947727,0.021098621,0.0046571437,0.49901032
1458333116,0.015943823,0.019543573,0.0058185467,0.49485028
1458373906,-0.009767204,0.01872705,0.006706626,0.49323928
1458417844,0.03497277,0.0050308458,0.007099783,0.49541044
1458457874,-0.042014655,0.008937958,0.0080132,0.49360785
1458501884,-0.0018589328,0.0036095213,0.0077319164,0.49563956
1458541918,0.87266463,0.7674093,0.7853982,0.49260706
1458586606,0.87266463,0.7662389,0.7853982,0.49584368
1458626638,0.87266463,0.75121456,0.7853982,0.5034444
1458670647,0.87266463,0.7595904,0.7853982,0.50479853
1458710687,0.87266463,0.7574859,0.7853982,0.50756925
1458754634,0.7820636,0.7373799,0.7853982,0.51710117
1458794623,0.6475287,0.72198755,0.7853982,0.52235216
1458838658,0.48699743,0.7173368,0.7853982,0.5258732
1458879479,0.3507176,0.6937756,0.7853982,0.54062873
1458919501,0.24398534,0.6532413,0.7853982,0.5462476
1458963446,0.140471,0.61729395,0.7853982,0.5499968
1459003480,0.059586294,0.5802684,0.7853982,0.56043345
1459047454,-0.007499725,0.50801325,0.7853982,0.5695575
1459092358,-0.0609374,0.43623048,0.7853982,0.57415265
1459132230,-0.100102276,0.38036114,0.7853982,0.57809556
1459172217,-0.13154769,0.32330152,0.7853982,0.5832115
1459216243,-0.1524663,0.25756335,0.7853982,0.58699834
1459261092,-0.1719093,0.18460147,0.7853982,0.592582
1459301090,-0.17637782,0.1315234,0.7853982,0.59854656
1459349056,-0.17655084,0.064446434,0.7853982,0.5945418
1459389063,-0.17074466,-3.6667207e-05,0.7853982,0.6074215
1459433035,-0.16111614,-0.052829392,0.7853982,0.6029312
1459473041,-0.14773704,-0.10881214,0.7853982,0.6024627
1459517866,-0.12887213,-0.16114563,0.7853982,0.6043098
1459557899,-0.1182487,-0.211262,0.7853982,0.60760826
1459597947,-0.103522286,-0.24687411,0.7853982,0.60424024
1459637865,-0.08642026,-0.274599,0.7853982,0.60044616
1459681828,-0.07495391,-0.32255816,0.7853982,0.59905726
1459725867,-0.068841286,-0.36224163,0.7853982,0.5972976
1459766627,-0.057385124,-0.3988608,0.7853982,0.59490013
1459806659,-0.051154844,-0.4465949,0.7853982,0.58581495
1459850640,-0.053832933,-0.4914716,0.7853982,0.5867247
1459890669,-0.05763882,-0.52670735,0.7853982,0.58274484
1459930657,-0.06556486,-0.5696489,0.7853982,0.5829526
1459970625,-0.073935516,-0.61270773,0.7853982,0.58252704
1460011466,-0.13611138,-0.62674284,0.7853982,0.57855916
1460051434,-0.25800538,-0.6028958,0.7853982,0.56990796
1460095494,-0.3430975,-0.571263,0.7853982,0.55985457
1460139422,-0.4641717,-0.5215367,0.7853982,0.5580834
1460179474,-0.5140951,-0.50343764,0.7853982,0.55678004
1460224287,-0.5820483,-0.4598186,0.7853982,0.5482645
1460268272,-0.68952376,-0.4294101,0.7853982,0.5410416
1460312352,-0.74979067,-0.39844504,0.7853982,0.53716236
1460352331,-0.7993478,-0.39534628,0.7853982,0.53868556
1460396286,-0.7840993,-0.38203296,0.7853982,0.53652906
1460437037,-0.82877463,-0.334415,0.7853982,0.5277494
1460477125,-0.8262707,-0.3263579,0.7853982,0.524867
1460521102,-0.7818896,-0.34936196,0.7853982,0.51895803
1460565027,-0.8081792,-0.34216782,0.7853982,0.5128061
1460605029,-0.7613957,-0.3552691,0.7853982,0.5023057
1460645839,-0.78216887,-0.38303652,0.7853982,0.50725675
1460689858,-0.80119324,-0.37690333,0.7853982,0.48619634
1460733821,-0.6758436,-0.43409592,0.7853982,0.49190396
1460773817,-0.69615924,-0.4255545,0.7853982,0.4797178
1460813826,-0.6734128,-0.42062944,0.7853982,0.48089606
1460857859,-0.65090764,-0.4258774,0.7853982,0.46848345
1460898608,-0.5423306,-0.46960008,0.7853982,0.46459198
1460942608,-0.50328696,-0.5051274,0.7853982,0.46141028
1460990697,-0.5153098,-0.52904415,0.7853982,0.46312812
1461030662,-0.4637104,-0.5765779,0.7853982,0.4574897
1461074690,-0.44767702,-0.58849716,0.7853982,0.45197725
1461118712,-0.33956888,-0.69329953,0.7853982,0.44803515
1461159526,-0.3640754,-0.6943537,0.7853982,0.44886884
1461203433,-0.26283875,-0.7494413,0.7853982,0.44505823
1461243509,-0.25834942,-0.76658535,0.7853982,0.4365413
1461287466,-0.18502174,-0.82265353,0.7853982,0.43965918
1461327542,-0.16406217,-0.8481745,0.7853982,0.43462175
1461368275,-0.11640997,-0.8067088,0.7853982,0.43984297
1461408277,-0.10071261,-0.7937075,0.7853982,0.44443026
1461452281,-0.023363864,-0.80311143,0.7853982,0.44431254
1461492254,-0.092219345,-0.77027196,0.7853982,0.45430323
1461536241,-0.020666935,-0.7695958,0.7853982,0.46033138
1461581036,0.005293052,-0.7684084,0.7853982,0.46293753
1461621048,0.051051702,-0.78456604,0.7602357,0.472442
1461665050,0.037126984,-0.7658728,0.7041427,0.48200667
1461709035,-0.003170937,-0.75676507,0.65101516,0.48771116
1461749838,-0.06382758,-0.76010925,0.6028079,0.49357346
1461789830,-0.18490773,-0.7552489,0.55850506,0.4960278
1461833882,-0.18049668,-0.77327627,0.51105255,0.49226975
1461873882,-0.28860068,-0.77676725,0.47165403,0.49337116
1461917878,-0.4153623,-0.7981037,0.42624038,0.48571223
1461957813,-0.49400985,-0.78219086,0.39138746,0.4855063
1462001890,-0.57680786,-0.7585439,0.35663307,0.48508587
1462042651,-0.60984117,-0.74836403,0.32447517,0.48574153
1462082690,-0.724777,-0.7202908,0.29371077,0.48840964
1462126724,-0.75185996,-0.67005527,0.26613563,0.4941575
1462166691,-0.7322046,-0.630247,0.24269111,0.49125198
1462206648,-0.8484847,-0.6030897,0.21728538,0.48808017
1462250695,-0.7938596,-0.56009674,0.19634901,0.49247718
1462291512,-0.81413555,-0.5040578,0.17929272,0.49251392
1462331473,-0.817,-0.48732805,0.16068944,0.50029325
1462371519,-0.8194324,-0.44942018,0.14573774,0.5044588
1462415470,-0.74679387,-0.42795718,0.13002786,0.49887925
1462455454,-0.5381664,-0.7206428,-0.7853982,0.50065523
1462500239,-0.48455033,-0.658602,-0.7853982,0.5004838
1462544275,-0.48089522,-0.6304324,-0.7853982,0.49392506
1462584203,-0.5113406,-0.58209085,-0.7853982,0.49071068
1462628208,-0.56177574,-0.5559525,-0.7853982,0.48820645
1462668212,-0.6177595,-0.5531698,-0.7853982,0.477871
1462712320,-0.63365024,-0.4981362,-0.7853982,0.47645965
1462753066,-0.6740504,-0.41952655,-0.7853982,0.4728985
1462797025,-0.75682807,-0.372393,-0.7853982,0.4760148
1462845041,-0.674759,-0.29564273,-0.7853982,0.47393256
1462885014,-0.7104795,-0.27456158,-0.7853982,0.47494304
1462929073,-0.6840037,-0.18994631,-0.7853982,0.4797063
1462969897,-0.70348096,-0.19254641,-0.7853982,0.4784294
1463013875,-0.6415441,-0.14598617,-0.7853982,0.48249155
1463053897,-0.56703776,-0.08357435,-0.7853982,0.4826201
1463101858,-0.52364135,-0.040300228,-0.7853982,0.4830546
1463149813,-0.4922619,-0.029960928,-0.7853982,0.48907933
1463190647,-0.45137268,0.019074326,-0.7853982,0.4929333
1463238671,-0.37139416,0.051669873,-0.7853982,0.49265522
1463286657,-0.272011,0.06720637,-0.7853982,0.49511304
1463326650,-0.29823998,0.061365977,-0.7853982,0.49722722
1463370624,-0.24531233,0.056794643,-0.7853982,0.4956235
1463419470,-0.20474969,0.00891027,-0.7853982,0.4982252
1463459465,-0.10433359,0.035332404,-0.7853982,0.497549
1463503432,-0.14578485,-0.028976785,-0.7853982,0.4960421
1463543434,-0.06276883,-0.061857887,-0.7853982,0.49804083
1463588320,-0.09000249,-0.08417503,-0.7853982,0.4944787
1463628312,-0.0058683436,-0.08796594,-0.7853982,0.49405542
1463672287,-0.07729515,-0.15786728,-0.7853982,0.4931476
1463716327,-0.09268257,-0.16599746,-0.7853982,0.496051
1463756322,0.0077261636,-0.16303104,-0.7853982,0.4930052
1463800272,-0.020678408,-0.18789752,-0.7853982,0.48752543
1463840262,0.008306995,-0.21665114,-0.7853982,0.4935241
1463885035,-0.038982987,-0.2125384,-0.7853982,0.49169895
1463933077,-0.030353362,-0.23144436,-0.7853982,0.4944506
1463977033,0.057877425,-0.23745568,-0.7853982,0.49409038
1464021070,0.023972163,-0.26045373,-0.7853982,0.49479944
1464061093,-0.007396159,-0.2617728,-0.7853982,0.49233416
1464105926,0.027649103,-0.24710786,-0.7853982,0.48966536
1464149832,0.022872902,-0.28030974,-0.7853982,0.48899314
1464197836,0.059219237,-0.26742342,-0.7853982,0.4904517
1464245844,0.11552638,-0.2503369,-0.7853982,0.48737422
1464285823,0.08827659,-0.25726435,-0.7853982,0.49183068
1464329870,0.11174043,-0.25611603,-0.7853982,0.49502543
1464374691,0.14366043,-0.22255781,-0.7853982,0.49482116
1464414642,0.177573,-0.18525723,-0.7853982,0.4924359
1464458677,0.16151948,-0.18958855,-0.7853982,0.5005091
1464502665,0.19501214,-0.15433224,-0.7853982,0.5002963
1464550654,0.09923651,-0.1254021,-0.7853982,0.50471294
1464591475,0.2073814,-0.10554349,-0.765673,0.5082493
1464631518,0.19058684,-0.101153284,-0.7106667,0.5070873
1464675445,0.20697562,-0.11326352,-0.65336144,0.50954133
1464719470,0.26422295,-0.092974804,-0.59862536,0.51082194
1464763424,0.28090265,-0.09016745,-0.54519427,0.5078106
1464804268,0.25918478,-0.08066799,-0.49783462,0.50898325
1464848288,0.35698694,-0.06095223,-0.45174134,0.5082991
1464896223,0.33899403,-0.038370337,-0.40258875,0.5094555
1464936194,0.34640548,-0.007020561,-0.36566862,0.5133062
1464981065,0.3816087,-0.056628536,-0.32749623,0.5172829
1465025033,0.30297017,-0.11307742,-0.29072616,0.52191585
1465069066,0.2821775,-0.11979547,-0.25826803,0.5180824
1465113037,0.2695792,-0.17191596,-0.22723457,0.52161986
1465153068,0.25532806,-0.18348671,-0.20211352,0.52221024
1465197141,0.23598045,-0.2115816,-0.17625153,0.5212749
1465241822,0.24129969,-0.16552016,-0.15422477,0.5233807
1465285861,0.19560932,-0.064087726,-0.137633,0.52144516
1465329835,0.23629633,-0.024212493,-0.12157059,0.5198258
1465369830,0.16143365,0.019489761,-0.10651419,0.51952094
1465413842,0.1857671,0.031361837,-0.09284187,0.52132607
1465453845,0.22573158,0.060894128,-0.08319104,0.5199174
1465498633,0.15453508,0.07415304,-0.06973425,0.5188014
1465538629,0.18526669,0.07259892,-0.05993092,0.5169013
1465586651,0.20063806,0.09106078,-0.04829202,0.5055815
1465626689,0.16048479,0.0581044,-0.03683429,0.5018445
1465670650,0.19055554,0.017840113,-0.025423242,0.50043523
1465714679,0.18136603,0.027068097,-0.014539702,0.4896633
1465755504,0.29228574,-0.024081599,-0.006624433,0.4879952
1465799485,0.25981987,-0.012567102,0.002353148,0.47344458
1465839473,0.31738135,-0.019890092,0.008709943,0.47797856
1465883508,0.23830895,-0.025094248,0.013774276,0.46954462
1465924289,0.3437227,-0.060543507,0.019945139,0.46995875
1465968254,0.34894022,-0.06818474,0.023050852,0.46345842
1466008243,0.39978674,-0.09666898,0.025935061,0.4699352
1466048236,0.42923254,-0.08690337,0.026257614,0.46583647
1466088254,0.42283478,-0.112960905,0.02851288,0.47278824
1466132339,0.43744484,-0.14857301,0.029844029,0.47723275
1466173108,0.43115982,-0.13543211,0.029643375,0.47742274
1466217042,0.44476604,-0.14988771,0.030456714,0.47980544
1466257029,0.48706576,-0.20023659,0.032490022,0.482643
1466305031,0.45045334,-0.18310823,0.031839583,0.48398516
1466341071,0.38029376,-0.1682351,0.031328764,0.49362752
1466381872,0.34955716,-0.18601732,0.03078092,0.49923918
1466425822,0.27400503,-0.16940568,0.028794559,0.5002015
1466465835,0.2854161,-0.1264647,0.025699243,0.50434047
1466509886,0.2804038,-0.13831826,0.023901384,0.50332224
1466549860,0.25083274,-0.14189737,0.021397358,0.50497574
1466590644,0.23220252,-0.14964488,0.018144552,0.50746655
1466630660,0.2032772,-0.13390738,0.012455273,0.5031324
1466678600,0.2905976,-0.18002291,0.011434952,0.49932685
1466718641,0.16858901,-0.1804962,0.006578899,0.5014615
1466762604,0.21663179,-0.17019613,0.0017296952,0.49961752
1466806664,0.16892338,-0.15000609,-0.00203251,0.49521515
1466846674,0.20334688,-0.17115806,-0.004373734,0.4947842
1466891517,0.1619674,-0.18725277,-0.0065675685,0.49406987
1466935423,0.15559441,-0.17207322,-0.010131616,0.48905665
1466975507,0.18523699,-0.19850469,-0.012572984,0.48928243
1467015504,0.18885767,-0.21328731,-0.014669524,0.48233712
1467059516,0.1583822,-0.18638644,-0.018573256,0.4808214
1467100258,0.09139334,-0.19130597,-0.02222307,0.47944558
1467148251,0.07434838,-0.2166717,-0.02357823,0.48007938
1467188278,0.15154861,-0.23662771,-0.02279721,0.4775095
1467228303,0.07643306,-0.21100469,-0.025663448,0.47581774
1467272270,0.036300004,-0.18945923,-0.02910496,0.47322166
1467313033,0.02361892,-0.18278539,-0.029793043,0.47493976
1467357039,0.08004961,-0.1859074,-0.029302284,0.47862884
1467397107,0.043717444,-0.160349,-0.03068497,0.47699606
1467441036,0.08757389,-0.15844448,-0.03184393,0.48106393
1467485058,0.020203657,-0.1125278,-0.034171283,0.4721095
1467525893,0.062152788,-0.10178116,-0.032838356,0.47293502
1467573850,0.017136583,-0.07043147,-0.035881855,0.47160816
1467613897,0.057320375,-0.09780158,-0.033748344,0.46989483
1467657823,0.080190584,-0.10225013,-0.03352303,0.47670627
1467697867,0.12285813,-0.09448542,-0.03232478,0.47310367
1467737854,0.055729337,-0.09142569,-0.02997562,0.47133452
1467782607,0.16274445,-0.107069656,-0.027996259,0.46490604
1467826612,0.16396815,-0.07357736,-0.026691023,0.46531594
1467870603,0.21325819,-0.042228315,-0.024579545,0.4602524
1467910610,0.27357304,-0.030666607,-0.023425711,0.4589414
1467950672,0.30525756,0.0063317516,-0.023249004,0.45798987
1467998642,0.34014165,0.089293025,-0.023519892,0.46137655
1468039456,0.32471868,0.13635007,-0.022509756,0.4595789
1468079445,0.3759713,0.17039214,-0.02433657,0.46178246
1468123477,0.33509833,0.19478984,-0.023754582,0.46505123
1468167466,0.36210787,0.20442465,-0.02591891,0.45991516
1468207455,0.339214,0.23193927,-0.027135491,0.47000414
1468248282,0.2748241,0.22273034,-0.027420789,0.47034287
1468288226,0.24371615,0.21588081,-0.027668914,0.47420904
1468336268,0.15687189,0.21691099,-0.027935985,0.47737294
1468376298,0.1840366,0.19072044,-0.028175155,0.48595124
1468416258,0.13346493,0.20593958,-0.027330156,0.48928007
1468457076,0.2082049,0.19623075,-0.029294243,0.4884099
1468497101,0.17590035,0.19260226,-0.028593456,0.49086496
1468537102,0.13443738,0.18232192,-0.026985796,0.49802583
1468577022,0.18428081,0.16918878,-0.026973646,0.4971193
1468625094,0.1442225,0.17993397,-0.02617649,0.49029696
1468665820,0.19223334,0.1520029,-0.025640897,0.49218044
1468705882,0.16349682,0.15090604,-0.024892807,0.491786
1468749850,0.14746648,0.17069083,-0.024720784,0.49014193
1468789893,0.14110823,0.14646086,-0.022853417,0.4883764
1468833839,0.14418973,0.12576938,-0.02139004,0.49132267
1468874606,0.07881686,0.14394566,-0.019547675,0.48531213
1468918657,0.10689585,0.17144145,-0.021506878,0.4854982
1468958617,0.087646954,0.16721666,-0.018699793,0.4922456
1469002603,0.10851768,0.16327253,-0.01740572,0.49070212
1469046647,0.06701829,0.15696646,-0.015711881,0.49912006
1469086652,0.109852664,0.13977483,-0.014656402,0.49865544
1469130624,0.110047296,0.13451947,-0.012373517,0.49839333
1469171444,0.06780752,0.14919536,-0.0108153485,0.4979453
1469215450,0.066166416,0.12200468,-0.008162006,0.50046563
1469255466,0.10181823,0.10104251,-0.006826207,0.50195295
1469299422,0.107537426,0.11116844,-0.006216826,0.4998528
1469339416,0.07304795,0.09861539,-0.0035027473,0.5057531
1469380224,0.13207208,0.10363895,-0.0041008038,0.5005444
1469420251,0.1461297,0.11896669,-0.0039514843,0.49752137
1469464287,0.11302695,0.10718424,-0.001621067,0.4997364
1469504269,0.10928209,0.08462578,0.0012077857,0.49904165
1469548252,0.062706,0.089439556,0.0027569307,0.49635616
1469589061,0.15013756,0.092339724,0.0017439441,0.5036832
1469629041,0.13336156,0.090581805,0.0026403693,0.499279
1469673131,0.103310406,0.084058,0.0035170848,0.49954352
1469713098,0.12422406,0.0779074,0.003425324,0.5086668
1469757046,0.07714382,0.07822363,0.004443572,0.49309477
1469797034,0.14966103,0.064992756,0.004590648,0.4990582
1469841844,0.15183537,0.10097296,0.004342129,0.49642542
1469881877,0.1379438,0.120779335,0.004876223,0.4981034
1469925820,0.11857595,0.13775855,0.006104832,0.49045247
1469965876,0.077300526,0.1270207,0.009421145,0.49887687
1470009886,0.10720928,0.18124937,0.006232522,0.4900965
1470050640,0.049675047,0.17470418,0.009774284,0.5019118
1470090648,0.030898575,0.15963788,0.012224552,0.51477194
1470134618,0.01960786,0.1924956,0.012211583,0.5143341
1470178628,0.07732042,0.21675807,0.008792032,0.5131902
1470218634,0.032909043,0.20557171,0.01119357,0.52302426
1470258604,-0.030507162,0.20659083,0.012185439,0.5205436
1470299488,-0.030535383,0.19187951,0.011682385,0.524335
1470343438,-0.06709149,0.17548682,0.011640326,0.52349335
1470383423,-0.039485805,0.13362268,0.010881238,0.5289919
1470427458,-0.03229091,0.10631925,0.009705747,0.5256355
1470467487,0.038207907,0.07353849,0.006880589,0.5227077
1470508237,-0.019660614,0.056070913,0.007394351,0.52009386
1470552310,0.046396997,0.027154075,0.0055295033,0.5185932
1470592326,0.056204543,-0.0074569066,0.0050401315,0.5148181
1470636334,0.012952435,-0.026769236,0.0043116594,0.51148134
1470676440,0.0029889015,-0.027855102,0.0030566412,0.5092787
1470720280,0.057168268,-0.051625792,0.0019153667,0.50518024
1470761077,0.040685106,-0.050251946,-0.0009823696,0.49820846
1470805047,-0.010644332,-0.027528914,-0.0037263301,0.49335793
1470845026,-0.021817397,-0.038179178,-0.0045761685,0.4974423
1470889081,0.015607817,-0.048820723,-0.0059841997,0.49186668
1470933071,0.033690635,-0.07849947,-0.0073437486,0.49494377
1470973868,-0.03152471,-0.051480707,-0.008728914,0.4943082
1471017870,0.030514104,-0.044632986,-0.011465526,0.4881766
1471057923,0.010890201,-0.039486296,-0.012353006,0.4868219
1471101838,-0.046325758,-0.032849602,-0.013533637,0.49035493
1471141905,0.016831359,-0.05001661,-0.015783828,0.49143785
1471186668,-0.02424468,-0.030339096,-0.016813794,0.49098393
1471226641,-0.06980939,-0.034259025,-0.017823182,0.48497155
1471266632,-0.067922466,-0.043396182,-0.017397894,0.49192584
1471310621,-0.021982051,-0.045908872,-0.018151274,0.48174825
1471354648,0.057482995,-0.06856859,-0.019578736,0.48929185
1471394647,0.037590157,-0.08668695,-0.020064762,0.4799764
1471435488,0.07712906,-0.13252759,-0.020077724,0.47878724
1471475493,0.104004264,-0.16200194,-0.020298198,0.47491544
1471519474,0.11651235,-0.20270458,-0.019758655,0.46398816
1471559433,0.14450862,-0.21839371,-0.020655373,0.46096635
1471599458,0.15111092,-0.24455228,-0.019907564,0.45456925
1471643485,0.13080254,-0.25318143,-0.019038636,0.44192475
1471684276,0.12968998,-0.26098597,-0.018158695,0.43957064
1471728229,0.109451614,-0.26808122,-0.01773089,0.43641046
1471768228,0.12721692,-0.25469965,-0.016544994,0.43407464
1471812340,0.046686057,-0.25400117,-0.016567696,0.43423808
1471852327,0.073517315,-0.23542373,-0.015998695,0.43697226
1471897099,0.16242717,-0.22192207,-0.014315752,0.44358933
1471937023,0.15270476,-0.20115508,-0.014454627,0.44782087
1471981063,0.15053515,-0.1856073,-0.01368146,0.45523414
1472025059,0.15301673,-0.16394798,-0.014526876,0.46415335
1472065049,0.10588703,-0.11924066,-0.014487545,0.46769002
1472109131,0.087832466,-0.07588999,-0.014931146,0.46809316
1472149908,0.16850969,-0.07393065,-0.015465606,0.47389027
1472193824,0.044651557,-0.03163915,-0.014629637,0.47475758
1472233881,0.02663633,-0.012014507,-0.014435099,0.4796345
1472277848,0.059353374,-0.00074666867,-0.015094016,0.48198813
1472317863,0.07763433,0.03341212,-0.016548771,0.4870055
1472362684,0.038080785,0.029710658,-0.015924072,0.49496287
1472402618,0.034066904,0.030184392,-0.015996534,0.498748
1472446609,-0.014374703,0.022940982,-0.014657685,0.50127697
1472490644,0.012738406,0.06810228,-0.016442046,0.49694815
1472534605,0.052269176,0.06262887,-0.01666632,0.49814212
1472575436,0.04219296,0.06106674,-0.015546504,0.5023926
1472615422,0.07241828,0.06765462,-0.0160155,0.5013525
1472659468,0.024406662,0.08517084,-0.01461213,0.49755502
1472699457,0.031464305,0.07369138,-0.014522669,0.50096506
1472743443,0.012109097,0.06749813,-0.013443674,0.5046596
1472783431,-0.042401057,0.09152618,-0.014028491,0.5027021
1472828317,0.013759789,0.080513515,-0.014825663,0.5034622
1472868295,-0.0021869761,0.07132226,-0.014528341,0.50851405
1472908268,0.014452605,0.03570254,-0.015218004,0.51516634
1472948278,-0.017238341,0.104819074,-0.016679361,0.50192356
1472993043,0.083181866,0.06123374,-0.017581975,0.50232315
1473033072,0.051228005,0.04817608,-0.017350012,0.5059833
1473077104,0.029487895,0.061899338,-0.018061003,0.5004597
1473117147,0.06354849,0.049777582,-0.018440159,0.49694157
1473161070,0.046002842,0.045403223,-0.018140037,0.49752602
1473201100,0.0065014055,0.027381057,-0.017188046,0.49733308
1473245135,0.027094537,0.02182419,-0.017119654,0.49743474
1473285866,0.037254497,0.016076494,-0.016630052,0.49995592
1473329834,0.038269907,0.038207415,-0.018075014,0.51154506
1473373867,-0.0279928,0.039689686,-0.0160701,0.5114756
1473413873,-0.06075307,0.059286922,-0.01458125,0.51086164
1473453876,-0.01134853,0.081567556,-0.014157212,0.51775897
1473494669,-0.09869601,0.109533146,-0.011481261,0.52015865
1473538611,-0.0610899,0.1382282,-0.009735765,0.5249928
1473578609,-0.12625158,0.17694633,-0.00565979,0.5263742
1473622656,-0.06455583,0.19468021,-0.0038881674,0.52543825
1473662649,-0.09583716,0.18182501,-0.00094680436,0.5310306
1473703501,-0.11525221,0.18543029,0.002024408,0.53201884
1473743463,-0.05757975,0.1892811,0.0017176392,0.5312238
1473787454,-0.047164436,0.16427687,0.0040608128,0.5373473
1473827447,-0.013885585,0.15919471,0.0029301918,0.5272364
1473867452,-0.01443595,0.12725562,0.0048157424,0.531977
1473907435,-0.031837326,0.12810442,0.0062508467,0.52467304
1473951460,0.02757018,0.108822584,0.0058330623,0.5267423
1473992322,-0.01504311,0.09329099,0.00846478,0.52374935
1474032332,0.0062527237,0.103490904,0.009883025,0.5214114
1474076241,-0.0044412836,0.09580422,0.011411071,0.5209416
1474116238,0.016790606,0.070850715,0.012575044,0.52732193
1474161037,0.012725303,0.09753567,0.013077289,0.521921
1474201046,0.057136048,0.1174175,0.0123366555,0.51789194
1474245035,0.02267468,0.101091325,0.013451571,0.5192366
1474285060,-0.012717658,0.07944974,0.015316379,0.5205509
1474329053,0.042105902,0.095719576,0.013175938,0.5158861
1474369052,0.028723165,0.07751165,0.014878418,0.5215499
1474409862,-0.01540582,0.078809224,0.01571388,0.5157114
1474453837,-0.045202058,0.08905038,0.016619528,0.52160156
1474497902,-0.028213855,0.11123934,0.016384572,0.5191962
1474541860,0.018067684,0.0695682,0.01765065,0.5242017
1474581876,-0.0663639,0.07795513,0.019445471,0.52402914
1474621856,-0.027985819,0.103723556,0.01825322,0.51906675
1474662662,0.006769593,0.07373489,0.019556733,0.5310646
1474706691,-0.023281464,0.10241,0.02061657,0.5265803
1474746664,0.025063073,0.11256071,0.01901109,0.52504694
1474790654,-0.036540635,0.10519785,0.02150985,0.5250474
1474830633,-0.022406297,0.09813312,0.022401387,0.52431685
1474875500,-0.05257598,0.11594396,0.02432589,0.52292156
1474915442,0.020164125,0.103544824,0.023488425,0.52432084
