timestamp,noutputs,output[0],output[1],output[2],output[3],output[4],output[5],output[6],output[7],output[8],output[9],output[10],output[11],output[12],output[13],output[14],output[15]
1430857944,8,1120.0,1116.0,1111.0,1108.0,1108.0,1112.0,1117.0,1121.0,0.0,0.0,0.0,0.0,0.0,0.0,0.0,0.0
1430986025,8,1462.0,1458.0,1454.0,1450.0,1451.0,1454.0,1459.0,1462.0,0.0,0.0,0.0,0.0,0.0,0.0,0.0,0.0
1431025965,8,1467.0,1463.0,1458.0,1455.0,1456.0,1459.0,1464.0,1467.0,0.0,0.0,0.0,0.0,0.0,0.0,0.0,0.0
1431070032,8,1472.0,1469.0,1463.0,1461.0,1461.0,1465.0,1469.0,1473.0,0.0,0.0,0.0,0.0,0.0,0.0,0.0,0.0
1431109935,8,1477.0,1474.0,1468.0,1466.0,1465.0,1470.0,1474.0,1478.0,0.0,0.0,0.0,0.0,0.0,0.0,0.0,0.0
1431150805,8,1482.0,1480.0,1473.0,1472.0,1469.0,1474.0,1477.0,1483.0,0.0,0.0,0.0,0.0,0.0,0.0,0.0,0.0
1431194816,8,1488.0,1484.0,1480.0,1476.0,1477.0,1480.0,1485.0,1488.0,0.0,0.0,0.0,0.0,0.0,0.0,0.0,0.0
1431234783,8,1494.0,1490.0,1486.0,1480.0,1480.0,1481.0,1488.0,1491.0,0.0,0.0,0.0,0.0,0.0,0.0,0.0,0.0
1431278810,8,1494.0,1495.0,1488.0,1490.0,1486.0,1493.0,1492.0,1498.0,0.0,0.0,0.0,0.0,0.0,0.0,0.0,0.0
1431318813,8,1506.0,1506.0,1502.0,1495.0,1491.0,1490.0,1495.0,1501.0,0.0,0.0,0.0,0.0,0.0,0.0,0.0,0.0
1431363502,8,1499.0,1510.0,1488.0,1504.0,1490.0,1514.0,1501.0,1520.0,0.0,0.0,0.0,0.0,0.0,0.0,0.0,0.0
1431403566,8,1515.0,1517.0,1506.0,1504.0,1497.0,1504.0,1505.0,1516.0,0.0,0.0,0.0,0.0,0.0,0.0,0.0,0.0
1431447560,8,1524.0,1523.0,1508.0,1505.0,1497.0,1509.0,1514.0,1527.0,0.0,0.0,0.0,0.0,0.0,0.0,0.0,0.0
1431487595,8,1526.0,1523.0,1517.0,1514.0,1513.0,1516.0,1521.0,1526.0,0.0,0.0,0.0,0.0,0.0,0.0,0.0,0.0
1431531545,8,1533.0,1523.0,1522.0,1515.0,1520.0,1520.0,1531.0,1529.0,0.0,0.0,0.0,0.0,0.0,0.0,0.0,0.0
1431571606,8,1535.0,1532.0,1530.0,1527.0,1527.0,1527.0,1531.0,1533.0,0.0,0.0,0.0,0.0,0.0,0.0,0.0,0.0
1431612391,8,1544.0,1537.0,1537.0,1528.0,1531.0,1528.0,1538.0,1537.0,0.0,0.0,0.0,0.0,0.0,0.0,0.0,0.0
1431652349,8,1549.0,1543.0,1545.0,1535.0,1538.0,1533.0,1542.0,1541.0,0.0,0.0,0.0,0.0,0.0,0.0,0.0,0.0
1431696379,8,1554.0,1550.0,1548.0,1541.0,1541.0,1539.0,1547.0,1548.0,0.0,0.0,0.0,0.0,0.0,0.0,0.0,0.0
1431736375,8,1562.0,1555.0,1554.0,1545.0,1548.0,1545.0,1556.0,1556.0,0.0,0.0,0.0,0.0,0.0,0.0,0.0,0.0
1431780351,8,1565.0,1562.0,1557.0,1551.0,1550.0,1553.0,1559.0,1564.0,0.0,0.0,0.0,0.0,0.0,0.0,0.0,0.0
1431820351,8,1572.0,1568.0,1561.0,1556.0,1556.0,1559.0,1566.0,1571.0,0.0,0.0,0.0,0.0,0.0,0.0,0.0,0.0
1431869128,8,1573.0,1567.0,1570.0,1563.0,1567.0,1564.0,1571.0,1568.0,0.0,0.0,0.0,0.0,0.0,0.0,0.0,0.0
1431913192,8,1562.0,1556.0,1584.0,1578.0,1593.0,1570.0,1572.0,1548.0,0.0,0.0,0.0,0.0,0.0,0.0,0.0,0.0
1431953179,8,1550.0,1545.0,1584.0,1584.0,1605.0,1575.0,1571.0,1536.0,0.0,0.0,0.0,0.0,0.0,0.0,0.0,0.0
1431997191,8,1541.0,1539.0,1585.0,1590.0,1613.0,1578.0,1569.0,1527.0,0.0,0.0,0.0,0.0,0.0,0.0,0.0,0.0
1432037941,8,1552.0,1531.0,1586.0,1574.0,1613.0,1569.0,1579.0,1526.0,0.0,0.0,0.0,0.0,0.0,0.0,0.0,0.0
1432077960,8,1562.0,1525.0,1576.0,1548.0,1594.0,1551.0,1580.0,1528.0,0.0,0.0,0.0,0.0,0.0,0.0,0.0,0.0
1432122052,8,1550.0,1523.0,1553.0,1531.0,1562.0,1537.0,1560.0,1528.0,0.0,0.0,0.0,0.0,0.0,0.0,0.0,0.0
1432162096,8,1529.0,1493.0,1534.0,1510.0,1553.0,1521.0,1548.0,1503.0,0.0,0.0,0.0,0.0,0.0,0.0,0.0,0.0
1432205974,8,1521.0,1474.0,1527.0,1483.0,1534.0,1484.0,1528.0,1475.0,0.0,0.0,0.0,0.0,0.0,0.0,0.0,0.0
1432245981,8,1511.0,1452.0,1504.0,1455.0,1515.0,1468.0,1522.0,1465.0,0.0,0.0,0.0,0.0,0.0,0.0,0.0,0.0
1432289991,8,1495.0,1451.0,1500.0,1450.0,1493.0,1442.0,1488.0,1444.0,0.0,0.0,0.0,0.0,0.0,0.0,0.0,0.0
1432330810,8,1482.0,1442.0,1503.0,1452.0,1497.0,1433.0,1476.0,1423.0,0.0,0.0,0.0,0.0,0.0,0.0,0.0,0.0
1432370784,8,1473.0,1421.0,1490.0,1438.0,1497.0,1431.0,1480.0,1414.0,0.0,0.0,0.0,0.0,0.0,0.0,0.0,0.0
1432410793,8,1478.0,1416.0,1479.0,1420.0,1484.0,1422.0,1482.0,1418.0,0.0,0.0,0.0,0.0,0.0,0.0,0.0,0.0
1432454767,8,1475.0,1410.0,1473.0,1418.0,1485.0,1428.0,1487.0,1420.0,0.0,0.0,0.0,0.0,0.0,0.0,0.0,0.0
1432494763,8,1472.0,1397.0,1464.0,1411.0,1492.0,1437.0,1500.0,1422.0,0.0,0.0,0.0,0.0,0.0,0.0,0.0,0.0
1432539538,8,1465.0,1399.0,1447.0,1412.0,1483.0,1451.0,1502.0,1438.0,0.0,0.0,0.0,0.0,0.0,0.0,0.0,0.0
1432579568,8,1467.0,1396.0,1446.0,1409.0,1486.0,1452.0,1507.0,1439.0,0.0,0.0,0.0,0.0,0.0,0.0,0.0,0.0
1432623504,8,1469.0,1398.0,1444.0,1406.0,1481.0,1451.0,1507.0,1443.0,0.0,0.0,0.0,0.0,0.0,0.0,0.0,0.0
1432663497,8,1475.0,1398.0,1445.0,1403.0,1482.0,1450.0,1512.0,1445.0,0.0,0.0,0.0,0.0,0.0,0.0,0.0,0.0
1432704343,8,1475.0,1400.0,1439.0,1402.0,1479.0,1455.0,1514.0,1453.0,0.0,0.0,0.0,0.0,0.0,0.0,0.0,0.0
1432744332,8,1485.0,1406.0,1451.0,1399.0,1476.0,1441.0,1510.0,1448.0,0.0,0.0,0.0,0.0,0.0,0.0,0.0,0.0
1432788360,8,1485.0,1412.0,1448.0,1402.0,1472.0,1446.0,1510.0,1456.0,0.0,0.0,0.0,0.0,0.0,0.0,0.0,0.0
1432828414,8,1489.0,1407.0,1451.0,1398.0,1476.0,1444.0,1514.0,1453.0,0.0,0.0,0.0,0.0,0.0,0.0,0.0,0.0
1432872383,8,1487.0,1416.0,1452.0,1406.0,1472.0,1445.0,1508.0,1456.0,0.0,0.0,0.0,0.0,0.0,0.0,0.0,0.0
1432912417,8,1489.0,1417.0,1457.0,1407.0,1475.0,1442.0,1507.0,1452.0,0.0,0.0,0.0,0.0,0.0,0.0,0.0,0.0
1432953132,8,1487.0,1417.0,1455.0,1407.0,1473.0,1442.0,1504.0,1451.0,0.0,0.0,0.0,0.0,0.0,0.0,0.0,0.0
1432997216,8,1487.0,1409.0,1455.0,1404.0,1480.0,1445.0,1512.0,1450.0,0.0,0.0,0.0,0.0,0.0,0.0,0.0,0.0
1433037200,8,1490.0,1415.0,1458.0,1405.0,1475.0,1440.0,1507.0,1450.0,0.0,0.0,0.0,0.0,0.0,0.0,0.0,0.0
1433081147,8,1492.0,1418.0,1466.0,1409.0,1478.0,1436.0,1504.0,1445.0,0.0,0.0,0.0,0.0,0.0,0.0,0.0,0.0
1433125180,8,1483.0,1417.0,1460.0,1415.0,1481.0,1446.0,1504.0,1448.0,0.0,0.0,0.0,0.0,0.0,0.0,0.0,0.0
1433169981,8,1486.0,1415.0,1465.0,1416.0,1487.0,1447.0,1509.0,1446.0,0.0,0.0,0.0,0.0,0.0,0.0,0.0,0.0
1433213948,8,1483.0,1416.0,1462.0,1416.0,1483.0,1447.0,1504.0,1446.0,0.0,0.0,0.0,0.0,0.0,0.0,0.0,0.0
1433254027,8,1482.0,1416.0,1461.0,1418.0,1485.0,1450.0,1506.0,1448.0,0.0,0.0,0.0,0.0,0.0,0.0,0.0,0.0
1433298021,8,1481.0,1412.0,1460.0,1417.0,1489.0,1453.0,1511.0,1448.0,0.0,0.0,0.0,0.0,0.0,0.0,0.0,0.0
1433338017,8,1484.0,1414.0,1463.0,1419.0,1491.0,1453.0,1512.0,1448.0,0.0,0.0,0.0,0.0,0.0,0.0,0.0,0.0
1433382042,8,1482.0,1415.0,1462.0,1420.0,1488.0,1452.0,1508.0,1447.0,0.0,0.0,0.0,0.0,0.0,0.0,0.0,0.0
1433422091,8,1479.0,1413.0,1461.0,1422.0,1493.0,1458.0,1511.0,1448.0,0.0,0.0,0.0,0.0,0.0,0.0,0.0,0.0
1433466824,8,1477.0,1416.0,1457.0,1424.0,1489.0,1460.0,1508.0,1452.0,0.0,0.0,0.0,0.0,0.0,0.0,0.0,0.0
1433510751,8,1485.0,1422.0,1469.0,1426.0,1491.0,1453.0,1507.0,1448.0,0.0,0.0,0.0,0.0,0.0,0.0,0.0,0.0
1433554784,8,1483.0,1418.0,1465.0,1424.0,1493.0,1457.0,1511.0,1450.0,0.0,0.0,0.0,0.0,0.0,0.0,0.0,0.0
1433594793,8,1483.0,1425.0,1465.0,1430.0,1490.0,1460.0,1508.0,1455.0,0.0,0.0,0.0,0.0,0.0,0.0,0.0,0.0
1433634814,8,1481.0,1425.0,1463.0,1429.0,1487.0,1459.0,1505.0,1455.0,0.0,0.0,0.0,0.0,0.0,0.0,0.0,0.0
1433679531,8,1484.0,1419.0,1459.0,1422.0,1490.0,1462.0,1515.0,1459.0,0.0,0.0,0.0,0.0,0.0,0.0,0.0,0.0
1433719523,8,1485.0,1418.0,1454.0,1419.0,1486.0,1463.0,1517.0,1463.0,0.0,0.0,0.0,0.0,0.0,0.0,0.0,0.0
1433763540,8,1493.0,1414.0,1458.0,1413.0,1491.0,1460.0,1525.0,1462.0,0.0,0.0,0.0,0.0,0.0,0.0,0.0,0.0
1433803586,8,1492.0,1411.0,1464.0,1416.0,1499.0,1461.0,1528.0,1456.0,0.0,0.0,0.0,0.0,0.0,0.0,0.0,0.0
1433847514,8,1488.0,1414.0,1463.0,1420.0,1496.0,1461.0,1520.0,1455.0,0.0,0.0,0.0,0.0,0.0,0.0,0.0,0.0
1433888330,8,1489.0,1408.0,1465.0,1417.0,1501.0,1459.0,1525.0,1451.0,0.0,0.0,0.0,0.0,0.0,0.0,0.0,0.0
1433932379,8,1484.0,1402.0,1462.0,1416.0,1504.0,1461.0,1525.0,1447.0,0.0,0.0,0.0,0.0,0.0,0.0,0.0,0.0
1433972418,8,1485.0,1404.0,1464.0,1416.0,1502.0,1458.0,1524.0,1446.0,0.0,0.0,0.0,0.0,0.0,0.0,0.0,0.0
1434016385,8,1485.0,1409.0,1470.0,1421.0,1502.0,1454.0,1517.0,1442.0,0.0,0.0,0.0,0.0,0.0,0.0,0.0,0.0
1434056343,8,1482.0,1409.0,1462.0,1420.0,1496.0,1458.0,1516.0,1447.0,0.0,0.0,0.0,0.0,0.0,0.0,0.0,0.0
1434097200,8,1488.0,1412.0,1468.0,1420.0,1498.0,1456.0,1518.0,1448.0,0.0,0.0,0.0,0.0,0.0,0.0,0.0,0.0
1434141207,8,1485.0,1410.0,1467.0,1421.0,1500.0,1456.0,1517.0,1446.0,0.0,0.0,0.0,0.0,0.0,0.0,0.0,0.0
1434181193,8,1487.0,1412.0,1463.0,1415.0,1492.0,1453.0,1516.0,1450.0,0.0,0.0,0.0,0.0,0.0,0.0,0.0,0.0
1434221219,8,1489.0,1409.0,1466.0,1417.0,1500.0,1458.0,1523.0,1450.0,0.0,0.0,0.0,0.0,0.0,0.0,0.0,0.0
1434265153,8,1477.0,1413.0,1464.0,1427.0,1498.0,1462.0,1512.0,1447.0,0.0,0.0,0.0,0.0,0.0,0.0,0.0,0.0
1434305950,8,1476.0,1419.0,1463.0,1434.0,1497.0,1467.0,1510.0,1452.0,0.0,0.0,0.0,0.0,0.0,0.0,0.0,0.0
1434345944,8,1476.0,1412.0,1457.0,1429.0,1499.0,1472.0,1518.0,1455.0,0.0,0.0,0.0,0.0,0.0,0.0,0.0,0.0
1434390002,8,1471.0,1405.0,1446.0,1425.0,1499.0,1479.0,1523.0,1460.0,0.0,0.0,0.0,0.0,0.0,0.0,0.0,0.0
1434430009,8,1473.0,1409.0,1451.0,1427.0,1499.0,1477.0,1521.0,1459.0,0.0,0.0,0.0,0.0,0.0,0.0,0.0,0.0
1434473969,8,1476.0,1415.0,1458.0,1430.0,1497.0,1470.0,1515.0,1455.0,0.0,0.0,0.0,0.0,0.0,0.0,0.0,0.0
1434513969,8,1474.0,1415.0,1454.0,1430.0,1495.0,1473.0,1515.0,1459.0,0.0,0.0,0.0,0.0,0.0,0.0,0.0,0.0
1434557994,8,1487.0,1418.0,1466.0,1428.0,1500.0,1466.0,1520.0,1456.0,0.0,0.0,0.0,0.0,0.0,0.0,0.0,0.0
1434598810,8,1480.0,1419.0,1456.0,1427.0,1492.0,1470.0,1517.0,1462.0,0.0,0.0,0.0,0.0,0.0,0.0,0.0,0.0
1434642726,8,1482.0,1420.0,1455.0,1426.0,1490.0,1470.0,1517.0,1464.0,0.0,0.0,0.0,0.0,0.0,0.0,0.0,0.0
1434682766,8,1484.0,1414.0,1452.0,1420.0,1492.0,1470.0,1524.0,1464.0,0.0,0.0,0.0,0.0,0.0,0.0,0.0,0.0
1434726808,8,1479.0,1413.0,1447.0,1421.0,1490.0,1475.0,1523.0,1467.0,0.0,0.0,0.0,0.0,0.0,0.0,0.0,0.0
1434766792,8,1479.0,1413.0,1442.0,1419.0,1487.0,1477.0,1524.0,1472.0,0.0,0.0,0.0,0.0,0.0,0.0,0.0,0.0
1434807674,8,1482.0,1418.0,1442.0,1417.0,1481.0,1473.0,1521.0,1473.0,0.0,0.0,0.0,0.0,0.0,0.0,0.0,0.0
1434851549,8,1481.0,1416.0,1443.0,1414.0,1478.0,1466.0,1517.0,1468.0,0.0,0.0,0.0,0.0,0.0,0.0,0.0,0.0
1434891510,8,1485.0,1423.0,1450.0,1419.0,1478.0,1463.0,1513.0,1468.0,0.0,0.0,0.0,0.0,0.0,0.0,0.0,0.0
1434935530,8,1486.0,1423.0,1445.0,1412.0,1470.0,1459.0,1512.0,1470.0,0.0,0.0,0.0,0.0,0.0,0.0,0.0,0.0
1434975534,8,1489.0,1422.0,1455.0,1415.0,1480.0,1457.0,1514.0,1463.0,0.0,0.0,0.0,0.0,0.0,0.0,0.0,0.0
1435019547,8,1487.0,1418.0,1454.0,1414.0,1482.0,1457.0,1515.0,1461.0,0.0,0.0,0.0,0.0,0.0,0.0,0.0,0.0
1435060328,8,1485.0,1419.0,1452.0,1417.0,1482.0,1461.0,1515.0,1464.0,0.0,0.0,0.0,0.0,0.0,0.0,0.0,0.0
1435104370,8,1491.0,1414.0,1460.0,1413.0,1490.0,1456.0,1521.0,1457.0,0.0,0.0,0.0,0.0,0.0,0.0,0.0,0.0
1435144358,8,1486.0,1415.0,1456.0,1416.0,1488.0,1459.0,1517.0,1458.0,0.0,0.0,0.0,0.0,0.0,0.0,0.0,0.0
1435188380,8,1486.0,1417.0,1455.0,1416.0,1486.0,1459.0,1517.0,1460.0,0.0,0.0,0.0,0.0,0.0,0.0,0.0,0.0
1435228433,8,1487.0,1415.0,1456.0,1416.0,1489.0,1461.0,1519.0,1459.0,0.0,0.0,0.0,0.0,0.0,0.0,0.0,0.0
1435273186,8,1491.0,1403.0,1455.0,1408.0,1498.0,1464.0,1534.0,1459.0,0.0,0.0,0.0,0.0,0.0,0.0,0.0,0.0
1435317280,8,1491.0,1413.0,1457.0,1412.0,1489.0,1458.0,1522.0,1460.0,0.0,0.0,0.0,0.0,0.0,0.0,0.0,0.0
1435357228,8,1493.0,1415.0,1459.0,1412.0,1489.0,1458.0,1523.0,1460.0,0.0,0.0,0.0,0.0,0.0,0.0,0.0,0.0
1435401223,8,1492.0,1407.0,1460.0,1412.0,1498.0,1462.0,1530.0,1457.0,0.0,0.0,0.0,0.0,0.0,0.0,0.0,0.0
1435442008,8,1496.0,1411.0,1462.0,1410.0,1494.0,1456.0,1527.0,1457.0,0.0,0.0,0.0,0.0,0.0,0.0,0.0,0.0
1435485976,8,1500.0,1421.0,1474.0,1418.0,1495.0,1452.0,1521.0,1455.0,0.0,0.0,0.0,0.0,0.0,0.0,0.0,0.0
1435525976,8,1495.0,1418.0,1470.0,1419.0,1497.0,1456.0,1522.0,1455.0,0.0,0.0,0.0,0.0,0.0,0.0,0.0,0.0
1435569988,8,1495.0,1413.0,1470.0,1418.0,1503.0,1460.0,1529.0,1454.0,0.0,0.0,0.0,0.0,0.0,0.0,0.0,0.0
1435609986,8,1495.0,1413.0,1468.0,1417.0,1502.0,1461.0,1529.0,1456.0,0.0,0.0,0.0,0.0,0.0,0.0,0.0,0.0
1435654039,8,1497.0,1418.0,1472.0,1419.0,1498.0,1455.0,1523.0,1454.0,0.0,0.0,0.0,0.0,0.0,0.0,0.0,0.0
1435694011,8,1496.0,1418.0,1472.0,1419.0,1497.0,1454.0,1522.0,1454.0,0.0,0.0,0.0,0.0,0.0,0.0,0.0,0.0
1435738751,8,1494.0,1417.0,1466.0,1418.0,1496.0,1459.0,1524.0,1458.0,0.0,0.0,0.0,0.0,0.0,0.0,0.0,0.0
1435782754,8,1499.0,1412.0,1472.0,1411.0,1498.0,1450.0,1526.0,1450.0,0.0,0.0,0.0,0.0,0.0,0.0,0.0,0.0
1435822789,8,1502.0,1414.0,1472.0,1411.0,1498.0,1451.0,1529.0,1454.0,0.0,0.0,0.0,0.0,0.0,0.0,0.0,0.0
1435862788,8,1501.0,1423.0,1475.0,1418.0,1494.0,1450.0,1520.0,1454.0,0.0,0.0,0.0,0.0,0.0,0.0,0.0,0.0
1435906751,8,1495.0,1420.0,1471.0,1419.0,1493.0,1452.0,1518.0,1453.0,0.0,0.0,0.0,0.0,0.0,0.0,0.0,0.0
1435951567,8,1497.0,1419.0,1474.0,1421.0,1500.0,1456.0,1523.0,1454.0,0.0,0.0,0.0,0.0,0.0,0.0,0.0,0.0
1435991579,8,1499.0,1416.0,1472.0,1417.0,1500.0,1455.0,1526.0,1454.0,0.0,0.0,0.0,0.0,0.0,0.0,0.0,0.0
1436035505,8,1504.0,1423.0,1478.0,1420.0,1500.0,1453.0,1525.0,1456.0,0.0,0.0,0.0,0.0,0.0,0.0,0.0,0.0
1436075497,8,1507.0,1426.0,1479.0,1418.0,1496.0,1450.0,1524.0,1458.0,0.0,0.0,0.0,0.0,0.0,0.0,0.0,0.0
1436120406,8,1507.0,1422.0,1476.0,1415.0,1498.0,1453.0,1529.0,1459.0,0.0,0.0,0.0,0.0,0.0,0.0,0.0,0.0
1436160412,8,1507.0,1426.0,1476.0,1416.0,1494.0,1451.0,1525.0,1461.0,0.0,0.0,0.0,0.0,0.0,0.0,0.0,0.0
1436200409,8,1510.0,1426.0,1474.0,1413.0,1491.0,1450.0,1527.0,1463.0,0.0,0.0,0.0,0.0,0.0,0.0,0.0,0.0
1436244409,8,1515.0,1422.0,1474.0,1407.0,1494.0,1449.0,1535.0,1464.0,0.0,0.0,0.0,0.0,0.0,0.0,0.0,0.0
1436288409,8,1515.0,1426.0,1475.0,1409.0,1491.0,1448.0,1530.0,1465.0,0.0,0.0,0.0,0.0,0.0,0.0,0.0,0.0
1436332461,8,1514.0,1424.0,1475.0,1407.0,1491.0,1446.0,1530.0,1463.0,0.0,0.0,0.0,0.0,0.0,0.0,0.0,0.0
1436372445,8,1515.0,1423.0,1475.0,1406.0,1491.0,1446.0,1532.0,1463.0,0.0,0.0,0.0,0.0,0.0,0.0,0.0,0.0
1436417184,8,1511.0,1416.0,1473.0,1404.0,1495.0,1447.0,1534.0,1459.0,0.0,0.0,0.0,0.0,0.0,0.0,0.0,0.0
1436457215,8,1512.0,1418.0,1474.0,1405.0,1494.0,1446.0,1532.0,1459.0,0.0,0.0,0.0,0.0,0.0,0.0,0.0,0.0
1436501151,8,1515.0,1415.0,1478.0,1403.0,1498.0,1443.0,1534.0,1455.0,0.0,0.0,0.0,0.0,0.0,0.0,0.0,0.0
1436541134,8,1517.0,1413.0,1482.0,1402.0,1501.0,1439.0,1535.0,1451.0,0.0,0.0,0.0,0.0,0.0,0.0,0.0,0.0
1436585156,8,1515.0,1418.0,1482.0,1407.0,1499.0,1442.0,1532.0,1454.0,0.0,0.0,0.0,0.0,0.0,0.0,0.0,0.0
1436625912,8,1516.0,1414.0,1482.0,1403.0,1501.0,1440.0,1534.0,1451.0,0.0,0.0,0.0,0.0,0.0,0.0,0.0,0.0
1436669948,8,1514.0,1410.0,1479.0,1401.0,1500.0,1440.0,1535.0,1450.0,0.0,0.0,0.0,0.0,0.0,0.0,0.0,0.0
1436710033,8,1511.0,1410.0,1482.0,1403.0,1502.0,1438.0,1531.0,1445.0,0.0,0.0,0.0,0.0,0.0,0.0,0.0,0.0
1436753896,8,1508.0,1416.0,1482.0,1410.0,1500.0,1442.0,1526.0,1447.0,0.0,0.0,0.0,0.0,0.0,0.0,0.0,0.0
1436797983,8,1505.0,1413.0,1482.0,1412.0,1504.0,1444.0,1527.0,1444.0,0.0,0.0,0.0,0.0,0.0,0.0,0.0,0.0
1436837993,8,1502.0,1414.0,1481.0,1415.0,1503.0,1446.0,1524.0,1445.0,0.0,0.0,0.0,0.0,0.0,0.0,0.0,0.0
1436882778,8,1498.0,1419.0,1476.0,1420.0,1500.0,1452.0,1521.0,1450.0,0.0,0.0,0.0,0.0,0.0,0.0,0.0,0.0
1436922714,8,1498.0,1423.0,1473.0,1419.0,1493.0,1451.0,1518.0,1455.0,0.0,0.0,0.0,0.0,0.0,0.0,0.0,0.0
1436966791,8,1502.0,1424.0,1477.0,1418.0,1494.0,1449.0,1520.0,1455.0,0.0,0.0,0.0,0.0,0.0,0.0,0.0,0.0
1437006793,8,1503.0,1426.0,1474.0,1417.0,1491.0,1450.0,1520.0,1458.0,0.0,0.0,0.0,0.0,0.0,0.0,0.0,0.0
1437050768,8,1506.0,1435.0,1476.0,1422.0,1488.0,1451.0,1518.0,1464.0,0.0,0.0,0.0,0.0,0.0,0.0,0.0,0.0
1437091578,8,1509.0,1435.0,1477.0,1422.0,1490.0,1454.0,1522.0,1467.0,0.0,0.0,0.0,0.0,0.0,0.0,0.0,0.0
1437131570,8,1510.0,1436.0,1474.0,1421.0,1488.0,1455.0,1524.0,1470.0,0.0,0.0,0.0,0.0,0.0,0.0,0.0,0.0
1437175662,8,1513.0,1435.0,1472.0,1417.0,1488.0,1457.0,1528.0,1474.0,0.0,0.0,0.0,0.0,0.0,0.0,0.0,0.0
1437215779,8,1513.0,1434.0,1471.0,1415.0,1486.0,1455.0,1528.0,1474.0,0.0,0.0,0.0,0.0,0.0,0.0,0.0,0.0
1437255582,8,1512.0,1431.0,1468.0,1413.0,1486.0,1458.0,1531.0,1476.0,0.0,0.0,0.0,0.0,0.0,0.0,0.0,0.0
1437299531,8,1514.0,1437.0,1471.0,1415.0,1483.0,1455.0,1527.0,1477.0,0.0,0.0,0.0,0.0,0.0,0.0,0.0,0.0
1437340369,8,1511.0,1437.0,1463.0,1414.0,1477.0,1457.0,1525.0,1481.0,0.0,0.0,0.0,0.0,0.0,0.0,0.0,0.0
1437380388,8,1509.0,1436.0,1464.0,1415.0,1479.0,1458.0,1525.0,1479.0,0.0,0.0,0.0,0.0,0.0,0.0,0.0,0.0
1437424433,8,1508.0,1432.0,1461.0,1412.0,1480.0,1458.0,1526.0,1478.0,0.0,0.0,0.0,0.0,0.0,0.0,0.0,0.0
1437464404,8,1507.0,1435.0,1460.0,1413.0,1475.0,1457.0,1523.0,1480.0,0.0,0.0,0.0,0.0,0.0,0.0,0.0,0.0
1437508377,8,1505.0,1437.0,1466.0,1419.0,1480.0,1457.0,1520.0,1475.0,0.0,0.0,0.0,0.0,0.0,0.0,0.0,0.0
1437549137,8,1505.0,1435.0,1466.0,1418.0,1482.0,1456.0,1520.0,1472.0,0.0,0.0,0.0,0.0,0.0,0.0,0.0,0.0
1437593197,8,1502.0,1429.0,1463.0,1416.0,1484.0,1459.0,1523.0,1471.0,0.0,0.0,0.0,0.0,0.0,0.0,0.0,0.0
1437633250,8,1500.0,1428.0,1468.0,1419.0,1487.0,1455.0,1519.0,1464.0,0.0,0.0,0.0,0.0,0.0,0.0,0.0,0.0
1437673224,8,1498.0,1429.0,1469.0,1422.0,1489.0,1456.0,1517.0,1463.0,0.0,0.0,0.0,0.0,0.0,0.0,0.0,0.0
1437717212,8,1497.0,1426.0,1470.0,1422.0,1491.0,1456.0,1518.0,1459.0,0.0,0.0,0.0,0.0,0.0,0.0,0.0,0.0
1437762028,8,1497.0,1429.0,1476.0,1428.0,1495.0,1457.0,1517.0,1458.0,0.0,0.0,0.0,0.0,0.0,0.0,0.0,0.0
1437805898,8,1503.0,1426.0,1478.0,1421.0,1496.0,1452.0,1521.0,1457.0,0.0,0.0,0.0,0.0,0.0,0.0,0.0,0.0
1437845913,8,1503.0,1424.0,1479.0,1421.0,1499.0,1453.0,1524.0,1456.0,0.0,0.0,0.0,0.0,0.0,0.0,0.0,0.0
1437889975,8,1505.0,1431.0,1484.0,1426.0,1497.0,1449.0,1518.0,1455.0,0.0,0.0,0.0,0.0,0.0,0.0,0.0,0.0
1437929986,8,1506.0,1429.0,1485.0,1424.0,1500.0,1450.0,1521.0,1454.0,0.0,0.0,0.0,0.0,0.0,0.0,0.0,0.0
1437973916,8,1501.0,1422.0,1474.0,1420.0,1499.0,1456.0,1526.0,1458.0,0.0,0.0,0.0,0.0,0.0,0.0,0.0,0.0
1438013928,8,1503.0,1422.0,1479.0,1422.0,1503.0,1456.0,1527.0,1456.0,0.0,0.0,0.0,0.0,0.0,0.0,0.0,0.0
1438058815,8,1503.0,1414.0,1476.0,1417.0,1506.0,1457.0,1533.0,1454.0,0.0,0.0,0.0,0.0,0.0,0.0,0.0,0.0
1438098796,8,1502.0,1414.0,1475.0,1418.0,1507.0,1460.0,1534.0,1456.0,0.0,0.0,0.0,0.0,0.0,0.0,0.0,0.0
1438138766,8,1499.0,1412.0,1473.0,1416.0,1505.0,1457.0,1531.0,1453.0,0.0,0.0,0.0,0.0,0.0,0.0,0.0,0.0
1438178753,8,1497.0,1411.0,1473.0,1418.0,1507.0,1459.0,1531.0,1452.0,0.0,0.0,0.0,0.0,0.0,0.0,0.0,0.0
1438222752,8,1500.0,1409.0,1480.0,1420.0,1515.0,1458.0,1534.0,1448.0,0.0,0.0,0.0,0.0,0.0,0.0,0.0,0.0
1438263624,8,1501.0,1404.0,1482.0,1418.0,1521.0,1458.0,1539.0,1444.0,0.0,0.0,0.0,0.0,0.0,0.0,0.0,0.0
1438307577,8,1493.0,1411.0,1476.0,1424.0,1512.0,1462.0,1530.0,1449.0,0.0,0.0,0.0,0.0,0.0,0.0,0.0,0.0
1438347566,8,1495.0,1413.0,1481.0,1427.0,1514.0,1460.0,1528.0,1447.0,0.0,0.0,0.0,0.0,0.0,0.0,0.0,0.0
1438391565,8,1497.0,1414.0,1482.0,1424.0,1512.0,1456.0,1527.0,1446.0,0.0,0.0,0.0,0.0,0.0,0.0,0.0,0.0
1438432427,8,1496.0,1416.0,1482.0,1425.0,1509.0,1454.0,1523.0,1445.0,0.0,0.0,0.0,0.0,0.0,0.0,0.0,0.0
1438472461,8,1495.0,1420.0,1480.0,1427.0,1506.0,1456.0,1520.0,1448.0,0.0,0.0,0.0,0.0,0.0,0.0,0.0,0.0
1438516404,8,1494.0,1420.0,1477.0,1428.0,1506.0,1460.0,1522.0,1451.0,0.0,0.0,0.0,0.0,0.0,0.0,0.0,0.0
1438556381,8,1491.0,1417.0,1470.0,1427.0,1505.0,1466.0,1526.0,1456.0,0.0,0.0,0.0,0.0,0.0,0.0,0.0,0.0
1438600420,8,1497.0,1415.0,1474.0,1422.0,1507.0,1462.0,1529.0,1455.0,0.0,0.0,0.0,0.0,0.0,0.0,0.0,0.0
1438640457,8,1500.0,1412.0,1475.0,1418.0,1509.0,1460.0,1534.0,1454.0,0.0,0.0,0.0,0.0,0.0,0.0,0.0,0.0
1438681197,8,1496.0,1412.0,1469.0,1420.0,1507.0,1465.0,1533.0,1457.0,0.0,0.0,0.0,0.0,0.0,0.0,0.0,0.0
1438721205,8,1496.0,1412.0,1470.0,1419.0,1507.0,1464.0,1533.0,1456.0,0.0,0.0,0.0,0.0,0.0,0.0,0.0,0.0
1438765211,8,1495.0,1422.0,1472.0,1426.0,1501.0,1462.0,1524.0,1458.0,0.0,0.0,0.0,0.0,0.0,0.0,0.0,0.0
1438805194,8,1502.0,1424.0,1481.0,1426.0,1505.0,1457.0,1525.0,1455.0,0.0,0.0,0.0,0.0,0.0,0.0,0.0,0.0
1438849204,8,1502.0,1414.0,1475.0,1416.0,1506.0,1457.0,1532.0,1454.0,0.0,0.0,0.0,0.0,0.0,0.0,0.0,0.0
1438889967,8,1500.0,1421.0,1473.0,1419.0,1498.0,1456.0,1525.0,1458.0,0.0,0.0,0.0,0.0,0.0,0.0,0.0,0.0
1438933905,8,1506.0,1421.0,1482.0,1422.0,1506.0,1455.0,1530.0,1455.0,0.0,0.0,0.0,0.0,0.0,0.0,0.0,0.0
1438973918,8,1502.0,1419.0,1477.0,1421.0,1504.0,1457.0,1529.0,1455.0,0.0,0.0,0.0,0.0,0.0,0.0,0.0,0.0
1439017969,8,1502.0,1421.0,1473.0,1418.0,1498.0,1456.0,1527.0,1459.0,0.0,0.0,0.0,0.0,0.0,0.0,0.0,0.0
1439057968,8,1502.0,1423.0,1471.0,1419.0,1496.0,1459.0,1527.0,1463.0,0.0,0.0,0.0,0.0,0.0,0.0,0.0,0.0
1439102018,8,1501.0,1423.0,1469.0,1419.0,1495.0,1460.0,1527.0,1464.0,0.0,0.0,0.0,0.0,0.0,0.0,0.0,0.0
1439146771,8,1511.0,1424.0,1473.0,1411.0,1492.0,1450.0,1530.0,1464.0,0.0,0.0,0.0,0.0,0.0,0.0,0.0,0.0
1439186783,8,1511.0,1422.0,1472.0,1410.0,1496.0,1455.0,1535.0,1466.0,0.0,0.0,0.0,0.0,0.0,0.0,0.0,0.0
1439230791,8,1503.0,1432.0,1469.0,1421.0,1488.0,1458.0,1522.0,1469.0,0.0,0.0,0.0,0.0,0.0,0.0,0.0,0.0
1439270738,8,1503.0,1430.0,1472.0,1421.0,1491.0,1456.0,1521.0,1465.0,0.0,0.0,0.0,0.0,0.0,0.0,0.0,0.0
1439314763,8,1501.0,1428.0,1467.0,1421.0,1492.0,1463.0,1526.0,1470.0,0.0,0.0,0.0,0.0,0.0,0.0,0.0,0.0
1439355578,8,1502.0,1430.0,1469.0,1419.0,1487.0,1456.0,1521.0,1466.0,0.0,0.0,0.0,0.0,0.0,0.0,0.0,0.0
1439399573,8,1504.0,1433.0,1472.0,1420.0,1487.0,1453.0,1519.0,1465.0,0.0,0.0,0.0,0.0,0.0,0.0,0.0,0.0
1439439552,8,1500.0,1433.0,1472.0,1426.0,1491.0,1459.0,1519.0,1466.0,0.0,0.0,0.0,0.0,0.0,0.0,0.0,0.0
1439483615,8,1496.0,1425.0,1469.0,1425.0,1495.0,1463.0,1522.0,1463.0,0.0,0.0,0.0,0.0,0.0,0.0,0.0,0.0
1439527541,8,1493.0,1430.0,1471.0,1432.0,1495.0,1464.0,1517.0,1463.0,0.0,0.0,0.0,0.0,0.0,0.0,0.0,0.0
1439567555,8,1494.0,1429.0,1472.0,1432.0,1497.0,1465.0,1520.0,1463.0,0.0,0.0,0.0,0.0,0.0,0.0,0.0,0.0
1439612486,8,1494.0,1435.0,1474.0,1439.0,1499.0,1470.0,1518.0,1466.0,0.0,0.0,0.0,0.0,0.0,0.0,0.0,0.0
1439652450,8,1490.0,1436.0,1471.0,1440.0,1496.0,1471.0,1515.0,1467.0,0.0,0.0,0.0,0.0,0.0,0.0,0.0,0.0
1439696332,8,1491.0,1439.0,1469.0,1441.0,1494.0,1474.0,1516.0,1472.0,0.0,0.0,0.0,0.0,0.0,0.0,0.0,0.0
1439736352,8,1493.0,1439.0,1469.0,1439.0,1494.0,1474.0,1518.0,1474.0,0.0,0.0,0.0,0.0,0.0,0.0,0.0,0.0
1439780363,8,1493.0,1443.0,1467.0,1441.0,1490.0,1476.0,1516.0,1477.0,0.0,0.0,0.0,0.0,0.0,0.0,0.0,0.0
1439820408,8,1499.0,1446.0,1474.0,1439.0,1490.0,1468.0,1514.0,1474.0,0.0,0.0,0.0,0.0,0.0,0.0,0.0,0.0
1439865198,8,1499.0,1449.0,1471.0,1441.0,1487.0,1471.0,1514.0,1480.0,0.0,0.0,0.0,0.0,0.0,0.0,0.0,0.0
1439905144,8,1499.0,1448.0,1472.0,1439.0,1486.0,1469.0,1513.0,1478.0,0.0,0.0,0.0,0.0,0.0,0.0,0.0,0.0
1439949191,8,1499.0,1449.0,1469.0,1438.0,1483.0,1470.0,1514.0,1480.0,0.0,0.0,0.0,0.0,0.0,0.0,0.0,0.0
1439989167,8,1500.0,1443.0,1470.0,1435.0,1489.0,1471.0,1520.0,1478.0,0.0,0.0,0.0,0.0,0.0,0.0,0.0,0.0
1440029949,8,1497.0,1446.0,1465.0,1436.0,1483.0,1471.0,1515.0,1481.0,0.0,0.0,0.0,0.0,0.0,0.0,0.0,0.0
1440069956,8,1499.0,1448.0,1468.0,1436.0,1483.0,1469.0,1515.0,1481.0,0.0,0.0,0.0,0.0,0.0,0.0,0.0,0.0
1440113922,8,1501.0,1446.0,1466.0,1434.0,1483.0,1470.0,1517.0,1483.0,0.0,0.0,0.0,0.0,0.0,0.0,0.0,0.0
1440153891,8,1502.0,1448.0,1469.0,1433.0,1482.0,1467.0,1515.0,1481.0,0.0,0.0,0.0,0.0,0.0,0.0,0.0,0.0
1440197947,8,1503.0,1446.0,1467.0,1431.0,1482.0,1467.0,1518.0,1482.0,0.0,0.0,0.0,0.0,0.0,0.0,0.0,0.0
1440237982,8,1500.0,1444.0,1462.0,1431.0,1482.0,1472.0,1519.0,1484.0,0.0,0.0,0.0,0.0,0.0,0.0,0.0,0.0
1440282001,8,1504.0,1442.0,1466.0,1428.0,1484.0,1467.0,1522.0,1481.0,0.0,0.0,0.0,0.0,0.0,0.0,0.0,0.0
1440326797,8,1504.0,1445.0,1471.0,1431.0,1484.0,1464.0,1518.0,1478.0,0.0,0.0,0.0,0.0,0.0,0.0,0.0,0.0
1440366773,8,1504.0,1442.0,1473.0,1432.0,1490.0,1465.0,1520.0,1475.0,0.0,0.0,0.0,0.0,0.0,0.0,0.0,0.0
1440410795,8,1503.0,1441.0,1475.0,1433.0,1492.0,1465.0,1519.0,1473.0,0.0,0.0,0.0,0.0,0.0,0.0,0.0,0.0
1440450791,8,1500.0,1439.0,1477.0,1434.0,1493.0,1461.0,1516.0,1466.0,0.0,0.0,0.0,0.0,0.0,0.0,0.0,0.0
1440494815,8,1498.0,1436.0,1476.0,1434.0,1494.0,1462.0,1516.0,1464.0,0.0,0.0,0.0,0.0,0.0,0.0,0.0,0.0
1440535798,8,1499.0,1432.0,1478.0,1432.0,1499.0,1462.0,1520.0,1462.0,0.0,0.0,0.0,0.0,0.0,0.0,0.0,0.0
1440575582,8,1501.0,1427.0,1478.0,1430.0,1506.0,1466.0,1528.0,1462.0,0.0,0.0,0.0,0.0,0.0,0.0,0.0,0.0
1440619595,8,1499.0,1430.0,1475.0,1431.0,1501.0,1467.0,1525.0,1465.0,0.0,0.0,0.0,0.0,0.0,0.0,0.0,0.0
1440659631,8,1502.0,1428.0,1475.0,1427.0,1500.0,1463.0,1527.0,1465.0,0.0,0.0,0.0,0.0,0.0,0.0,0.0,0.0
1440699516,8,1502.0,1423.0,1471.0,1422.0,1501.0,1466.0,1533.0,1467.0,0.0,0.0,0.0,0.0,0.0,0.0,0.0,0.0
1440740400,8,1503.0,1422.0,1469.0,1420.0,1500.0,1467.0,1535.0,1469.0,0.0,0.0,0.0,0.0,0.0,0.0,0.0,0.0
1440784377,8,1502.0,1424.0,1472.0,1423.0,1500.0,1463.0,1530.0,1465.0,0.0,0.0,0.0,0.0,0.0,0.0,0.0,0.0
1440824449,8,1501.0,1424.0,1472.0,1423.0,1499.0,1462.0,1528.0,1464.0,0.0,0.0,0.0,0.0,0.0,0.0,0.0,0.0
1440868434,8,1498.0,1425.0,1469.0,1425.0,1497.0,1465.0,1526.0,1465.0,0.0,0.0,0.0,0.0,0.0,0.0,0.0,0.0
1440908419,8,1498.0,1424.0,1469.0,1424.0,1498.0,1465.0,1527.0,1465.0,0.0,0.0,0.0,0.0,0.0,0.0,0.0,0.0
1440952414,8,1498.0,1412.0,1466.0,1416.0,1503.0,1465.0,1535.0,1461.0,0.0,0.0,0.0,0.0,0.0,0.0,0.0,0.0
1440993142,8,1497.0,1419.0,1464.0,1419.0,1497.0,1465.0,1530.0,1465.0,0.0,0.0,0.0,0.0,0.0,0.0,0.0,0.0
1441037205,8,1502.0,1419.0,1473.0,1419.0,1502.0,1460.0,1531.0,1460.0,0.0,0.0,0.0,0.0,0.0,0.0,0.0,0.0
1441077239,8,1501.0,1417.0,1468.0,1414.0,1498.0,1458.0,1530.0,1460.0,0.0,0.0,0.0,0.0,0.0,0.0,0.0,0.0
1441121140,8,1500.0,1422.0,1467.0,1416.0,1491.0,1456.0,1524.0,1462.0,0.0,0.0,0.0,0.0,0.0,0.0,0.0,0.0
1441161901,8,1503.0,1422.0,1468.0,1413.0,1491.0,1454.0,1526.0,1463.0,0.0,0.0,0.0,0.0,0.0,0.0,0.0,0.0
1441205957,8,1501.0,1413.0,1465.0,1410.0,1496.0,1458.0,1533.0,1461.0,0.0,0.0,0.0,0.0,0.0,0.0,0.0,0.0
1441249919,8,1503.0,1418.0,1469.0,1412.0,1494.0,1453.0,1527.0,1459.0,0.0,0.0,0.0,0.0,0.0,0.0,0.0,0.0
1441289921,8,1503.0,1418.0,1475.0,1413.0,1497.0,1449.0,1525.0,1453.0,0.0,0.0,0.0,0.0,0.0,0.0,0.0,0.0
1441333948,8,1496.0,1410.0,1468.0,1413.0,1500.0,1456.0,1529.0,1453.0,0.0,0.0,0.0,0.0,0.0,0.0,0.0,0.0
1441373945,8,1497.0,1407.0,1471.0,1414.0,1507.0,1458.0,1533.0,1451.0,0.0,0.0,0.0,0.0,0.0,0.0,0.0,0.0
1441417925,8,1497.0,1408.0,1469.0,1411.0,1501.0,1453.0,1528.0,1450.0,0.0,0.0,0.0,0.0,0.0,0.0,0.0,0.0
1441458780,8,1500.0,1405.0,1474.0,1409.0,1506.0,1450.0,1532.0,1446.0,0.0,0.0,0.0,0.0,0.0,0.0,0.0,0.0
1441502824,8,1497.0,1401.0,1469.0,1410.0,1510.0,1459.0,1538.0,1450.0,0.0,0.0,0.0,0.0,0.0,0.0,0.0,0.0
1441542756,8,1496.0,1398.0,1471.0,1411.0,1514.0,1458.0,1538.0,1446.0,0.0,0.0,0.0,0.0,0.0,0.0,0.0,0.0
1441586787,8,1494.0,1400.0,1470.0,1411.0,1511.0,1457.0,1535.0,1445.0,0.0,0.0,0.0,0.0,0.0,0.0,0.0,0.0
1441626743,8,1492.0,1393.0,1465.0,1409.0,1514.0,1462.0,1540.0,1446.0,0.0,0.0,0.0,0.0,0.0,0.0,0.0,0.0
1441667568,8,1490.0,1399.0,1463.0,1414.0,1511.0,1466.0,1537.0,1451.0,0.0,0.0,0.0,0.0,0.0,0.0,0.0,0.0
1441711648,8,1495.0,1402.0,1469.0,1412.0,1509.0,1458.0,1534.0,1448.0,0.0,0.0,0.0,0.0,0.0,0.0,0.0,0.0
1441751616,8,1491.0,1401.0,1465.0,1410.0,1504.0,1456.0,1530.0,1447.0,0.0,0.0,0.0,0.0,0.0,0.0,0.0,0.0
1441795606,8,1491.0,1402.0,1467.0,1412.0,1504.0,1455.0,1528.0,1445.0,0.0,0.0,0.0,0.0,0.0,0.0,0.0,0.0
1441835572,8,1488.0,1407.0,1463.0,1415.0,1500.0,1459.0,1525.0,1451.0,0.0,0.0,0.0,0.0,0.0,0.0,0.0,0.0
1441879639,8,1493.0,1409.0,1468.0,1417.0,1506.0,1462.0,1531.0,1453.0,0.0,0.0,0.0,0.0,0.0,0.0,0.0,0.0
1441920412,8,1493.0,1410.0,1469.0,1418.0,1505.0,1461.0,1530.0,1453.0,0.0,0.0,0.0,0.0,0.0,0.0,0.0,0.0
1441964327,8,1489.0,1414.0,1460.0,1418.0,1495.0,1463.0,1524.0,1459.0,0.0,0.0,0.0,0.0,0.0,0.0,0.0,0.0
1442004388,8,1492.0,1417.0,1457.0,1416.0,1490.0,1464.0,1526.0,1466.0,0.0,0.0,0.0,0.0,0.0,0.0,0.0,0.0
1442048371,8,1498.0,1422.0,1464.0,1415.0,1490.0,1458.0,1525.0,1465.0,0.0,0.0,0.0,0.0,0.0,0.0,0.0,0.0
1442088403,8,1496.0,1426.0,1464.0,1422.0,1490.0,1463.0,1522.0,1466.0,0.0,0.0,0.0,0.0,0.0,0.0,0.0,0.0
1442133185,8,1492.0,1424.0,1459.0,1422.0,1490.0,1468.0,1523.0,1470.0,0.0,0.0,0.0,0.0,0.0,0.0,0.0,0.0
1442173136,8,1492.0,1425.0,1462.0,1425.0,1492.0,1467.0,1522.0,1467.0,0.0,0.0,0.0,0.0,0.0,0.0,0.0,0.0
1442213167,8,1496.0,1432.0,1465.0,1426.0,1489.0,1465.0,1520.0,1471.0,0.0,0.0,0.0,0.0,0.0,0.0,0.0,0.0
1442257191,8,1501.0,1430.0,1463.0,1423.0,1491.0,1470.0,1530.0,1477.0,0.0,0.0,0.0,0.0,0.0,0.0,0.0,0.0
1442301190,8,1500.0,1428.0,1461.0,1419.0,1489.0,1467.0,1528.0,1475.0,0.0,0.0,0.0,0.0,0.0,0.0,0.0,0.0
1442341892,8,1501.0,1426.0,1461.0,1418.0,1490.0,1467.0,1530.0,1475.0,0.0,0.0,0.0,0.0,0.0,0.0,0.0,0.0
1442381899,8,1501.0,1429.0,1462.0,1421.0,1490.0,1468.0,1529.0,1476.0,0.0,0.0,0.0,0.0,0.0,0.0,0.0,0.0
1442425943,8,1502.0,1425.0,1462.0,1419.0,1493.0,1469.0,1533.0,1475.0,0.0,0.0,0.0,0.0,0.0,0.0,0.0,0.0
1442465947,8,1502.0,1425.0,1456.0,1415.0,1488.0,1470.0,1534.0,1480.0,0.0,0.0,0.0,0.0,0.0,0.0,0.0,0.0
1442505937,8,1504.0,1427.0,1461.0,1417.0,1490.0,1467.0,1532.0,1477.0,0.0,0.0,0.0,0.0,0.0,0.0,0.0,0.0
1442545981,8,1501.0,1426.0,1460.0,1420.0,1493.0,1474.0,1535.0,1479.0,0.0,0.0,0.0,0.0,0.0,0.0,0.0,0.0
1442586779,8,1505.0,1424.0,1467.0,1419.0,1498.0,1467.0,1535.0,1473.0,0.0,0.0,0.0,0.0,0.0,0.0,0.0,0.0
1442626773,8,1507.0,1425.0,1469.0,1420.0,1499.0,1468.0,1537.0,1473.0,0.0,0.0,0.0,0.0,0.0,0.0,0.0,0.0
1442666777,8,1505.0,1425.0,1473.0,1423.0,1502.0,1466.0,1534.0,1469.0,0.0,0.0,0.0,0.0,0.0,0.0,0.0,0.0
1442710757,8,1501.0,1424.0,1466.0,1424.0,1501.0,1474.0,1536.0,1473.0,0.0,0.0,0.0,0.0,0.0,0.0,0.0,0.0
1442754783,8,1505.0,1422.0,1472.0,1422.0,1505.0,1469.0,1538.0,1468.0,0.0,0.0,0.0,0.0,0.0,0.0,0.0,0.0
1442794798,8,1502.0,1422.0,1468.0,1423.0,1504.0,1473.0,1538.0,1471.0,0.0,0.0,0.0,0.0,0.0,0.0,0.0,0.0
1442835570,8,1499.0,1424.0,1465.0,1424.0,1500.0,1473.0,1534.0,1473.0,0.0,0.0,0.0,0.0,0.0,0.0,0.0,0.0
1442875586,8,1499.0,1423.0,1466.0,1425.0,1502.0,1474.0,1535.0,1471.0,0.0,0.0,0.0,0.0,0.0,0.0,0.0,0.0
1442919542,8,1497.0,1421.0,1463.0,1422.0,1498.0,1470.0,1532.0,1469.0,0.0,0.0,0.0,0.0,0.0,0.0,0.0,0.0
1442960303,8,1497.0,1419.0,1464.0,1423.0,1502.0,1473.0,1535.0,1469.0,0.0,0.0,0.0,0.0,0.0,0.0,0.0,0.0
1443004367,8,1498.0,1423.0,1465.0,1424.0,1500.0,1473.0,1533.0,1471.0,0.0,0.0,0.0,0.0,0.0,0.0,0.0,0.0
1443044369,8,1493.0,1420.0,1461.0,1424.0,1499.0,1473.0,1531.0,1469.0,0.0,0.0,0.0,0.0,0.0,0.0,0.0,0.0
1443088346,8,1491.0,1418.0,1454.0,1421.0,1496.0,1476.0,1533.0,1473.0,0.0,0.0,0.0,0.0,0.0,0.0,0.0,0.0
1443128331,8,1493.0,1419.0,1457.0,1422.0,1497.0,1476.0,1534.0,1474.0,0.0,0.0,0.0,0.0,0.0,0.0,0.0,0.0
1443172386,8,1495.0,1417.0,1459.0,1421.0,1500.0,1475.0,1536.0,1471.0,0.0,0.0,0.0,0.0,0.0,0.0,0.0,0.0
1443212450,8,1497.0,1415.0,1458.0,1419.0,1502.0,1477.0,1540.0,1473.0,0.0,0.0,0.0,0.0,0.0,0.0,0.0,0.0
1443256359,8,1493.0,1421.0,1454.0,1420.0,1491.0,1474.0,1531.0,1476.0,0.0,0.0,0.0,0.0,0.0,0.0,0.0,0.0
1443297246,8,1499.0,1422.0,1465.0,1420.0,1496.0,1465.0,1529.0,1467.0,0.0,0.0,0.0,0.0,0.0,0.0,0.0,0.0
1443337182,8,1498.0,1421.0,1461.0,1418.0,1494.0,1468.0,1532.0,1471.0,0.0,0.0,0.0,0.0,0.0,0.0,0.0,0.0
1443381200,8,1498.0,1420.0,1459.0,1419.0,1497.0,1473.0,1535.0,1474.0,0.0,0.0,0.0,0.0,0.0,0.0,0.0,0.0
1443421230,8,1493.0,1417.0,1459.0,1421.0,1497.0,1471.0,1530.0,1468.0,0.0,0.0,0.0,0.0,0.0,0.0,0.0,0.0
1443466007,8,1496.0,1421.0,1468.0,1425.0,1501.0,1468.0,1530.0,1464.0,0.0,0.0,0.0,0.0,0.0,0.0,0.0,0.0
1443505994,8,1497.0,1417.0,1470.0,1426.0,1509.0,1473.0,1537.0,1464.0,0.0,0.0,0.0,0.0,0.0,0.0,0.0,0.0
1443549986,8,1493.0,1417.0,1463.0,1422.0,1500.0,1470.0,1531.0,1465.0,0.0,0.0,0.0,0.0,0.0,0.0,0.0,0.0
1443589959,8,1496.0,1419.0,1471.0,1423.0,1503.0,1464.0,1528.0,1459.0,0.0,0.0,0.0,0.0,0.0,0.0,0.0,0.0
1443633987,8,1493.0,1419.0,1466.0,1425.0,1502.0,1470.0,1529.0,1464.0,0.0,0.0,0.0,0.0,0.0,0.0,0.0,0.0
1443674781,8,1491.0,1419.0,1461.0,1425.0,1500.0,1474.0,1530.0,1468.0,0.0,0.0,0.0,0.0,0.0,0.0,0.0,0.0
1443718758,8,1497.0,1420.0,1466.0,1422.0,1499.0,1468.0,1530.0,1466.0,0.0,0.0,0.0,0.0,0.0,0.0,0.0,0.0
1443758750,8,1500.0,1420.0,1467.0,1422.0,1503.0,1471.0,1536.0,1469.0,0.0,0.0,0.0,0.0,0.0,0.0,0.0,0.0
1443802783,8,1495.0,1425.0,1464.0,1426.0,1496.0,1471.0,1527.0,1470.0,0.0,0.0,0.0,0.0,0.0,0.0,0.0,0.0
1443846732,8,1494.0,1419.0,1458.0,1422.0,1498.0,1475.0,1533.0,1472.0,0.0,0.0,0.0,0.0,0.0,0.0,0.0,0.0
1443886757,8,1491.0,1418.0,1456.0,1422.0,1496.0,1475.0,1531.0,1471.0,0.0,0.0,0.0,0.0,0.0,0.0,0.0,0.0
1443930780,8,1495.0,1422.0,1468.0,1427.0,1502.0,1470.0,1529.0,1465.0,0.0,0.0,0.0,0.0,0.0,0.0,0.0,0.0
1443971576,8,1490.0,1420.0,1466.0,1429.0,1503.0,1472.0,1527.0,1463.0,0.0,0.0,0.0,0.0,0.0,0.0,0.0,0.0
1444015590,8,1484.0,1419.0,1461.0,1430.0,1499.0,1472.0,1521.0,1462.0,0.0,0.0,0.0,0.0,0.0,0.0,0.0,0.0
1444055529,8,1483.0,1417.0,1458.0,1427.0,1497.0,1473.0,1523.0,1463.0,0.0,0.0,0.0,0.0,0.0,0.0,0.0,0.0
1444099586,8,1482.0,1412.0,1454.0,1423.0,1498.0,1474.0,1526.0,1463.0,0.0,0.0,0.0,0.0,0.0,0.0,0.0,0.0
1444140393,8,1484.0,1415.0,1462.0,1427.0,1501.0,1470.0,1523.0,1458.0,0.0,0.0,0.0,0.0,0.0,0.0,0.0,0.0
1444184385,8,1488.0,1414.0,1464.0,1423.0,1501.0,1467.0,1525.0,1458.0,0.0,0.0,0.0,0.0,0.0,0.0,0.0,0.0
1444224393,8,1486.0,1412.0,1458.0,1423.0,1501.0,1473.0,1529.0,1463.0,0.0,0.0,0.0,0.0,0.0,0.0,0.0,0.0
1444268441,8,1485.0,1412.0,1458.0,1424.0,1502.0,1475.0,1530.0,1463.0,0.0,0.0,0.0,0.0,0.0,0.0,0.0,0.0
1444308400,8,1489.0,1412.0,1464.0,1423.0,1505.0,1470.0,1530.0,1459.0,0.0,0.0,0.0,0.0,0.0,0.0,0.0,0.0
1444352411,8,1484.0,1417.0,1458.0,1425.0,1496.0,1471.0,1523.0,1463.0,0.0,0.0,0.0,0.0,0.0,0.0,0.0,0.0
1444396476,8,1489.0,1412.0,1454.0,1416.0,1495.0,1470.0,1530.0,1466.0,0.0,0.0,0.0,0.0,0.0,0.0,0.0,0.0
1444437235,8,1487.0,1412.0,1453.0,1418.0,1495.0,1472.0,1530.0,1467.0,0.0,0.0,0.0,0.0,0.0,0.0,0.0,0.0
1444481139,8,1493.0,1419.0,1462.0,1421.0,1496.0,1467.0,1527.0,1465.0,0.0,0.0,0.0,0.0,0.0,0.0,0.0,0.0
1444525151,8,1490.0,1416.0,1454.0,1417.0,1493.0,1471.0,1529.0,1469.0,0.0,0.0,0.0,0.0,0.0,0.0,0.0,0.0
1444569124,8,1499.0,1419.0,1469.0,1419.0,1500.0,1463.0,1530.0,1462.0,0.0,0.0,0.0,0.0,0.0,0.0,0.0,0.0
1444609960,8,1497.0,1414.0,1462.0,1415.0,1498.0,1466.0,1534.0,1465.0,0.0,0.0,0.0,0.0,0.0,0.0,0.0,0.0
1444649948,8,1499.0,1414.0,1460.0,1413.0,1497.0,1466.0,1535.0,1467.0,0.0,0.0,0.0,0.0,0.0,0.0,0.0,0.0
1444693924,8,1500.0,1422.0,1463.0,1417.0,1493.0,1464.0,1530.0,1469.0,0.0,0.0,0.0,0.0,0.0,0.0,0.0,0.0
1444733917,8,1500.0,1423.0,1465.0,1419.0,1494.0,1464.0,1529.0,1468.0,0.0,0.0,0.0,0.0,0.0,0.0,0.0,0.0
1444773944,8,1501.0,1418.0,1467.0,1416.0,1498.0,1462.0,1532.0,1464.0,0.0,0.0,0.0,0.0,0.0,0.0,0.0,0.0
1444817932,8,1500.0,1416.0,1469.0,1421.0,1507.0,1469.0,1538.0,1464.0,0.0,0.0,0.0,0.0,0.0,0.0,0.0,0.0
1444858783,8,1501.0,1410.0,1468.0,1418.0,1512.0,1472.0,1544.0,1464.0,0.0,0.0,0.0,0.0,0.0,0.0,0.0,0.0
1444898734,8,1500.0,1410.0,1467.0,1419.0,1512.0,1475.0,1545.0,1466.0,0.0,0.0,0.0,0.0,0.0,0.0,0.0,0.0
1444942776,8,1505.0,1417.0,1472.0,1418.0,1506.0,1465.0,1539.0,1464.0,0.0,0.0,0.0,0.0,0.0,0.0,0.0,0.0
1444982778,8,1501.0,1422.0,1466.0,1421.0,1499.0,1469.0,1534.0,1470.0,0.0,0.0,0.0,0.0,0.0,0.0,0.0,0.0
1445026780,8,1509.0,1412.0,1466.0,1411.0,1507.0,1470.0,1550.0,1472.0,0.0,0.0,0.0,0.0,0.0,0.0,0.0,0.0
1445066736,8,1515.0,1415.0,1473.0,1413.0,1512.0,1471.0,1555.0,1473.0,0.0,0.0,0.0,0.0,0.0,0.0,0.0,0.0
1445111592,8,1509.0,1418.0,1472.0,1416.0,1506.0,1466.0,1543.0,1468.0,0.0,0.0,0.0,0.0,0.0,0.0,0.0,0.0
1445155610,8,1512.0,1416.0,1471.0,1415.0,1510.0,1472.0,1551.0,1473.0,0.0,0.0,0.0,0.0,0.0,0.0,0.0,0.0
1445195648,8,1511.0,1422.0,1475.0,1421.0,1510.0,1472.0,1546.0,1473.0,0.0,0.0,0.0,0.0,0.0,0.0,0.0,0.0
1445235595,8,1512.0,1421.0,1475.0,1419.0,1509.0,1469.0,1546.0,1470.0,0.0,0.0,0.0,0.0,0.0,0.0,0.0,0.0
1445279633,8,1511.0,1424.0,1474.0,1421.0,1506.0,1470.0,1543.0,1473.0,0.0,0.0,0.0,0.0,0.0,0.0,0.0,0.0
1445324345,8,1515.0,1422.0,1472.0,1414.0,1504.0,1467.0,1546.0,1474.0,0.0,0.0,0.0,0.0,0.0,0.0,0.0,0.0
1445364390,8,1511.0,1420.0,1466.0,1413.0,1501.0,1471.0,1547.0,1478.0,0.0,0.0,0.0,0.0,0.0,0.0,0.0,0.0
1445408348,8,1509.0,1423.0,1471.0,1423.0,1508.0,1476.0,1546.0,1477.0,0.0,0.0,0.0,0.0,0.0,0.0,0.0,0.0
1445448378,8,1510.0,1424.0,1472.0,1422.0,1508.0,1475.0,1546.0,1476.0,0.0,0.0,0.0,0.0,0.0,0.0,0.0,0.0
1445492456,8,1510.0,1426.0,1472.0,1423.0,1506.0,1474.0,1544.0,1476.0,0.0,0.0,0.0,0.0,0.0,0.0,0.0,0.0
1445532455,8,1508.0,1424.0,1473.0,1424.0,1508.0,1473.0,1542.0,1472.0,0.0,0.0,0.0,0.0,0.0,0.0,0.0,0.0
1445577187,8,1510.0,1423.0,1475.0,1420.0,1507.0,1468.0,1542.0,1470.0,0.0,0.0,0.0,0.0,0.0,0.0,0.0,0.0
1445617176,8,1511.0,1422.0,1474.0,1418.0,1506.0,1468.0,1544.0,1471.0,0.0,0.0,0.0,0.0,0.0,0.0,0.0,0.0
1445661188,8,1510.0,1427.0,1475.0,1423.0,1504.0,1468.0,1538.0,1472.0,0.0,0.0,0.0,0.0,0.0,0.0,0.0,0.0
1445701187,8,1514.0,1429.0,1478.0,1424.0,1506.0,1469.0,1542.0,1475.0,0.0,0.0,0.0,0.0,0.0,0.0,0.0,0.0
1445742032,8,1516.0,1430.0,1479.0,1422.0,1505.0,1466.0,1542.0,1474.0,0.0,0.0,0.0,0.0,0.0,0.0,0.0,0.0
1445782033,8,1509.0,1424.0,1472.0,1423.0,1507.0,1474.0,1544.0,1476.0,0.0,0.0,0.0,0.0,0.0,0.0,0.0,0.0
1445825917,8,1505.0,1428.0,1469.0,1424.0,1500.0,1471.0,1536.0,1475.0,0.0,0.0,0.0,0.0,0.0,0.0,0.0,0.0
1445869942,8,1507.0,1426.0,1474.0,1426.0,1507.0,1473.0,1540.0,1473.0,0.0,0.0,0.0,0.0,0.0,0.0,0.0,0.0
1445909944,8,1507.0,1423.0,1470.0,1423.0,1507.0,1475.0,1544.0,1475.0,0.0,0.0,0.0,0.0,0.0,0.0,0.0,0.0
1445949926,8,1507.0,1427.0,1473.0,1425.0,1505.0,1472.0,1539.0,1473.0,0.0,0.0,0.0,0.0,0.0,0.0,0.0,0.0
1445993933,8,1508.0,1424.0,1474.0,1426.0,1510.0,1474.0,1543.0,1473.0,0.0,0.0,0.0,0.0,0.0,0.0,0.0,0.0
1446038803,8,1508.0,1428.0,1473.0,1427.0,1508.0,1476.0,1543.0,1477.0,0.0,0.0,0.0,0.0,0.0,0.0,0.0,0.0
1446078772,8,1514.0,1427.0,1475.0,1422.0,1506.0,1471.0,1545.0,1477.0,0.0,0.0,0.0,0.0,0.0,0.0,0.0,0.0
1446122773,8,1510.0,1431.0,1471.0,1424.0,1500.0,1472.0,1539.0,1479.0,0.0,0.0,0.0,0.0,0.0,0.0,0.0,0.0
1446162751,8,1511.0,1432.0,1471.0,1424.0,1499.0,1472.0,1539.0,1480.0,0.0,0.0,0.0,0.0,0.0,0.0,0.0,0.0
1446206787,8,1508.0,1427.0,1467.0,1421.0,1501.0,1475.0,1542.0,1480.0,0.0,0.0,0.0,0.0,0.0,0.0,0.0,0.0
1446247617,8,1508.0,1428.0,1469.0,1424.0,1503.0,1476.0,1542.0,1480.0,0.0,0.0,0.0,0.0,0.0,0.0,0.0,0.0
1446287595,8,1512.0,1428.0,1470.0,1420.0,1501.0,1471.0,1542.0,1479.0,0.0,0.0,0.0,0.0,0.0,0.0,0.0,0.0
1446331657,8,1519.0,1434.0,1474.0,1421.0,1500.0,1471.0,1545.0,1484.0,0.0,0.0,0.0,0.0,0.0,0.0,0.0,0.0
1446371571,8,1517.0,1431.0,1475.0,1421.0,1503.0,1472.0,1546.0,1481.0,0.0,0.0,0.0,0.0,0.0,0.0,0.0,0.0
1446415656,8,1512.0,1430.0,1471.0,1423.0,1502.0,1473.0,1542.0,1480.0,0.0,0.0,0.0,0.0,0.0,0.0,0.0,0.0
1446455615,8,1515.0,1426.0,1478.0,1422.0,1509.0,1469.0,1545.0,1474.0,0.0,0.0,0.0,0.0,0.0,0.0,0.0,0.0
1446500308,8,1512.0,1419.0,1466.0,1415.0,1506.0,1475.0,1551.0,1479.0,0.0,0.0,0.0,0.0,0.0,0.0,0.0,0.0
1446540382,8,1508.0,1421.0,1467.0,1417.0,1503.0,1472.0,1545.0,1476.0,0.0,0.0,0.0,0.0,0.0,0.0,0.0,0.0
1446584358,8,1513.0,1419.0,1472.0,1417.0,1510.0,1472.0,1551.0,1474.0,0.0,0.0,0.0,0.0,0.0,0.0,0.0,0.0
1446624443,8,1508.0,1416.0,1463.0,1415.0,1507.0,1478.0,1552.0,1479.0,0.0,0.0,0.0,0.0,0.0,0.0,0.0,0.0
1446668335,8,1508.0,1416.0,1463.0,1411.0,1501.0,1471.0,1547.0,1476.0,0.0,0.0,0.0,0.0,0.0,0.0,0.0,0.0
1446709195,8,1508.0,1419.0,1462.0,1413.0,1500.0,1472.0,1546.0,1478.0,0.0,0.0,0.0,0.0,0.0,0.0,0.0,0.0
1446753176,8,1509.0,1415.0,1455.0,1407.0,1498.0,1475.0,1551.0,1483.0,0.0,0.0,0.0,0.0,0.0,0.0,0.0,0.0
1446793178,8,1503.0,1415.0,1448.0,1405.0,1490.0,1473.0,1544.0,1482.0,0.0,0.0,0.0,0.0,0.0,0.0,0.0,0.0
1446837221,8,1502.0,1412.0,1449.0,1404.0,1492.0,1471.0,1544.0,1478.0,0.0,0.0,0.0,0.0,0.0,0.0,0.0,0.0
1446877235,8,1499.0,1412.0,1454.0,1407.0,1492.0,1465.0,1537.0,1470.0,0.0,0.0,0.0,0.0,0.0,0.0,0.0,0.0
1446917983,8,1496.0,1410.0,1450.0,1408.0,1493.0,1471.0,1539.0,1473.0,0.0,0.0,0.0,0.0,0.0,0.0,0.0,0.0
1446961996,8,1496.0,1420.0,1454.0,1415.0,1489.0,1470.0,1531.0,1475.0,0.0,0.0,0.0,0.0,0.0,0.0,0.0,0.0
1447001918,8,1494.0,1425.0,1452.0,1419.0,1484.0,1472.0,1526.0,1478.0,0.0,0.0,0.0,0.0,0.0,0.0,0.0,0.0
1447042003,8,1489.0,1416.0,1446.0,1413.0,1484.0,1471.0,1528.0,1474.0,0.0,0.0,0.0,0.0,0.0,0.0,0.0,0.0
1447082023,8,1496.0,1413.0,1448.0,1406.0,1486.0,1467.0,1534.0,1474.0,0.0,0.0,0.0,0.0,0.0,0.0,0.0,0.0
1447121999,8,1496.0,1412.0,1448.0,1403.0,1483.0,1463.0,1532.0,1472.0,0.0,0.0,0.0,0.0,0.0,0.0,0.0,0.0
1447162782,8,1497.0,1415.0,1453.0,1407.0,1485.0,1460.0,1529.0,1468.0,0.0,0.0,0.0,0.0,0.0,0.0,0.0,0.0
1447202775,8,1497.0,1415.0,1451.0,1406.0,1484.0,1463.0,1531.0,1472.0,0.0,0.0,0.0,0.0,0.0,0.0,0.0,0.0
1447246747,8,1495.0,1411.0,1450.0,1410.0,1494.0,1472.0,1539.0,1473.0,0.0,0.0,0.0,0.0,0.0,0.0,0.0,0.0
1447286750,8,1491.0,1412.0,1447.0,1411.0,1491.0,1474.0,1535.0,1474.0,0.0,0.0,0.0,0.0,0.0,0.0,0.0,0.0
1447330784,8,1495.0,1414.0,1448.0,1410.0,1488.0,1471.0,1535.0,1476.0,0.0,0.0,0.0,0.0,0.0,0.0,0.0,0.0
1447370757,8,1496.0,1417.0,1455.0,1414.0,1491.0,1468.0,1532.0,1471.0,0.0,0.0,0.0,0.0,0.0,0.0,0.0,0.0
1447411608,8,1493.0,1413.0,1455.0,1416.0,1497.0,1473.0,1535.0,1470.0,0.0,0.0,0.0,0.0,0.0,0.0,0.0,0.0
1447455540,8,1487.0,1414.0,1450.0,1417.0,1492.0,1474.0,1530.0,1471.0,0.0,0.0,0.0,0.0,0.0,0.0,0.0,0.0
1447495560,8,1487.0,1411.0,1446.0,1415.0,1492.0,1477.0,1534.0,1474.0,0.0,0.0,0.0,0.0,0.0,0.0,0.0,0.0
1447539545,8,1486.0,1414.0,1452.0,1420.0,1495.0,1474.0,1529.0,1468.0,0.0,0.0,0.0,0.0,0.0,0.0,0.0,0.0
1447579583,8,1494.0,1410.0,1454.0,1412.0,1496.0,1471.0,1537.0,1469.0,0.0,0.0,0.0,0.0,0.0,0.0,0.0,0.0
1447624368,8,1493.0,1418.0,1454.0,1415.0,1488.0,1467.0,1527.0,1470.0,0.0,0.0,0.0,0.0,0.0,0.0,0.0,0.0
1447664310,8,1494.0,1422.0,1458.0,1417.0,1488.0,1464.0,1523.0,1468.0,0.0,0.0,0.0,0.0,0.0,0.0,0.0,0.0
1447708386,8,1499.0,1418.0,1460.0,1414.0,1494.0,1466.0,1534.0,1470.0,0.0,0.0,0.0,0.0,0.0,0.0,0.0,0.0
1447748346,8,1494.0,1417.0,1453.0,1415.0,1491.0,1471.0,1533.0,1474.0,0.0,0.0,0.0,0.0,0.0,0.0,0.0,0.0
1447792387,8,1497.0,1422.0,1455.0,1414.0,1486.0,1466.0,1528.0,1473.0,0.0,0.0,0.0,0.0,0.0,0.0,0.0,0.0
1447836393,8,1498.0,1418.0,1454.0,1413.0,1491.0,1470.0,1535.0,1475.0,0.0,0.0,0.0,0.0,0.0,0.0,0.0,0.0
1447877217,8,1492.0,1421.0,1451.0,1417.0,1486.0,1472.0,1528.0,1476.0,0.0,0.0,0.0,0.0,0.0,0.0,0.0,0.0
1447921211,8,1504.0,1425.0,1462.0,1414.0,1489.0,1463.0,1531.0,1474.0,0.0,0.0,0.0,0.0,0.0,0.0,0.0,0.0
1447961189,8,1503.0,1425.0,1463.0,1417.0,1492.0,1464.0,1531.0,1472.0,0.0,0.0,0.0,0.0,0.0,0.0,0.0,0.0
1448005185,8,1501.0,1429.0,1459.0,1420.0,1489.0,1471.0,1531.0,1480.0,0.0,0.0,0.0,0.0,0.0,0.0,0.0,0.0
1448045941,8,1504.0,1422.0,1458.0,1415.0,1494.0,1473.0,1540.0,1480.0,0.0,0.0,0.0,0.0,0.0,0.0,0.0,0.0
1448089973,8,1505.0,1423.0,1459.0,1415.0,1495.0,1473.0,1541.0,1480.0,0.0,0.0,0.0,0.0,0.0,0.0,0.0,0.0
1448133947,8,1503.0,1422.0,1461.0,1418.0,1498.0,1474.0,1540.0,1478.0,0.0,0.0,0.0,0.0,0.0,0.0,0.0,0.0
1448177943,8,1500.0,1419.0,1457.0,1417.0,1497.0,1475.0,1540.0,1477.0,0.0,0.0,0.0,0.0,0.0,0.0,0.0,0.0
1448221917,8,1500.0,1419.0,1458.0,1419.0,1500.0,1479.0,1542.0,1478.0,0.0,0.0,0.0,0.0,0.0,0.0,0.0,0.0
1448261913,8,1502.0,1419.0,1458.0,1418.0,1500.0,1479.0,1544.0,1480.0,0.0,0.0,0.0,0.0,0.0,0.0,0.0,0.0
1448306805,8,1503.0,1425.0,1459.0,1418.0,1494.0,1473.0,1537.0,1480.0,0.0,0.0,0.0,0.0,0.0,0.0,0.0,0.0
1448346771,8,1508.0,1424.0,1466.0,1417.0,1498.0,1468.0,1540.0,1475.0,0.0,0.0,0.0,0.0,0.0,0.0,0.0,0.0
1448390769,8,1503.0,1427.0,1458.0,1418.0,1491.0,1472.0,1535.0,1481.0,0.0,0.0,0.0,0.0,0.0,0.0,0.0,0.0
1448434813,8,1505.0,1424.0,1461.0,1416.0,1495.0,1472.0,1539.0,1479.0,0.0,0.0,0.0,0.0,0.0,0.0,0.0,0.0
1448478802,8,1503.0,1428.0,1462.0,1422.0,1495.0,1475.0,1536.0,1480.0,0.0,0.0,0.0,0.0,0.0,0.0,0.0,0.0
1448522773,8,1503.0,1425.0,1462.0,1420.0,1497.0,1474.0,1538.0,1479.0,0.0,0.0,0.0,0.0,0.0,0.0,0.0,0.0
1448563562,8,1504.0,1425.0,1461.0,1420.0,1497.0,1475.0,1539.0,1480.0,0.0,0.0,0.0,0.0,0.0,0.0,0.0,0.0
1448607585,8,1507.0,1421.0,1460.0,1415.0,1499.0,1476.0,1546.0,1482.0,0.0,0.0,0.0,0.0,0.0,0.0,0.0,0.0
1448647580,8,1506.0,1427.0,1463.0,1420.0,1495.0,1473.0,1538.0,1480.0,0.0,0.0,0.0,0.0,0.0,0.0,0.0,0.0
1448687633,8,1506.0,1425.0,1461.0,1417.0,1495.0,1473.0,1540.0,1481.0,0.0,0.0,0.0,0.0,0.0,0.0,0.0,0.0
1448727627,8,1503.0,1428.0,1457.0,1418.0,1489.0,1474.0,1535.0,1483.0,0.0,0.0,0.0,0.0,0.0,0.0,0.0,0.0
1448772333,8,1500.0,1422.0,1460.0,1419.0,1497.0,1474.0,1537.0,1477.0,0.0,0.0,0.0,0.0,0.0,0.0,0.0,0.0
1448812353,8,1500.0,1419.0,1453.0,1415.0,1495.0,1478.0,1542.0,1481.0,0.0,0.0,0.0,0.0,0.0,0.0,0.0,0.0
1448856390,8,1504.0,1425.0,1463.0,1422.0,1501.0,1478.0,1542.0,1481.0,0.0,0.0,0.0,0.0,0.0,0.0,0.0,0.0
1448896383,8,1503.0,1425.0,1461.0,1420.0,1496.0,1474.0,1537.0,1479.0,0.0,0.0,0.0,0.0,0.0,0.0,0.0,0.0
1448940346,8,1499.0,1422.0,1457.0,1418.0,1494.0,1474.0,1537.0,1478.0,0.0,0.0,0.0,0.0,0.0,0.0,0.0,0.0
1448980340,8,1501.0,1422.0,1460.0,1420.0,1497.0,1475.0,1538.0,1477.0,0.0,0.0,0.0,0.0,0.0,0.0,0.0,0.0
1449021170,8,1501.0,1421.0,1459.0,1418.0,1496.0,1474.0,1538.0,1477.0,0.0,0.0,0.0,0.0,0.0,0.0,0.0,0.0
1449061145,8,1502.0,1422.0,1464.0,1421.0,1501.0,1475.0,1539.0,1475.0,0.0,0.0,0.0,0.0,0.0,0.0,0.0,0.0
1449105190,8,1502.0,1426.0,1463.0,1423.0,1497.0,1475.0,1537.0,1478.0,0.0,0.0,0.0,0.0,0.0,0.0,0.0,0.0
1449145134,8,1500.0,1424.0,1459.0,1421.0,1496.0,1477.0,1537.0,1479.0,0.0,0.0,0.0,0.0,0.0,0.0,0.0,0.0
1449185986,8,1501.0,1424.0,1462.0,1422.0,1497.0,1474.0,1536.0,1477.0,0.0,0.0,0.0,0.0,0.0,0.0,0.0,0.0
1449229957,8,1497.0,1430.0,1459.0,1425.0,1490.0,1474.0,1529.0,1479.0,0.0,0.0,0.0,0.0,0.0,0.0,0.0,0.0
1449270018,8,1498.0,1428.0,1458.0,1425.0,1494.0,1480.0,1535.0,1482.0,0.0,0.0,0.0,0.0,0.0,0.0,0.0,0.0
1449313943,8,1496.0,1419.0,1450.0,1418.0,1494.0,1481.0,1539.0,1482.0,0.0,0.0,0.0,0.0,0.0,0.0,0.0,0.0
1449353893,8,1497.0,1421.0,1451.0,1417.0,1490.0,1478.0,1537.0,1483.0,0.0,0.0,0.0,0.0,0.0,0.0,0.0,0.0
1449397914,8,1501.0,1425.0,1459.0,1419.0,1494.0,1473.0,1536.0,1479.0,0.0,0.0,0.0,0.0,0.0,0.0,0.0,0.0
1449438739,8,1502.0,1419.0,1459.0,1416.0,1498.0,1475.0,1542.0,1477.0,0.0,0.0,0.0,0.0,0.0,0.0,0.0,0.0
1449482812,8,1501.0,1423.0,1461.0,1419.0,1494.0,1471.0,1534.0,1475.0,0.0,0.0,0.0,0.0,0.0,0.0,0.0,0.0
1449522758,8,1503.0,1423.0,1462.0,1419.0,1497.0,1472.0,1538.0,1476.0,0.0,0.0,0.0,0.0,0.0,0.0,0.0,0.0
1449566776,8,1498.0,1413.0,1452.0,1413.0,1499.0,1479.0,1545.0,1479.0,0.0,0.0,0.0,0.0,0.0,0.0,0.0,0.0
1449606794,8,1500.0,1416.0,1452.0,1412.0,1494.0,1475.0,1542.0,1479.0,0.0,0.0,0.0,0.0,0.0,0.0,0.0,0.0
1449650811,8,1503.0,1419.0,1457.0,1412.0,1494.0,1470.0,1539.0,1477.0,0.0,0.0,0.0,0.0,0.0,0.0,0.0,0.0
1449691613,8,1505.0,1415.0,1461.0,1410.0,1499.0,1469.0,1543.0,1473.0,0.0,0.0,0.0,0.0,0.0,0.0,0.0,0.0
1449731610,8,1502.0,1414.0,1455.0,1410.0,1496.0,1472.0,1543.0,1477.0,0.0,0.0,0.0,0.0,0.0,0.0,0.0,0.0
1449775565,8,1502.0,1413.0,1453.0,1407.0,1493.0,1469.0,1542.0,1475.0,0.0,0.0,0.0,0.0,0.0,0.0,0.0,0.0
1449815643,8,1503.0,1412.0,1453.0,1403.0,1490.0,1464.0,1540.0,1473.0,0.0,0.0,0.0,0.0,0.0,0.0,0.0,0.0
1449859615,8,1500.0,1412.0,1452.0,1407.0,1493.0,1470.0,1541.0,1475.0,0.0,0.0,0.0,0.0,0.0,0.0,0.0,0.0
1449899629,8,1503.0,1400.0,1450.0,1396.0,1498.0,1467.0,1551.0,1471.0,0.0,0.0,0.0,0.0,0.0,0.0,0.0,0.0
1449944296,8,1509.0,1412.0,1465.0,1406.0,1500.0,1462.0,1544.0,1468.0,0.0,0.0,0.0,0.0,0.0,0.0,0.0,0.0
1449984298,8,1508.0,1411.0,1459.0,1402.0,1496.0,1463.0,1545.0,1471.0,0.0,0.0,0.0,0.0,0.0,0.0,0.0,0.0
1450028370,8,1507.0,1405.0,1455.0,1400.0,1499.0,1467.0,1551.0,1473.0,0.0,0.0,0.0,0.0,0.0,0.0,0.0,0.0
1450068391,8,1509.0,1406.0,1462.0,1398.0,1499.0,1457.0,1546.0,1465.0,0.0,0.0,0.0,0.0,0.0,0.0,0.0,0.0
1450113136,8,1504.0,1408.0,1453.0,1398.0,1490.0,1461.0,1541.0,1470.0,0.0,0.0,0.0,0.0,0.0,0.0,0.0,0.0
1450157180,8,1505.0,1412.0,1456.0,1400.0,1488.0,1457.0,1537.0,1470.0,0.0,0.0,0.0,0.0,0.0,0.0,0.0,0.0
1450197223,8,1508.0,1416.0,1459.0,1401.0,1487.0,1456.0,1537.0,1471.0,0.0,0.0,0.0,0.0,0.0,0.0,0.0,0.0
1450237206,8,1510.0,1418.0,1460.0,1399.0,1483.0,1452.0,1534.0,1471.0,0.0,0.0,0.0,0.0,0.0,0.0,0.0,0.0
1450281158,8,1508.0,1425.0,1454.0,1405.0,1480.0,1461.0,1533.0,1481.0,0.0,0.0,0.0,0.0,0.0,0.0,0.0,0.0
1450321987,8,1506.0,1428.0,1456.0,1411.0,1481.0,1464.0,1531.0,1481.0,0.0,0.0,0.0,0.0,0.0,0.0,0.0,0.0
1450361917,8,1505.0,1427.0,1454.0,1411.0,1483.0,1467.0,1533.0,1483.0,0.0,0.0,0.0,0.0,0.0,0.0,0.0,0.0
1450405972,8,1507.0,1430.0,1457.0,1415.0,1485.0,1469.0,1535.0,1485.0,0.0,0.0,0.0,0.0,0.0,0.0,0.0,0.0
1450445973,8,1508.0,1427.0,1458.0,1412.0,1487.0,1468.0,1538.0,1483.0,0.0,0.0,0.0,0.0,0.0,0.0,0.0,0.0
1450489909,8,1503.0,1427.0,1455.0,1413.0,1484.0,1467.0,1532.0,1481.0,0.0,0.0,0.0,0.0,0.0,0.0,0.0,0.0
1450533938,8,1503.0,1436.0,1463.0,1424.0,1487.0,1471.0,1528.0,1482.0,0.0,0.0,0.0,0.0,0.0,0.0,0.0,0.0
1450578813,8,1500.0,1425.0,1449.0,1417.0,1488.0,1481.0,1540.0,1489.0,0.0,0.0,0.0,0.0,0.0,0.0,0.0,0.0
1450618825,8,1500.0,1429.0,1455.0,1422.0,1490.0,1478.0,1535.0,1485.0,0.0,0.0,0.0,0.0,0.0,0.0,0.0,0.0
1450658843,8,1498.0,1427.0,1454.0,1422.0,1491.0,1479.0,1535.0,1484.0,0.0,0.0,0.0,0.0,0.0,0.0,0.0,0.0
1450702804,8,1503.0,1418.0,1454.0,1415.0,1499.0,1482.0,1548.0,1485.0,0.0,0.0,0.0,0.0,0.0,0.0,0.0,0.0
1450746823,8,1498.0,1408.0,1451.0,1410.0,1501.0,1478.0,1548.0,1476.0,0.0,0.0,0.0,0.0,0.0,0.0,0.0,0.0
1450790820,8,1500.0,1406.0,1457.0,1412.0,1509.0,1480.0,1553.0,1474.0,0.0,0.0,0.0,0.0,0.0,0.0,0.0,0.0
1450831559,8,1502.0,1410.0,1458.0,1410.0,1502.0,1473.0,1546.0,1473.0,0.0,0.0,0.0,0.0,0.0,0.0,0.0,0.0
1450875589,8,1501.0,1410.0,1456.0,1409.0,1500.0,1472.0,1545.0,1473.0,0.0,0.0,0.0,0.0,0.0,0.0,0.0,0.0
1450915750,8,1503.0,1413.0,1461.0,1414.0,1504.0,1473.0,1546.0,1473.0,0.0,0.0,0.0,0.0,0.0,0.0,0.0,0.0
1450959514,8,1503.0,1410.0,1457.0,1407.0,1498.0,1468.0,1544.0,1471.0,0.0,0.0,0.0,0.0,0.0,0.0,0.0,0.0
1450999533,8,1497.0,1416.0,1457.0,1416.0,1496.0,1471.0,1536.0,1472.0,0.0,0.0,0.0,0.0,0.0,0.0,0.0,0.0
1451044370,8,1503.0,1409.0,1456.0,1405.0,1496.0,1466.0,1543.0,1471.0,0.0,0.0,0.0,0.0,0.0,0.0,0.0,0.0
1451084348,8,1502.0,1414.0,1459.0,1410.0,1497.0,1467.0,1540.0,1471.0,0.0,0.0,0.0,0.0,0.0,0.0,0.0,0.0
1451128325,8,1496.0,1416.0,1457.0,1416.0,1496.0,1471.0,1535.0,1471.0,0.0,0.0,0.0,0.0,0.0,0.0,0.0,0.0
1451168308,8,1490.0,1414.0,1451.0,1419.0,1498.0,1481.0,1538.0,1475.0,0.0,0.0,0.0,0.0,0.0,0.0,0.0,0.0
1451212437,8,1494.0,1410.0,1460.0,1421.0,1509.0,1479.0,1543.0,1469.0,0.0,0.0,0.0,0.0,0.0,0.0,0.0,0.0
1451256332,8,1492.0,1413.0,1461.0,1426.0,1511.0,1484.0,1542.0,1471.0,0.0,0.0,0.0,0.0,0.0,0.0,0.0,0.0
1451297204,8,1492.0,1414.0,1463.0,1428.0,1512.0,1483.0,1541.0,1469.0,0.0,0.0,0.0,0.0,0.0,0.0,0.0,0.0
1451341200,8,1489.0,1408.0,1460.0,1424.0,1512.0,1481.0,1541.0,1465.0,0.0,0.0,0.0,0.0,0.0,0.0,0.0,0.0
1451381194,8,1495.0,1411.0,1469.0,1428.0,1519.0,1481.0,1545.0,1465.0,0.0,0.0,0.0,0.0,0.0,0.0,0.0,0.0
1451425183,8,1496.0,1411.0,1466.0,1426.0,1517.0,1483.0,1547.0,1468.0,0.0,0.0,0.0,0.0,0.0,0.0,0.0,0.0
1451465965,8,1491.0,1417.0,1458.0,1427.0,1505.0,1484.0,1539.0,1475.0,0.0,0.0,0.0,0.0,0.0,0.0,0.0,0.0
1451510017,8,1503.0,1424.0,1474.0,1430.0,1511.0,1476.0,1539.0,1470.0,0.0,0.0,0.0,0.0,0.0,0.0,0.0,0.0
1451550024,8,1503.0,1429.0,1472.0,1431.0,1506.0,1478.0,1538.0,1476.0,0.0,0.0,0.0,0.0,0.0,0.0,0.0,0.0
1451593923,8,1499.0,1426.0,1463.0,1431.0,1506.0,1486.0,1541.0,1481.0,0.0,0.0,0.0,0.0,0.0,0.0,0.0,0.0
1451633971,8,1502.0,1430.0,1463.0,1429.0,1501.0,1484.0,1540.0,1485.0,0.0,0.0,0.0,0.0,0.0,0.0,0.0,0.0
1451677933,8,1505.0,1433.0,1460.0,1428.0,1498.0,1486.0,1542.0,1491.0,0.0,0.0,0.0,0.0,0.0,0.0,0.0,0.0
1451722752,8,1509.0,1438.0,1464.0,1429.0,1496.0,1483.0,1540.0,1492.0,0.0,0.0,0.0,0.0,0.0,0.0,0.0,0.0
1451762726,8,1508.0,1441.0,1456.0,1428.0,1491.0,1490.0,1543.0,1503.0,0.0,0.0,0.0,0.0,0.0,0.0,0.0,0.0
1451806787,8,1514.0,1444.0,1462.0,1428.0,1491.0,1485.0,1543.0,1501.0,0.0,0.0,0.0,0.0,0.0,0.0,0.0,0.0
1451846774,8,1509.0,1444.0,1458.0,1430.0,1488.0,1487.0,1539.0,1502.0,0.0,0.0,0.0,0.0,0.0,0.0,0.0,0.0
1451890771,8,1508.0,1451.0,1465.0,1436.0,1487.0,1482.0,1530.0,1497.0,0.0,0.0,0.0,0.0,0.0,0.0,0.0,0.0
1451934747,8,1509.0,1452.0,1461.0,1435.0,1485.0,1485.0,1533.0,1503.0,0.0,0.0,0.0,0.0,0.0,0.0,0.0,0.0
1451975573,8,1511.0,1443.0,1464.0,1433.0,1498.0,1491.0,1545.0,1500.0,0.0,0.0,0.0,0.0,0.0,0.0,0.0,0.0
1452015570,8,1506.0,1441.0,1466.0,1437.0,1500.0,1490.0,1540.0,1494.0,0.0,0.0,0.0,0.0,0.0,0.0,0.0,0.0
1452055546,8,1509.0,1438.0,1467.0,1434.0,1503.0,1489.0,1545.0,1493.0,0.0,0.0,0.0,0.0,0.0,0.0,0.0,0.0
1452099595,8,1513.0,1440.0,1470.0,1433.0,1502.0,1486.0,1545.0,1494.0,0.0,0.0,0.0,0.0,0.0,0.0,0.0,0.0
1452143560,8,1519.0,1444.0,1473.0,1432.0,1502.0,1486.0,1549.0,1497.0,0.0,0.0,0.0,0.0,0.0,0.0,0.0,0.0
1452183555,8,1524.0,1444.0,1474.0,1426.0,1498.0,1478.0,1548.0,1496.0,0.0,0.0,0.0,0.0,0.0,0.0,0.0,0.0
1452224376,8,1525.0,1440.0,1464.0,1418.0,1494.0,1483.0,1555.0,1505.0,0.0,0.0,0.0,0.0,0.0,0.0,0.0,0.0
1452268391,8,1525.0,1442.0,1464.0,1418.0,1491.0,1481.0,1552.0,1504.0,0.0,0.0,0.0,0.0,0.0,0.0,0.0,0.0
1452308397,8,1522.0,1443.0,1461.0,1419.0,1488.0,1482.0,1549.0,1506.0,0.0,0.0,0.0,0.0,0.0,0.0,0.0,0.0
1452352390,8,1522.0,1437.0,1459.0,1413.0,1488.0,1478.0,1551.0,1502.0,0.0,0.0,0.0,0.0,0.0,0.0,0.0,0.0
1452392409,8,1516.0,1433.0,1458.0,1417.0,1493.0,1482.0,1551.0,1499.0,0.0,0.0,0.0,0.0,0.0,0.0,0.0,0.0
1452437251,8,1516.0,1433.0,1462.0,1415.0,1491.0,1474.0,1545.0,1492.0,0.0,0.0,0.0,0.0,0.0,0.0,0.0,0.0
1452477246,8,1514.0,1433.0,1464.0,1419.0,1494.0,1476.0,1544.0,1490.0,0.0,0.0,0.0,0.0,0.0,0.0,0.0,0.0
1452521126,8,1514.0,1432.0,1468.0,1422.0,1499.0,1476.0,1545.0,1487.0,0.0,0.0,0.0,0.0,0.0,0.0,0.0,0.0
1452561164,8,1514.0,1433.0,1468.0,1423.0,1499.0,1476.0,1544.0,1487.0,0.0,0.0,0.0,0.0,0.0,0.0,0.0,0.0
1452605252,8,1521.0,1436.0,1475.0,1422.0,1502.0,1473.0,1547.0,1487.0,0.0,0.0,0.0,0.0,0.0,0.0,0.0,0.0
1452645998,8,1520.0,1433.0,1467.0,1417.0,1497.0,1475.0,1549.0,1491.0,0.0,0.0,0.0,0.0,0.0,0.0,0.0,0.0
1452686028,8,1517.0,1434.0,1464.0,1420.0,1498.0,1481.0,1551.0,1495.0,0.0,0.0,0.0,0.0,0.0,0.0,0.0,0.0
1452729933,8,1511.0,1433.0,1465.0,1429.0,1504.0,1489.0,1550.0,1494.0,0.0,0.0,0.0,0.0,0.0,0.0,0.0,0.0
1452769942,8,1509.0,1434.0,1464.0,1428.0,1500.0,1485.0,1545.0,1491.0,0.0,0.0,0.0,0.0,0.0,0.0,0.0,0.0
1452813951,8,1512.0,1435.0,1470.0,1430.0,1506.0,1485.0,1547.0,1489.0,0.0,0.0,0.0,0.0,0.0,0.0,0.0,0.0
1452853948,8,1511.0,1434.0,1468.0,1431.0,1505.0,1487.0,1548.0,1491.0,0.0,0.0,0.0,0.0,0.0,0.0,0.0,0.0
1452898731,8,1515.0,1429.0,1469.0,1425.0,1508.0,1485.0,1554.0,1490.0,0.0,0.0,0.0,0.0,0.0,0.0,0.0,0.0
1452938727,8,1512.0,1432.0,1469.0,1430.0,1508.0,1487.0,1551.0,1490.0,0.0,0.0,0.0,0.0,0.0,0.0,0.0,0.0
1452982756,8,1510.0,1426.0,1469.0,1428.0,1514.0,1490.0,1556.0,1487.0,0.0,0.0,0.0,0.0,0.0,0.0,0.0,0.0
1453022771,8,1508.0,1425.0,1466.0,1427.0,1512.0,1489.0,1553.0,1486.0,0.0,0.0,0.0,0.0,0.0,0.0,0.0,0.0
1453066736,8,1508.0,1432.0,1469.0,1430.0,1506.0,1484.0,1545.0,1485.0,0.0,0.0,0.0,0.0,0.0,0.0,0.0,0.0
1453107543,8,1510.0,1429.0,1463.0,1426.0,1505.0,1489.0,1553.0,1493.0,0.0,0.0,0.0,0.0,0.0,0.0,0.0,0.0
1453151599,8,1517.0,1435.0,1472.0,1424.0,1502.0,1477.0,1547.0,1487.0,0.0,0.0,0.0,0.0,0.0,0.0,0.0,0.0
1453191597,8,1515.0,1433.0,1472.0,1422.0,1500.0,1474.0,1544.0,1484.0,0.0,0.0,0.0,0.0,0.0,0.0,0.0,0.0
1453235563,8,1517.0,1436.0,1469.0,1421.0,1496.0,1473.0,1543.0,1488.0,0.0,0.0,0.0,0.0,0.0,0.0,0.0,0.0
1453275538,8,1513.0,1434.0,1468.0,1423.0,1498.0,1476.0,1543.0,1487.0,0.0,0.0,0.0,0.0,0.0,0.0,0.0,0.0
1453319585,8,1513.0,1437.0,1465.0,1425.0,1495.0,1480.0,1543.0,1493.0,0.0,0.0,0.0,0.0,0.0,0.0,0.0,0.0
1453360383,8,1517.0,1435.0,1464.0,1418.0,1494.0,1476.0,1546.0,1493.0,0.0,0.0,0.0,0.0,0.0,0.0,0.0,0.0
1453400410,8,1517.0,1433.0,1463.0,1417.0,1495.0,1477.0,1548.0,1493.0,0.0,0.0,0.0,0.0,0.0,0.0,0.0,0.0
1453444343,8,1518.0,1436.0,1464.0,1417.0,1491.0,1474.0,1544.0,1493.0,0.0,0.0,0.0,0.0,0.0,0.0,0.0,0.0
1453484307,8,1518.0,1437.0,1469.0,1423.0,1499.0,1479.0,1547.0,1492.0,0.0,0.0,0.0,0.0,0.0,0.0,0.0,0.0
1453528396,8,1514.0,1428.0,1464.0,1417.0,1499.0,1477.0,1548.0,1487.0,0.0,0.0,0.0,0.0,0.0,0.0,0.0,0.0
1453569236,8,1510.0,1427.0,1459.0,1421.0,1501.0,1487.0,1552.0,1493.0,0.0,0.0,0.0,0.0,0.0,0.0,0.0,0.0
1453613224,8,1516.0,1429.0,1463.0,1418.0,1500.0,1481.0,1553.0,1492.0,0.0,0.0,0.0,0.0,0.0,0.0,0.0,0.0
1453653175,8,1518.0,1428.0,1467.0,1417.0,1501.0,1477.0,1552.0,1489.0,0.0,0.0,0.0,0.0,0.0,0.0,0.0,0.0
1453697246,8,1514.0,1436.0,1468.0,1425.0,1498.0,1479.0,1545.0,1490.0,0.0,0.0,0.0,0.0,0.0,0.0,0.0,0.0
1453737239,8,1517.0,1437.0,1472.0,1425.0,1500.0,1476.0,1545.0,1488.0,0.0,0.0,0.0,0.0,0.0,0.0,0.0,0.0
1453778021,8,1516.0,1435.0,1472.0,1424.0,1501.0,1476.0,1545.0,1486.0,0.0,0.0,0.0,0.0,0.0,0.0,0.0,0.0
1453822013,8,1515.0,1438.0,1474.0,1431.0,1505.0,1482.0,1546.0,1489.0,0.0,0.0,0.0,0.0,0.0,0.0,0.0,0.0
1453862072,8,1515.0,1439.0,1473.0,1431.0,1504.0,1483.0,1546.0,1491.0,0.0,0.0,0.0,0.0,0.0,0.0,0.0,0.0
1453905955,8,1521.0,1437.0,1479.0,1428.0,1508.0,1478.0,1550.0,1487.0,0.0,0.0,0.0,0.0,0.0,0.0,0.0,0.0
1453946008,8,1520.0,1439.0,1473.0,1428.0,1504.0,1483.0,1551.0,1494.0,0.0,0.0,0.0,0.0,0.0,0.0,0.0,0.0
1453989893,8,1523.0,1441.0,1475.0,1426.0,1502.0,1480.0,1551.0,1495.0,0.0,0.0,0.0,0.0,0.0,0.0,0.0,0.0
1454030776,8,1525.0,1437.0,1476.0,1425.0,1507.0,1481.0,1555.0,1493.0,0.0,0.0,0.0,0.0,0.0,0.0,0.0,0.0
1454074754,8,1526.0,1447.0,1480.0,1431.0,1504.0,1481.0,1550.0,1497.0,0.0,0.0,0.0,0.0,0.0,0.0,0.0,0.0
1454114769,8,1527.0,1445.0,1479.0,1428.0,1503.0,1480.0,1552.0,1497.0,0.0,0.0,0.0,0.0,0.0,0.0,0.0,0.0
1454158777,8,1526.0,1442.0,1476.0,1425.0,1502.0,1478.0,1551.0,1495.0,0.0,0.0,0.0,0.0,0.0,0.0,0.0,0.0
1454198801,8,1523.0,1444.0,1474.0,1427.0,1500.0,1480.0,1549.0,1496.0,0.0,0.0,0.0,0.0,0.0,0.0,0.0,0.0
1454239574,8,1528.0,1442.0,1480.0,1427.0,1506.0,1480.0,1554.0,1495.0,0.0,0.0,0.0,0.0,0.0,0.0,0.0,0.0
1454279531,8,1524.0,1442.0,1476.0,1427.0,1504.0,1481.0,1552.0,1496.0,0.0,0.0,0.0,0.0,0.0,0.0,0.0,0.0
1454323577,8,1524.0,1444.0,1477.0,1431.0,1505.0,1483.0,1551.0,1496.0,0.0,0.0,0.0,0.0,0.0,0.0,0.0,0.0
1454363577,8,1525.0,1444.0,1477.0,1430.0,1505.0,1484.0,1553.0,1498.0,0.0,0.0,0.0,0.0,0.0,0.0,0.0,0.0
1454407575,8,1524.0,1439.0,1477.0,1427.0,1507.0,1482.0,1555.0,1495.0,0.0,0.0,0.0,0.0,0.0,0.0,0.0,0.0
1454447531,8,1521.0,1440.0,1473.0,1429.0,1505.0,1485.0,1553.0,1497.0,0.0,0.0,0.0,0.0,0.0,0.0,0.0,0.0
1454488363,8,1524.0,1443.0,1480.0,1431.0,1508.0,1482.0,1552.0,1493.0,0.0,0.0,0.0,0.0,0.0,0.0,0.0,0.0
1454532395,8,1523.0,1446.0,1477.0,1436.0,1509.0,1491.0,1555.0,1502.0,0.0,0.0,0.0,0.0,0.0,0.0,0.0,0.0
1454572336,8,1524.0,1442.0,1480.0,1434.0,1511.0,1486.0,1555.0,1495.0,0.0,0.0,0.0,0.0,0.0,0.0,0.0,0.0
1454616377,8,1528.0,1439.0,1478.0,1426.0,1511.0,1485.0,1561.0,1498.0,0.0,0.0,0.0,0.0,0.0,0.0,0.0,0.0
1454656373,8,1526.0,1439.0,1477.0,1426.0,1507.0,1483.0,1557.0,1496.0,0.0,0.0,0.0,0.0,0.0,0.0,0.0,0.0
1454700349,8,1524.0,1438.0,1478.0,1428.0,1511.0,1484.0,1557.0,1494.0,0.0,0.0,0.0,0.0,0.0,0.0,0.0,0.0
1454741170,8,1524.0,1435.0,1475.0,1426.0,1512.0,1487.0,1561.0,1496.0,0.0,0.0,0.0,0.0,0.0,0.0,0.0,0.0
1454785201,8,1528.0,1442.0,1482.0,1431.0,1511.0,1484.0,1558.0,1496.0,0.0,0.0,0.0,0.0,0.0,0.0,0.0,0.0
1454825222,8,1526.0,1438.0,1477.0,1427.0,1511.0,1486.0,1560.0,1496.0,0.0,0.0,0.0,0.0,0.0,0.0,0.0,0.0
1454869187,8,1521.0,1442.0,1474.0,1430.0,1504.0,1485.0,1551.0,1497.0,0.0,0.0,0.0,0.0,0.0,0.0,0.0,0.0
1454909974,8,1521.0,1442.0,1474.0,1434.0,1510.0,1493.0,1557.0,1501.0,0.0,0.0,0.0,0.0,0.0,0.0,0.0,0.0
1454954029,8,1522.0,1437.0,1473.0,1427.0,1508.0,1486.0,1557.0,1496.0,0.0,0.0,0.0,0.0,0.0,0.0,0.0,0.0
1454997936,8,1520.0,1436.0,1474.0,1428.0,1510.0,1486.0,1556.0,1493.0,0.0,0.0,0.0,0.0,0.0,0.0,0.0,0.0
1455037949,8,1521.0,1431.0,1473.0,1424.0,1510.0,1484.0,1558.0,1491.0,0.0,0.0,0.0,0.0,0.0,0.0,0.0,0.0
1455077989,8,1521.0,1430.0,1474.0,1423.0,1512.0,1484.0,1559.0,1490.0,0.0,0.0,0.0,0.0,0.0,0.0,0.0,0.0
1455118015,8,1519.0,1436.0,1472.0,1426.0,1505.0,1483.0,1552.0,1493.0,0.0,0.0,0.0,0.0,0.0,0.0,0.0,0.0
1455162019,8,1522.0,1435.0,1473.0,1428.0,1513.0,1491.0,1561.0,1497.0,0.0,0.0,0.0,0.0,0.0,0.0,0.0,0.0
1455202858,8,1527.0,1437.0,1483.0,1427.0,1513.0,1480.0,1557.0,1489.0,0.0,0.0,0.0,0.0,0.0,0.0,0.0,0.0
1455246753,8,1522.0,1432.0,1474.0,1424.0,1511.0,1484.0,1559.0,1492.0,0.0,0.0,0.0,0.0,0.0,0.0,0.0,0.0
1455286750,8,1521.0,1432.0,1473.0,1424.0,1509.0,1483.0,1556.0,1491.0,0.0,0.0,0.0,0.0,0.0,0.0,0.0,0.0
1455330771,8,1518.0,1433.0,1473.0,1427.0,1511.0,1486.0,1556.0,1491.0,0.0,0.0,0.0,0.0,0.0,0.0,0.0,0.0
1455371567,8,1518.0,1430.0,1470.0,1424.0,1509.0,1486.0,1558.0,1492.0,0.0,0.0,0.0,0.0,0.0,0.0,0.0,0.0
1455415541,8,1515.0,1432.0,1468.0,1425.0,1505.0,1485.0,1552.0,1492.0,0.0,0.0,0.0,0.0,0.0,0.0,0.0,0.0
1455455536,8,1517.0,1435.0,1472.0,1427.0,1506.0,1483.0,1551.0,1491.0,0.0,0.0,0.0,0.0,0.0,0.0,0.0,0.0
1455495530,8,1516.0,1428.0,1469.0,1420.0,1505.0,1479.0,1552.0,1486.0,0.0,0.0,0.0,0.0,0.0,0.0,0.0,0.0
1455535540,8,1518.0,1434.0,1474.0,1425.0,1505.0,1478.0,1549.0,1487.0,0.0,0.0,0.0,0.0,0.0,0.0,0.0,0.0
1455579564,8,1518.0,1443.0,1471.0,1430.0,1500.0,1483.0,1546.0,1495.0,0.0,0.0,0.0,0.0,0.0,0.0,0.0,0.0
1455620354,8,1520.0,1442.0,1476.0,1429.0,1502.0,1479.0,1545.0,1491.0,0.0,0.0,0.0,0.0,0.0,0.0,0.0,0.0
1455664315,8,1524.0,1443.0,1475.0,1423.0,1497.0,1474.0,1546.0,1493.0,0.0,0.0,0.0,0.0,0.0,0.0,0.0,0.0
1455704332,8,1525.0,1443.0,1473.0,1422.0,1496.0,1475.0,1548.0,1496.0,0.0,0.0,0.0,0.0,0.0,0.0,0.0,0.0
1455744307,8,1524.0,1438.0,1471.0,1421.0,1500.0,1479.0,1552.0,1495.0,0.0,0.0,0.0,0.0,0.0,0.0,0.0,0.0
1455788335,8,1527.0,1435.0,1475.0,1418.0,1502.0,1474.0,1554.0,1491.0,0.0,0.0,0.0,0.0,0.0,0.0,0.0,0.0
