timestamp,ref_timestamp,ref_lat,ref_lon,x,y,z,delta_xy[0],delta_xy[1],delta_z,vx,vy,vz,z_deriv,delta_vxy[0],delta_vxy[1],delta_vz,ax,ay,az,yaw,ref_alt,dist_bottom,dist_bottom_rate,eph,epv,evh,evv,vxy_max,vz_max,hagl_min,hagl_max,xy_valid,z_valid,v_xy_valid,v_z_valid,xy_reset_counter,z_reset_counter,vxy_reset_counter,vz_reset_counter,xy_global,z_global,dist_bottom_valid
1431062656,24616208,37.1025014,-76.3880082,8.7890415,-10.277294,-0.2739902,-0.0023451736,-0.0032105467,0.0,0.041779365,0.0026462236,0.010427964,0.054661755,-3.1059608e-07,-0.011578647,0.0029034372,-0.035961326,0.04791665,-0.0037392748,-0.049298584,1.0245707,0.1,-0.010427964,0.30436277,0.23724414,0.15393429,0.097639896,inf,inf,inf,inf,1,1,1,1,2,0,2,2,1,1,0
1431163360,24616208,37.1025014,-76.3880082,8.790035,-10.271257,-0.2784762,-0.0023451736,-0.0032105467,0.0,0.03875871,0.0073230863,0.008614041,0.042465124,-3.1059608e-07,-0.011578647,0.0029034372,-0.007385645,0.028335923,-0.0031362094,-0.049602143,1.0245707,0.1,-0.008614041,0.29347914,0.23711795,0.14975116,0.097356364,inf,inf,inf,inf,1,1,1,1,2,0,2,2,1,1,0
1431263180,24616208,37.1025014,-76.3880082,8.791473,-10.266496,-0.2768796,-0.0023451736,-0.0032105467,0.0,0.03850636,-7.495843e-05,0.0113136,0.04244081,-3.1059608e-07,-0.011578647,0.0029034372,1.8524344,1.1856079,0.6415708,-0.04915237,1.0245707,0.1,-0.0113136,0.30453202,0.23756039,0.15403715,0.0977201,inf,inf,inf,inf,1,1,1,1,2,0,2,2,1,1,0
1431367964,24616208,37.1025014,-76.3880082,8.790722,-10.260129,-0.2727689,-0.0023451736,-0.0032105467,0.0,0.05588098,0.016869219,0.002392043,0.032949638,-3.1059608e-07,-0.011578647,0.0029034372,0.05258221,2.2178242,-0.9327019,-0.05066679,1.0245707,0.1,-0.002392043,0.29449034,0.2364256,0.15015703,0.09721062,inf,inf,inf,inf,1,1,1,1,2,0,2,2,1,1,0
1431472276,24616208,37.1025014,-76.3880082,8.790401,-10.253929,-0.26663756,-0.0023451736,-0.0032105467,0.0,0.020425878,0.004403258,0.014549813,0.04679511,-3.1059608e-07,-0.011578647,0.0029034372,-1.4232498,0.27999204,0.8929292,-0.051297426,1.0245707,0.1,-0.014549813,0.28395453,0.2363107,0.1459914,0.09692055,inf,inf,inf,inf,1,1,1,1,2,0,2,2,1,1,0
1431576164,24616208,37.1025014,-76.3880082,8.790616,-10.24612,-0.255927,-0.0023451736,-0.0032105467,0.0,0.0058173197,0.025331246,0.01757794,0.05545364,-3.1059608e-07,-0.011578647,0.0029034372,0.79174554,0.36195546,-0.27918163,-0.050945144,1.0245707,0.1,-0.01757794,0.29509494,0.23711601,0.15040009,0.09743716,inf,inf,inf,inf,1,1,1,1,2,0,2,2,1,1,0
1431677137,24616208,37.1025014,-76.3880082,8.791671,-10.240104,-0.2462385,-0.0023451736,-0.0032105467,0.0,0.017965188,0.028328793,0.01665929,0.058671653,-3.1059608e-07,-0.011578647,0.0029034372,0.4275965,0.1129502,-0.21123917,-0.049584843,1.0245707,0.1,-0.01665929,0.3062232,0.23756482,0.15471983,0.0978002,inf,inf,inf,inf,1,1,1,1,2,0,2,2,1,1,0
1431780942,24616208,37.1025014,-76.3880082,8.789057,-10.232314,-0.23379819,-0.0023451736,-0.0032105467,0.0,0.02194542,0.033101182,0.017481294,0.06499914,-3.1059608e-07,-0.011578647,0.0029034372,-0.21415345,0.045287218,-0.02409985,-0.049059704,1.0245707,0.1,-0.017481294,0.29517505,0.23751765,0.15050828,0.09753107,inf,inf,inf,inf,1,1,1,1,2,0,2,2,1,1,0
1431885570,24616208,37.1025014,-76.3880082,8.787154,-10.22545,-0.22477947,-0.0023451736,-0.0032105467,0.0,0.029448265,0.029085584,0.006726144,0.055375587,-3.1059608e-07,-0.011578647,0.0029034372,0.83373225,-0.15632725,-3.0027618,-0.048626892,1.0245707,0.1,-0.006726144,0.28452858,0.23574853,0.14625587,0.096843116,inf,inf,inf,inf,1,1,1,1,2,0,2,2,1,1,0
1431985558,24616208,37.1025014,-76.3880082,8.784979,-10.217523,-0.22110677,-0.0023451736,-0.0032105467,0.0,0.0072987997,0.04340135,-0.004024606,0.04286,-3.1059608e-07,-0.011578647,0.0029034372,1.7814211,-0.1316905,1.4438081,-0.046039585,1.0245707,0.1,0.004024606,0.2960611,0.23680457,0.15083595,0.09738951,inf,inf,inf,inf,1,1,1,1,2,0,2,2,1,1,0
1432086779,24616208,37.1025014,-76.3880082,8.779578,-10.211375,-0.21475786,-0.0023451736,-0.0032105467,0.0,-0.10448589,0.030502839,-0.13527928,-0.08363264,-3.1059608e-07,-0.011578647,0.0029034372,-4.0245147,0.6914695,-2.0204651,-0.041345056,1.0245707,0.1,0.13527928,0.28457794,0.23616989,0.14643641,0.09694613,inf,inf,inf,inf,1,1,1,1,2,0,2,2,1,1,0
1432190764,24616208,37.1025014,-76.3880082,8.76097,-10.210885,-0.23098516,-0.0023451736,-0.0032105467,0.0,-0.10211445,-0.025965266,-0.5210136,-0.4595083,-3.1059608e-07,-0.011578647,0.0029034372,1.5473738,1.6594744,-4.001213,-0.036377687,1.0245707,0.1,0.5210136,0.29621735,0.23729745,0.15110505,0.097504586,inf,inf,inf,inf,1,1,1,1,2,0,2,2,1,1,0
1432290676,24616208,37.1025014,-76.3880082,8.744529,-10.211181,-0.28475264,-0.0023451736,-0.0032105467,0.0,-0.2020591,-0.07505583,-0.8273141,-0.7570996,-3.1059608e-07,-0.011578647,0.0029034372,0.43506566,-2.7631123,-1.140253,-0.02948396,1.0245707,0.1,0.8273141,0.28567216,0.2355515,0.14774522,0.09683149,inf,inf,inf,inf,1,1,1,1,2,0,2,2,1,1,0
1432391423,24616208,37.1025014,-76.3880082,8.721988,-10.214886,-0.3683601,-0.0023451736,-0.0032105467,0.0,-0.20626491,-0.060375866,-1.0044948,-0.9315792,-3.1059608e-07,-0.011578647,0.0029034372,0.4901046,-1.1805998,-2.8528893,-0.022917047,1.0245707,0.15793899,1.0044948,0.29645225,0.23767608,0.15355197,0.097608656,inf,inf,inf,inf,1,1,1,1,2,0,2,2,1,1,0
1432491450,24616208,37.1025014,-76.3880082,8.696725,-10.22093,-0.47190288,-0.0023451736,-0.0032105467,0.0,-0.23655969,-0.119268805,-1.0225359,-0.9591195,-3.1059608e-07,-0.011578647,0.0029034372,-1.3192729,0.64858913,-0.76407325,-0.016984532,1.0245707,0.26148176,1.0225359,0.28586826,0.23759562,0.15021849,0.09732149,inf,inf,inf,inf,1,1,1,1,2,0,2,2,1,1,0
1432595962,24616208,37.1025014,-76.3880082,8.667089,-10.231932,-0.5816296,-0.0023451736,-0.0032105467,0.0,-0.24085768,-0.16042659,-1.0258605,-0.9721277,-3.1059608e-07,-0.011578647,0.0029034372,-0.35747555,1.2653757,-1.4173378,-0.013094243,1.0245707,0.37120846,1.0258605,0.29769668,0.23694815,0.15529823,0.09745447,inf,inf,inf,inf,1,1,1,1,2,0,2,2,1,1,0
1432696193,24616208,37.1025014,-76.3880082,8.642167,-10.247273,-0.6901147,-0.0023451736,-0.0032105467,0.0,-0.22951274,-0.17512627,-1.0016204,-0.9614788,-3.1059608e-07,-0.011578647,0.0029034372,0.1369888,-0.30007866,0.4195635,-0.011575823,1.0245707,0.47969356,1.0016204,0.2867893,0.23657545,0.15070462,0.09712907,inf,inf,inf,inf,1,1,1,1,2,0,2,2,1,1,0
1432797101,24616208,37.1025014,-76.3880082,8.624034,-10.268406,-0.7937571,-0.0023451736,-0.0032105467,0.0,-0.19464782,-0.24661283,-0.982224,-0.94983035,-3.1059608e-07,-0.011578647,0.0029034372,1.8785434,0.50521874,1.5493177,-0.009450838,1.0245707,0.583336,0.982224,0.2977194,0.23699883,0.15493636,0.09749283,inf,inf,inf,inf,1,1,1,1,2,0,2,2,1,1,0
1432901106,24616208,37.1025014,-76.3880082,8.609033,-10.297001,-0.8980166,-0.0023451736,-0.0032105467,0.0,-0.14717118,-0.30836827,-0.97954553,-0.9533672,-3.1059608e-07,-0.011578647,0.0029034372,1.1796759,-1.9636256,0.5844421,-0.008423243,1.0245707,0.6875955,0.97954553,0.2871193,0.23691954,0.1503452,0.09719517,inf,inf,inf,inf,1,1,1,1,2,0,2,2,1,1,0
1433001792,24616208,37.1025014,-76.3880082,8.598845,-10.331844,-0.99576366,-0.0023451736,-0.0032105467,0.0,-0.09754406,-0.35648233,-0.9705522,-0.9471628,-3.1059608e-07,-0.011578647,0.0029034372,0.41442794,-0.7305866,-3.289626,-0.007883513,1.0245707,0.7853426,0.9705522,0.2989913,0.23796019,0.15493833,0.09772749,inf,inf,inf,inf,1,1,1,1,2,0,2,2,1,1,0
1433105817,24616208,37.1025014,-76.3880082,8.594264,-10.373507,-1.0925878,-0.0023451736,-0.0032105467,0.0,-0.038460698,-0.39744827,-0.9661897,-0.9420489,-3.1059608e-07,-0.011578647,0.0029034372,-0.17011808,2.002998,-4.6612654,-0.008319942,1.0245707,0.88216674,0.9661897,0.2882562,0.2361592,0.15038036,0.09702735,inf,inf,inf,inf,1,1,1,1,2,0,2,2,1,1,0
1433206680,24616208,37.1025014,-76.3880082,8.596027,-10.418796,-1.1838083,-0.0023451736,-0.0032105467,0.0,0.004042627,-0.41360712,-0.94237924,-0.91539645,-3.1059608e-07,-0.011578647,0.0029034372,1.622441,-0.30252457,1.6298175,-0.0093062725,1.0245707,0.97338724,0.94237924,0.29932007,0.23666614,0.15473421,0.097404666,inf,inf,inf,inf,1,1,1,1,2,0,2,2,1,1,0
1433310631,24616208,37.1025014,-76.3880082,8.603904,-10.466123,-1.2727263,-0.0023451736,-0.0032105467,0.0,0.04773094,-0.41356304,-0.94121265,-0.9068668,-3.1059608e-07,-0.011578647,0.0029034372,0.7783312,-0.97441375,-0.5077692,-0.010584564,1.0245707,1.0623052,0.94121265,0.28872934,0.23660967,0.15030167,0.09712237,inf,inf,inf,inf,1,1,1,1,2,0,2,2,1,1,0
1433410708,24616208,37.1025014,-76.3880082,8.616746,-10.510767,-1.3527117,-0.0023451736,-0.0032105467,0.0,0.074283175,-0.4089188,-0.94954413,-0.90442294,-3.1059608e-07,-0.011578647,0.0029034372,-1.7758249,2.0985346,-0.34817737,-0.011806767,1.0245707,1.1422906,0.94954413,0.3006477,0.23766644,0.15491621,0.097661264,inf,inf,inf,inf,1,1,1,1,2,0,2,2,1,1,0
1433511459,24616208,37.1025014,-76.3880082,8.6308975,-10.55239,-1.4298636,-0.0023451736,-0.0032105467,0.0,0.090143755,-0.40305448,-0.92583853,-0.86869764,-3.1059608e-07,-0.011578647,0.0029034372,0.7162055,-0.38273856,-2.2558138,-0.0129798595,1.0245707,1.2194425,0.92583853,0.28878787,0.23696168,0.14992686,0.097205594,inf,inf,inf,inf,1,1,1,1,2,0,2,2,1,1,0
1433611410,24616208,37.1025014,-76.3880082,8.647584,-10.589101,-1.5055394,-0.0023451736,-0.0032105467,0.0,0.094658285,-0.3625643,-0.9104666,-0.84384924,-3.1059608e-07,-0.011578647,0.0029034372,-0.70489836,-0.6548589,-0.9795509,-0.014811699,1.0245707,1.2951183,0.9104666,0.30068752,0.23636644,0.15454113,0.09734941,inf,inf,inf,inf,1,1,1,1,2,0,2,2,1,1,0
1433716224,24616208,37.1025014,-76.3880082,8.664083,-10.625716,-1.5928942,-0.0023451736,-0.0032105467,0.0,0.10418945,-0.33047336,-0.9268812,-0.8593309,-3.1059608e-07,-0.011578647,0.0029034372,0.51232266,2.3354466,-0.5553934,-0.016844919,1.0245707,1.3824731,0.9268812,0.28984022,0.2362937,0.14997765,0.09705899,inf,inf,inf,inf,1,1,1,1,2,0,2,2,1,1,0
1433815965,24616208,37.1025014,-76.3880082,8.680295,-10.658875,-1.6783298,-0.0023451736,-0.0032105467,0.0,0.10194882,-0.3080432,-0.90958714,-0.84391856,-3.1059608e-07,-0.011578647,0.0029034372,0.15843572,0.33210698,-3.7416399,-0.017891774,1.0245707,1.4679087,0.90958714,0.30138874,0.2370905,0.15440129,0.09756012,inf,inf,inf,inf,1,1,1,1,2,0,2,2,1,1,0
1433917042,24616208,37.1025014,-76.3880082,8.695091,-10.688174,-1.7707611,-0.0023451736,-0.0032105467,0.0,0.098883286,-0.23849626,-0.9195766,-0.8605059,-3.1059608e-07,-0.011578647,0.0029034372,-0.25552005,-1.4558959,1.289902,-0.01827516,1.0245707,1.56034,0.9195766,0.28955978,0.23636197,0.14954267,0.09709398,inf,inf,inf,inf,1,1,1,1,2,0,2,2,1,1,0
1434020987,24616208,37.1025014,-76.3880082,8.709514,-10.714828,-1.8719875,-0.0023451736,-0.0032105467,0.0,0.0864667,-0.20616826,-0.9158154,-0.86806166,-3.1059608e-07,-0.011578647,0.0029034372,-0.47936013,1.0738384,1.4138081,-0.017284984,1.0245707,1.6615664,0.9158154,0.30145055,0.23739995,0.15418267,0.09762255,inf,inf,inf,inf,1,1,1,1,2,0,2,2,1,1,0
1434121851,24616208,37.1025014,-76.3880082,8.723435,-10.7342415,-1.9693764,-0.0023451736,-0.0032105467,0.0,0.076740384,-0.2043266,-0.9390718,-0.89950377,-3.1059608e-07,-0.011578647,0.0029034372,-0.9288284,-1.0295826,-1.5501631,-0.017198162,1.0245707,1.7589554,0.9390718,0.29070124,0.23733874,0.14981735,0.0973369,inf,inf,inf,inf,1,1,1,1,2,0,2,2,1,1,0
1434225749,24616208,37.1025014,-76.3880082,8.736089,-10.748313,-2.07289,-0.0023451736,-0.0032105467,0.0,0.05797574,-0.15099557,-0.9184006,-0.88898015,-3.1059608e-07,-0.011578647,0.0029034372,0.6533525,-0.20288068,1.364522,-0.018401003,1.0245707,1.862469,0.9184006,0.3026379,0.2367179,0.15444861,0.09746923,inf,inf,inf,inf,1,1,1,1,2,0,2,2,1,1,0
1434326335,24616208,37.1025014,-76.3880082,8.746277,-10.758974,-2.17168,-0.0023451736,-0.0032105467,0.0,0.027607309,-0.08898305,-0.91688365,-0.89580876,-3.1059608e-07,-0.011578647,0.0029034372,-0.29700026,-0.43125716,4.2964373,-0.02093204,1.0245707,1.9612589,0.91688365,0.29089865,0.23607692,0.14967945,0.09702715,inf,inf,inf,inf,1,1,1,1,2,0,2,2,1,1,0
1434430331,24616208,37.1025014,-76.3880082,8.754233,-10.766964,-2.2752864,-0.0023451736,-0.0032105467,0.0,0.0091867605,-0.07230603,-0.93384165,-0.9222868,-3.1059608e-07,-0.011578647,0.0029034372,-0.19199574,1.733437,2.6385627,-0.023555133,1.0245707,2.0648654,0.93384165,0.30282754,0.23713054,0.15422478,0.09756054,inf,inf,inf,inf,1,1,1,1,2,0,2,2,1,1,0
1434530685,24616208,37.1025014,-76.3880082,8.757474,-10.770536,-2.3760908,-0.0023451736,-0.0032105467,0.0,-0.012643462,-0.046806242,-0.92311513,-0.9205957,-3.1059608e-07,-0.011578647,0.0029034372,1.0679665,-2.8065038,-2.055922,-0.026250351,1.0245707,2.1656697,0.92311513,0.29188552,0.23705293,0.1497859,0.09727065,inf,inf,inf,inf,1,1,1,1,2,0,2,2,1,1,0
1434631454,24616208,37.1025014,-76.3880082,8.757057,-10.77166,-2.476602,-0.0023451736,-0.0032105467,0.0,-0.048096027,0.004413426,-0.92364556,-0.9286223,-3.1059608e-07,-0.011578647,0.0029034372,-2.6197054,-0.68623453,2.047446,-0.029002283,1.0245707,2.266181,0.92364556,0.30291024,0.23749648,0.15404238,0.09763337,inf,inf,inf,inf,1,1,1,1,2,0,2,2,1,1,0
1434731383,24616208,37.1025014,-76.3880082,8.755081,-10.770512,-2.5799391,-0.0023451736,-0.0032105467,0.0,-0.061875697,-0.0016014855,-0.9110627,-0.926092,-3.1059608e-07,-0.011578647,0.0029034372,-0.66201,1.6761812,-2.9079459,-0.030946769,1.0245707,2.369518,0.9110627,0.29163557,0.23736678,0.14945324,0.097334586,inf,inf,inf,inf,1,1,1,1,2,0,2,2,1,1,0
1434836198,24616208,37.1025014,-76.3880082,8.7518635,-10.767188,-2.6883078,-0.0023451736,-0.0032105467,0.0,-0.061077327,0.032242928,-0.94003314,-0.9630158,-3.1059608e-07,-0.011578647,0.0029034372,-0.70373476,0.8298393,-0.80987567,-0.034111585,1.0245707,2.4778867,0.94003314,0.30365616,0.23847039,0.1540107,0.09787179,inf,inf,inf,inf,1,1,1,1,2,0,2,2,1,1,0
1434940161,24616208,37.1025014,-76.3880082,8.748342,-10.762187,-2.797035,-0.0023451736,-0.0032105467,0.0,-0.06588574,0.07255697,-0.9526697,-0.98260915,-3.1059608e-07,-0.011578647,0.0029034372,-0.05816785,2.0357916,3.3929856,-0.036986575,1.0245707,2.586614,0.9526697,0.29248232,0.23664124,0.14960825,0.09716729,inf,inf,inf,inf,1,1,1,1,2,0,2,2,1,1,0
1435040979,24616208,37.1025014,-76.3880082,8.745148,-10.755912,-2.8995829,-0.0023451736,-0.0032105467,0.0,-0.06511701,0.061918672,-0.9369217,-0.96939266,-3.1059608e-07,-0.011578647,0.0029034372,-0.8614272,0.85596037,-1.0653936,-0.037536036,1.0245707,2.6891618,0.9369217,0.3035926,0.23712827,0.15396555,0.0975332,inf,inf,inf,inf,1,1,1,1,2,0,2,2,1,1,0
1435141000,24616208,37.1025014,-76.3880082,8.74162,-10.746174,-3.0017362,-0.0023451736,-0.0032105467,0.0,-0.041995827,0.1018147,-0.94371545,-0.97890955,-3.1059608e-07,-0.011578647,0.0029034372,1.0083086,1.2820461,4.8707523,-0.03795993,1.0245707,2.791315,0.94371545,0.2924826,0.2369913,0.14954923,0.09723757,inf,inf,inf,inf,1,1,1,1,2,0,2,2,1,1,0
1435245840,24616208,37.1025014,-76.3880082,8.738125,-10.7337055,-3.1082032,-0.0023451736,-0.0032105467,0.0,-0.03774443,0.12018724,-0.94221514,-0.9811289,-3.1059608e-07,-0.011578647,0.0029034372,-1.4451821,1.7360963,-1.5782816,-0.03668403,1.0245707,2.897782,0.94221514,0.30452558,0.23809111,0.1542194,0.097773686,inf,inf,inf,inf,1,1,1,1,2,0,2,2,1,1,0
1435345571,24616208,37.1025014,-76.3880082,8.734932,-10.718824,-3.208043,-0.0023451736,-0.0032105467,0.0,-0.03463086,0.16396229,-0.90214086,-0.9437505,-3.1059608e-07,-0.011578647,0.0029034372,-0.4903175,0.7979489,1.7009152,-0.035902083,1.0245707,2.997622,0.90214086,0.2933736,0.23629609,0.14974466,0.09708276,inf,inf,inf,inf,1,1,1,1,2,0,2,2,1,1,0
1435446372,24616208,37.1025014,-76.3880082,8.732166,-10.701192,-3.3104947,-0.0023451736,-0.0032105467,0.0,-0.019488208,0.17380895,-0.91368854,-0.96040916,-3.1059608e-07,-0.011578647,0.0029034372,0.7552586,-1.0731848,0.10568772,-0.034384366,1.0245707,3.1000736,0.91368854,0.30403396,0.23651774,0.15374866,0.0974236,inf,inf,inf,inf,1,1,1,1,2,0,2,2,1,1,0
1435546383,24616208,37.1025014,-76.3880082,8.728171,-10.680714,-3.4138486,-0.0023451736,-0.0032105467,0.0,-0.012803523,0.21967722,-0.92241913,-0.9757665,-3.1059608e-07,-0.011578647,0.0029034372,0.20398845,-0.5781633,1.9635093,-0.033942476,1.0245707,3.2034276,0.92241913,0.29313475,0.2364291,0.14942046,0.097149745,inf,inf,inf,inf,1,1,1,1,2,0,2,2,1,1,0
1435650669,24616208,37.1025014,-76.3880082,8.724222,-10.657096,-3.518396,-0.0023451736,-0.0032105467,0.0,-0.0130288545,0.24535282,-0.89826083,-0.9554731,-3.1059608e-07,-0.011578647,0.0029034372,1.281672,0.531503,4.3856874,-0.032832056,1.0245707,3.3079748,0.89826083,0.3051738,0.23755755,0.15408282,0.09769683,inf,inf,inf,inf,1,1,1,1,2,0,2,2,1,1,0
1435751407,24616208,37.1025014,-76.3880082,8.718983,-10.63333,-3.620953,-0.0023451736,-0.0032105467,0.0,-0.0124595165,0.24325319,-0.92195314,-0.98421377,-3.1059608e-07,-0.011578647,0.0029034372,0.5148123,-1.0072292,-3.3610117,-0.031697612,1.0245707,3.410532,0.92195314,0.29318482,0.23687845,0.14937279,0.09725709,inf,inf,inf,inf,1,1,1,1,2,0,2,2,1,1,0
1435851432,24616208,37.1025014,-76.3880082,8.713903,-10.608141,-3.7322276,-0.0023451736,-0.0032105467,0.0,-0.015741436,0.28324893,-0.8968087,-0.9722732,-3.1059608e-07,-0.011578647,0.0029034372,-1.3851717,-0.13183755,-1.477938,-0.03170431,1.0245707,3.5218065,0.8968087,0.30512482,0.23796274,0.15392229,0.09779926,inf,inf,inf,inf,1,1,1,1,2,0,2,2,1,1,0
1435956123,24616208,37.1025014,-76.3880082,8.707193,-10.578027,-3.8558505,-0.0023451736,-0.0032105467,0.0,-0.011999147,0.28308505,-0.90561783,-1.0008713,-3.1059608e-07,-0.011578647,0.0029034372,-0.37730685,-1.1309644,-3.9807496,-0.03096746,1.0245707,3.6454294,0.90561783,0.293946,0.23623884,0.14955008,0.09711789,inf,inf,inf,inf,1,1,1,1,2,0,2,2,1,1,0
1436055942,24616208,37.1025014,-76.3880082,8.700975,-10.546818,-3.9733071,-0.0023451736,-0.0032105467,0.0,-0.016223347,0.33270076,-0.8821551,-0.99396765,-3.1059608e-07,-0.011578647,0.0029034372,-1.9759893,1.3990117,1.8014095,-0.031371996,1.0245707,3.762886,0.8821551,0.30591223,0.2372913,0.15415165,0.097646855,inf,inf,inf,inf,1,1,1,1,2,0,2,2,1,1,0
1436156775,24616208,37.1025014,-76.3880082,8.694343,-10.516052,-4.0852427,-0.0023451736,-0.0032105467,0.0,-0.003916376,0.3513259,-0.87840587,-1.0006547,-3.1059608e-07,-0.011578647,0.0029034372,2.6165411,0.29497212,4.4263153,-0.030902129,1.0245707,3.8748217,0.87840587,0.29348516,0.23635419,0.14922418,0.097172305,inf,inf,inf,inf,1,1,1,1,2,0,2,2,1,1,0
1436260764,24616208,37.1025014,-76.3880082,8.689177,-10.482525,-4.1934323,-0.0023451736,-0.0032105467,0.0,0.010448612,0.35884708,-0.86728406,-0.9920317,-3.1059608e-07,-0.011578647,0.0029034372,0.81982845,-0.57551676,-0.69248587,-0.030459719,1.0245707,3.9830112,0.86728406,0.3054122,0.23740171,0.15375781,0.097698376,inf,inf,inf,inf,1,1,1,1,2,0,2,2,1,1,0
1436360997,24616208,37.1025014,-76.3880082,8.686148,-10.448464,-4.299232,-0.0023451736,-0.0032105467,0.0,0.022892436,0.37516543,-0.8704549,-0.99856585,-3.1059608e-07,-0.011578647,0.0029034372,-0.95121026,-0.27150595,-1.7409536,-0.029874105,1.0245707,4.088811,0.8704549,0.29442093,0.23735866,0.1495536,0.097422644,inf,inf,inf,inf,1,1,1,1,2,0,2,2,1,1,0
1436461804,24616208,37.1025014,-76.3880082,8.686594,-10.41285,-4.4069242,-0.0023451736,-0.0032105467,0.0,0.048013773,0.37002048,-0.88042086,-1.0127003,-3.1059608e-07,-0.011578647,0.0029034372,0.6072677,2.2548568,0.030550191,-0.028229719,1.0245707,4.196503,0.88042086,0.30544493,0.23779668,0.1537584,0.097777985,inf,inf,inf,inf,1,1,1,1,2,0,2,2,1,1,0
1436561744,24616208,37.1025014,-76.3880082,8.683856,-10.380054,-4.5100827,-0.0023451736,-0.0032105467,0.0,0.07967772,0.3581239,-0.9154829,-1.0454454,-3.1059608e-07,-0.011578647,0.0029034372,-0.27443936,-0.3368156,0.31366637,-0.026539424,1.0245707,4.2996616,0.9154829,0.29443964,0.23772544,0.14951062,0.09749108,inf,inf,inf,inf,1,1,1,1,2,0,2,2,1,1,0
1436666396,24616208,37.1025014,-76.3880082,8.685155,-10.345816,-4.61813,-0.0023451736,-0.0032105467,0.0,0.09212691,0.35288087,-0.9121483,-1.0400571,-3.1059608e-07,-0.011578647,0.0029034372,-1.1118028,0.4356183,-0.38459963,-0.024436902,1.0245707,4.407709,0.9121483,0.30641302,0.23874588,0.15421373,0.09800296,inf,inf,inf,inf,1,1,1,1,2,0,2,2,1,1,0
1436770377,24616208,37.1025014,-76.3880082,8.687781,-10.309156,-4.7220845,-0.0023451736,-0.0032105467,0.0,0.10614506,0.35018337,-0.9160747,-1.0385592,-3.1059608e-07,-0.011578647,0.0029034372,-1.7198288,0.55087584,-0.26170275,-0.023797099,1.0245707,4.5116634,0.9160747,0.29547936,0.23696707,0.15008473,0.097307004,inf,inf,inf,inf,1,1,1,1,2,0,2,2,1,1,0
1436875363,24616208,37.1025014,-76.3880082,8.693386,-10.273912,-4.8272505,-0.0023451736,-0.0032105467,0.0,0.11448889,0.32555047,-0.9121839,-1.0302976,-3.1059608e-07,-0.011578647,0.0029034372,-0.55191684,0.16518384,0.1012959,-0.024690703,1.0245707,4.6168294,0.9121839,0.28493515,0.23678781,0.1459332,0.09698333,inf,inf,inf,inf,1,1,1,1,2,0,2,2,1,1,0
1436979361,24616208,37.1025014,-76.3880082,8.695173,-10.242265,-4.926274,-0.0023451736,-0.0032105467,0.0,0.11022377,0.3130409,-0.88895035,-0.9979964,-3.1059608e-07,-0.011578647,0.0029034372,-1.909434,-0.2745911,-0.724983,-0.027450673,1.0245707,4.7158527,0.88895035,0.29642665,0.2377524,0.15049306,0.097487204,inf,inf,inf,inf,1,1,1,1,2,0,2,2,1,1,0
1437080274,24616208,37.1025014,-76.3880082,8.699551,-10.212076,-5.012551,-0.0023451736,-0.0032105467,0.0,0.11723979,0.30185422,-0.8925618,-0.98624253,-3.1059608e-07,-0.011578647,0.0029034372,0.8709559,-1.398746,1.3031925,-0.031059003,1.0245707,4.8021297,0.8925618,0.2850421,0.2370183,0.14598934,0.09700257,inf,inf,inf,inf,1,1,1,1,2,0,2,2,1,1,0
1437180158,24616208,37.1025014,-76.3880082,8.705653,-10.179739,-5.0990434,-0.0023451736,-0.0032105467,0.0,0.109283395,0.28424406,-0.8817123,-0.96356934,-3.1059608e-07,-0.011578647,0.0029034372,-2.2291205,-0.9818737,-3.2595532,-0.033905372,1.0245707,4.8886223,0.8817123,0.2965396,0.23800118,0.15047885,0.09751473,inf,inf,inf,inf,1,1,1,1,2,0,2,2,1,1,0
1437280278,24616208,37.1025014,-76.3880082,8.713681,-10.149795,-5.1813984,-0.0023451736,-0.0032105467,0.0,0.11855939,0.28732294,-0.87737983,-0.94606537,-3.1059608e-07,-0.011578647,0.0029034372,0.8657845,1.0512528,3.4457433,-0.037002303,1.0245707,4.9709773,0.87737983,0.2850803,0.23726475,0.1458813,0.09703068,inf,inf,inf,inf,1,1,1,1,2,0,2,2,1,1,0
1437381058,24616208,37.1025014,-76.3880082,8.723414,-10.122788,-5.2669024,-0.0023451736,-0.0032105467,0.0,0.12987643,0.23967753,-0.88570315,-0.94415855,-3.1059608e-07,-0.011578647,0.0029034372,0.2272567,-0.10592596,-0.6130906,-0.039347567,1.0245707,5.0564814,0.88570315,0.29657155,0.23822977,0.1504456,0.09753748,inf,inf,inf,inf,1,1,1,1,2,0,2,2,1,1,0
1437484776,24616208,37.1025014,-76.3880082,8.73468,-10.098895,-5.3579683,-0.0023451736,-0.0032105467,0.0,0.15001985,0.21198474,-0.90197414,-0.9529984,-3.1059608e-07,-0.011578647,0.0029034372,0.5031925,-2.3953366,-1.2677076,-0.04212617,1.0245707,5.1475472,0.90197414,0.2859803,0.2380709,0.1463098,0.09721247,inf,inf,inf,inf,1,1,1,1,2,0,2,2,1,1,0
1437585862,24616208,37.1025014,-76.3880082,8.742312,-10.083182,-5.445616,-0.0023451736,-0.0032105467,0.0,0.15150604,0.18111764,-0.8989372,-0.9417229,-3.1059608e-07,-0.011578647,0.0029034372,0.91622144,-2.7727072,0.5522184,-0.04426539,1.0245707,5.2351947,0.8989372,0.2975281,0.23902802,0.15099034,0.09771523,inf,inf,inf,inf,1,1,1,1,2,0,2,2,1,1,0
1437685583,24616208,37.1025014,-76.3880082,8.753515,-10.069855,-5.527643,-0.0023451736,-0.0032105467,0.0,0.15368453,0.13848773,-0.93714106,-0.9668275,-3.1059608e-07,-0.011578647,0.0029034372,0.18378532,0.6829923,-0.6379097,-0.044946752,1.0245707,5.317222,0.93714106,0.2859907,0.23821174,0.14649811,0.09722014,inf,inf,inf,inf,1,1,1,1,2,0,2,2,1,1,0
1437786319,24616208,37.1025014,-76.3880082,8.769186,-10.058607,-5.6107044,-0.0023451736,-0.0032105467,0.0,0.14076541,0.103227995,-0.90991867,-0.92746705,-3.1059608e-07,-0.011578647,0.0029034372,0.5306847,-0.6063246,0.35929206,-0.045470584,1.0245707,5.4002833,0.90991867,0.29718414,0.23896621,0.15098733,0.09771261,inf,inf,inf,inf,1,1,1,1,2,0,2,2,1,1,0
1437890667,24616208,37.1025014,-76.3880082,8.783699,-10.051879,-5.6918206,-0.0023451736,-0.0032105467,0.0,0.118217595,0.04832014,-0.92434216,-0.92626816,-3.1059608e-07,-0.011578647,0.0029034372,-0.511937,-1.9572101,-3.9906878,-0.044498757,1.0245707,5.4813995,0.92434216,0.28652087,0.2370631,0.14678267,0.096979454,inf,inf,inf,inf,1,1,1,1,2,0,2,2,1,1,0
1437990667,24616208,37.1025014,-76.3880082,8.795079,-10.05387,-5.766693,-0.0023451736,-0.0032105467,0.0,0.07873936,0.032487366,-0.8967608,-0.88285244,-3.1059608e-07,-0.011578647,0.0029034372,-2.2692933,0.8194368,-1.1836816,-0.043749128,1.0245707,5.556272,0.8967608,0.2972847,0.23749709,0.15110894,0.09733544,inf,inf,inf,inf,1,1,1,1,2,0,2,2,1,1,0
1438091496,24616208,37.1025014,-76.3880082,8.803093,-10.058137,-5.844296,-0.0023451736,-0.0032105467,0.0,0.053648405,0.010473845,-0.923173,-0.89715505,-3.1059608e-07,-0.011578647,0.0029034372,1.4273632,-0.69057596,5.5533595,-0.042743646,1.0245707,5.633875,0.923173,0.28660813,0.2373077,0.14690958,0.097016886,inf,inf,inf,inf,1,1,1,1,2,0,2,2,1,1,0
1438195466,24616208,37.1025014,-76.3880082,8.807795,-10.063712,-5.9241953,-0.0023451736,-0.0032105467,0.0,-0.0020843805,-0.02812011,-0.916902,-0.87880474,-3.1059608e-07,-0.011578647,0.0029034372,-0.6694109,0.41085723,2.6955698,-0.041208956,1.0245707,5.713774,0.916902,0.29829612,0.23836146,0.15152295,0.097546615,inf,inf,inf,inf,1,1,1,1,2,0,2,2,1,1,0
1438296152,24616208,37.1025014,-76.3880082,8.807816,-10.071533,-6.002907,-0.0023451736,-0.0032105467,0.0,-0.048001602,-0.06960831,-0.9493899,-0.9009773,-3.1059608e-07,-0.011578647,0.0029034372,-0.8624633,-1.2044038,-1.1600573,-0.03928648,1.0245707,5.7924857,0.9493899,0.28674147,0.23759097,0.14703746,0.09707427,inf,inf,inf,inf,1,1,1,1,2,0,2,2,1,1,0
1438396981,24616208,37.1025014,-76.3880082,8.805313,-10.082944,-6.084301,-0.0023451736,-0.0032105467,0.0,-0.100003034,-0.08703573,-0.9344913,-0.879589,-3.1059608e-07,-0.011578647,0.0029034372,-0.18608911,-0.12557553,-0.6248417,-0.038506515,1.0245707,5.87388,0.9344913,0.29844153,0.23697993,0.15175548,0.09720983,inf,inf,inf,inf,1,1,1,1,2,0,2,2,1,1,0
1438501018,24616208,37.1025014,-76.3880082,8.796833,-10.097173,-6.1715636,-0.0023451736,-0.0032105467,0.0,-0.14998287,-0.11330019,-0.94644064,-0.88795364,-3.1059608e-07,-0.011578647,0.0029034372,-0.83785415,-1.525008,-1.2444855,-0.039057057,1.0245707,5.9611425,0.94644064,0.28773603,0.23679325,0.14758547,0.09689884,inf,inf,inf,inf,1,1,1,1,2,0,2,2,1,1,0
1438605035,24616208,37.1025014,-76.3880082,8.783864,-10.11512,-6.258605,-0.0023451736,-0.0032105467,0.0,-0.19052798,-0.13295239,-0.95605433,-0.8938583,-3.1059608e-07,-0.011578647,0.0029034372,0.53105825,-3.2361956,0.036300793,-0.040193073,1.0245707,6.048184,0.95605433,0.2994982,0.23783793,0.15231535,0.09742648,inf,inf,inf,inf,1,1,1,1,2,0,2,2,1,1,0
1438705798,24616208,37.1025014,-76.3880082,8.767592,-10.134818,-6.3406944,-0.0023451736,-0.0032105467,0.0,-0.22283411,-0.13853239,-0.9546152,-0.8857267,-3.1059608e-07,-0.011578647,0.0029034372,-0.0044954,0.6871687,1.5408123,-0.04107184,1.0245707,6.1302733,0.9546152,0.28768408,0.23707205,0.14760469,0.096956566,inf,inf,inf,inf,1,1,1,1,2,0,2,2,1,1,0
1438805799,24616208,37.1025014,-76.3880082,8.751467,-10.159771,-6.42437,-0.0023451736,-0.0032105467,0.0,-0.24312045,-0.18870364,-0.9731228,-0.9008177,-3.1059608e-07,-0.011578647,0.0029034372,0.25089675,-0.5930597,-0.7707141,-0.040925782,1.0245707,6.2139487,0.9731228,0.29935047,0.2380752,0.15230502,0.09748456,inf,inf,inf,inf,1,1,1,1,2,0,2,2,1,1,0
1438910591,24616208,37.1025014,-76.3880082,8.732004,-10.184672,-6.512609,-0.0023451736,-0.0032105467,0.0,-0.2545479,-0.18549761,-0.9570342,-0.8812786,-3.1059608e-07,-0.011578647,0.0029034372,0.6989825,1.1476988,-0.79419684,-0.041549873,1.0245707,6.302188,0.9570342,0.28845307,0.23630473,0.14806363,0.09679669,inf,inf,inf,inf,1,1,1,1,2,0,2,2,1,1,0
1439014572,24616208,37.1025014,-76.3880082,8.713095,-10.209435,-6.6003666,-0.0023451736,-0.0032105467,0.0,-0.25824228,-0.17443943,-0.98567206,-0.90614593,-3.1059608e-07,-0.011578647,0.0029034372,0.096634865,1.7821708,-1.2632959,-0.042238764,1.0245707,6.3899455,0.98567206,0.30017066,0.23731756,0.15271227,0.09732726,inf,inf,inf,inf,1,1,1,1,2,0,2,2,1,1,0
1439114582,24616208,37.1025014,-76.3880082,8.693957,-10.233743,-6.6867824,-0.0023451736,-0.0032105467,0.0,-0.24300668,-0.19064064,-0.98502964,-0.9023212,-3.1059608e-07,-0.011578647,0.0029034372,1.5859818,-0.7702157,-1.1366142,-0.04286693,1.0245707,6.4763613,0.98502964,0.28836912,0.23664206,0.14808248,0.09688113,inf,inf,inf,inf,1,1,1,1,2,0,2,2,1,1,0
1439215615,24616208,37.1025014,-76.3880082,8.676521,-10.260505,-6.7732763,-0.0023451736,-0.0032105467,0.0,-0.21908605,-0.17805262,-0.9771373,-0.89141273,-3.1059608e-07,-0.011578647,0.0029034372,-0.6528605,-1.5624483,-1.1966037,-0.043915212,1.0245707,6.5628552,0.9771373,0.30008686,0.23767127,0.15276085,0.0974165,inf,inf,inf,inf,1,1,1,1,2,0,2,2,1,1,0
1439319175,24616208,37.1025014,-76.3880082,8.659847,-10.287279,-6.8701587,-0.0023451736,-0.0032105467,0.0,-0.18901743,-0.17278485,-0.9985833,-0.916745,-3.1059608e-07,-0.011578647,0.0029034372,-1.9539028,0.97276217,-4.873931,-0.045365557,1.0245707,6.6597376,0.9985833,0.2888175,0.23730874,0.14832298,0.097103216,inf,inf,inf,inf,1,1,1,1,2,0,2,2,1,1,0
1439420220,24616208,37.1025014,-76.3880082,8.64635,-10.312985,-6.966901,-0.0023451736,-0.0032105467,0.0,-0.14586271,-0.14764112,-0.9968385,-0.9205003,-3.1059608e-07,-0.011578647,0.0029034372,1.6615018,1.7624007,1.1378716,-0.04716881,1.0245707,6.7564797,0.9968385,0.30056414,0.23666732,0.15297915,0.097235635,inf,inf,inf,inf,1,1,1,1,2,0,2,2,1,1,0
1439519907,24616208,37.1025014,-76.3880082,8.634941,-10.333669,-7.0652375,-0.0023451736,-0.0032105467,0.0,-0.11059628,-0.1351069,-1.0069653,-0.93698156,-3.1059608e-07,-0.011578647,0.0029034372,1.5650069,-2.1828961,-1.6580844,-0.048934944,1.0245707,6.8548164,1.0069653,0.28894675,0.23766752,0.14845386,0.09718488,inf,inf,inf,inf,1,1,1,1,2,0,2,2,1,1,0
1439621040,24616208,37.1025014,-76.3880082,8.625235,-10.350999,-7.1614914,-0.0023451736,-0.0032105467,0.0,-0.09720452,-0.09954636,-0.9952103,-0.9290045,-3.1059608e-07,-0.011578647,0.0029034372,-1.430361,1.381272,-3.8777156,-0.05090672,1.0245707,6.9510703,0.9952103,0.30070537,0.23700005,0.15306391,0.09730687,inf,inf,inf,inf,1,1,1,1,2,0,2,2,1,1,0
1439724752,24616208,37.1025014,-76.3880082,8.618847,-10.365621,-7.257642,-0.0023451736,-0.0032105467,0.0,-0.06670383,-0.05246841,-0.9844962,-0.9188801,-3.1059608e-07,-0.011578647,0.0029034372,0.41209942,0.2822817,2.9327633,-0.054548334,1.0245707,7.0472207,0.9844962,0.28991088,0.23685394,0.14878689,0.09701065,inf,inf,inf,inf,1,1,1,1,2,0,2,2,1,1,0
1439825793,24616208,37.1025014,-76.3880082,8.615707,-10.376963,-7.354299,-0.0023451736,-0.0032105467,0.0,-0.04520504,-0.031301975,-0.9985856,-0.9375903,-3.1059608e-07,-0.011578647,0.0029034372,0.37900987,-1.4525431,-0.5259165,-0.057262678,1.0245707,7.143878,0.9985856,0.30182263,0.23794258,0.15344611,0.09754757,inf,inf,inf,inf,1,1,1,1,2,0,2,2,1,1,0
1439925869,24616208,37.1025014,-76.3880082,8.613677,-10.383875,-7.4528723,-0.0023451736,-0.0032105467,0.0,-0.0346676,0.0052302745,-0.98491955,-0.929915,-3.1059608e-07,-0.011578647,0.0029034372,-0.7586798,0.7807482,-3.1179843,-0.059765056,1.0245707,7.242451,0.98491955,0.29012096,0.23720966,0.14876245,0.09709251,inf,inf,inf,inf,1,1,1,1,2,0,2,2,1,1,0
1440030402,24616208,37.1025014,-76.3880082,8.612956,-10.387374,-7.5535474,-0.0023451736,-0.0032105467,0.0,-0.014510339,0.041518,-0.9938432,-0.94158673,-3.1059608e-07,-0.011578647,0.0029034372,-1.7036799,0.7437808,0.2609453,-0.06191967,1.0245707,7.3431263,0.9938432,0.30156434,0.23800905,0.15324661,0.097599775,inf,inf,inf,inf,1,1,1,1,2,0,2,2,1,1,0
1440130636,24616208,37.1025014,-76.3880082,8.6144285,-10.387255,-7.6483865,-0.0023451736,-0.0032105467,0.0,0.009952929,0.07028181,-0.9906352,-0.93890995,-3.1059608e-07,-0.011578647,0.0029034372,-0.5704024,-1.65596,-1.6208178,-0.06356628,1.0245707,7.4379654,0.9906352,0.29068378,0.23620325,0.14889583,0.09690688,inf,inf,inf,inf,1,1,1,1,2,0,2,2,1,1,0
1440230720,24616208,37.1025014,-76.3880082,8.618079,-10.383625,-7.7428174,-0.0023451736,-0.0032105467,0.0,0.03886609,0.11910348,-1.0134903,-0.9606949,-3.1059608e-07,-0.011578647,0.0029034372,0.5075413,-0.45941782,0.15339088,-0.06479934,1.0245707,7.5323963,1.0134903,0.30168185,0.23669703,0.15324332,0.09728116,inf,inf,inf,inf,1,1,1,1,2,0,2,2,1,1,0
1440331470,24616208,37.1025014,-76.3880082,8.625194,-10.378098,-7.834968,-0.0023451736,-0.0032105467,0.0,0.062558,0.12709485,-1.0329046,-0.97588044,-3.1059608e-07,-0.011578647,0.0029034372,-0.07350367,1.1297926,-0.9325023,-0.064533114,1.0245707,7.624547,1.0329046,0.29083976,0.23657897,0.14903216,0.09699721,inf,inf,inf,inf,1,1,1,1,2,0,2,2,1,1,0
1440435434,24616208,37.1025014,-76.3880082,8.635242,-10.369228,-7.9355097,-0.0023451736,-0.0032105467,0.0,0.08489065,0.15269184,-1.0394548,-0.98266816,-3.1059608e-07,-0.011578647,0.0029034372,1.2800577,-0.04202412,-0.69864285,-0.063243635,1.0245707,7.7250886,1.0394548,0.3026971,0.23762065,0.15369768,0.0975304,inf,inf,inf,inf,1,1,1,1,2,0,2,2,1,1,0
1440536327,24616208,37.1025014,-76.3880082,8.646218,-10.357855,-8.044291,-0.0023451736,-0.0032105467,0.0,0.09009464,0.1740558,-1.0420871,-0.9954922,-3.1059608e-07,-0.011578647,0.0029034372,-1.6242208,-1.0863824,-2.0314856,-0.06084039,1.0245707,7.8338695,1.0420871,0.29149005,0.2372539,0.14934108,0.097216696,inf,inf,inf,inf,1,1,1,1,2,0,2,2,1,1,0
1440636225,24616208,37.1025014,-76.3880082,8.657202,-10.343646,-8.151491,-0.0023451736,-0.0032105467,0.0,0.09268985,0.17790753,-1.0650232,-1.0253466,-3.1059608e-07,-0.011578647,0.0029034372,-1.4551929,2.5870497,-2.5460937,-0.057902094,1.0245707,7.94107,1.0650232,0.3024421,0.23770438,0.15371913,0.09758793,inf,inf,inf,inf,1,1,1,1,2,0,2,2,1,1,0
1440740761,24616208,37.1025014,-76.3880082,8.669213,-10.327343,-8.259093,-0.0023451736,-0.0032105467,0.0,0.08983124,0.20006098,-1.0755599,-1.0364689,-3.1059608e-07,-0.011578647,0.0029034372,-1.774277,-0.28972167,1.1972988,-0.056177422,1.0245707,8.048672,1.0755599,0.29166454,0.23763958,0.14951506,0.09730932,inf,inf,inf,inf,1,1,1,1,2,0,2,2,1,1,0
1440840992,24616208,37.1025014,-76.3880082,8.6797495,-10.311509,-8.361271,-0.0023451736,-0.0032105467,0.0,0.08056084,0.18162894,-1.0942817,-1.0541792,-3.1059608e-07,-0.011578647,0.0029034372,-0.12331279,0.9938396,0.4856567,-0.053848945,1.0245707,8.150849,1.0942817,0.30356807,0.2369879,0.15418448,0.09743306,inf,inf,inf,inf,1,1,1,1,2,0,2,2,1,1,0
1440941054,24616208,37.1025014,-76.3880082,8.691642,-10.294604,-8.470417,-0.0023451736,-0.0032105467,0.0,0.070261806,0.15800844,-1.0987769,-1.0625234,-3.1059608e-07,-0.011578647,0.0029034372,-0.29510754,0.14806435,-2.5637786,-0.051620916,1.0245707,8.259995,1.0987769,0.29177898,0.23632632,0.14961034,0.096989855,inf,inf,inf,inf,1,1,1,1,2,0,2,2,1,1,0
1441041798,24616208,37.1025014,-76.3880082,8.7032175,-10.278437,-8.574978,-0.0023451736,-0.0032105467,0.0,0.06031553,0.15696697,-1.1115733,-1.0717901,-3.1059608e-07,-0.011578647,0.0029034372,-2.0419204,-0.5423651,-2.0402973,-0.050061215,1.0245707,8.364556,1.1115733,0.3036947,0.2373577,0.15431754,0.09751736,inf,inf,inf,inf,1,1,1,1,2,0,2,2,1,1,0
1441145804,24616208,37.1025014,-76.3880082,8.714459,-10.266243,-8.684264,-0.0023451736,-0.0032105467,0.0,0.050035354,0.120641746,-1.1401471,-1.0967026,-3.1059608e-07,-0.011578647,0.0029034372,-0.79865414,1.1151644,-0.7403556,-0.04809355,1.0245707,8.473843,1.1401471,0.2927793,0.23728028,0.1500831,0.09723326,inf,inf,inf,inf,1,1,1,1,2,0,2,2,1,1,0
1441246621,24616208,37.1025014,-76.3880082,8.723481,-10.257101,-8.793527,-0.0023451736,-0.0032105467,0.0,0.040314328,0.107918896,-1.1510959,-1.1060282,-3.1059608e-07,-0.011578647,0.0029034372,-0.78360885,0.063936,4.5495467,-0.046859235,1.0245707,8.583105,1.1510959,0.30381116,0.23770118,0.15444784,0.0975886,inf,inf,inf,inf,1,1,1,1,2,0,2,2,1,1,0
1441346552,24616208,37.1025014,-76.3880082,8.730194,-10.251431,-8.903914,-0.0023451736,-0.0032105467,0.0,0.028383417,0.053517304,-1.1627505,-1.1173947,-3.1059608e-07,-0.011578647,0.0029034372,-0.3783318,-0.59819025,-3.732015,-0.044324145,1.0245707,8.693493,1.1627505,0.2928181,0.23761614,0.15022202,0.09730202,inf,inf,inf,inf,1,1,1,1,2,0,2,2,1,1,0
1441450634,24616208,37.1025014,-76.3880082,8.734397,-10.248064,-9.024454,-0.0023451736,-0.0032105467,0.0,0.011982125,0.025386572,-1.1606072,-1.1191611,-3.1059608e-07,-0.011578647,0.0029034372,0.8688828,-1.3003465,0.67333955,-0.042213216,1.0245707,8.814033,1.1606072,0.30480045,0.23696655,0.15494557,0.09742446,inf,inf,inf,inf,1,1,1,1,2,0,2,2,1,1,0
1441555171,24616208,37.1025014,-76.3880082,8.73785,-10.249665,-9.147469,-0.0023451736,-0.0032105467,0.0,-0.015669815,-0.013281733,-1.1684233,-1.1310667,-3.1059608e-07,-0.011578647,0.0029034372,-0.7944619,-0.10633587,-2.5412982,-0.039415892,1.0245707,8.937047,1.1684233,0.29361397,0.23684451,0.1505544,0.097139716,inf,inf,inf,inf,1,1,1,1,2,0,2,2,1,1,0
1441656138,24616208,37.1025014,-76.3880082,8.737704,-10.254315,-9.262616,-0.0023451736,-0.0032105467,0.0,-0.04260693,-0.03492054,-1.1871933,-1.1495938,-3.1059608e-07,-0.011578647,0.0029034372,-0.023545364,-1.2939837,-3.1955042,-0.037158076,1.0245707,9.052195,1.1871933,0.3057406,0.23794723,0.15529327,0.097676635,inf,inf,inf,inf,1,1,1,1,2,0,2,2,1,1,0
1441756123,24616208,37.1025014,-76.3880082,8.736175,-10.2653055,-9.381028,-0.0023451736,-0.0032105467,0.0,-0.076091945,-0.056107335,-1.1905801,-1.1556014,-3.1059608e-07,-0.011578647,0.0029034372,0.18638702,0.7136847,-0.13090137,-0.036563277,1.0245707,9.170607,1.1905801,0.29360303,0.23723286,0.1505128,0.09723055,inf,inf,inf,inf,1,1,1,1,2,0,2,2,1,1,0
1441859949,24616208,37.1025014,-76.3880082,8.730763,-10.279528,-9.506176,-0.0023451736,-0.0032105467,0.0,-0.11057562,-0.10423862,-1.2066154,-1.1744426,-3.1059608e-07,-0.011578647,0.0029034372,-3.9080667,-0.9053987,-4.15534,-0.036453146,1.0245707,9.295754,1.2066154,0.30524787,0.23804353,0.15506732,0.09773616,inf,inf,inf,inf,1,1,1,1,2,0,2,2,1,1,0
1441961114,24616208,37.1025014,-76.3880082,8.723315,-10.295942,-9.628459,-0.0023451736,-0.0032105467,0.0,-0.12657449,-0.13466856,-1.2162929,-1.18676,-3.1059608e-07,-0.011578647,0.0029034372,-0.4938536,1.2571704,-1.6207427,-0.037784275,1.0245707,9.418037,1.2162929,0.29398823,0.23625745,0.1506839,0.09705078,inf,inf,inf,inf,1,1,1,1,2,0,2,2,1,1,0
1442061025,24616208,37.1025014,-76.3880082,8.713754,-10.313114,-9.75013,-0.0023451736,-0.0032105467,0.0,-0.11890679,-0.14002687,-1.2106421,-1.1841449,-3.1059608e-07,-0.011578647,0.0029034372,3.443329,-3.1397877,6.073821,-0.040531494,1.0245707,9.539708,1.2106421,0.30565232,0.23706171,0.15517545,0.09755302,inf,inf,inf,inf,1,1,1,1,2,0,2,2,1,1,0
1442165797,24616208,37.1025014,-76.3880082,8.702837,-10.3318405,-9.880495,-0.0023451736,-0.0032105467,0.0,-0.14288369,-0.160251,-1.1841636,-1.1643553,-3.1059608e-07,-0.011578647,0.0029034372,-2.0568337,-0.039737757,-1.7832438,-0.0433532,1.0245707,9.6700735,1.1841636,0.2943747,0.2369163,0.15074855,0.09725736,inf,inf,inf,inf,1,1,1,1,2,0,2,2,1,1,0
1442265904,24616208,37.1025014,-76.3880082,8.691908,-10.349194,-10.007267,-0.0023451736,-0.0032105467,0.0,-0.11825721,-0.14754753,-1.1976466,-1.1867243,-3.1059608e-07,-0.011578647,0.0029034372,2.4644995,-1.8478211,6.7436304,-0.046778616,1.0245707,9.796845,1.1976466,0.30548713,0.23902239,0.15503532,0.098013304,inf,inf,inf,inf,1,1,1,1,2,0,2,2,1,1,0
1442366360,24616208,37.1025014,-76.3880082,8.686983,-10.368012,-10.144303,-0.0023451736,-0.0032105467,0.0,-0.109762184,-0.15343273,-1.206492,-1.2128898,-3.1059608e-07,-0.011578647,0.0029034372,-2.0206277,-0.68757313,-2.2246714,-0.04883,1.0245707,9.933882,1.206492,0.2944365,0.23721214,0.15070239,0.09730791,inf,inf,inf,inf,1,1,1,1,2,0,2,2,1,1,0
1442466684,24616208,37.1025014,-76.3880082,8.682118,-10.38465,-10.276941,-0.0023451736,-0.0032105467,0.0,-0.08948016,-0.12904252,-1.1894794,-1.2076731,-3.1059608e-07,-0.011578647,0.0029034372,-2.8178685,0.29578462,-1.6788366,-0.05087842,1.0245707,10.06652,1.1894794,0.3055446,0.2376073,0.15493849,0.097650275,inf,inf,inf,inf,1,1,1,1,2,0,2,2,1,1,0
1442570358,24616208,37.1025014,-76.3880082,8.679939,-10.402438,-10.416495,-0.0023451736,-0.0032105467,0.0,-0.055700734,-0.13041134,-1.1959227,-1.226191,-3.1059608e-07,-0.011578647,0.0029034372,0.66604406,-0.8432206,-0.3416984,-0.05087628,1.0245707,10.206074,1.1959227,0.29436013,0.23750292,0.15058887,0.097355664,inf,inf,inf,inf,1,1,1,1,2,0,2,2,1,1,0
1442671399,24616208,37.1025014,-76.3880082,8.678931,-10.417504,-10.54156,-0.0023451736,-0.0032105467,0.0,-0.030544287,-0.10380664,-1.1927509,-1.2237132,-3.1059608e-07,-0.011578647,0.0029034372,1.5710493,-1.6490068,1.8604479,-0.05114875,1.0245707,10.331139,1.1927509,0.3064131,0.23851414,0.15519409,0.09786872,inf,inf,inf,inf,1,1,1,1,2,0,2,2,1,1,0
1442771451,24616208,37.1025014,-76.3880082,8.678983,-10.434065,-10.666058,-0.0023451736,-0.0032105467,0.0,-0.012509131,-0.08794678,-1.2084582,-1.2406063,-3.1059608e-07,-0.011578647,0.0029034372,1.7995298,0.22079138,0.97501993,-0.05070359,1.0245707,10.455636,1.2084582,0.2944289,0.2377993,0.15054366,0.09740698,inf,inf,inf,inf,1,1,1,1,2,0,2,2,1,1,0
1442872241,24616208,37.1025014,-76.3880082,8.680118,-10.448108,-10.788335,-0.0023451736,-0.0032105467,0.0,-0.00010294671,-0.09020816,-1.1940578,-1.2234677,-3.1059608e-07,-0.011578647,0.0029034372,0.5023497,-0.5115057,-1.1913829,-0.05015159,1.0245707,10.577913,1.1940578,0.30648428,0.23876032,0.15521355,0.09790037,inf,inf,inf,inf,1,1,1,1,2,0,2,2,1,1,0
1442977091,24616208,37.1025014,-76.3880082,8.6821165,-10.461187,-10.915436,-0.0023451736,-0.0032105467,0.0,0.0122712795,-0.04670757,-1.2160773,-1.2425675,-3.1059608e-07,-0.011578647,0.0029034372,0.8251478,0.26211756,3.8580317,-0.05149638,1.0245707,10.705014,1.2160773,0.29533428,0.23862158,0.15093687,0.09759702,inf,inf,inf,inf,1,1,1,1,2,0,2,2,1,1,0
1443081057,24616208,37.1025014,-76.3880082,8.684375,-10.470985,-11.039933,-0.0023451736,-0.0032105467,0.0,0.017402807,-0.051795676,-1.2095246,-1.2312034,-3.1059608e-07,-0.011578647,0.0029034372,0.597202,-1.4361235,-0.32144818,-0.05161229,1.0245707,10.829512,1.2095246,0.28460097,0.2367427,0.14666586,0.09687322,inf,inf,inf,inf,1,1,1,1,2,0,2,2,1,1,0
1443184992,24616208,37.1025014,-76.3880082,8.686506,-10.478381,-11.160823,-0.0023451736,-0.0032105467,0.0,0.019242276,-0.038786106,-1.2112634,-1.2245412,-3.1059608e-07,-0.011578647,0.0029034372,0.29036728,-1.0611092,-0.36854488,-0.05178632,1.0245707,10.950401,1.2112634,0.29624426,0.23778604,0.1512847,0.09740079,inf,inf,inf,inf,1,1,1,1,2,0,2,2,1,1,0
1443285925,24616208,37.1025014,-76.3880082,8.688347,-10.482764,-11.280508,-0.0023451736,-0.0032105467,0.0,0.026304249,-0.0077762436,-1.2350575,-1.2428995,-3.1059608e-07,-0.011578647,0.0029034372,2.4605043,-2.8034685,2.9925754,-0.052858923,1.0245707,11.0700865,1.2350575,0.28454918,0.23701367,0.1466695,0.09692245,inf,inf,inf,inf,1,1,1,1,2,0,2,2,1,1,0
1443389757,24616208,37.1025014,-76.3880082,8.689784,-10.4849415,-11.40301,-0.0023451736,-0.0032105467,0.0,0.022299515,0.0111928545,-1.2309934,-1.2328622,-3.1059608e-07,-0.011578647,0.0029034372,1.0844119,-1.105001,5.8465214,-0.05257762,1.0245707,11.192589,1.2309934,0.29610062,0.23798318,0.15127768,0.097437,inf,inf,inf,inf,1,1,1,1,2,0,2,2,1,1,0
1443490554,24616208,37.1025014,-76.3880082,8.690646,-10.4846525,-11.523592,-0.0023451736,-0.0032105467,0.0,0.01580578,0.019110098,-1.2286596,-1.2276106,-3.1059608e-07,-0.011578647,0.0029034372,1.7299001,-0.979297,3.7940772,-0.051930588,1.0245707,11.31317,1.2286596,0.2853167,0.23784395,0.14701377,0.09712486,inf,inf,inf,inf,1,1,1,1,2,0,2,2,1,1,0
1443590545,24616208,37.1025014,-76.3880082,8.690522,-10.480224,-11.645582,-0.0023451736,-0.0032105467,0.0,0.00065919705,0.016650453,-1.2200193,-1.2190304,-3.1059608e-07,-0.011578647,0.0029034372,-1.9510392,2.3849814,-3.9096453,-0.049864557,1.0245707,11.435161,1.2200193,0.2959991,0.23820722,0.15123591,0.09747161,inf,inf,inf,inf,1,1,1,1,2,0,2,2,1,1,0
1443691445,24616208,37.1025014,-76.3880082,8.689242,-10.473888,-11.770009,-0.0023451736,-0.0032105467,0.0,-0.0054662833,0.051538598,-1.2200553,-1.2201387,-3.1059608e-07,-0.011578647,0.0029034372,-0.24676792,0.24202779,3.0963778,-0.049964435,1.0245707,11.5595875,1.2200553,0.2853407,0.23805586,0.14700261,0.09715965,inf,inf,inf,inf,1,1,1,1,2,0,2,2,1,1,0
1443795454,24616208,37.1025014,-76.3880082,8.687371,-10.466439,-11.902266,-0.0023451736,-0.0032105467,0.0,-0.021491496,0.059858464,-1.2272301,-1.2320487,-3.1059608e-07,-0.011578647,0.0029034372,-1.5860845,3.480252,-1.0188756,-0.050470438,1.0245707,11.691844,1.2272301,0.29694575,0.2373497,0.15159246,0.09727611,inf,inf,inf,inf,1,1,1,1,2,0,2,2,1,1,0
1443899401,24616208,37.1025014,-76.3880082,8.684178,-10.457115,-12.038741,-0.0023451736,-0.0032105467,0.0,-0.026955042,0.075620204,-1.2303127,-1.2433491,-3.1059608e-07,-0.011578647,0.0029034372,-1.5643712,0.9996279,-2.3644693,-0.051421743,1.0245707,11.82832,1.2303127,0.28618464,0.23719531,0.1473592,0.096964866,inf,inf,inf,inf,1,1,1,1,2,0,2,2,1,1,0
1444000183,24616208,37.1025014,-76.3880082,8.678993,-10.446029,-12.173854,-0.0023451736,-0.0032105467,0.0,-0.03915932,0.07894467,-1.2460643,-1.2677222,-3.1059608e-07,-0.011578647,0.0029034372,-0.4931364,1.2495984,-2.5598137,-0.051570904,1.0245707,11.963432,1.2460643,0.29783887,0.23815674,0.15199111,0.09747641,inf,inf,inf,inf,1,1,1,1,2,0,2,2,1,1,0
1444104179,24616208,37.1025014,-76.3880082,8.67222,-10.433579,-12.31252,-0.0023451736,-0.0032105467,0.0,-0.044139877,0.086614944,-1.2657005,-1.2926635,-3.1059608e-07,-0.011578647,0.0029034372,1.6268424,-0.7009999,-0.7405342,-0.05182528,1.0245707,12.102098,1.2657005,0.2869637,0.23795937,0.14770876,0.09716584,inf,inf,inf,inf,1,1,1,1,2,0,2,2,1,1,0
1444204999,24616208,37.1025014,-76.3880082,8.6642275,-10.42094,-12.443309,-0.0023451736,-0.0032105467,0.0,-0.0688045,0.101588555,-1.2392004,-1.2672707,-3.1059608e-07,-0.011578647,0.0029034372,-1.755714,-1.3214676,-3.9842165,-0.051960785,1.0245707,12.232887,1.2392004,0.2973799,0.23813099,0.1519103,0.097504266,inf,inf,inf,inf,1,1,1,1,2,0,2,2,1,1,0
1444304732,24616208,37.1025014,-76.3880082,8.654772,-10.407799,-12.571564,-0.0023451736,-0.0032105467,0.0,-0.06983993,0.109534346,-1.2424951,-1.2696795,-3.1059608e-07,-0.011578647,0.0029034372,-0.10693412,1.4909372,-3.3967924,-0.051411454,1.0245707,12.361142,1.2424951,0.28649658,0.23635632,0.14761542,0.09681626,inf,inf,inf,inf,1,1,1,1,2,0,2,2,1,1,0
1444405006,24616208,37.1025014,-76.3880082,8.643524,-10.394283,-12.698022,-0.0023451736,-0.0032105467,0.0,-0.061448473,0.12032386,-1.2676963,-1.2921435,-3.1059608e-07,-0.011578647,0.0029034372,1.9578681,-0.50247294,5.864451,-0.051993154,1.0245707,12.4876,1.2676963,0.2972681,0.23677748,0.15188201,0.09718391,inf,inf,inf,inf,1,1,1,1,2,0,2,2,1,1,0
1444509547,24616208,37.1025014,-76.3880082,8.632518,-10.38012,-12.831234,-0.0023451736,-0.0032105467,0.0,-0.06740277,0.11106861,-1.2424833,-1.2653644,-3.1059608e-07,-0.011578647,0.0029034372,0.60321033,0.17976908,3.4606776,-0.052119307,1.0245707,12.620812,1.2424833,0.28625715,0.23661053,0.14748684,0.096883796,inf,inf,inf,inf,1,1,1,1,2,0,2,2,1,1,0
1444610666,24616208,37.1025014,-76.3880082,8.623069,-10.365811,-12.958564,-0.0023451736,-0.0032105467,0.0,-0.04611092,0.09790118,-1.2350951,-1.2560636,-3.1059608e-07,-0.011578647,0.0029034372,1.8056142,-0.60168934,1.7394853,-0.051230107,1.0245707,12.748142,1.2350951,0.29802266,0.23766361,0.15214467,0.09741675,inf,inf,inf,inf,1,1,1,1,2,0,2,2,1,1,0
1444710568,24616208,37.1025014,-76.3880082,8.615188,-10.352864,-13.085176,-0.0023451736,-0.0032105467,0.0,-0.02642384,0.076651886,-1.2375036,-1.2578225,-3.1059608e-07,-0.011578647,0.0029034372,-0.64813805,-1.4622743,-4.2564855,-0.050123744,1.0245707,12.874755,1.2375036,0.2861253,0.23688626,0.14741907,0.096945405,inf,inf,inf,inf,1,1,1,1,2,0,2,2,1,1,0
1444814683,24616208,37.1025014,-76.3880082,8.608323,-10.338877,-13.217949,-0.0023451736,-0.0032105467,0.0,-0.0056329574,0.06583266,-1.2120812,-1.2337217,-3.1059608e-07,-0.011578647,0.0029034372,0.9829328,-0.80878675,-1.8926123,-0.048719026,1.0245707,13.007527,1.2120812,0.29788193,0.23792277,0.15199089,0.09747199,inf,inf,inf,inf,1,1,1,1,2,0,2,2,1,1,0
1444915389,24616208,37.1025014,-76.3880082,8.604245,-10.32782,-13.341747,-0.0023451736,-0.0032105467,0.0,0.027344063,0.0797962,-1.2232089,-1.2427065,-3.1059608e-07,-0.011578647,0.0029034372,1.8955615,-2.1669858,2.4800124,-0.04750908,1.0245707,13.131326,1.2232089,0.2867116,0.23774257,0.14754538,0.097164,inf,inf,inf,inf,1,1,1,1,2,0,2,2,1,1,0
1445015380,24616208,37.1025014,-76.3880082,8.601828,-10.318931,-13.464908,-0.0023451736,-0.0032105467,0.0,0.03680206,0.04479452,-1.2009257,-1.2206744,-3.1059608e-07,-0.011578647,0.0029034372,-2.394374,1.8090359,-6.112235,-0.04497588,1.0245707,13.254486,1.2009257,0.29748464,0.2381505,0.1517624,0.09752773,inf,inf,inf,inf,1,1,1,1,2,0,2,2,1,1,0
1445116198,24616208,37.1025014,-76.3880082,8.600938,-10.310009,-13.587186,-0.0023451736,-0.0032105467,0.0,0.064771116,0.043773163,-1.1799792,-1.199766,-3.1059608e-07,-0.011578647,0.0029034372,2.2642982,-1.9171178,4.16196,-0.043913662,1.0245707,13.376764,1.1799792,0.2865733,0.2363774,0.14747365,0.09684103,inf,inf,inf,inf,1,1,1,1,2,0,2,2,1,1,0
1445220275,24616208,37.1025014,-76.3880082,8.601542,-10.301384,-13.711582,-0.0023451736,-0.0032105467,0.0,0.07390499,0.042742856,-1.1712515,-1.1907477,-3.1059608e-07,-0.011578647,0.0029034372,1.0641274,0.32884586,2.997081,-0.043026112,1.0245707,13.501161,1.1712515,0.29826066,0.23738778,0.15194702,0.09737195,inf,inf,inf,inf,1,1,1,1,2,0,2,2,1,1,0
1445321027,24616208,37.1025014,-76.3880082,8.604686,-10.293855,-13.835118,-0.0023451736,-0.0032105467,0.0,0.0935407,0.015573955,-1.1829351,-1.2059299,-3.1059608e-07,-0.011578647,0.0029034372,-0.47147137,-2.146121,-0.39076072,-0.04242945,1.0245707,13.624697,1.1829351,0.28694922,0.23700775,0.14755529,0.09705664,inf,inf,inf,inf,1,1,1,1,2,0,2,2,1,1,0
1445420992,24616208,37.1025014,-76.3880082,8.610793,-10.287901,-13.95815,-0.0023451736,-0.0032105467,0.0,0.11260588,0.010215314,-1.1660132,-1.1926724,-3.1059608e-07,-0.011578647,0.0029034372,1.4404347,1.4004818,0.27079844,-0.042517003,1.0245707,13.747728,1.1660132,0.2977326,0.2374094,0.15175818,0.09741629,inf,inf,inf,inf,1,1,1,1,2,0,2,2,1,1,0
1445524748,24616208,37.1025014,-76.3880082,8.620862,-10.281606,-14.087064,-0.0023451736,-0.0032105467,0.0,0.1261886,-0.0043846765,-1.1644846,-1.1949377,-3.1059608e-07,-0.011578647,0.0029034372,-3.510739,0.0840351,-1.9254907,-0.043030363,1.0245707,13.876642,1.1644846,0.2869571,0.23729804,0.14752647,0.09712229,inf,inf,inf,inf,1,1,1,1,2,0,2,2,1,1,0
1445625555,24616208,37.1025014,-76.3880082,8.633792,-10.275489,-14.204486,-0.0023451736,-0.0032105467,0.0,0.1413659,-0.00213155,-1.1624223,-1.1881056,-3.1059608e-07,-0.011578647,0.0029034372,-0.33078656,0.34491047,0.89663213,-0.043096926,1.0245707,13.994064,1.1624223,0.29866335,0.23829491,0.15218803,0.09764601,inf,inf,inf,inf,1,1,1,1,2,0,2,2,1,1,0
1445725761,24616208,37.1025014,-76.3880082,8.64921,-10.271225,-14.3270645,-0.0023451736,-0.0032105467,0.0,0.14944407,-0.029412346,-1.1698123,-1.1972469,-3.1059608e-07,-0.011578647,0.0029034372,-2.4599779,0.044795994,-5.834598,-0.042987153,1.0245707,14.116643,1.1698123,0.28688824,0.23754384,0.14761779,0.097186185,inf,inf,inf,inf,1,1,1,1,2,0,2,2,1,1,0
1445826646,24616208,37.1025014,-76.3880082,8.666413,-10.267544,-14.449169,-0.0023451736,-0.0032105467,0.0,0.156452,-0.028094977,-1.160352,-1.1881961,-3.1059608e-07,-0.011578647,0.0029034372,-1.5332737,1.5208429,-6.123167,-0.043365426,1.0245707,14.238748,1.160352,0.2986922,0.23858461,0.15225448,0.09771204,inf,inf,inf,inf,1,1,1,1,2,0,2,2,1,1,0
1445930369,24616208,37.1025014,-76.3880082,8.684793,-10.262096,-14.572143,-0.0023451736,-0.0032105467,0.0,0.16493864,-0.015953582,-1.1886207,-1.2140167,-3.1059608e-07,-0.011578647,0.0029034372,0.9673045,-0.7480346,-0.327792,-0.044033207,1.0245707,14.361721,1.1886207,0.28787935,0.23678611,0.14804122,0.0970163,inf,inf,inf,inf,1,1,1,1,2,0,2,2,1,1,0
1446031422,24616208,37.1025014,-76.3880082,8.702478,-10.255943,-14.689232,-0.0023451736,-0.0032105467,0.0,0.15324405,-0.008577112,-1.1707793,-1.1921694,-3.1059608e-07,-0.011578647,0.0029034372,-0.49494466,0.5227088,-1.4212799,-0.04460096,1.0245707,14.47881,1.1707793,0.299649,0.23777921,0.15268582,0.09753698,inf,inf,inf,inf,1,1,1,1,2,0,2,2,1,1,0
1446131359,24616208,37.1025014,-76.3880082,8.71833,-10.25066,-14.8055,-0.0023451736,-0.0032105467,0.0,0.15368204,-0.014517752,-1.1781815,-1.1966645,-3.1059608e-07,-0.011578647,0.0029034372,0.30534428,-1.0700356,-0.3757859,-0.045224413,1.0245707,14.595078,1.1781815,0.28781813,0.23702998,0.14804414,0.09707953,inf,inf,inf,inf,1,1,1,1,2,0,2,2,1,1,0
1446232291,24616208,37.1025014,-76.3880082,8.732744,-10.24536,-14.917108,-0.0023451736,-0.0032105467,0.0,0.13015439,-0.0052561676,-1.17291,-1.1835828,-3.1059608e-07,-0.011578647,0.0029034372,-2.1506836,2.0323026,-1.2710811,-0.04642045,1.0245707,14.706686,1.17291,0.29922253,0.23781796,0.1524719,0.097585805,inf,inf,inf,inf,1,1,1,1,2,0,2,2,1,1,0
1446335987,24616208,37.1025014,-76.3880082,8.746084,-10.238685,-15.038599,-0.0023451736,-0.0032105467,0.0,0.12528567,-0.003530788,-1.1755154,-1.1849958,-3.1059608e-07,-0.011578647,0.0029034372,-1.9486251,-1.0652649,-2.990559,-0.047379274,1.0245707,14.828177,1.1755154,0.2883479,0.2376767,0.14819378,0.09729591,inf,inf,inf,inf,1,1,1,1,2,0,2,2,1,1,0
1446436183,24616208,37.1025014,-76.3880082,8.758475,-10.232623,-15.152266,-0.0023451736,-0.0032105467,0.0,0.113597766,0.013408521,-1.173814,-1.1787078,-3.1059608e-07,-0.011578647,0.0029034372,0.79944116,1.9621954,0.62711096,-0.047319632,1.0245707,14.941844,1.173814,0.29931587,0.23816048,0.15254577,0.09766834,inf,inf,inf,inf,1,1,1,1,2,0,2,2,1,1,0
1446537014,24616208,37.1025014,-76.3880082,8.768803,-10.225081,-15.269319,-0.0023451736,-0.0032105467,0.0,0.11758019,-0.0031599954,-1.2016548,-1.2043852,-3.1059608e-07,-0.011578647,0.0029034372,0.20386624,-1.6855378,-0.0037202693,-0.0464969,1.0245707,15.058897,1.2016548,0.28836834,0.23799756,0.14831425,0.0973694,inf,inf,inf,inf,1,1,1,1,2,0,2,2,1,1,0
1446640969,24616208,37.1025014,-76.3880082,8.778531,-10.218564,-15.396324,-0.0023451736,-0.0032105467,0.0,0.11001164,-0.0008716588,-1.2029148,-1.2084522,-3.1059608e-07,-0.011578647,0.0029034372,1.1983607,0.6411596,1.994077,-0.046333898,1.0245707,15.185903,1.2029148,0.30027652,0.237374,0.15304594,0.097494274,inf,inf,inf,inf,1,1,1,1,2,0,2,2,1,1,0
1446741805,24616208,37.1025014,-76.3880082,8.788012,-10.211443,-15.521489,-0.0023451736,-0.0032105467,0.0,0.095134616,-0.021605298,-1.2248294,-1.2320824,-3.1059608e-07,-0.011578647,0.0029034372,-3.5126054,-0.19062199,-5.7189384,-0.04651984,1.0245707,15.311068,1.2248294,0.28839338,0.23662294,0.14843129,0.0970361,inf,inf,inf,inf,1,1,1,1,2,0,2,2,1,1,0
1446841571,24616208,37.1025014,-76.3880082,8.797198,-10.205902,-15.652413,-0.0023451736,-0.0032105467,0.0,0.099768214,-0.041000515,-1.2620848,-1.2743292,-3.1059608e-07,-0.011578647,0.0029034372,-0.7006321,0.104791164,-2.1978617,-0.047380973,1.0245707,15.441992,1.2620848,0.30022076,0.23763518,0.15311015,0.097561024,inf,inf,inf,inf,1,1,1,1,2,0,2,2,1,1,0
1446942577,24616208,37.1025014,-76.3880082,8.806602,-10.200726,-15.786956,-0.0023451736,-0.0032105467,0.0,0.09391255,-0.040577777,-1.2660345,-1.2827245,-3.1059608e-07,-0.011578647,0.0029034372,-0.6864763,0.23916109,-0.2987053,-0.049133062,1.0245707,15.576534,1.2660345,0.28925857,0.2375488,0.1489914,0.09727964,inf,inf,inf,inf,1,1,1,1,2,0,2,2,1,1,0
1447046356,24616208,37.1025014,-76.3880082,8.816775,-10.199823,-15.920172,-0.0023451736,-0.0032105467,0.0,0.10344199,-0.07427481,-1.2963392,-1.311009,-3.1059608e-07,-0.011578647,0.0029034372,1.3366622,-2.0782464,0.62324184,-0.050481535,1.0245707,15.70975,1.2963392,0.3011465,0.23858044,0.15377435,0.09781099,inf,inf,inf,inf,1,1,1,1,2,0,2,2,1,1,0
1447147530,24616208,37.1025014,-76.3880082,8.826426,-10.200264,-16.054792,-0.0023451736,-0.0032105467,0.0,0.0962932,-0.11782884,-1.2818666,-1.3002112,-3.1059608e-07,-0.011578647,0.0029034372,-3.506207,1.2412449,-6.1344957,-0.050182514,1.0245707,15.844371,1.2818666,0.28886625,0.2375909,0.1489569,0.09732805,inf,inf,inf,inf,1,1,1,1,2,0,2,2,1,1,0
1447247463,24616208,37.1025014,-76.3880082,8.835503,-10.203062,-16.198954,-0.0023451736,-0.0032105467,0.0,0.09221319,-0.10395819,-1.29042,-1.322273,-3.1059608e-07,-0.011578647,0.0029034372,2.0345964,1.019609,3.1148002,-0.051146924,1.0245707,15.988532,1.29042,0.30074185,0.23862238,0.15364707,0.09785827,inf,inf,inf,inf,1,1,1,1,2,0,2,2,1,1,0
1447351167,24616208,37.1025014,-76.3880082,8.844729,-10.208003,-16.344688,-0.0023451736,-0.0032105467,0.0,0.07455877,-0.121427275,-1.2957425,-1.3363903,-3.1059608e-07,-0.011578647,0.0029034372,-0.31306806,-0.57803077,3.6287246,-0.051905785,1.0245707,16.134268,1.2957425,0.2897135,0.23683418,0.14930005,0.09716337,inf,inf,inf,inf,1,1,1,1,2,0,2,2,1,1,0
1447452322,24616208,37.1025014,-76.3880082,8.852104,-10.215277,-16.483044,-0.0023451736,-0.0032105467,0.0,0.04880929,-0.13969216,-1.2848976,-1.3307618,-3.1059608e-07,-0.011578647,0.0029034372,-1.578392,2.671039,-2.1201794,-0.052408952,1.0245707,16.272623,1.2848976,0.3006952,0.23724496,0.15356912,0.097519204,inf,inf,inf,inf,1,1,1,1,2,0,2,2,1,1,0
1447552209,24616208,37.1025014,-76.3880082,8.854655,-10.220541,-16.619432,-0.0023451736,-0.0032105467,0.0,0.028431343,-0.13543722,-1.2678218,-1.3170546,-3.1059608e-07,-0.011578647,0.0029034372,-0.26209724,0.31845003,1.1043786,-0.05338298,1.0245707,16.409012,1.2678218,0.28973103,0.23716266,0.14931767,0.09723795,inf,inf,inf,inf,1,1,1,1,2,0,2,2,1,1,0
1447653038,24616208,37.1025014,-76.3880082,8.854495,-10.228373,-16.754255,-0.0023451736,-0.0032105467,0.0,0.001784038,-0.12411875,-1.2776717,-1.3276837,-3.1059608e-07,-0.011578647,0.0029034372,0.19478291,-1.5564982,3.6219952,-0.053587984,1.0245707,16.543835,1.2776717,0.30071554,0.23758811,0.15355396,0.09759854,inf,inf,inf,inf,1,1,1,1,2,0,2,2,1,1,0
1447752986,24616208,37.1025014,-76.3880082,8.848852,-10.234088,-16.88981,-0.0023451736,-0.0032105467,0.0,-0.037462756,-0.15295953,-1.2676176,-1.3194976,-3.1059608e-07,-0.011578647,0.0029034372,-2.8414857,-0.34207782,-4.397101,-0.053396948,1.0245707,16.67939,1.2676176,0.28959504,0.23745373,0.14920452,0.0973117,inf,inf,inf,inf,1,1,1,1,2,0,2,2,1,1,0
1447853756,24616208,37.1025014,-76.3880082,8.84096,-10.242193,-17.031137,-0.0023451736,-0.0032105467,0.0,-0.055893473,-0.11347495,-1.2814329,-1.3403817,-3.1059608e-07,-0.011578647,0.0029034372,-0.5525572,0.53474337,3.058983,-0.05450566,1.0245707,16.820717,1.2814329,0.30067,0.23792939,0.15352282,0.09767662,inf,inf,inf,inf,1,1,1,1,2,0,2,2,1,1,0
1447957964,24616208,37.1025014,-76.3880082,8.826929,-10.24782,-17.174042,-0.0023451736,-0.0032105467,0.0,-0.07860156,-0.12248172,-1.2512327,-1.314226,-3.1059608e-07,-0.011578647,0.0029034372,0.2157623,-0.21154496,2.6832707,-0.054213826,1.0245707,16.963621,1.2512327,0.28894928,0.23776942,0.14896405,0.097374186,inf,inf,inf,inf,1,1,1,1,2,0,2,2,1,1,0
1448058564,24616208,37.1025014,-76.3880082,8.811348,-10.2527075,-17.30659,-0.0023451736,-0.0032105467,0.0,-0.07999027,-0.12159991,-1.240926,-1.3033218,-3.1059608e-07,-0.011578647,0.0029034372,3.4334197,-0.82831186,4.5014987,-0.054364573,1.0245707,17.096169,1.240926,0.3009285,0.23881772,0.15357824,0.09789283,inf,inf,inf,inf,1,1,1,1,2,0,2,2,1,1,0
1448158306,24616208,37.1025014,-76.3880082,8.788881,-10.255243,-17.437119,-0.0023451736,-0.0032105467,0.0,-0.09625126,-0.10991325,-1.2416495,-1.3044964,-3.1059608e-07,-0.011578647,0.0029034372,-0.42087618,-2.5657828,0.15078664,-0.054098975,1.0245707,17.226698,1.2416495,0.28813478,0.2380428,0.14858685,0.097421914,inf,inf,inf,inf,1,1,1,1,2,0,2,2,1,1,0
1448258612,24616208,37.1025014,-76.3880082,8.765995,-10.258114,-17.563278,-0.0023451736,-0.0032105467,0.0,-0.10468749,-0.124028176,-1.2196667,-1.2785517,-3.1059608e-07,-0.011578647,0.0029034372,-1.964041,0.93771315,-6.371541,-0.053152315,1.0245707,17.352858,1.2196667,0.30007464,0.23741844,0.15319404,0.097543865,inf,inf,inf,inf,1,1,1,1,2,0,2,2,1,1,0
