timestamp,roll_body,pitch_body,yaw_body,yaw_sp_move_rate,q_d[0],q_d[1],q_d[2],q_d[3],thrust,landing_gear,q_d_valid,roll_reset_integral,pitch_reset_integral,yaw_reset_integral,fw_control_yaw,disable_mc_yaw_control,apply_flaps
1430859496,-0.0009846397,0.025561454,-0.04941092,0.0,0.9996132,-0.00017641646,0.012788638,-0.024694636,0.4860144,-1.0,1,0,0,0,0,0,0
1431063363,-0.0032502806,0.024390804,-0.04941092,0.0,0.99961966,-0.0013232683,0.0122315055,-0.024681266,0.5275781,-1.0,1,0,0,0,0,0,0
1431164523,-0.0050535765,0.023382122,-0.04941092,0.0,0.9996241,-0.0022370454,0.011749604,-0.024671651,0.54796505,-1.0,1,0,0,0,0,0,0
1431263960,0.0008205179,0.024540946,-0.04941092,0.0,0.99961936,0.00071321207,0.012256286,-0.02470612,0.5690707,-1.0,1,0,0,0,0,0,0
1431369448,-0.01494277,0.036363475,-0.04941092,0.0,0.99950504,-0.007018695,0.018359214,-0.024562383,0.589396,-1.0,1,0,0,0,0,0,0
1431474666,-0.0011511223,0.01693253,-0.04941092,0.0,0.999659,-0.0003662256,0.008477796,-0.024697186,0.61390424,-1.0,1,0,0,0,0,0,0
1431577261,-0.01042162,0.011995648,-0.04941092,0.0,0.9996641,-0.005060941,0.006124595,-0.024670921,0.6363899,-1.0,1,0,0,0,0,0,0
1431677900,-0.012734771,0.014837299,-0.04941092,0.0,0.9996482,-0.006181967,0.0075734546,-0.024654545,0.6579091,-1.0,1,0,0,0,0,0,0
1431781550,-0.014421232,0.016980365,-0.04941092,0.0,0.9996343,-0.0069983685,0.008665384,-0.024640217,0.6806423,-1.0,1,0,0,0,0,0,0
1431886274,-0.011648455,0.02364298,-0.04941092,0.0,0.99960977,-0.0055299965,0.01196127,-0.024631977,0.6996512,-1.0,1,0,0,0,0,0,0
1431986930,-0.01973325,0.012616719,-0.04941092,0.0,0.9996278,-0.009707431,0.006549812,-0.024639029,0.6994262,-1.0,1,0,0,0,0,0,0
1432087597,-0.015414544,-0.023796547,-0.04941092,0.0,0.9995921,-0.007998205,-0.011703631,-0.024792137,0.67351186,-1.0,1,0,0,0,0,0,0
1432191602,-0.017738897,0.01333683,-0.04941092,0.0,0.99963474,-0.008701707,0.0068851616,-0.0246423,0.59930927,-1.0,1,0,0,0,0,0,0
1432292174,0.013827149,-0.039061,-0.04941092,0.0,0.99948364,0.006427672,-0.019693585,-0.024562672,0.5377435,-1.0,1,0,0,0,0,0,0
1432392343,-0.0072668535,-0.029464895,-0.04941092,0.0,0.9995785,-0.003995835,-0.014637573,-0.024753613,0.50312585,-1.0,1,0,0,0,0,0,0
1432492483,0.019360794,-0.038809653,-0.04941092,0.0,0.99946445,0.009196166,-0.019635865,-0.024509365,0.49957275,-1.0,1,0,0,0,0,0,0
1432597047,0.038030114,-0.042510383,-0.04941092,0.0,0.9992983,0.018478885,-0.02171286,-0.024288913,0.49842995,-1.0,1,0,0,0,0,0,0
1432697809,0.027375983,-0.04304222,-0.04941092,0.0,0.99937695,0.013148676,-0.021848915,-0.024400454,0.5032168,-1.0,1,0,0,0,0,0,0
1432797812,0.051003072,-0.034321457,-0.04941092,0.0,0.9992334,0.025063476,-0.017778873,-0.024253856,0.5063734,-1.0,1,0,0,0,0,0,0
1432901878,0.069167525,-0.02626725,-0.04941092,0.0,0.99902207,0.034239102,-0.013975466,-0.02423208,0.5065601,-1.0,1,0,0,0,0,0,0
1433003383,0.08457268,-0.019875623,-0.04941092,0.0,0.99876225,0.04201348,-0.0109699685,-0.024259673,0.5087462,-1.0,1,0,0,0,0,0,0
1433107098,0.097652,-0.008607598,-0.04941092,0.0,0.9984994,0.04868507,-0.005503001,-0.024463292,0.5102573,-1.0,1,0,0,0,0,0,0
1433207596,0.10706064,-0.0034292745,-0.04941092,0.0,0.9982637,0.053446054,-0.0030333807,-0.02457581,0.5159803,-1.0,1,0,0,0,0,0,0
1433311182,0.110717796,0.0043299347,-0.04941092,0.0,0.99815816,0.055367008,0.0007941631,-0.024784796,0.51704335,-1.0,1,0,0,0,0,0,0
1433411747,0.117100954,0.008379156,-0.04941092,0.0,0.99796695,0.058601975,0.0027355796,-0.024905486,0.51614136,-1.0,1,0,0,0,0,0,0
1433512295,0.1298664,0.013499931,-0.04941092,0.0,0.9975545,0.06503269,0.005130757,-0.025088178,0.52186453,-1.0,1,0,0,0,0,0,0
1433612652,0.122209966,0.012673933,-0.04941092,0.0,0.99779946,0.061203353,0.004814663,-0.025043208,0.52541816,-1.0,1,0,0,0,0,0,0
1433717167,0.12694004,0.020728108,-0.04941092,0.0,0.99761206,0.06366017,0.008773084,-0.025309037,0.5226746,-1.0,1,0,0,0,0,0,0
1433817370,0.13330778,0.020243773,-0.04941092,0.0,0.99740726,0.06683029,0.008450911,-0.02532078,0.5265316,-1.0,1,0,0,0,0,0,0
1433917988,0.11056278,0.02196705,-0.04941092,0.0,0.9980925,0.055503953,0.009598344,-0.0252704,0.5239344,-1.0,1,0,0,0,0,0,0
1434022025,0.113507055,0.019349,-0.04941092,0.0,0.99802506,0.056941703,0.008254664,-0.025210612,0.52510303,-1.0,1,0,0,0,0,0,0
1434123363,0.13691355,0.023037383,-0.04941092,0.0,0.99726766,0.06866178,0.0097982995,-0.025431111,0.5215339,-1.0,1,0,0,0,0,0,0
1434227053,0.1272951,0.02115501,-0.04941092,0.0,0.99759823,0.063842386,0.008981536,-0.02532411,0.52568895,-1.0,1,0,0,0,0,0,0
1434327114,0.10592078,0.013924076,-0.04941092,0.0,0.9982599,0.05308994,0.0056424644,-0.025036136,0.5253556,-1.0,1,0,0,0,0,0,0
1434431385,0.113027655,0.014059992,-0.04941092,0.0,0.9980644,0.0566385,0.005621292,-0.025059855,0.52216244,-1.0,1,0,0,0,0,0,0
1434531695,0.12019797,0.014853265,-0.04941092,0.0,0.99785143,0.060225952,0.005927207,-0.025103593,0.52460766,-1.0,1,0,0,0,0,0,0
1434632249,0.09977436,6.447907e-05,-0.04941092,0.0,0.99845105,0.04985207,-0.0011996597,-0.024673821,0.5239924,-1.0,1,0,0,0,0,0,0
1434732462,0.117737316,0.0019194721,-0.04941092,0.0,0.9979612,0.058840346,-0.00049560796,-0.02471659,0.52717644,-1.0,1,0,0,0,0,0,0
1434837240,0.11030641,0.007523955,-0.04941092,0.0,0.99816257,0.05520083,0.0023933556,-0.024872527,0.52105355,-1.0,1,0,0,0,0,0,0
1434941543,0.097012855,0.004851249,-0.04941092,0.0,0.9985131,0.048532322,0.0012242515,-0.024791399,0.5182967,-1.0,1,0,0,0,0,0,0
1435041916,0.1128535,0.00049598014,-0.04941092,0.0,0.99810344,0.056385715,-0.0011456475,-0.024677614,0.5221734,-1.0,1,0,0,0,0,0,0
1435142050,0.09984059,0.011157081,-0.04941092,0.0,0.99842703,0.050021194,0.004337215,-0.024950072,0.5204201,-1.0,1,0,0,0,0,0,0
1435246611,0.09905825,0.009167367,-0.04941092,0.0,0.9984528,0.04960634,0.003353647,-0.02489926,0.520878,-1.0,1,0,0,0,0,0,0
1435347182,0.07917341,0.0047881277,-0.04941092,0.0,0.9989064,0.039623275,0.0014138059,-0.024778243,0.5284895,-1.0,1,0,0,0,0,0,0
1435447167,0.08758436,0.010045944,-0.04941092,0.0,0.9987184,0.043888237,0.0039351676,-0.024898782,0.5265231,-1.0,1,0,0,0,0,0,0
1435548306,0.06681078,0.010700326,-0.04941092,0.0,0.9991183,0.033520605,0.004520476,-0.02486745,0.5243699,-1.0,1,0,0,0,0,0,0
1435652206,0.058228306,0.009170466,-0.04941092,0.0,0.9992573,0.029214071,0.0038627794,-0.024825657,0.52922696,-1.0,1,0,0,0,0,0,0
1435752224,0.06876285,0.008137353,-0.04941092,0.0,0.9990923,0.034464322,0.0032158718,-0.024827959,0.52497077,-1.0,1,0,0,0,0,0,0
1435852478,0.046190977,0.0017328149,-0.04941092,0.0,0.9994274,0.023107778,0.00029543624,-0.024716351,0.5296491,-1.0,1,0,0,0,0,0,0
1435956713,0.056567762,0.0044719153,-0.04941092,0.0,0.99929094,0.028326621,0.0015357792,-0.02475622,0.52834725,-1.0,1,0,0,0,0,0,0
1436057238,0.027848018,-0.0015760452,-0.04941092,0.0,0.9995979,0.01389984,-0.0011316583,-0.024689576,0.5326039,-1.0,1,0,0,0,0,0,0
1436157760,0.020596405,0.0037305239,-0.04941092,0.0,0.99963963,0.010340936,0.0016102017,-0.024720801,0.53340906,-1.0,1,0,0,0,0,0,0
1436261603,0.016489219,0.0069414894,-0.04941092,0.0,0.9996541,0.008327686,0.0032658984,-0.024730567,0.53574467,-1.0,1,0,0,0,0,0,0
1436362064,0.0071023987,0.0049994937,-0.04941092,0.0,0.9996852,0.0036118473,0.0024112407,-0.02471159,0.5351941,-1.0,1,0,0,0,0,0,0
1436462611,0.007250234,0.011007651,-0.04941092,0.0,0.99967265,0.0037599066,0.0054125325,-0.024722358,0.5333886,-1.0,1,0,0,0,0,0,0
1436562829,0.006810165,0.020969547,-0.04941092,0.0,0.99963325,0.0036628481,0.01039721,-0.024737138,0.52650076,-1.0,1,0,0,0,0,0,0
1436667814,-0.00074653554,0.0192099,-0.04941092,0.0,0.99964875,-0.00013586972,0.009611092,-0.024698224,0.52746886,-1.0,1,0,0,0,0,0,0
1436771881,-0.0126199275,0.019307453,-0.04941092,0.0,0.99962986,-0.0060692346,0.009806304,-0.024640411,0.52703315,-1.0,1,0,0,0,0,0,0
1436871382,-0.010049249,0.02349726,-0.04941092,0.0,0.9996147,-0.0047325073,0.011868739,-0.024641918,0.52918637,-1.0,1,0,0,0,0,0,0
1436972521,-0.010833603,0.023624636,-0.04941092,0.0,0.99961203,-0.0051229564,0.011942065,-0.0246369,0.5310958,-1.0,1,0,0,0,0,0,0
1437080808,-0.021216001,0.026313668,-0.04941092,0.0,0.9995555,-0.010278662,0.013413721,-0.0245599,0.53266317,-1.0,1,0,0,0,0,0,0
1437181193,-0.020785147,0.021282142,-0.04941092,0.0,0.999587,-0.010125779,0.010893756,-0.024589662,0.5350125,-1.0,1,0,0,0,0,0,0
1437281217,-0.039532464,0.027846163,-0.04941092,0.0,0.9994095,-0.019413134,0.0144038685,-0.02442063,0.53620857,-1.0,1,0,0,0,0,0,0
1437382562,-0.024957674,0.032198668,-0.04941092,0.0,0.9994924,-0.012075436,0.01640069,-0.024496997,0.5345448,-1.0,1,0,0,0,0,0,0
1437485969,-0.025503382,0.04186628,-0.04941092,0.0,0.99940115,-0.012227631,0.02123845,-0.024428703,0.5316818,-1.0,1,0,0,0,0,0,0
1437586828,-0.02847066,0.038702525,-0.04941092,0.0,0.9994132,-0.013749884,0.019693766,-0.024420457,0.5337157,-1.0,1,0,0,0,0,0,0
1437686324,-0.021766588,0.04224586,-0.04941092,0.0,0.9994183,-0.010355602,0.021382447,-0.024466177,0.52738476,-1.0,1,0,0,0,0,0,0
1437788258,-0.020682225,0.040006027,-0.04941092,0.0,0.99944645,-0.00984163,0.020249909,-0.024489913,0.53418934,-1.0,1,0,0,0,0,0,0
1437891867,-0.0041742534,0.039059553,-0.04941092,0.0,0.999503,-0.0016036788,0.019574082,-0.024657441,0.5323677,-1.0,1,0,0,0,0,0,0
1437991432,-0.011044135,0.028061762,-0.04941092,0.0,0.9995831,-0.0051732236,0.014162321,-0.02462269,0.538888,-1.0,1,0,0,0,0,0,0
1438092585,-0.012669282,0.03247219,-0.04941092,0.0,0.9995456,-0.0059307767,0.016386563,-0.024596386,0.5347994,-1.0,1,0,0,0,0,0,0
1438196521,-0.0016954168,0.018151006,-0.04941092,0.0,0.9996535,-0.00062322617,0.009093545,-0.024694234,0.5368146,-1.0,1,0,0,0,0,0,0
1438296720,0.012415211,0.013209256,-0.04941092,0.0,0.9996528,0.006368685,0.0064490954,-0.024742922,0.5311652,-1.0,1,0,0,0,0,0,0
1438398240,0.010358481,0.0026029309,-0.04941092,0.0,0.99968046,0.0052097826,0.0011731086,-0.024709333,0.5350859,-1.0,1,0,0,0,0,0,0
1438502714,0.019407783,-0.006523923,-0.04941092,0.0,0.9996432,0.009620149,-0.0035005165,-0.024670009,0.53383934,-1.0,1,0,0,0,0,0,0
1438606098,0.022715924,-0.013113833,-0.04941092,0.0,0.9996107,0.011192044,-0.0068350085,-0.024626376,0.53324795,-1.0,1,0,0,0,0,0,0
1438706685,0.01755975,-0.021048183,-0.04941092,0.0,0.9996032,0.008516636,-0.010737155,-0.024608258,0.5348059,-1.0,1,0,0,0,0,0,0
1438806789,0.048302367,-0.023047782,-0.04941092,0.0,0.9993438,0.02385528,-0.0121132685,-0.024415907,0.53252816,-1.0,1,0,0,0,0,0,0
1438911811,0.046620402,-0.026920468,-0.04941092,0.0,0.9993405,0.02296646,-0.014027791,-0.024380371,0.53728306,-1.0,1,0,0,0,0,0,0
1439015579,0.039838422,-0.031375725,-0.04941092,0.0,0.99938124,0.01952192,-0.016171291,-0.024382647,0.5329524,-1.0,1,0,0,0,0,0,0
1439115195,0.056215383,-0.028599063,-0.04941092,0.0,0.99920774,0.027739454,-0.014983215,-0.024288926,0.53460574,-1.0,1,0,0,0,0,0,0
1439216447,0.053840738,-0.028468248,-0.04941092,0.0,0.9992409,0.026554694,-0.014889009,-0.024308484,0.5374175,-1.0,1,0,0,0,0,0,0
1439319962,0.060482692,-0.02675902,-0.04941092,0.0,0.9991583,0.02989445,-0.014115781,-0.024285028,0.53457355,-1.0,1,0,0,0,0,0,0
1439421483,0.05587439,-0.019333117,-0.04941092,0.0,0.9992647,0.027685039,-0.0103496965,-0.024422219,0.5360126,-1.0,1,0,0,0,0,0,0
1439520712,0.06312388,-0.013650952,-0.04941092,0.0,0.99917895,0.031377815,-0.007599468,-0.024474746,0.5354508,-1.0,1,0,0,0,0,0,0
1439622365,0.05548276,-0.021394188,-0.04941092,0.0,0.9992603,0.027463632,-0.011374679,-0.024395414,0.5390605,-1.0,1,0,0,0,0,0,0
1439726185,0.04199087,-0.014054409,-0.04941092,0.0,0.9994535,0.020813415,-0.007542052,-0.024549412,0.5421115,-1.0,1,0,0,0,0,0,0
1439826811,0.044736847,-0.0112541495,-0.04941092,0.0,0.999432,0.022220409,-0.006176432,-0.024570558,0.54068977,-1.0,1,0,0,0,0,0,0
1439926686,0.039244488,-0.014805918,-0.04941092,0.0,0.99947864,0.019431623,-0.0078838905,-0.02455231,0.54469687,-1.0,1,0,0,0,0,0,0
1440031141,0.03243709,-0.011137702,-0.04941092,0.0,0.9995501,0.016075084,-0.005967012,-0.02460903,0.5441202,-1.0,1,0,0,0,0,0,0
1440131817,0.03127172,-0.0060414965,-0.04941092,0.0,0.99956924,0.015555768,-0.0034056872,-0.024652602,0.54601365,-1.0,1,0,0,0,0,0,0
1440231629,0.011325595,0.0009969679,-0.04941092,0.0,0.9996786,0.005673352,0.0003584368,-0.024705375,0.5422217,-1.0,1,0,0,0,0,0,0
1440332281,0.02174562,0.005963706,-0.04941092,0.0,0.9996305,0.0109428875,0.0027121785,-0.024733791,0.539848,-1.0,1,0,0,0,0,0,0
1440436364,0.016915478,0.0107848365,-0.04941092,0.0,0.9996434,0.008588138,0.0051816287,-0.024747299,0.539901,-1.0,1,0,0,0,0,0,0
1440537422,0.010941136,0.007960744,-0.04941092,0.0,0.9996714,0.005567153,0.00384395,-0.024724148,0.5409414,-1.0,1,0,0,0,0,0,0
1440636774,0.013567611,0.008996073,-0.04941092,0.0,0.99966097,0.0068927263,0.0043289685,-0.024732633,0.5379633,-1.0,1,0,0,0,0,0,0
1440741533,-0.0009916718,0.00895371,-0.04941092,0.0,0.99968475,-0.00038508847,0.004487722,-0.024700476,0.5372444,-1.0,1,0,0,0,0,0,0
1440842663,0.0056773103,0.009811525,-0.04941092,0.0,0.99967843,0.0029589364,0.0048341034,-0.02471647,0.53489405,-1.0,1,0,0,0,0,0,0
1440941789,0.0150027685,0.010971712,-0.04941092,0.0,0.99965066,0.0076344246,0.005298699,-0.024743019,0.53538615,-1.0,1,0,0,0,0,0,0
1441043080,0.0025129549,0.01023922,-0.04941092,0.0,0.9996808,0.0013825458,0.0050869826,-0.024709037,0.5341646,-1.0,1,0,0,0,0,0,0
1441146952,0.01089664,0.011741359,-0.04941092,0.0,0.999662,0.0055915555,0.0057341796,-0.02473413,0.529777,-1.0,1,0,0,0,0,0,0
1441247436,0.0028064852,0.01137953,-0.04941092,0.0,0.9996775,0.0015433441,0.005653328,-0.024710506,0.5289544,-1.0,1,0,0,0,0,0,0
1441347921,0.025777282,0.012314152,-0.04941092,0.0,0.9995909,0.013036191,0.005836275,-0.024779756,0.5279123,-1.0,1,0,0,0,0,0,0
1441452313,0.026668975,0.010489504,-0.04941092,0.0,0.9995905,0.013459386,0.0049132733,-0.024770325,0.529814,-1.0,1,0,0,0,0,0,0
1441556362,0.03805264,0.0030134353,-0.04941092,0.0,0.9995121,0.019056559,0.0010360072,-0.024727104,0.5296231,-1.0,1,0,0,0,0,0,0
1441657453,0.037012897,-0.00074501074,-0.04941092,0.0,0.9995237,0.018490545,-0.0008294656,-0.024691822,0.52718264,-1.0,1,0,0,0,0,0,0
1441756727,0.030946776,-0.009220925,-0.04941092,0.0,0.99956626,0.015354008,-0.0049907076,-0.024628412,0.527882,-1.0,1,0,0,0,0,0,0
1441860954,0.052409805,-0.017735502,-0.04941092,0.0,0.99931806,0.025973892,-0.009509122,-0.024461215,0.5262855,-1.0,1,0,0,0,0,0,0
1441962029,0.059490927,-0.017649,-0.04941092,0.0,0.9992202,0.029512951,-0.009552454,-0.024428694,0.5262173,-1.0,1,0,0,0,0,0,0
1442062116,0.055328324,-0.0079627,-0.04941092,0.0,0.9993071,0.027553663,-0.004661896,-0.02458321,0.5290893,-1.0,1,0,0,0,0,0,0
1442162652,0.06583884,-0.016901448,-0.04941092,0.0,0.9991244,0.032693617,-0.009256499,-0.024410628,0.52847624,-1.0,1,0,0,0,0,0,0
1442266665,0.05921428,-0.011719344,-0.04941092,0.0,0.9992438,0.029448586,-0.006586548,-0.024518289,0.5352303,-1.0,1,0,0,0,0,0,0
1442367859,0.06971513,-0.014842254,-0.04941092,0.0,0.9990665,0.034655698,-0.008275174,-0.024428712,0.5355029,-1.0,1,0,0,0,0,0,0
1442467488,0.059872646,-0.013760541,-0.04941092,0.0,0.99922836,0.029752122,-0.007614422,-0.024485419,0.5403611,-1.0,1,0,0,0,0,0,0
1442571140,0.0731929,-0.0031517844,-0.04941092,0.0,0.99902564,0.03653817,-0.002478193,-0.024628734,0.5401364,-1.0,1,0,0,0,0,0,0
1442672547,0.064233124,0.001776029,-0.04941092,0.0,0.9991782,0.032123152,9.404861e-05,-0.024718706,0.5406939,-1.0,1,0,0,0,0,0,0
1442772304,0.06463918,0.0038845288,-0.04941092,0.0,0.99916935,0.032351993,0.0011424079,-0.024752745,0.5377816,-1.0,1,0,0,0,0,0,0
1442874070,0.076185204,0.002980275,-0.04941092,0.0,0.9989671,0.038108505,0.00054783066,-0.024741732,0.541243,-1.0,1,0,0,0,0,0,0
1442978751,0.057573933,0.004540555,-0.04941092,0.0,0.99927646,0.028830191,0.0015576195,-0.024757978,0.53653526,-1.0,1,0,0,0,0,0,0
1443083477,0.073781945,0.004856292,-0.04941092,0.0,0.9990095,0.036931183,0.0015146447,-0.024775596,0.5384537,-1.0,1,0,0,0,0,0,0
1443185953,0.07428006,0.0045032077,-0.04941092,0.0,0.99900085,0.03717565,0.0013321073,-0.024769427,0.53821945,-1.0,1,0,0,0,0,0,0
1443286803,0.06070172,0.00972263,-0.04941092,0.0,0.99921894,0.030456616,0.0041079423,-0.024838755,0.53320926,-1.0,1,0,0,0,0,0,0
1443390390,0.05797178,0.0065650097,-0.04941092,0.0,0.99926716,0.029053884,0.0025641862,-0.024787541,0.5340796,-1.0,1,0,0,0,0,0,0
1443491586,0.0608756,0.004581796,-0.04941092,0.0,0.99922746,0.030480303,0.001537351,-0.024761142,0.5347788,-1.0,1,0,0,0,0,0,0
1443591135,0.07121542,-0.0018856942,-0.04941092,0.0,0.9990615,0.035566032,-0.0018213909,-0.024653722,0.5369313,-1.0,1,0,0,0,0,0,0
1443692578,0.056865484,-0.0004324393,-0.04941092,0.0,0.9992909,0.028414898,-0.00091834425,-0.024686819,0.5366792,-1.0,1,0,0,0,0,0,0
1443797242,0.06030777,-0.0063574784,-0.04941092,0.0,0.99923766,0.030061476,-0.0039210925,-0.024595788,0.5354546,-1.0,1,0,0,0,0,0,0
1443900994,0.05596429,-0.007807683,-0.04941092,0.0,0.9992986,0.027873341,-0.004592258,-0.024583898,0.53484833,-1.0,1,0,0,0,0,0,0
1444001208,0.061253738,-0.01120437,-0.04941092,0.0,0.9992146,0.030473929,-0.0063542635,-0.024519479,0.5318843,-1.0,1,0,0,0,0,0,0
1444105512,0.059669957,-0.009478469,-0.04941092,0.0,0.9992422,0.02970409,-0.0054725567,-0.02455035,0.52794594,-1.0,1,0,0,0,0,0,0
1444205847,0.051547527,-0.023020303,-0.04941092,0.0,0.99930394,0.025477108,-0.012139139,-0.024396578,0.53307694,-1.0,1,0,0,0,0,0,0
1444306538,0.044367954,-0.022552468,-0.04941092,0.0,0.9993915,0.021895498,-0.0118177105,-0.024445252,0.5323584,-1.0,1,0,0,0,0,0,0
1444405837,0.032968342,-0.015354735,-0.04941092,0.0,0.9995327,0.016288284,-0.008081084,-0.024572352,0.52722293,-1.0,1,0,0,0,0,0,0
1444510621,0.035452478,-0.022810938,-0.04941092,0.0,0.9994778,0.017437052,-0.01183779,-0.024495363,0.53242856,-1.0,1,0,0,0,0,0,0
1444611917,0.039641872,-0.017949926,-0.04941092,0.0,0.99946266,0.01959113,-0.009459925,-0.024519278,0.53405917,-1.0,1,0,0,0,0,0,0
1444711492,0.047394227,-0.014943763,-0.04941092,0.0,0.9993906,0.023502478,-0.008052752,-0.024518333,0.5337668,-1.0,1,0,0,0,0,0,0
1444815430,0.049604084,-0.015067309,-0.04941092,0.0,0.99936366,0.024605183,-0.008141572,-0.024507876,0.5390006,-1.0,1,0,0,0,0,0,0
1444916672,0.02998009,-0.006559268,-0.04941092,0.0,0.9995784,0.014903822,-0.0036485412,-0.024650894,0.5364835,-1.0,1,0,0,0,0,0,0
1445015938,0.046364527,-0.011393694,-0.04941092,0.0,0.99941325,0.023032049,-0.0062661576,-0.024563897,0.5414037,-1.0,1,0,0,0,0,0,0
1445116774,0.037747998,-0.0012127479,-0.04941092,0.0,0.9995169,0.018852139,-0.0010722963,-0.0246871,0.54555017,-1.0,1,0,0,0,0,0,0
1445221045,0.028539002,-0.0036783942,-0.04941092,0.0,0.99959207,0.014219208,-0.0021909333,-0.024674153,0.5474037,-1.0,1,0,0,0,0,0,0
1445322416,0.039248556,0.0017477067,-0.04941092,0.0,0.99950147,0.019638605,0.00038867217,-0.024715325,0.5454187,-1.0,1,0,0,0,0,0,0
1445421739,0.03401788,0.0051726117,-0.04941092,0.0,0.99954575,0.017066754,0.0021649904,-0.024743266,0.54892933,-1.0,1,0,0,0,0,0,0
1445525524,0.038538333,0.0061153676,-0.04941092,0.0,0.9995031,0.019337526,0.0025802052,-0.024757145,0.5495786,-1.0,1,0,0,0,0,0,0
1445626744,0.03351666,0.012322011,-0.04941092,0.0,0.99953294,0.016904289,0.0057442687,-0.024802223,0.55013794,-1.0,1,0,0,0,0,0,0
1445726328,0.050444305,0.013877651,-0.04941092,0.0,0.9993485,0.025382528,0.0063114655,-0.024869438,0.5492603,-1.0,1,0,0,0,0,0,0
1445828151,0.0467194,0.017607763,-0.04941092,0.0,0.99937826,0.023566963,0.008221703,-0.024900822,0.5513345,-1.0,1,0,0,0,0,0,0
1445931731,0.037885472,0.025753781,-0.04941092,0.0,0.9994266,0.019252283,0.012402421,-0.024940297,0.5457913,-1.0,1,0,0,0,0,0,0
1446033116,0.034401596,0.022711439,-0.04941092,0.0,0.9994776,0.017474066,0.01092547,-0.024892954,0.54955816,-1.0,1,0,0,0,0,0,0
1446132221,0.038718954,0.029350622,-0.04941092,0.0,0.99939287,0.019712718,0.014189402,-0.024979651,0.5484567,-1.0,1,0,0,0,0,0,0
1446234026,0.033375233,0.02233929,-0.04941092,0.0,0.9994887,0.016956586,0.010752261,-0.02488429,0.5495979,-1.0,1,0,0,0,0,0,0
1446337144,0.032240972,0.02738866,-0.04941092,0.0,0.99946576,0.016451595,0.013289778,-0.024918096,0.5493183,-1.0,1,0,0,0,0,0,0
1446436787,0.019389028,0.025130458,-0.04941092,0.0,0.9995659,0.010001014,0.012321014,-0.024821607,0.5496372,-1.0,1,0,0,0,0,0,0
1446538021,0.029477859,0.03382576,-0.04941092,0.0,0.99943715,0.015149522,0.016541045,-0.024945911,0.54452336,-1.0,1,0,0,0,0,0,0
1446642288,0.024900602,0.035208784,-0.04941092,0.0,0.99945706,0.0128790755,0.017289244,-0.0249163,0.5444359,-1.0,1,0,0,0,0,0,0
1446742578,0.035097755,0.028464144,-0.04941092,0.0,0.9994335,0.017892355,0.013791616,-0.024946302,0.54022056,-1.0,1,0,0,0,0,0,0
1446843474,0.036897074,0.036180247,-0.04941092,0.0,0.99935293,0.018885622,0.017624905,-0.025028301,0.53279585,-1.0,1,0,0,0,0,0,0
1446943861,0.027608676,0.03629424,-0.04941092,0.0,0.9994288,0.014245634,0.017797917,-0.02494694,0.53199756,-1.0,1,0,0,0,0,0,0
1447047612,0.035371993,0.045047894,-0.04941092,0.0,0.99927515,0.018231468,0.022074888,-0.025091,0.5261527,-1.0,1,0,0,0,0,0,0
1447148314,0.054238852,0.042958297,-0.04941092,0.0,0.9990823,0.027631937,0.020793356,-0.025270378,0.5293219,-1.0,1,0,0,0,0,0,0
1447248497,0.03737381,0.04694492,-0.04941092,0.0,0.99923414,0.019254655,0.022997579,-0.025130257,0.5275228,-1.0,1,0,0,0,0,0,0
1447352559,0.04171513,0.04366725,-0.04941092,0.0,0.99922794,0.021383915,0.021305399,-0.02514688,0.526538,-1.0,1,0,0,0,0,0,0
1447453112,0.05190435,0.036954727,-0.04941092,0.0,0.9991757,0.02639318,0.017823542,-0.025169712,0.52884054,-1.0,1,0,0,0,0,0,0
1447553307,0.049566593,0.03648052,-0.04941092,0.0,0.9992105,0.025219498,0.017616028,-0.025143098,0.5322667,-1.0,1,0,0,0,0,0,0
1447653798,0.039894693,0.033121407,-0.04941092,0.0,0.9993507,0.0203462,0.016058942,-0.02502485,0.5301004,-1.0,1,0,0,0,0,0,0
1447754006,0.06514709,0.022397855,-0.04941092,0.0,0.9990929,0.032832295,0.010384867,-0.025052898,0.5325052,-1.0,1,0,0,0,0,0,0
1447854710,0.03770657,0.021335917,-0.04941092,0.0,0.99945533,0.019108819,0.010196927,-0.024898201,0.52915484,-1.0,1,0,0,0,0,0,0
1447958629,0.049722172,0.016751155,-0.04941092,0.0,0.9993457,0.0250569,0.007756279,-0.024902588,0.5354866,-1.0,1,0,0,0,0,0,0
1448059588,0.054772265,0.021049855,-0.04941092,0.0,0.9992575,0.02763273,0.0098411795,-0.024980424,0.537803,-1.0,1,0,0,0,0,0,0
1448159102,0.05168413,0.010264971,-0.04941092,0.0,0.9993446,0.025957707,0.004490888,-0.024826953,0.5376074,-1.0,1,0,0,0,0,0,0
1448260029,0.063459456,0.0029171184,-0.04941092,0.0,0.99918944,0.0317507,0.000673694,-0.024736747,0.54239404,-1.0,1,0,0,0,0,0,0
1448360748,0.05432529,0.004661081,-0.04941092,0.0,0.9993218,0.027208494,0.0016580547,-0.024757046,0.5431031,-1.0,1,0,0,0,0,0,0
1448459956,0.051051233,-0.00012782814,-0.04941092,0.0,0.9993692,0.02551348,-0.0006943633,-0.024693267,0.53612274,-1.0,1,0,0,0,0,0,0
1448561542,0.050838627,-0.0077708648,-0.04941092,0.0,0.9993668,0.025312675,-0.004510842,-0.024596056,0.5424188,-1.0,1,0,0,0,0,0,0
1448665123,0.051137898,-0.0048604156,-0.04941092,0.0,0.9993667,0.025498271,-0.0030602273,-0.024632687,0.544256,-1.0,1,0,0,0,0,0,0
1448765559,0.04294012,-0.011034078,-0.04941092,0.0,0.9994522,0.021325277,-0.0060443813,-0.024578476,0.5391369,-1.0,1,0,0,0,0,0,0
1448866207,0.046869423,-0.017407099,-0.04941092,0.0,0.9993875,0.023209589,-0.0092772255,-0.024491346,0.53968817,-1.0,1,0,0,0,0,0,0
1448970625,0.045125328,-0.018571818,-0.04941092,0.0,0.99940246,0.022323566,-0.009837872,-0.024486162,0.53819853,-1.0,1,0,0,0,0,0,0
1449075353,0.050093003,-0.023196908,-0.04941092,0.0,0.9993213,0.024748133,-0.012209632,-0.024403164,0.54289174,-1.0,1,0,0,0,0,0,0
1449179574,0.045038354,-0.033094008,-0.04941092,0.0,0.9993138,0.022098681,-0.017093172,-0.024320839,0.5421809,-1.0,1,0,0,0,0,0,0
1449279119,0.048467502,-0.030935138,-0.04941092,0.0,0.99929106,0.023839118,-0.016056206,-0.024318067,0.54155236,-1.0,1,0,0,0,0,0,0
1449383368,0.047419377,-0.031700633,-0.04941092,0.0,0.9992976,0.02330583,-0.016425934,-0.024317265,0.5397349,-1.0,1,0,0,0,0,0,0
1449484167,0.06183745,-0.0307403,-0.04941092,0.0,0.9991107,0.030521225,-0.016121084,-0.024213241,0.53704,-1.0,1,0,0,0,0,0,0
1449584577,0.040181838,-0.027727265,-0.04941092,0.0,0.9994039,0.019739116,-0.014352385,-0.02441717,0.53591037,-1.0,1,0,0,0,0,0,0
1449684774,0.047365025,-0.02365809,-0.04941092,0.0,0.9993515,0.023379296,-0.012406776,-0.02441427,0.5321531,-1.0,1,0,0,0,0,0,0
1449788772,0.05155374,-0.02867107,-0.04941092,0.0,0.9992692,0.025409501,-0.014962536,-0.024322843,0.53227437,-1.0,1,0,0,0,0,0,0
1449890149,0.06238554,-0.019337771,-0.04941092,0.0,0.9991693,0.030938007,-0.010431474,-0.02438832,0.5339859,-1.0,1,0,0,0,0,0,0
1449989847,0.054169,-0.013082005,-0.04941092,0.0,0.9993112,0.02691082,-0.007205532,-0.024516273,0.5284763,-1.0,1,0,0,0,0,0,0
1450091137,0.06381045,-0.010919853,-0.04941092,0.0,0.9991755,0.031754795,-0.0062434627,-0.024515893,0.5313936,-1.0,1,0,0,0,0,0,0
1450194996,0.056172926,0.0049964054,-0.04941092,0.0,0.9992957,0.028135803,0.0018027278,-0.024763258,0.5293663,-1.0,1,0,0,0,0,0,0
1450295373,0.05437684,0.014317813,-0.04941092,0.0,0.99929494,0.027352858,0.0064824824,-0.024887739,0.5302612,-1.0,1,0,0,0,0,0,0
1450395580,0.061131813,0.021326523,-0.04941092,0.0,0.99916303,0.03081337,0.009899919,-0.02501578,0.5339392,-1.0,1,0,0,0,0,0,0
1450499628,0.05141564,0.03144993,-0.04941092,0.0,0.999231,0.026082274,0.015079413,-0.0250958,0.54175013,-1.0,1,0,0,0,0,0,0
1450600260,0.046341475,0.041544937,-0.04941092,0.0,0.99919903,0.023669561,0.020186849,-0.025172075,0.54183996,-1.0,1,0,0,0,0,0,0
1450700585,0.052826542,0.046005365,-0.04941092,0.0,0.9990667,0.02696314,0.022333376,-0.025295064,0.5432706,-1.0,1,0,0,0,0,0,0
1450804991,0.046174325,0.043827616,-0.04941092,0.0,0.99917597,0.023613673,0.021329395,-0.025196124,0.5418423,-1.0,1,0,0,0,0,0,0
1450904972,0.042511262,0.052796144,-0.04941092,0.0,0.99910694,0.021892026,0.025856135,-0.025249593,0.53754705,-1.0,1,0,0,0,0,0,0
1451005236,0.04382234,0.04199401,-0.04941092,0.0,0.9992232,0.022416431,0.02044291,-0.025151432,0.5335424,-1.0,1,0,0,0,0,0,0
1451105891,0.051337782,0.049629126,-0.04941092,0.0,0.99904215,0.02626307,0.024162441,-0.02532384,0.5378919,-1.0,1,0,0,0,0,0,0
1451209790,0.053561397,0.042416736,-0.04941092,0.0,0.9990976,0.02728699,0.020531371,-0.025256228,0.5390524,-1.0,1,0,0,0,0,0,0
1451311083,0.0508924,0.045785863,-0.04941092,0.0,0.99909496,0.025994318,0.022248173,-0.025270728,0.5397074,-1.0,1,0,0,0,0,0,0
1451410725,0.058886804,0.036558174,-0.04941092,0.0,0.9990813,0.029876573,0.01753746,-0.025226044,0.54183793,-1.0,1,0,0,0,0,0,0
1451511678,0.067973405,0.031034235,-0.04941092,0.0,0.9989842,0.034348786,0.014663494,-0.025212804,0.5463077,-1.0,1,0,0,0,0,0,0
1451615944,0.056763023,0.024684241,-0.04941092,0.0,0.99920744,0.028671635,0.011632112,-0.025041245,0.5511026,-1.0,1,0,0,0,0,0,0
1451719826,0.05334186,0.021249574,-0.04941092,0.0,0.99927586,0.026920494,0.009958832,-0.024976015,0.55325943,-1.0,1,0,0,0,0,0,0
1451820513,0.06442009,0.025626054,-0.04941092,0.0,0.9990841,0.032508347,0.012006642,-0.025100607,0.55513453,-1.0,1,0,0,0,0,0,0
1451924614,0.050766043,0.025537344,-0.04941092,0.0,0.9992833,0.0256858,0.012133401,-0.025016937,0.55580336,-1.0,1,0,0,0,0,0,0
1452024953,0.066699356,0.027583303,-0.04941092,0.0,0.99903256,0.03367064,0.0129557345,-0.02514657,0.5581128,-1.0,1,0,0,0,0,0,0
1452125150,0.051674277,0.040128328,-0.04941092,0.0,0.99914724,0.02631663,0.01941195,-0.025207879,0.5582665,-1.0,1,0,0,0,0,0,0
1452226694,0.05123405,0.042210434,-0.04941092,0.0,0.99913096,0.026121857,0.020457681,-0.025229732,0.5572793,-1.0,1,0,0,0,0,0,0
1452330255,0.05448068,0.047539208,-0.04941092,0.0,0.9990257,0.027807873,0.023078656,-0.025333961,0.5524142,-1.0,1,0,0,0,0,0,0
1452430671,0.059241217,0.06482496,-0.04941092,0.0,0.9987078,0.030391881,0.031651482,-0.02563862,0.5516802,-1.0,1,0,0,0,0,0,0
1452530795,0.052858327,0.065689825,-0.04941092,0.0,0.99878526,0.02721471,0.032165065,-0.025548542,0.55322105,-1.0,1,0,0,0,0,0,0
1452632203,0.051502578,0.07164371,-0.04941092,0.0,0.9986995,0.026608497,0.03515574,-0.025600793,0.55328995,-1.0,1,0,0,0,0,0,0
1452735746,0.0619956,0.07638959,-0.04941092,0.0,0.9984566,0.031903625,0.03739046,-0.025856191,0.55942273,-1.0,1,0,0,0,0,0,0
1452835593,0.062602,0.07114106,-0.04941092,0.0,0.9985456,0.032144625,0.034762144,-0.025787866,0.5565746,-1.0,1,0,0,0,0,0,0
1452936603,0.059031863,0.07193164,-0.04941092,0.0,0.99858695,0.030371442,0.035202883,-0.025737075,0.5590551,-1.0,1,0,0,0,0,0,0
1453040399,0.05403237,0.071057975,-0.04941092,0.0,0.99867564,0.027864777,0.034830835,-0.025637593,0.5566543,-1.0,1,0,0,0,0,0,0
1453140961,0.053447016,0.06807669,-0.04941092,0.0,0.99873656,0.027537085,0.033349555,-0.025588887,0.55610245,-1.0,1,0,0,0,0,0,0
1453241985,0.063254416,0.06275304,-0.04941092,0.0,0.99867857,0.032371305,0.030565342,-0.025670163,0.5532554,-1.0,1,0,0,0,0,0,0
1453341813,0.057345796,0.061852932,-0.04941092,0.0,0.99878424,0.029410053,0.030191522,-0.025567204,0.55301046,-1.0,1,0,0,0,0,0,0
1453445552,0.07100946,0.06301904,-0.04941092,0.0,0.9985413,0.03624658,0.030598393,-0.025793096,0.54935104,-1.0,1,0,0,0,0,0,0
1453546276,0.06292365,0.06437343,-0.04941092,0.0,0.9986576,0.03222532,0.03137875,-0.025689937,0.55352193,-1.0,1,0,0,0,0,0,0
1453646366,0.056654934,0.06401224,-0.04941092,0.0,0.9987596,0.029090725,0.031278733,-0.025586491,0.5560866,-1.0,1,0,0,0,0,0,0
1453750385,0.057386503,0.058363687,-0.04941092,0.0,0.99883723,0.029388823,0.02844838,-0.025519095,0.5542256,-1.0,1,0,0,0,0,0,0
1453851818,0.06016241,0.065601744,-0.04941092,0.0,0.9986807,0.030861082,0.03202757,-0.025664555,0.55836755,-1.0,1,0,0,0,0,0,0
1453951098,0.07216591,0.059088983,-0.04941092,0.0,0.9985818,0.03677763,0.02862118,-0.025741436,0.55913216,-1.0,1,0,0,0,0,0,0
1454052315,0.06634344,0.05566007,-0.04941092,0.0,0.9987352,0.033829693,0.026983673,-0.025602397,0.5633789,-1.0,1,0,0,0,0,0,0
1454156194,0.060705464,0.058681328,-0.04941092,0.0,0.99878234,0.031050116,0.028564628,-0.025570976,0.5621223,-1.0,1,0,0,0,0,0,0
1454257464,0.051288944,0.049852572,-0.04941092,0.0,0.9990399,0.02624136,0.024274679,-0.025326047,0.56651783,-1.0,1,0,0,0,0,0,0
1454357032,0.058607467,0.04817479,-0.04941092,0.0,0.99895835,0.029876813,0.023343803,-0.025390645,0.566212,-1.0,1,0,0,0,0,0,0
1454460736,0.04616538,0.04782575,-0.04941092,0.0,0.9991292,0.0236575,0.023326932,-0.02524101,0.56755203,-1.0,1,0,0,0,0,0,0
1454562224,0.047802173,0.053611457,-0.04941092,0.0,0.9990344,0.02454485,0.02619653,-0.025327373,0.56587476,-1.0,1,0,0,0,0,0,0
1454661890,0.04934211,0.048851985,-0.04941092,0.0,0.99907756,0.02525682,0.023799477,-0.025290374,0.5665744,-1.0,1,0,0,0,0,0,0
1454763031,0.05772856,0.043883394,-0.04941092,0.0,0.99902225,0.029386275,0.021211343,-0.025319712,0.5676024,-1.0,1,0,0,0,0,0,0
1454866950,0.044780053,0.044642977,-0.04941092,0.0,0.99918294,0.022926971,0.021754315,-0.025190147,0.56401825,-1.0,1,0,0,0,0,0,0
1454967164,0.052774712,0.03981074,-0.04941092,0.0,0.99913585,0.026862532,0.019239414,-0.025214447,0.5646668,-1.0,1,0,0,0,0,0,0
1455067613,0.05622957,0.041850753,-0.04941092,0.0,0.9990664,0.028613029,0.020214925,-0.025275791,0.56548303,-1.0,1,0,0,0,0,0,0
1455167689,0.062440466,0.04137781,-0.04941092,0.0,0.9989779,0.03170975,0.019900097,-0.025331194,0.561464,-1.0,1,0,0,0,0,0,0
1455268244,0.05484401,0.038480043,-0.04941092,0.0,0.999121,0.027880207,0.018548539,-0.02521643,0.56569993,-1.0,1,0,0,0,0,0,0
1455369120,0.0534007,0.038737,-0.04941092,0.0,0.99913836,0.027162282,0.018695101,-0.025206406,0.5608757,-1.0,1,0,0,0,0,0,0
1455473981,0.058825415,0.03353681,-0.04941092,0.0,0.9991098,0.02980939,0.016028877,-0.025181752,0.5578749,-1.0,1,0,0,0,0,0,0
1455577145,0.05121639,0.027742777,-0.04941092,0.0,0.99926215,0.02593766,0.013229695,-0.025047533,0.5602652,-1.0,1,0,0,0,0,0,0
1455678020,0.057659067,0.030914104,-0.04941092,0.0,0.999149,0.029194964,0.014733308,-0.02513514,0.5543895,-1.0,1,0,0,0,0,0,0
1455777918,0.04482837,0.02367548,-0.04941092,0.0,0.9993672,0.022696244,0.011277269,-0.024960235,0.5605911,-1.0,1,0,0,0,0,0,0
1455882648,0.047123358,0.033699937,-0.04941092,0.0,0.9992656,0.023965077,0.01625745,-0.02508942,0.55322146,-1.0,1,0,0,0,0,0,0
1455982833,0.039283425,0.025502844,-0.04941092,0.0,0.99941456,0.01994779,0.012259589,-0.024946535,0.5522316,-1.0,1,0,0,0,0,0,0
1456083167,0.041816406,0.035430558,-0.04941092,0.0,0.9993104,0.021334521,0.0171887,-0.02506391,0.55192405,-1.0,1,0,0,0,0,0,0
1456187423,0.041238505,0.03793183,-0.04941092,0.0,0.9992929,0.021076178,0.018445732,-0.02508415,0.54930836,-1.0,1,0,0,0,0,0,0
1456290096,0.03178555,0.03161369,-0.04941092,0.0,0.9994375,0.016275683,0.015406836,-0.02494786,0.5552095,-1.0,1,0,0,0,0,0,0
1456392501,0.036449526,0.035648245,-0.04941092,0.0,0.99936205,0.018655509,0.017364671,-0.025019629,0.55253375,-1.0,1,0,0,0,0,0,0
1456491997,0.028584037,0.038421288,-0.04941092,0.0,0.9994015,0.014759018,0.018848663,-0.02497032,0.5483086,-1.0,1,0,0,0,0,0,0
1456596723,0.053813003,0.04529131,-0.04941092,0.0,0.99906176,0.027447313,0.021964194,-0.025296677,0.54499924,-1.0,1,0,0,0,0,0,0
1456697451,0.030291686,0.046017166,-0.04941092,0.0,0.999307,0.015704902,0.022622863,-0.025041912,0.54598886,-1.0,1,0,0,0,0,0,0
1456798076,0.037798516,0.045341793,-0.04941092,0.0,0.99924886,0.0194474,0.02219127,-0.025120461,0.546196,-1.0,1,0,0,0,0,0,0
1456897988,0.047422044,0.049570452,-0.04941092,0.0,0.9990924,0.024306318,0.024182662,-0.025275806,0.542745,-1.0,1,0,0,0,0,0,0
1457003469,0.049970184,0.047667388,-0.04941092,0.0,0.9990843,0.0255563,0.023199763,-0.025283413,0.54734117,-1.0,1,0,0,0,0,0,0
1457106836,0.037151907,0.045462962,-0.04941092,0.0,0.99925363,0.01912581,0.022259932,-0.025114376,0.54543847,-1.0,1,0,0,0,0,0,0
1457207704,0.05653774,0.04493478,-0.04941092,0.0,0.9990275,0.028804092,0.021751616,-0.02532164,0.5454252,-1.0,1,0,0,0,0,0,0
1457307616,0.04050984,0.047850814,-0.04941092,0.0,0.99919176,0.020832406,0.023410738,-0.025175191,0.5444467,-1.0,1,0,0,0,0,0,0
1457411815,0.03866798,0.04191057,-0.04941092,0.0,0.99927855,0.019840162,0.02046597,-0.025097879,0.544772,-1.0,1,0,0,0,0,0,0
1457513363,0.039862562,0.044961743,-0.04941092,0.0,0.9992327,0.020474028,0.02197545,-0.025139665,0.5454884,-1.0,1,0,0,0,0,0,0
1457612248,0.037492037,0.046586946,-0.04941092,0.0,0.9992373,0.019309381,0.022817237,-0.025128368,0.5432489,-1.0,1,0,0,0,0,0,0
1457716967,0.048320588,0.042288147,-0.04941092,0.0,0.999167,0.024667306,0.02053324,-0.02520082,0.54683,-1.0,1,0,0,0,0,0,0
1457817564,0.05791386,0.042121373,-0.04941092,0.0,0.9990391,0.029457629,0.02032881,-0.025296653,0.54917634,-1.0,1,0,0,0,0,0,0
1457917837,0.046229597,0.04439013,-0.04941092,0.0,0.999169,0.023648089,0.02160973,-0.025203058,0.54534864,-1.0,1,0,0,0,0,0,0
1458018036,0.054102,0.033184055,-0.04941092,0.0,0.99918044,0.027445432,0.01591207,-0.02513913,0.54667664,-1.0,1,0,0,0,0,0,0
1458123311,0.055393234,0.04492108,-0.04941092,0.0,0.999044,0.028232226,0.02175926,-0.025309008,0.529017,-1.0,1,0,0,0,0,0,0
1458227014,0.046449117,0.042489268,-0.04941092,0.0,0.9991875,0.023734769,0.020657292,-0.025183877,0.50659186,-1.0,1,0,0,0,0,0,0
1458326327,0.06139237,0.039745048,-0.04941092,0.0,0.9990115,0.031166585,0.019097777,-0.025296122,0.495278,-1.0,1,0,0,0,0,0,0
1458427646,0.05261344,0.038873453,-0.04941092,0.0,0.9991476,0.026770642,0.018773194,-0.025200808,0.49104708,-1.0,1,0,0,0,0,0,0
1458532583,-0.011973741,-0.4361786,2.740385,0.0,0.19580697,0.21085721,-0.04884007,0.95645887,0.48918968,1.0,1,0,0,0,0,0,0
1458637221,-0.014664195,-0.43610168,2.7401516,0.0,0.19620347,0.21055095,-0.05014383,0.95637757,0.5057015,1.0,1,0,0,0,0,0,0
1458742020,-0.0014022376,-0.4363303,2.7398283,0.0,0.19495276,0.2119496,-0.043857545,0.9566333,0.51234704,1.0,1,0,0,0,0,0,0
1458844535,7.134074e-05,-0.43633235,2.7398283,0.0,0.19479653,0.21209417,-0.043152895,0.95666516,0.5329419,1.0,1,0,0,0,0,0,0
1458946712,0.0074846353,-0.43627223,2.7398283,0.0,0.1940104,0.21278602,-0.039600715,0.95682484,0.55012506,1.0,1,0,0,0,0,0,0
1459049363,0.011824874,-0.43618244,2.7398283,0.0,0.1935504,0.21316358,-0.03751539,0.95691806,0.5667587,1.0,1,0,0,0,0,0,0
1459149969,0.013742657,-0.4361298,2.7398283,0.0,0.19334722,0.21332395,-0.036592633,0.95695907,0.5831667,1.0,1,0,0,0,0,0,0
1459250171,0.019667735,-0.4359173,2.7398283,0.0,0.19271997,0.2137942,-0.033736534,0.9570856,0.5872426,1.0,1,0,0,0,0,0,0
1459355013,0.01776588,-0.4359938,2.7398283,0.0,0.19292122,0.2136474,-0.034654155,0.9570451,0.5992208,1.0,1,0,0,0,0,0,0
1459459187,0.012521445,-0.43616417,2.7398283,0.0,0.19347657,0.21322225,-0.03718032,0.956933,0.60403883,1.0,1,0,0,0,0,0,0
1459559531,0.006786584,-0.436283,2.7398283,0.0,0.19408444,0.21272342,-0.039935715,0.9568099,0.6028073,1.0,1,0,0,0,0,0,0
1459659866,-0.0063559795,-0.436289,2.7398283,0.0,0.19547796,0.21144633,-0.046222858,0.9565262,0.59968716,1.0,1,0,0,0,0,0,0
1459760266,-0.026639001,-0.43557063,2.7398283,0.0,0.19762321,0.20910923,-0.05585198,0.95608526,0.59490013,1.0,1,0,0,0,0,0,0
1459864278,-0.056144837,-0.43293545,2.7398283,0.0,0.20070776,0.20490922,-0.06970163,0.9554424,0.58599085,1.0,1,0,0,0,0,0,0
1459964489,-0.09215417,-0.4271025,2.7398283,0.0,0.20435981,0.19846775,-0.086351976,0.954668,0.5806991,1.0,1,0,0,0,0,0,0
1460066858,-0.119784765,-0.36008677,2.7398283,0.0,0.2064597,0.16340631,-0.09337176,0.9601846,0.5673474,1.0,1,0,0,0,0,0,0
1460170954,-0.15038237,-0.2787638,2.7398283,0.0,0.20726714,0.12090893,-0.10053902,0.96556365,0.55061984,1.0,1,0,0,0,0,0,0
1460277839,-0.18167955,-0.178248,2.7398283,0.0,0.20583425,0.06882778,-0.106224395,0.97036666,0.5447385,1.0,1,0,0,0,0,0,0
1460378354,-0.21227156,-0.0748705,2.7398283,0.0,0.20215712,0.015344394,-0.11115943,0.97290325,0.5338406,1.0,1,0,0,0,0,0,0
1460478801,-0.23023108,-0.015562905,2.7398283,0.0,0.19908302,-0.01534362,-0.11409067,0.97319776,0.5236639,1.0,1,0,0,0,0,0,0
1460582692,-0.2569429,0.05036492,2.7398283,0.0,0.19466558,-0.05002596,-0.120519385,0.9721511,0.5194699,1.0,1,0,0,0,0,0,0
1460687699,-0.29365224,0.14141025,2.7398283,0.0,0.1867661,-0.097599454,-0.12905438,0.96898794,0.48619634,1.0,1,0,0,0,0,0,0
1460787662,-0.3033136,0.1643612,2.7398283,0.0,0.18442576,-0.10955723,-0.13134716,0.9678493,0.4848805,1.0,1,0,0,0,0,0,0
1460892721,-0.3191461,0.20744473,2.7398283,0.0,0.17981927,-0.13170038,-0.13446808,0.9655249,0.47216645,1.0,1,0,0,0,0,0,0
1460996759,-0.3343052,0.21317782,2.7398283,0.0,0.17829193,-0.135804,-0.14117244,0.9642819,0.45910656,1.0,1,0,0,0,0,0,0
1461104642,-0.34316942,0.22085401,2.7398283,0.0,0.17696819,-0.1402626,-0.14462519,0.96337545,0.45232058,1.0,1,0,0,0,0,0,0
1461205343,-0.33239552,0.21850576,2.7398283,0.0,0.17793572,-0.13818367,-0.13968396,0.9642264,0.4389529,1.0,1,0,0,0,0,0,0
1461305273,-0.33391386,0.18999417,2.7398283,0.0,0.18042605,-0.124663904,-0.14344291,0.96505415,0.43960187,1.0,1,0,0,0,0,0,0
1461406258,-0.31224024,0.17871383,2.7398283,0.0,0.1827244,-0.11728114,-0.1341627,0.9668802,0.44443026,1.0,1,0,0,0,0,0,0
1461507767,-0.2925005,0.14315695,2.7398283,0.0,0.1866856,-0.09833458,-0.12831551,0.9690273,0.44964427,1.0,1,0,0,0,0,0,0
1461611449,-0.25294396,0.10137768,2.7398283,0.0,0.19142354,-0.07438762,-0.113410816,0.9720913,0.47379208,1.0,1,0,0,0,0,0,0
1461710768,-0.23191167,0.086735584,2.7398283,0.0,0.1930925,-0.065260686,-0.10467047,0.97339636,0.48710585,1.0,1,0,0,0,0,0,0
1461815484,-0.21726768,0.044011008,2.7398283,0.0,0.1959719,-0.04306243,-0.10184973,0.9743548,0.49107394,1.0,1,0,0,0,0,0,0
1461917370,-0.21896498,0.017282609,2.7398283,0.0,0.19740659,-0.030217761,-0.10534881,0.97417617,0.48571223,1.0,1,0,0,0,0,0,0
1462019688,-0.22602671,-0.006414532,2.7398283,0.0,0.19861436,-0.019379182,-0.11114049,0.9735628,0.4875871,1.0,1,0,0,0,0,0,0
1462120469,-0.22197178,-0.02932989,2.7398283,0.0,0.1998764,-0.007816506,-0.1114273,0.97343326,0.48618072,1.0,1,0,0,0,0,0,0
1462224236,-0.24058506,-0.044316377,2.7398283,0.0,0.20064864,-0.002384764,-0.12194961,0.9720405,0.49342284,1.0,1,0,0,0,0,0,0
1462325105,-0.23429506,-0.058562737,2.7398283,0.0,0.2014344,0.0051803505,-0.120282084,0.9720748,0.50029325,1.0,1,0,0,0,0,0,0
1462426877,-0.2276025,-0.06490794,2.7398283,0.0,0.20174935,0.008943816,-0.11764632,0.97230476,0.49805966,1.0,1,0,0,0,0,0,0
1462525932,0.1708343,-0.17954774,0.72038484,0.0,0.92596656,0.11100067,-0.05364634,0.35691294,0.49323303,1.0,1,0,0,0,0,0,0
1462629866,0.16775776,-0.21316974,0.72030586,0.0,0.92411965,0.11531998,-0.06984975,0.3575265,0.4792614,1.0,1,0,0,0,0,0,0
1462731082,0.17126818,-0.21405458,0.7201888,0.0,0.9238795,0.11708844,-0.069640554,0.3576131,0.47352523,1.0,1,0,0,0,0,0,0
1462830987,0.15799049,-0.22275259,0.7201074,0.0,0.9240886,0.11243285,-0.07606411,0.35725805,0.47521284,1.0,1,0,0,0,0,0,0
1462934688,0.1433462,-0.23165368,0.72009635,0.0,0.9243065,0.107183255,-0.082818955,0.35680553,0.48509088,1.0,1,0,0,0,0,0,0
1463035657,0.11984495,-0.22495733,0.719771,0.0,0.9259865,0.095152795,-0.08390575,0.3556048,0.48180255,1.0,1,0,0,0,0,0,0
1463135378,0.098846085,-0.22940058,0.71949965,0.0,0.9267088,0.086177975,-0.089714155,0.35459197,0.48866463,1.0,1,0,0,0,0,0,0
1463240537,0.08347385,-0.20885006,0.71949965,0.0,0.9285445,0.07550411,-0.082868956,0.35388827,0.4966015,1.0,1,0,0,0,0,0,0
1463342133,0.06378643,-0.20056982,0.71866184,0.0,0.9298326,0.06488923,-0.08251807,0.35269186,0.4965416,1.0,1,0,0,0,0,0,0
1463445062,0.05470281,-0.1955512,0.7181366,0.0,0.93046635,0.059772585,-0.08179573,0.35209236,0.5007839,1.0,1,0,0,0,0,0,0
1463545433,0.044439748,-0.18251847,0.71785647,0.0,0.93143636,0.05271995,-0.07753194,0.35161868,0.49558955,1.0,1,0,0,0,0,0,0
1463645761,0.038937554,-0.18306482,0.71703094,0.0,0.93169767,0.05021987,-0.07877454,0.3510157,0.49582538,1.0,1,0,0,0,0,0,0
1463749814,0.037094872,-0.1823958,0.716516,0.0,0.93186456,0.049224813,-0.078798525,0.35070795,0.4931129,1.0,1,0,0,0,0,0,0
1463850905,0.048117466,-0.15942855,0.716516,0.0,0.93259335,0.050371125,-0.066144094,0.35122272,0.49047947,1.0,1,0,0,0,0,0,0
1463950610,0.060756136,-0.13664816,0.71549636,0.0,0.93334496,0.05227913,-0.053308133,0.35113004,0.4914017,1.0,1,0,0,0,0,0,0
1464054702,0.05676044,-0.14738701,0.7150923,0.0,0.9331085,0.05226699,-0.059038658,0.3508433,0.48751006,1.0,1,0,0,0,0,0,0
1464155827,0.04658809,-0.16271508,0.7150923,0.0,0.93274415,0.05018087,-0.067982994,0.35049757,0.48618743,1.0,1,0,0,0,0,0,0
1464255506,0.04665438,-0.15830955,0.71448624,0.0,0.933032,0.049427442,-0.06592865,0.35023084,0.49188825,1.0,1,0,0,0,0,0,0
1464356549,0.062479682,-0.15306798,0.7142748,0.0,0.9328681,0.055894863,-0.060712352,0.35063773,0.49757135,1.0,1,0,0,0,0,0,0
1464461080,0.056473006,-0.14999855,0.71407956,0.0,0.9331899,0.05255531,-0.060335964,0.35036284,0.5011101,1.0,1,0,0,0,0,0,0
1464565583,0.05983466,-0.14014097,0.7139198,0.0,0.9335141,0.052412063,-0.05514369,0.35037622,0.50373256,1.0,1,0,0,0,0,0,0
1464664993,0.07950952,-0.13946058,0.7139198,0.0,0.9329803,0.06147515,-0.05137623,0.3508974,0.5130829,1.0,1,0,0,0,0,0,0
1464769120,0.08291118,-0.12396449,0.7139198,0.0,0.93346375,0.060382523,-0.043534294,0.35086203,0.5092542,1.0,1,0,0,0,0,0,0
1464873949,0.0705033,-0.12291679,0.7138877,0.0,0.9338627,0.054407995,-0.045221057,0.35056427,0.51100737,1.0,1,0,0,0,0,0,0
1464978276,0.10572326,-0.13459605,0.7139953,0.0,0.9322818,0.072861165,-0.044496533,0.3515138,0.5172829,1.0,1,0,0,0,0,0,0
1465080523,0.10026741,-0.1701097,0.7140823,0.0,0.9308872,0.07643645,-0.062043566,0.35179123,0.5217776,1.0,1,0,0,0,0,0,0
1465184543,0.101315126,-0.20879434,0.71443707,0.0,0.9287319,0.083572626,-0.07989464,0.35226336,0.52596503,1.0,1,0,0,0,0,0,0
1465287902,0.11297853,-0.18544057,0.71489847,0.0,0.9294515,0.08500675,-0.06692746,0.35272422,0.5240123,1.0,1,0,0,0,0,0,0
1465391765,0.10358524,-0.16670935,0.71520007,0.0,0.93072677,0.077429675,-0.059828855,0.3523816,0.52073157,1.0,1,0,0,0,0,0,0
1465492397,0.10664305,-0.14193784,0.71546566,0.0,0.93168396,0.07459031,-0.047711123,0.35231367,0.5085173,1.0,1,0,0,0,0,0,0
1465592504,0.09895666,-0.1294867,0.7155855,0.0,0.93244517,0.06885906,-0.043242432,0.3520434,0.5080288,1.0,1,0,0,0,0,0,0
1465700416,0.10779048,-0.12341207,0.7155855,0.0,0.9323686,0.07192655,-0.038848296,0.35214508,0.50101703,1.0,1,0,0,0,0,0,0
1465801422,0.11226276,-0.11568594,0.71612245,0.0,0.93240243,0.07268432,-0.034430437,0.35235953,0.48306286,1.0,1,0,0,0,0,0,0
1465901224,0.11634344,-0.11017121,0.71636784,0.0,0.93241054,0.073635705,-0.031125218,0.3524479,0.46969685,1.0,1,0,0,0,0,0,0
1466002084,0.12665343,-0.1016684,0.7166137,0.0,0.93227977,0.07697237,-0.025325453,0.3525455,0.47139013,1.0,1,0,0,0,0,0,0
1466105820,0.13173959,-0.099711105,0.716876,0.0,0.93210334,0.07900708,-0.023503982,0.35268795,0.47891203,1.0,1,0,0,0,0,0,0
1466207002,0.143576,-0.101351656,0.7169967,0.0,0.93153906,0.08480727,-0.022177411,0.3529177,0.48040533,1.0,1,0,0,0,0,0,0
1466306827,0.14546008,-0.09271621,0.7169967,0.0,0.93176425,0.08418987,-0.017811816,0.3527183,0.48616025,1.0,1,0,0,0,0,0,0
1466408253,0.14542177,-0.10347213,0.717724,0.0,0.93125427,0.08604207,-0.022810701,0.35332978,0.50619435,1.0,1,0,0,0,0,0,0
1466511869,0.1400563,-0.09899252,0.71800566,0.0,0.9315928,0.082770236,-0.021654768,0.3532916,0.51143795,1.0,1,0,0,0,0,0,0
1466612678,0.13308518,-0.09830657,0.7182772,0.0,0.9318515,0.07940665,-0.022554867,0.35332516,0.5035971,1.0,1,0,0,0,0,0,0
1466712328,0.1250867,-0.10811493,0.7185141,0.0,0.93177575,0.0773859,-0.028540324,0.35354033,0.50052136,1.0,1,0,0,0,0,0,0
1466816244,0.14943328,-0.10434497,0.71867704,0.0,0.9308787,0.088071555,-0.022467524,0.35384095,0.49928492,1.0,1,0,0,0,0,0,0
1466917359,0.12723722,-0.11121985,0.7188411,0.0,0.9315201,0.07893142,-0.029597377,0.35378549,0.49442655,1.0,1,0,0,0,0,0,0
1467017117,0.11330369,-0.11868321,0.71888196,0.0,0.93176556,0.07373752,-0.035546005,0.35371196,0.48583198,1.0,1,0,0,0,0,0,0
1467118075,0.13068587,-0.12130425,0.71888196,0.0,0.9309861,0.08228706,-0.03369432,0.35405996,0.4794351,1.0,1,0,0,0,0,0,0
1467222080,0.11527575,-0.123680554,0.71888196,0.0,0.9315005,0.07552393,-0.03753111,0.35382816,0.47555098,1.0,1,0,0,0,0,0,0
1467327024,0.1189465,-0.12673505,0.7188041,0.0,0.9312529,0.07776185,-0.03831099,0.3539115,0.47499177,1.0,1,0,0,0,0,0,0
1467427481,0.08748362,-0.115494594,0.71866816,0.0,0.9327893,0.061142985,-0.038626015,0.35309154,0.47719532,1.0,1,0,0,0,0,0,0
1467527569,0.09673635,-0.11641264,0.71866816,0.0,0.9324638,0.06561748,-0.03742101,0.3532778,0.47302768,1.0,1,0,0,0,0,0,0
1467627975,0.07292518,-0.12072641,0.7182979,0.0,0.9330971,0.055255756,-0.043650348,0.3526631,0.47331944,1.0,1,0,0,0,0,0,0
1467727480,0.063919455,-0.109512605,0.71804416,0.0,0.9337458,0.049091753,-0.040002715,0.3522904,0.4682131,1.0,1,0,0,0,0,0,0
1467828530,0.07267974,-0.09829003,0.7177818,0.0,0.9339122,0.051219154,-0.033219296,0.3522514,0.46105033,1.0,1,0,0,0,0,0,0
1467928488,0.08588308,-0.1030775,0.71749836,0.0,0.933455,0.058212757,-0.033139527,0.3523846,0.46041214,1.0,1,0,0,0,0,0,0
1468029980,0.09691655,-0.070145786,0.71738905,0.0,0.9340853,0.057623982,-0.015801169,0.35201487,0.45449477,1.0,1,0,0,0,0,0,0
1468133365,0.10989157,-0.074020915,0.7171035,0.0,0.93363947,0.064355545,-0.01533802,0.35205176,0.4615372,1.0,1,0,0,0,0,0,0
1468233983,0.11887852,-0.05640724,0.7170472,0.0,0.9338026,0.065482624,-0.0055239853,0.3517018,0.46389538,1.0,1,0,0,0,0,0,0
1468335779,0.10165485,-0.050848756,0.7170319,0.0,0.93445385,0.05646843,-0.0059534158,0.351528,0.47737294,1.0,1,0,0,0,0,0,0
1468438946,0.11406975,-0.045453146,0.7171233,0.0,0.9341839,0.061326593,-0.0012456848,0.35147965,0.486618,1.0,1,0,0,0,0,0,0
1468538908,0.114370346,-0.03463358,0.71722966,0.0,0.93436575,0.059577625,0.003868915,0.35127798,0.48462495,1.0,1,0,0,0,0,0,0
1468642892,0.13655896,-0.037365306,0.71722966,0.0,0.9335916,0.070416525,0.0064894105,0.3512921,0.49437842,1.0,1,0,0,0,0,0,0
1468744276,0.12666862,-0.03399843,0.71749216,0.0,0.93394774,0.06521029,0.0063342974,0.35135323,0.4906758,1.0,1,0,0,0,0,0,0
1468843523,0.12071252,-0.03524043,0.71764725,0.0,0.93408734,0.062645294,0.004712236,0.35147423,0.48919892,1.0,1,0,0,0,0,0,0
1468948555,0.124532536,-0.033047453,0.71770763,0.0,0.93399686,0.06404592,0.0064104013,0.35143545,0.49224404,1.0,1,0,0,0,0,0,0
1469052972,0.124299504,-0.0292689,0.71792597,0.0,0.93403465,0.06327578,0.008142305,0.35143867,0.49854997,1.0,1,0,0,0,0,0,0
1469156777,0.13439406,-0.026169345,0.7180495,0.0,0.9337383,0.067446776,0.011368262,0.35136092,0.4957939,1.0,1,0,0,0,0,0,0
1469257327,0.12520762,-0.02789599,0.71818566,0.0,0.93398446,0.06345862,0.008951705,0.35151944,0.4953633,1.0,1,0,0,0,0,0,0
1469358095,0.12522951,-0.03351455,0.7183432,0.0,0.933854,0.064451024,0.0063350555,0.35174233,0.4991647,1.0,1,0,0,0,0,0,0
1469462311,0.13556466,-0.030885547,0.7183432,0.0,0.9335595,0.06881633,0.009380759,0.351629,0.4997364,1.0,1,0,0,0,0,0,0
1469561875,0.13631164,-0.037705157,0.718449,0.0,0.9333789,0.07035652,0.006330072,0.35187173,0.49876574,1.0,1,0,0,0,0,0,0
1469663590,0.12873319,-0.038234215,0.7184874,0.0,0.9336214,0.06691163,0.0047507933,0.35192528,0.50106686,1.0,1,0,0,0,0,0,0
1469766919,0.14445269,-0.04228382,0.7185343,0.0,0.932969,0.074954465,0.005627159,0.3520214,0.5020818,1.0,1,0,0,0,0,0,0
1469867522,0.13982745,-0.03266122,0.7185822,0.0,0.9333337,0.07111519,0.009309306,0.35177287,0.48974234,1.0,1,0,0,0,0,0,0
1469967750,0.14256182,-0.03708838,0.71862805,0.0,0.9331361,0.073164634,0.0077242847,0.35191518,0.4993398,1.0,1,0,0,0,0,0,0
1470069072,0.14837873,-0.024664808,0.71867025,0.0,0.93316334,0.07370666,0.0145502305,0.35151365,0.5047752,1.0,1,0,0,0,0,0,0
1470172979,0.11190018,-0.02383401,0.7186896,0.0,0.9343619,0.056529466,0.008525687,0.35170957,0.5184149,1.0,1,0,0,0,0,0,0
1470272289,0.108779,-0.022833036,0.71865475,0.0,0.9344701,0.054895952,0.008443751,0.35168275,0.520338,1.0,1,0,0,0,0,0,0
1470373095,0.10559858,-0.023158966,0.7185794,0.0,0.9345647,0.0534673,0.0077301087,0.35166794,0.5280344,1.0,1,0,0,0,0,0,0
1470474323,0.11661016,-0.036668193,0.71851826,0.0,0.9340341,0.060977254,0.0033504113,0.35192442,0.5258236,1.0,1,0,0,0,0,0,0
1470578615,0.11652928,-0.041352272,0.718292,0.0,0.93398577,0.061758988,0.0011398755,0.35193053,0.5200312,1.0,1,0,0,0,0,0,0
1470678034,0.106106065,-0.055609528,0.71807104,0.0,0.9340395,0.059382476,-0.007366475,0.35212165,0.50795525,1.0,1,0,0,0,0,0,0
1470779154,0.08371696,-0.051430553,0.71776855,0.0,0.9347819,0.048190318,-0.009360401,0.35181355,0.49574333,1.0,1,0,0,0,0,0,0
1470884231,0.10287264,-0.06390283,0.7174362,0.0,0.9340553,0.05931705,-0.011832191,0.35196888,0.49425477,1.0,1,0,0,0,0,0,0
1470988253,0.07526282,-0.06554147,0.71706504,0.0,0.9348148,0.046700373,-0.017465048,0.35161805,0.48966548,1.0,1,0,0,0,0,0,0
1471087437,0.069462724,-0.07632907,0.7165886,0.0,0.9347854,0.045867693,-0.023542536,0.35145146,0.4918262,1.0,1,0,0,0,0,0,0
1471188974,0.0666029,-0.08243931,0.71614313,0.0,0.93477917,0.045591146,-0.026913898,0.35126194,0.49045193,1.0,1,0,0,0,0,0,0
1471292976,0.05830072,-0.08786323,0.71591276,0.0,0.9348651,0.042652886,-0.030914444,0.35107303,0.4874154,1.0,1,0,0,0,0,0,0
1471396648,0.054604463,-0.100635156,0.7151523,0.0,0.93473303,0.043137167,-0.03755481,0.3507177,0.48610574,1.0,1,0,0,0,0,0,0
1471497154,0.083948806,-0.114445105,0.71468407,0.0,0.9336332,0.059234053,-0.038877655,0.35115358,0.470021,1.0,1,0,0,0,0,0,0
1471601306,0.05586336,-0.12222199,0.71418756,0.0,0.9342067,0.04745732,-0.047453858,0.3503623,0.4485355,1.0,1,0,0,0,0,0,0
1471702203,0.070474915,-0.13303357,0.7137548,0.0,0.93352175,0.05614349,-0.049960665,0.3505552,0.44169664,1.0,1,0,0,0,0,0,0
1471801860,0.04237436,-0.13272487,0.713514,0.0,0.9342713,0.04296196,-0.05474178,0.34970677,0.4356404,1.0,1,0,0,0,0,0,0
1471903011,0.06739455,-0.13076253,0.7129461,0.0,0.93383217,0.05429239,-0.04946053,0.35009074,0.4426188,1.0,1,0,0,0,0,0,0
1472007782,0.058348875,-0.12829587,0.71262145,0.0,0.9342122,0.049633056,-0.04989779,0.34970596,0.46337676,1.0,1,0,0,0,0,0,0
1472111438,0.068576716,-0.12622656,0.7123664,0.0,0.93406475,0.05404601,-0.047147743,0.3498272,0.47209275,1.0,1,0,0,0,0,0,0
1472211549,0.07744022,-0.11099447,0.7121712,0.0,0.9343756,0.05554858,-0.03847616,0.34982297,0.4841917,1.0,1,0,0,0,0,0,0
1472312347,0.050810877,-0.11159375,0.7120517,0.0,0.935035,0.043204393,-0.04341344,0.34922516,0.4945017,1.0,1,0,0,0,0,0,0
1472412567,0.0600271,-0.104528666,0.71199167,0.0,0.9350521,0.04628794,-0.038498405,0.3493607,0.49750406,1.0,1,0,0,0,0,0,0
1472512601,0.07971879,-0.09154049,0.7119795,0.0,0.9349413,0.053244818,-0.028978001,0.34958568,0.5015447,1.0,1,0,0,0,0,0,0
1472613157,0.081303366,-0.089947365,0.7120828,0.0,0.9349258,0.05371125,-0.027952496,0.34963903,0.5013525,1.0,1,0,0,0,0,0,0
1472717284,0.06320513,-0.07875286,0.7121886,0.0,0.9356378,0.043308977,-0.025871418,0.3493379,0.49756238,1.0,1,0,0,0,0,0,0
1472817896,0.06531742,-0.07701528,0.7122722,0.0,0.93561846,0.043996707,-0.02468699,0.34938937,0.505755,1.0,1,0,0,0,0,0,0
1472918357,0.06266255,-0.0768185,0.7124488,0.0,0.9356498,0.04272275,-0.02505485,0.34943733,0.49768484,1.0,1,0,0,0,0,0,0
1473018892,0.06791625,-0.07491229,0.71262014,0.0,0.93554956,0.0448516,-0.023240458,0.3495644,0.50422883,1.0,1,0,0,0,0,0,0
1473119199,0.08447694,-0.079397805,0.7127079,0.0,0.93501675,0.053375244,-0.022442566,0.34984443,0.5031145,1.0,1,0,0,0,0,0,0
1473218779,0.09319956,-0.07561162,0.7129794,0.0,0.93482697,0.056799214,-0.019136773,0.35000882,0.5014991,1.0,1,0,0,0,0,0,0
1473320413,0.09389433,-0.070607364,0.7131454,0.0,0.9349047,0.056257695,-0.016668355,0.3500149,0.509513,1.0,1,0,0,0,0,0,0
1473423791,0.06678906,-0.06484152,0.7133415,0.0,0.935672,0.04258219,-0.01870646,0.34979257,0.5130079,1.0,1,0,0,0,0,0,0
1473524212,0.05781874,-0.057284478,0.7134727,0.0,0.9359767,0.03707123,-0.016733961,0.34970453,0.519175,1.0,1,0,0,0,0,0,0
1473624487,0.071104534,-0.05207954,0.7135534,0.0,0.9357946,0.042382907,-0.011971796,0.3497839,0.5321273,1.0,1,0,0,0,0,0,0
1473725180,0.055723637,-0.046234634,0.7137246,0.0,0.93615866,0.034167964,-0.01192126,0.34971046,0.5306401,1.0,1,0,0,0,0,0,0
1473825311,0.071610235,-0.044261366,0.7137789,0.0,0.93588144,0.0412596,-0.008218013,0.3497942,0.5272364,1.0,1,0,0,0,0,0,0
1473929535,0.055923734,-0.044037037,0.7137839,0.0,0.93617886,0.03387899,-0.010856117,0.3497193,0.5241556,1.0,1,0,0,0,0,0,0
1474029859,0.06475469,-0.04138809,0.71381485,0.0,0.93605614,0.037550934,-0.008070858,0.349748,0.5214114,1.0,1,0,0,0,0,0,0
1474130915,0.07557327,-0.047373243,0.71381253,0.0,0.9357381,0.043655936,-0.0089810835,0.34986815,0.52728564,1.0,1,0,0,0,0,0,0
1474230691,0.06502848,-0.044556186,0.71377265,0.0,0.9360085,0.03823085,-0.009507267,0.34976575,0.519986,1.0,1,0,0,0,0,0,0
1474334679,0.07684015,-0.04714876,0.7137289,0.0,0.9357289,0.044209216,-0.008656212,0.3498315,0.5204051,1.0,1,0,0,0,0,0,0
1474436285,0.061878137,-0.047283035,0.71367687,0.0,0.93604034,0.037230946,-0.011336884,0.34973404,0.52385867,1.0,1,0,0,0,0,0,0
1474539958,0.07603591,-0.050411973,0.71362364,0.0,0.9357061,0.04440038,-0.010327004,0.34982297,0.5242017,1.0,1,0,0,0,0,0,0
1474640330,0.0808619,-0.04423208,0.7135948,0.0,0.9357133,0.04558267,-0.0065903286,0.34974194,0.521691,1.0,1,0,0,0,0,0,0
1474744145,0.080490194,-0.041391164,0.71349716,0.0,0.93578726,0.044914044,-0.005327477,0.34965202,0.52504694,1.0,1,0,0,0,0,0,0
1474845367,0.07353336,-0.043215685,0.7134377,0.0,0.93591845,0.04197614,-0.0073992275,0.34962827,0.52619946,1.0,1,0,0,0,0,0,0
1474944990,0.09109397,-0.04600087,0.7134377,0.0,0.9354626,0.0506764,-0.005632885,0.34972835,0.5234364,1.0,1,0,0,0,0,0,0
1475045825,0.08556263,-0.04009342,0.71336526,0.0,0.9357155,0.04706118,-0.0038362385,0.34958133,0.5172823,1.0,1,0,0,0,0,0,0
1475150335,0.0697713,-0.04042088,0.71336085,0.0,0.9360535,0.03972869,-0.006749698,0.3495423,0.51816636,1.0,1,0,0,0,0,0,0
1475254305,0.07159439,-0.03630508,0.71333945,0.0,0.9360834,0.03986525,-0.0045042173,0.34948307,0.52096796,1.0,1,0,0,0,0,0,0
1475354628,0.06774732,-0.042477977,0.7133331,0.0,0.93606603,0.039139453,-0.008067276,0.34954748,0.52146506,1.0,1,0,0,0,0,0,0
1475455035,0.0629299,-0.04171808,0.71331954,0.0,0.9361716,0.036752246,-0.00855359,0.3495123,0.51983476,1.0,1,0,0,0,0,0,0
1475555985,0.07330338,-0.03952981,0.71325636,0.0,0.93601424,0.04122632,-0.0057172924,0.34949264,0.52150214,1.0,1,0,0,0,0,0,0
1475660521,0.07896165,-0.044595346,0.71317005,0.0,0.93582416,0.04475533,-0.0071022045,0.34954202,0.52564454,1.0,1,0,0,0,0,0,0
1475759407,0.076445445,-0.040577326,0.7131008,0.0,0.9359587,0.04287864,-0.005662041,0.34944347,0.5158051,1.0,1,0,0,0,0,0,0
1475864459,0.08274796,-0.039833512,0.7130696,0.0,0.93583673,0.045698423,-0.0042132847,0.34943318,0.51681757,1.0,1,0,0,0,0,0,0
1475968222,0.06774806,-0.04031952,0.7130445,0.0,0.9361501,0.038762975,-0.0070619634,0.349386,0.51742977,1.0,1,0,0,0,0,0,0
1476069565,0.060066525,-0.042351548,0.7129147,0.0,0.9362844,0.03552034,-0.009357834,0.3493168,0.5178037,1.0,1,0,0,0,0,0,0
1476169097,0.073331825,-0.041257452,0.7128284,0.0,0.936061,0.041538943,-0.0065301917,0.34931597,0.5165235,1.0,1,0,0,0,0,0,0
1476274981,0.070265636,-0.035634484,0.7128284,0.0,0.93620867,0.039125424,-0.004432378,0.34923187,0.5195431,1.0,1,0,0,0,0,0,0
1476378579,0.077811554,-0.03331896,0.71271974,0.0,0.93610775,0.042254433,-0.0020327142,0.34916,0.51778084,1.0,1,0,0,0,0,0,0
1476478751,0.08346499,-0.04216832,0.712747,0.0,0.9358372,0.04643917,-0.0051886556,0.34932095,0.5252202,1.0,1,0,0,0,0,0,0
1476579453,0.074374534,-0.03556262,0.71277297,0.0,0.9361371,0.041036125,-0.0036823736,0.34921324,0.5147077,1.0,1,0,0,0,0,0,0
1476683043,0.08880546,-0.039450303,0.7128551,0.0,0.935738,0.048465665,-0.0029807177,0.3493373,0.5150184,1.0,1,0,0,0,0,0,0
1476783428,0.07740837,-0.04610617,0.71291757,0.0,0.93587655,0.044290315,-0.00808667,0.34943965,0.5197622,1.0,1,0,0,0,0,0,0
1476885135,0.0937297,-0.05556992,0.7130104,0.0,0.93527776,0.05357017,-0.009662374,0.3497032,0.51399016,1.0,1,0,0,0,0,0,0
1476984233,0.08542538,-0.050717864,0.71309125,0.0,0.9355745,0.048843615,-0.008840765,0.34962332,0.5042414,1.0,1,0,0,0,0,0,0
1477088351,0.0854173,-0.05236019,0.71322984,0.0,0.9355184,0.049125925,-0.009607648,0.34971362,0.5068629,1.0,1,0,0,0,0,0,0
1477189143,0.080243126,-0.053795394,0.71329314,0.0,0.93560344,0.046955355,-0.011182812,0.34973752,0.5036212,1.0,1,0,0,0,0,0,0
1477290362,0.0880863,-0.05142134,0.7133538,0.0,0.935449,0.050211694,-0.008698332,0.34976903,0.5023888,1.0,1,0,0,0,0,0,0
1477394729,0.086491086,-0.049435247,0.713475,0.0,0.935506,0.04912076,-0.008044574,0.34978715,0.5020082,1.0,1,0,0,0,0,0,0
1477498361,0.083211705,-0.052777354,0.71359456,0.0,0.9355001,0.048168574,-0.010179824,0.3498796,0.515527,1.0,1,0,0,0,0,0,0
1477598873,0.09047274,-0.049926303,0.71362126,0.0,0.93537116,0.051069017,-0.007574316,0.34987915,0.5099598,1.0,1,0,0,0,0,0,0
1477698979,0.08654586,-0.053811405,0.7137086,0.0,0.9353778,0.049908426,-0.010077736,0.34996557,0.50545305,1.0,1,0,0,0,0,0,0
1477803830,0.08000768,-0.05035677,0.7137147,0.0,0.9356012,0.046249323,-0.009604326,0.3498846,0.49957684,1.0,1,0,0,0,0,0,0
1477908316,0.09718644,-0.049006265,0.7137239,0.0,0.9351949,0.05404901,-0.005966413,0.34993365,0.50194436,1.0,1,0,0,0,0,0,0
1478012262,0.09306754,-0.056414623,0.71383566,0.0,0.93513316,0.053411376,-0.010151518,0.35010022,0.5022539,1.0,1,0,0,0,0,0,0
1478112397,0.073794365,-0.055348843,0.71391565,0.0,0.93561125,0.044212587,-0.01302403,0.35001028,0.4987713,1.0,1,0,0,0,0,0,0
1478216249,0.074573606,-0.052883744,0.7139584,0.0,0.9356337,0.04414831,-0.011732654,0.35000396,0.49938095,1.0,1,0,0,0,0,0,0
1478317054,0.07784975,-0.04780277,0.7140281,0.0,0.93564236,0.044796724,-0.008779102,0.34998512,0.49985513,1.0,1,0,0,0,0,0,0
1478417577,0.07872185,-0.039953716,0.71406746,0.0,0.9357504,0.043837827,-0.004951116,0.34989262,0.49712533,1.0,1,0,0,0,0,0,0
1478517821,0.07615861,-0.04372082,0.7141876,0.0,0.9357229,0.04329521,-0.0071605695,0.34999564,0.4959454,1.0,1,0,0,0,0,0,0
1478622192,0.091959484,-0.03848868,0.7141882,0.0,0.9354439,0.04977543,-0.0019464456,0.3499477,0.50619155,1.0,1,0,0,0,0,0,0
1478722776,0.07686597,-0.03604523,0.7142043,0.0,0.9358278,0.042288687,-0.0034430812,0.34989452,0.50188977,1.0,1,0,0,0,0,0,0
1478822812,0.097669765,-0.028767027,0.71417236,0.0,0.93546015,0.05075296,0.0036018153,0.34975067,0.5054914,1.0,1,0,0,0,0,0,0
1478926858,0.086847045,-0.02952828,0.71416295,0.0,0.93571174,0.04582282,0.001352603,0.34977415,0.5021963,1.0,1,0,0,0,0,0,0
1479027818,0.10097097,-0.029063037,0.7141473,0.0,0.93537486,0.052348573,0.0040399362,0.3497388,0.496181,1.0,1,0,0,0,0,0,0
1479127646,0.0975883,-0.030893391,0.71417946,0.0,0.93542796,0.051085275,0.0025926607,0.3497972,0.49596208,1.0,1,0,0,0,0,0,0
1479228649,0.08210542,-0.024514666,0.7141985,0.0,0.9358792,0.04273013,0.0028710803,0.34970853,0.48608065,1.0,1,0,0,0,0,0,0
1479333236,0.09111272,-0.024132015,0.7143416,0.0,0.93565744,0.04687752,0.0046284585,0.34975162,0.49045485,1.0,1,0,0,0,0,0,0
