timestamp,x,y,z,yaw,yawspeed,vx,vy,vz,acc_x,acc_y,acc_z,thrust[0],thrust[1],thrust[2]
1431063364,8.698335,-10.284188,-30.807943,-0.04941092,0.0,-0.086171485,-0.006549406,-0.18651597,-0.1268824,-0.01056577,-5.173289,0.0,0.0,0.0
1431164524,8.698335,-10.284188,-30.807943,-0.04941092,0.0,-0.087115526,-0.012284326,-0.28779498,-0.12684754,-0.02092189,-5.373186,0.0,0.0,0.0
1431263961,8.698335,-10.284188,-30.807943,-0.04941092,0.0,-0.08848176,-0.016807938,-0.38720998,-0.1365782,0.011339606,-5.580229,0.0,0.0,0.0
1431369449,8.698335,-10.284188,-30.807943,-0.04941092,0.0,-0.08776784,-0.02285633,-0.49271795,-0.21424246,-0.07592629,-5.7788267,0.0,0.0,0.0
1431474667,8.698335,-10.284188,-30.807943,-0.04941092,0.0,-0.08746342,-0.028746175,-0.5978379,-0.10216319,-0.0018872488,-6.020102,0.0,0.0,0.0
1431577262,8.698335,-10.284188,-30.807943,-0.04941092,0.0,-0.08766727,-0.036164425,-0.70028585,-0.077983014,-0.061265785,-6.240453,0.0,0.0,0.0
1431677901,8.698335,-10.284188,-30.807943,-0.04941092,0.0,-0.0886693,-0.04188032,-0.8009628,-0.09966792,-0.07734057,-6.451265,0.0,0.0,0.0
1431781551,8.698335,-10.284188,-30.807943,-0.04941092,0.0,-0.08618598,-0.049280453,-0.9047889,-0.11795838,-0.09055568,-6.674234,0.0,0.0,0.0
1431886274,8.698335,-10.284188,-30.807943,-0.04941092,0.0,-0.084378526,-0.05580177,-1.0,-0.1659792,-0.07182808,-6.860336,0.0,0.0,0.0
1431986931,8.698335,-10.284188,-30.807943,-0.04941092,0.0,-0.082311966,-0.063332364,-1.0,-0.093115516,-0.13092782,-6.8584104,0.0,0.0,0.0
1432087598,8.698335,-10.284188,-30.807943,-0.04941092,0.0,-0.07718134,-0.06917238,-1.0,0.15233742,-0.10974512,-6.620379,0.0,0.0,0.0
1432191603,8.698335,-10.284188,-30.807943,-0.04941092,0.0,-0.05950365,-0.06963806,-1.0,-0.0834519,-0.10028773,-5.8778667,0.0,0.0,0.0
1432292175,8.698335,-10.284188,-30.807943,-0.04941092,0.0,-0.04388437,-0.0693572,-1.0,0.20982923,0.06282437,-5.28315,0.0,0.0,0.0
1432392344,8.698335,-10.284188,-30.807943,-0.04941092,0.0,-0.02247038,-0.06583743,-1.0,0.14356197,-0.043036353,-4.937071,0.0,0.0,0.0
1432492484,8.698335,-10.284188,-30.807943,-0.04941092,0.0,0.0015293121,-0.06009526,-1.0,0.19476946,0.08545966,-4.901235,0.0,0.0,0.0
1432597048,8.698335,-10.284188,-30.807943,-0.04941092,0.0,0.02968297,-0.049643755,-1.0,0.21713334,0.17587711,-4.894244,0.0,0.0,0.0
1432697810,8.698335,-10.284188,-30.807943,-0.04941092,0.0,0.05335922,-0.035069082,-1.0,0.21926,0.12476408,-4.9416304,0.0,0.0,0.0
1432797813,8.698335,-10.284188,-30.807943,-0.04941092,0.0,0.07058573,-0.014993238,-1.0,0.1833371,0.24560247,-4.9798493,0.0,0.0,0.0
1432901921,8.698335,-10.284188,-30.807943,-0.04941092,0.0,0.08483696,0.012171984,-1.0,0.14789325,0.33862022,-4.9855967,0.0,0.0,0.0
1433003384,8.698335,-10.284188,-30.807943,-0.04941092,0.0,0.09451566,0.045273256,-1.0,0.12030251,0.4188555,-5.003867,0.0,0.0,0.0
1433107099,8.698335,-10.284188,-30.807943,-0.04941092,0.0,0.098867126,0.08485236,-1.0,0.067357525,0.48840028,-5.0132174,0.0,0.0,0.0
1433207597,8.698335,-10.284188,-30.807943,-0.04941092,0.0,0.09719195,0.12787695,-1.0,0.0441971,0.54237324,-5.06079,0.0,0.0,0.0
1433311183,8.698335,-10.284188,-30.807943,-0.04941092,0.0,0.08970938,0.17283763,-1.0,0.0059060687,0.563385,-5.0640597,0.0,0.0,0.0
1433411748,8.698335,-10.284188,-30.807943,-0.04941092,0.0,0.07750931,0.21524978,-1.0,-0.012918014,0.59532285,-5.0488067,0.0,0.0,0.0
1433512296,8.698335,-10.284188,-30.807943,-0.04941092,0.0,0.064065315,0.25479174,-1.0,-0.03584543,0.66827255,-5.09662,0.0,0.0,0.0
1433612653,8.698335,-10.284188,-30.807943,-0.04941092,0.0,0.048213195,0.28966692,-1.0,-0.03380786,0.632364,-5.1283293,0.0,0.0,0.0
1433717168,8.698335,-10.284188,-30.807943,-0.04941092,0.0,0.032539558,0.32445154,-1.0,-0.07341319,0.6551834,-5.0978365,0.0,0.0,0.0
1433817371,8.698335,-10.284188,-30.807943,-0.04941092,0.0,0.017137717,0.35595283,-1.0,-0.069798775,0.6928379,-5.133392,0.0,0.0,0.0
1433917988,8.698335,-10.284188,-30.807943,-0.04941092,0.0,0.003081274,0.38378668,-1.0,-0.084195785,0.5728827,-5.115393,0.0,0.0,0.0
1434022026,8.698335,-10.284188,-30.807943,-0.04941092,0.0,-0.010620021,0.4091073,-1.0,-0.07018322,0.58844143,-5.1242332,0.0,0.0,0.0
1434123364,8.698335,-10.284188,-30.807943,-0.04941092,0.0,-0.023845673,0.42755055,-1.0,-0.08232902,0.705004,-5.0799413,0.0,0.0,0.0
1434227054,8.698335,-10.284188,-30.807943,-0.04941092,0.0,-0.035866354,0.44091845,-1.0,-0.0758522,0.6602296,-5.121848,0.0,0.0,0.0
1434327115,8.698335,-10.284188,-30.807943,-0.04941092,0.0,-0.045545053,0.4510465,-1.0,-0.044375684,0.5479454,-5.126399,0.0,0.0,0.0
1434431386,8.698335,-10.284188,-30.807943,-0.04941092,0.0,-0.053103734,0.4586369,-1.0,-0.042983547,0.58120537,-5.0947804,0.0,0.0,0.0
1434531696,8.698335,-10.284188,-30.807943,-0.04941092,0.0,-0.056182288,0.46203074,-1.0,-0.045391586,0.6211425,-5.117348,0.0,0.0,0.0
1434632250,8.698335,-10.284188,-30.807943,-0.04941092,0.0,-0.05578637,0.463098,-1.0,0.024975525,0.5117357,-5.1179824,0.0,0.0,0.0
1434732462,8.698335,-10.284188,-30.807943,-0.04941092,0.0,-0.053909156,0.4620072,-1.0,0.020191524,0.60823447,-5.1442823,0.0,0.0,0.0
1434837240,8.698335,-10.284188,-30.807943,-0.04941092,0.0,-0.050852347,0.45884982,-1.0,-0.010403963,0.5648487,-5.08893,0.0,0.0,0.0
1434941543,8.698335,-10.284188,-30.807943,-0.04941092,0.0,-0.047506522,0.4540988,-1.0,-0.0001959096,0.49356627,-5.065318,0.0,0.0,0.0
1435041917,8.698335,-10.284188,-30.807943,-0.04941092,0.0,-0.04447236,0.44813737,-1.0,0.026007418,0.5771066,-5.097159,0.0,0.0,0.0
1435142051,8.698335,-10.284188,-30.807943,-0.04941092,0.0,-0.0411211,0.4388863,-1.0,-0.031505615,0.51158166,-5.084865,0.0,0.0,0.0
1435246612,8.698335,-10.284188,-30.807943,-0.04941092,0.0,-0.037800644,0.42704138,-1.0,-0.0216167,0.50748724,-5.089163,0.0,0.0,0.0
1435347183,8.698335,-10.284188,-30.807943,-0.04941092,0.0,-0.03476739,0.4129043,-1.0,-0.0044644317,0.41085452,-5.1692924,0.0,0.0,0.0
1435447168,8.698335,-10.284188,-30.807943,-0.04941092,0.0,-0.032140017,0.39615345,-1.0,-0.029329209,0.454095,-5.1483264,0.0,0.0,0.0
1435548306,8.698335,-10.284188,-30.807943,-0.04941092,0.0,-0.028344821,0.37669912,-1.0,-0.03789533,0.34576234,-5.132971,0.0,0.0,0.0
1435652207,8.698335,-10.284188,-30.807943,-0.04941092,0.0,-0.024593115,0.35426226,-1.0,-0.032545824,0.30408823,-5.182281,0.0,0.0,0.0
1435752225,8.698335,-10.284188,-30.807943,-0.04941092,0.0,-0.019615602,0.33168498,-1.0,-0.024280177,0.35548648,-5.137714,0.0,0.0,0.0
1435852478,8.698335,-10.284188,-30.807943,-0.04941092,0.0,-0.014790297,0.30775502,-1.0,0.0028659988,0.24000134,-5.1888704,0.0,0.0,0.0
1435956714,8.698335,-10.284188,-30.807943,-0.04941092,0.0,-0.0084157465,0.27914658,-1.0,-0.008637641,0.29376197,-5.173641,0.0,0.0,0.0
1436057239,8.698335,-10.284188,-30.807943,-0.04941092,0.0,-0.002508688,0.24949802,-1.0,0.01540378,0.14486966,-5.221768,0.0,0.0,0.0
1436157760,8.698335,-10.284188,-30.807943,-0.04941092,0.0,0.0037924766,0.22027077,-1.0,-0.014169724,0.10859751,-5.231453,0.0,0.0,0.0
1436261603,8.698335,-10.284188,-30.807943,-0.04941092,0.0,0.008700227,0.18841977,-1.0,-0.032157898,0.08836923,-5.2557445,0.0,0.0,0.0
1436362065,8.698335,-10.284188,-30.807943,-0.04941092,0.0,0.011577654,0.15606232,-1.0,-0.024382837,0.03855384,-5.251945,0.0,0.0,0.0
1436462612,8.698335,-10.284188,-30.807943,-0.04941092,0.0,0.0111536505,0.122229,-1.0,-0.05567875,0.040755298,-5.2346687,0.0,0.0,0.0
1436566293,8.698335,-10.284188,-30.807943,-0.04941092,0.0,0.013477516,0.08967857,-1.0,-0.05771975,-0.016065147,-5.2050624,0.0,0.0,0.0
1436667815,8.698335,-10.284188,-30.807943,-0.04941092,0.0,0.01252079,0.058546018,-1.0,-0.099520035,0.0010515732,-5.176408,0.0,0.0,0.0
1436771882,8.698335,-10.284188,-30.807943,-0.04941092,0.0,0.010025692,0.02371974,-1.0,-0.1029444,-0.060256682,-5.1705546,0.0,0.0,0.0
1436877559,8.698335,-10.284188,-30.807943,-0.04941092,0.0,0.004701185,-0.009762049,-1.0,-0.11234675,-0.04770508,-5.1800528,0.0,0.0,0.0
1436980474,8.698335,-10.284188,-30.807943,-0.04941092,0.0,0.0030033588,-0.039827347,-1.0,-0.0957652,-0.0728507,-5.2275195,0.0,0.0,0.0
1437080809,8.698335,-10.284188,-30.807943,-0.04941092,0.0,-0.001155138,-0.06850648,-1.0,-0.14276497,-0.10393316,-5.2225957,0.0,0.0,0.0
1437184725,8.698335,-10.284188,-30.807943,-0.04941092,0.0,-0.0073738573,-0.10035658,-1.0,-0.1268715,-0.1546832,-5.2778635,0.0,0.0,0.0
1437285184,8.698335,-10.284188,-30.807943,-0.04941092,0.0,-0.014782143,-0.12875485,-1.0,-0.14954686,-0.11754728,-5.276994,0.0,0.0,0.0
1437385926,8.698335,-10.284188,-30.807943,-0.04941092,0.0,-0.02432041,-0.15426482,-1.0,-0.17718664,-0.15926762,-5.2662554,0.0,0.0,0.0
1437489825,8.698335,-10.284188,-30.807943,-0.04941092,0.0,-0.035084486,-0.1768249,-1.0014905,-0.20062415,-0.1271573,-5.2333426,0.0,0.0,0.0
1437590541,8.698335,-10.284188,-30.807943,-0.04941092,0.0,-0.042357776,-0.19155087,-1.0065084,-0.22641231,-0.06331386,-5.214054,0.0,0.0,0.0
1437691003,8.698335,-10.284188,-30.807943,-0.04941092,0.0,-0.05305662,-0.20408072,-1.0111581,-0.18110016,-0.08932936,-5.2316017,0.0,0.0,0.0
1437791127,8.698335,-10.284188,-30.807943,-0.04941092,0.0,-0.06785145,-0.21465907,-1.0159596,-0.23232852,-0.07010031,-5.223135,0.0,0.0,0.0
1437895489,8.698335,-10.284188,-30.807943,-0.04941092,0.0,-0.081540056,-0.22097744,-1.020603,-0.19188492,-0.11454985,-5.2212467,0.0,0.0,0.0
1437995825,8.698335,-10.284188,-30.807943,-0.04941092,0.0,-0.09230866,-0.2184461,-1.0248244,-0.18389769,-0.03607638,-5.2512884,0.0,0.0,0.0
1438096141,8.698335,-10.284188,-30.807943,-0.04941092,0.0,-0.099704266,-0.21468534,-1.0293238,-0.13764822,0.043074835,-5.2481704,0.0,0.0,0.0
1438200127,8.698335,-10.284188,-30.807943,-0.04941092,0.0,-0.10398144,-0.20929469,-1.0338999,-0.10860637,0.033853937,-5.2419705,0.0,0.0,0.0
1438301538,8.698335,-10.284188,-30.807943,-0.04941092,0.0,-0.10422606,-0.20149411,-1.038325,-0.047491774,0.033626046,-5.2450104,0.0,0.0,0.0
1438401804,8.698335,-10.284188,-30.807943,-0.04941092,0.0,-0.10125441,-0.19083604,-1.0430666,-0.02522355,0.073911734,-5.225544,0.0,0.0,0.0
1438502715,8.698335,-10.284188,-30.807943,-0.04941092,0.0,-0.09357343,-0.17766476,-1.0478426,0.039173536,0.09991388,-5.2407746,0.0,0.0,0.0
1438606099,8.698335,-10.284188,-30.807943,-0.04941092,0.0,-0.08125286,-0.16061492,-1.0528233,0.07442881,0.11538577,-5.2337894,0.0,0.0,0.0
1438706686,8.698335,-10.284188,-30.807943,-0.04941092,0.0,-0.06579485,-0.14190169,-1.0575206,0.11489088,0.08661102,-5.2477956,0.0,0.0,0.0
1438806790,8.698335,-10.284188,-30.807943,-0.04941092,0.0,-0.050475452,-0.118196435,-1.0623088,0.13272122,0.24628216,-5.2227945,0.0,0.0,0.0
1438911811,8.698335,-10.284188,-30.807943,-0.04941092,0.0,-0.031986,-0.09454012,-1.067358,0.1537715,0.2384796,-5.266286,0.0,0.0,0.0
1439015579,8.698335,-10.284188,-30.807943,-0.04941092,0.0,-0.014022016,-0.071015164,-1.0723797,0.17398295,0.19989917,-5.2219872,0.0,0.0,0.0
1439115196,8.698335,-10.284188,-30.807943,-0.04941092,0.0,0.004158497,-0.047923278,-1.0773246,0.16412197,0.2869471,-5.2347264,0.0,0.0,0.0
1439216448,8.698335,-10.284188,-30.807943,-0.04941092,0.0,0.020722723,-0.02249937,-1.082274,0.16365941,0.27593476,-5.26167,0.0,0.0,0.0
1439319963,8.698335,-10.284188,-30.807943,-0.04941092,0.0,0.03656306,0.0029363155,-1.0878178,0.15552917,0.30966043,-5.232312,0.0,0.0,0.0
1439421483,8.698335,-10.284188,-30.807943,-0.04941092,0.0,0.049385548,0.027357291,-1.0933536,0.1158567,0.28823668,-5.248321,0.0,0.0,0.0
1439520712,8.698335,-10.284188,-30.807943,-0.04941092,0.0,0.06022391,0.047006417,-1.0989807,0.087830044,0.32738346,-5.2412944,0.0,0.0,0.0
1439622365,8.698335,-10.284188,-30.807943,-0.04941092,0.0,0.06944508,0.06347007,-1.1044885,0.12725873,0.28722304,-5.2771344,0.0,0.0,0.0
1439726186,8.698335,-10.284188,-30.807943,-0.04941092,0.0,0.07551341,0.07736073,-1.1099905,0.08558246,0.21921588,-5.311205,0.0,0.0,0.0
1439826812,8.698335,-10.284188,-30.807943,-0.04941092,0.0,0.07849593,0.08813567,-1.1155214,0.07125357,0.23390327,-5.2968383,0.0,0.0,0.0
1439926686,8.698335,-10.284188,-30.807943,-0.04941092,0.0,0.080424786,0.09470229,-1.1211619,0.089283146,0.2054273,-5.337202,0.0,0.0,0.0
1440031142,8.698335,-10.284188,-30.807943,-0.04941092,0.0,0.08110971,0.09802637,-1.1269228,0.06788317,0.16993433,-5.3336563,0.0,0.0,0.0
1440131817,8.698335,-10.284188,-30.807943,-0.04941092,0.0,0.07971086,0.09791312,-1.1323497,0.04057238,0.1656558,-5.353076,0.0,0.0,0.0
1440231630,8.698335,-10.284188,-30.807943,-0.04941092,0.0,0.07624273,0.09446492,-1.1377532,-0.002321949,0.060458377,-5.3213367,0.0,0.0,0.0
1440332282,8.698335,-10.284188,-30.807943,-0.04941092,0.0,0.06948404,0.089213796,-1.1430264,-0.025856607,0.11660476,-5.2960157,0.0,0.0,0.0
1440436365,8.698335,-10.284188,-30.807943,-0.04941092,0.0,0.05993762,0.08078808,-1.1487795,-0.052631814,0.09232419,-5.296819,0.0,0.0,0.0
1440537422,8.698335,-10.284188,-30.807943,-0.04941092,0.0,0.049510572,0.069983244,-1.1550043,-0.03932176,0.060073618,-5.306031,0.0,0.0,0.0
1440636774,8.698335,-10.284188,-30.807943,-0.04941092,0.0,0.03907628,0.05648489,-1.1611385,-0.043864075,0.07383572,-5.275198,0.0,0.0,0.0
1440741534,8.698335,-10.284188,-30.807943,-0.04941092,0.0,0.027665328,0.04099698,-1.1672957,-0.04737596,-0.0028885975,-5.2686763,0.0,0.0,0.0
1440842664,8.698335,-10.284188,-30.807943,-0.04941092,0.0,0.017655944,0.025954818,-1.1731426,-0.049931884,0.032286268,-5.245254,0.0,0.0,0.0
1440941789,8.698335,-10.284188,-30.807943,-0.04941092,0.0,0.006358242,0.009895229,-1.1793882,-0.053645816,0.08152884,-5.2503023,0.0,0.0,0.0
1441043081,8.698335,-10.284188,-30.807943,-0.04941092,0.0,-0.004638672,-0.005464029,-1.1853714,-0.052922424,0.015797516,-5.2383103,0.0,0.0,0.0
1441146953,8.698335,-10.284188,-30.807943,-0.04941092,0.0,-0.015318489,-0.017048026,-1.191625,-0.058136646,0.059566244,-5.1957293,0.0,0.0,0.0
1441247437,8.698335,-10.284188,-30.807943,-0.04941092,0.0,-0.02388916,-0.02573285,-1.1978772,-0.05824221,0.01745744,-5.1874576,0.0,0.0,0.0
1441347921,8.698335,-10.284188,-30.807943,-0.04941092,0.0,-0.030266428,-0.031118965,-1.2041938,-0.057091575,0.13649589,-5.1778073,0.0,0.0,0.0
1441452313,8.698335,-10.284188,-30.807943,-0.04941092,0.0,-0.03425913,-0.03431802,-1.2110914,-0.047596097,0.1411453,-5.196366,0.0,0.0,0.0
1441556363,8.698335,-10.284188,-30.807943,-0.04941092,0.0,-0.03753972,-0.03279686,-1.2181306,-0.00586799,0.19833742,-5.1956744,0.0,0.0,0.0
1441657454,8.698335,-10.284188,-30.807943,-0.04941092,0.0,-0.037401102,-0.028379248,-1.2247195,0.013309331,0.19111706,-5.1726193,0.0,0.0,0.0
1441756728,8.698335,-10.284188,-30.807943,-0.04941092,0.0,-0.035947893,-0.017938614,-1.2314954,0.055627763,0.15780707,-5.179989,0.0,0.0,0.0
1441860954,8.698335,-10.284188,-30.807943,-0.04941092,0.0,-0.030807303,-0.004427576,-1.2386566,0.10484758,0.26603442,-5.163111,0.0,0.0,0.0
1441962029,8.698335,-10.284188,-30.807943,-0.04941092,0.0,-0.023731517,0.011166334,-1.2456539,0.10611611,0.30241615,-5.1583977,0.0,0.0,0.0
1442062117,8.698335,-10.284188,-30.807943,-0.04941092,0.0,-0.014648056,0.0274796,-1.2526162,0.055408746,0.2847263,-5.183843,0.0,0.0,0.0
1442167400,8.698335,-10.284188,-30.807943,-0.04941092,0.0,-0.0042771813,0.04526963,-1.2600759,0.13530527,0.34276807,-5.251476,0.0,0.0,0.0
1442270901,8.698335,-10.284188,-30.807943,-0.04941092,0.0,0.0064189434,0.06250248,-1.267659,0.078735106,0.39803815,-5.2624493,0.0,0.0,0.0
1442371193,8.698335,-10.284188,-30.807943,-0.04941092,0.0,0.011201668,0.0802001,-1.2754395,0.10379704,0.3543871,-5.2857594,0.0,0.0,0.0
1442471588,8.698335,-10.284188,-30.807943,-0.04941092,0.0,0.015428114,0.0961555,-1.2830962,0.06279941,0.39151934,-5.285034,0.0,0.0,0.0
1442575577,8.698335,-10.284188,-30.807943,-0.04941092,0.0,0.017362403,0.11304317,-1.2861111,0.045750607,0.32825762,-5.2834163,0.0,0.0,0.0
1442676150,8.698335,-10.284188,-30.807943,-0.04941092,0.0,0.01856103,0.1271141,-1.2861111,0.027420212,0.3835487,-5.2830253,0.0,0.0,0.0
1442776375,8.698335,-10.284188,-30.807943,-0.04941092,0.0,0.018272923,0.14321265,-1.2861111,0.018605273,0.40578073,-5.2978406,0.0,0.0,0.0
1442876668,8.698335,-10.284188,-30.807943,-0.04941092,0.0,0.017292643,0.15598984,-1.2861111,-0.015712516,0.33211103,-5.2720404,0.0,0.0,0.0
1442978751,8.698335,-10.284188,-30.807943,-0.04941092,0.0,0.015407276,0.16814913,-1.2861111,-0.008869046,0.30360585,-5.253411,0.0,0.0,0.0
1443083478,8.698335,-10.284188,-30.807943,-0.04941092,0.0,0.01326189,0.17745729,-1.2861111,-0.006319171,0.39016885,-5.267808,0.0,0.0,0.0
1443185954,8.698335,-10.284188,-30.807943,-0.04941092,0.0,0.011237001,0.18448325,-1.2861111,-0.0043294784,0.39256155,-5.265795,0.0,0.0,0.0
1443286804,8.698335,-10.284188,-30.807943,-0.04941092,0.0,0.009488439,0.18864717,-1.2861111,-0.035023954,0.31940812,-5.2203407,0.0,0.0,0.0
1443390391,8.698335,-10.284188,-30.807943,-0.04941092,0.0,0.008123112,0.19071555,-1.2861111,-0.019299561,0.30483305,-5.229461,0.0,0.0,0.0
1443491586,8.698335,-10.284188,-30.807943,-0.04941092,0.0,0.007304096,0.19044103,-1.2861111,-0.008197319,0.31989267,-5.235263,0.0,0.0,0.0
1443591136,8.698335,-10.284188,-30.807943,-0.04941092,0.0,0.007421875,0.18623361,-1.2861111,0.028404538,0.37382045,-5.253535,0.0,0.0,0.0
1443692579,8.698335,-10.284188,-30.807943,-0.04941092,0.0,0.008637714,0.18021512,-1.2861111,0.017044146,0.29865846,-5.2547393,0.0,0.0,0.0
1443797243,8.698335,-10.284188,-30.807943,-0.04941092,0.0,0.010415268,0.17313842,-1.2861111,0.04891867,0.3144889,-5.241961,0.0,0.0,0.0
1443900995,8.698335,-10.284188,-30.807943,-0.04941092,0.0,0.013448524,0.16428055,-1.2861111,0.055332452,0.29103002,-5.237133,0.0,0.0,0.0
1444001209,8.698335,-10.284188,-30.807943,-0.04941092,0.0,0.018374395,0.15374841,-1.2861111,0.0740493,0.31610945,-5.2072163,0.0,0.0,0.0
1444105513,8.698335,-10.284188,-30.807943,-0.04941092,0.0,0.02480874,0.14192161,-1.2861111,0.064193696,0.3060425,-5.1694207,0.0,0.0,0.0
1444205848,8.698335,-10.284188,-30.807943,-0.04941092,0.0,0.03240185,0.12991452,-1.2861111,0.13339755,0.2632252,-5.2220244,0.0,0.0,0.0
1444306539,8.698335,-10.284188,-30.807943,-0.04941092,0.0,0.041384745,0.11742997,-1.2861111,0.12895603,0.22554989,-5.216219,0.0,0.0,0.0
1444405838,8.698335,-10.284188,-30.807943,-0.04941092,0.0,0.052069996,0.104590274,-1.2861111,0.08767149,0.16631477,-5.1673846,0.0,0.0,0.0
1444510622,8.698335,-10.284188,-30.807943,-0.04941092,0.0,0.06252603,0.091135405,-1.2861111,0.12803236,0.17899199,-5.217448,0.0,0.0,0.0
1444611918,8.698335,-10.284188,-30.807943,-0.04941092,0.0,0.07150259,0.077541925,-1.2861111,0.10407302,0.20268062,-5.2326317,0.0,0.0,0.0
1444711493,8.698335,-10.284188,-30.807943,-0.04941092,0.0,0.07898969,0.06524219,-1.2861111,0.09029729,0.24386221,-5.228718,0.0,0.0,0.0
1444815431,8.698335,-10.284188,-30.807943,-0.04941092,0.0,0.085511014,0.05195403,-1.2861111,0.09240498,0.25788426,-5.2795796,0.0,0.0,0.0
1444916673,8.698335,-10.284188,-30.807943,-0.04941092,0.0,0.08938503,0.041449975,-1.2861111,0.042243462,0.15582027,-5.2590194,0.0,0.0,0.0
1445015939,8.698335,-10.284188,-30.807943,-0.04941092,0.0,0.09168172,0.033005238,-1.2861111,0.07251998,0.24283594,-5.3042493,0.0,0.0,0.0
1445116775,8.698335,-10.284188,-30.807943,-0.04941092,0.0,0.09252701,0.024529696,-1.2861111,0.016451001,0.20137565,-5.347206,0.0,0.0,0.0
1445221046,8.698335,-10.284188,-30.807943,-0.04941092,0.0,0.09195261,0.016335916,-1.2861111,0.027282434,0.15203413,-5.3664613,0.0,0.0,0.0
1445322417,8.698335,-10.284188,-30.807943,-0.04941092,0.0,0.08896647,0.009183121,-1.2861111,0.0010367729,0.21012802,-5.3457923,0.0,0.0,0.0
1445421740,8.698335,-10.284188,-30.807943,-0.04941092,0.0,0.0831645,0.0035270213,-1.2861111,-0.018756462,0.18428414,-5.3812795,0.0,0.0,0.0
1445525525,8.698335,-10.284188,-30.807943,-0.04941092,0.0,0.07359905,-0.0024534224,-1.2861111,-0.022642832,0.20907015,-5.386583,0.0,0.0,0.0
1445626745,8.698335,-10.284188,-30.807943,-0.04941092,0.0,0.06131563,-0.008264446,-1.2861111,-0.057440437,0.18388964,-5.392743,0.0,0.0,0.0
1445726328,8.698335,-10.284188,-30.807943,-0.04941092,0.0,0.04666848,-0.01231513,-1.2861111,-0.061162416,0.27502057,-5.380339,0.0,0.0,0.0
1445828151,8.698335,-10.284188,-30.807943,-0.04941092,0.0,0.030325318,-0.015812254,-1.2861111,-0.082520775,0.25694788,-5.401088,0.0,0.0,0.0
1445931731,8.698335,-10.284188,-30.807943,-0.04941092,0.0,0.01286416,-0.020987272,-1.2861111,-0.12757605,0.20932877,-5.347907,0.0,0.0,0.0
1446033117,8.698335,-10.284188,-30.807943,-0.04941092,0.0,-0.003936529,-0.026832724,-1.2861111,-0.11301964,0.19119316,-5.385121,0.0,0.0,0.0
1446132221,8.698335,-10.284188,-30.807943,-0.04941092,0.0,-0.018995905,-0.03185191,-1.2861111,-0.14726721,0.2157651,-5.3729353,0.0,0.0,0.0
1446234026,8.698335,-10.284188,-30.807943,-0.04941092,0.0,-0.032689046,-0.036886502,-1.2861111,-0.11130105,0.18558219,-5.3856344,0.0,0.0,0.0
1446337145,8.698335,-10.284188,-30.807943,-0.04941092,0.0,-0.045362044,-0.043228436,-1.2861111,-0.13871047,0.18074824,-5.3829427,0.0,0.0,0.0
1446436788,8.698335,-10.284188,-30.807943,-0.04941092,0.0,-0.057133578,-0.04898691,-1.2861111,-0.13011506,0.111085065,-5.388455,0.0,0.0,0.0
1446538022,8.698335,-10.284188,-30.807943,-0.04941092,0.0,-0.06694455,-0.056151483,-1.2861111,-0.17256531,0.16615373,-5.335943,0.0,0.0,0.0
1446642295,8.698335,-10.284188,-30.807943,-0.04941092,0.0,-0.07618656,-0.062343024,-1.2861111,-0.18113267,0.14208324,-5.33536,0.0,0.0,0.0
1446742579,8.698335,-10.284188,-30.807943,-0.04941092,0.0,-0.085193016,-0.069108054,-1.2861111,-0.14135343,0.19316618,-5.293707,0.0,0.0,0.0
1446843474,8.698335,-10.284188,-30.807943,-0.04941092,0.0,-0.09392042,-0.07437186,-1.2861111,-0.17923597,0.20196562,-5.221358,0.0,0.0,0.0
1446943862,8.698335,-10.284188,-30.807943,-0.04941092,0.0,-0.102853484,-0.07928958,-1.2861111,-0.18196608,0.15325145,-5.213778,0.0,0.0,0.0
1447047613,8.698335,-10.284188,-30.807943,-0.04941092,0.0,-0.11251859,-0.08014665,-1.2861111,-0.22305031,0.19383568,-5.1543937,0.0,0.0,0.0
1447148315,8.698335,-10.284188,-30.807943,-0.04941092,0.0,-0.12168632,-0.079728074,-1.2861111,-0.20859733,0.29230255,-5.1827645,0.0,0.0,0.0
1447248498,8.698335,-10.284188,-30.807943,-0.04941092,0.0,-0.13030954,-0.0770699,-1.2861111,-0.23284906,0.20512748,-5.166011,0.0,0.0,0.0
1447352560,8.698335,-10.284188,-30.807943,-0.04941092,0.0,-0.139075,-0.07237596,-1.2861111,-0.21436357,0.22626351,-5.1556735,0.0,0.0,0.0
1447453113,8.698335,-10.284188,-30.807943,-0.04941092,0.0,-0.14608102,-0.06546597,-1.2861111,-0.17787816,0.27826345,-5.1770797,0.0,0.0,0.0
1447553308,8.698335,-10.284188,-30.807943,-0.04941092,0.0,-0.14850454,-0.060464907,-1.2861111,-0.17716666,0.2677388,-5.2107234,0.0,0.0,0.0
1447653799,8.698335,-10.284188,-30.807943,-0.04941092,0.0,-0.14835234,-0.05302491,-1.2861111,-0.16156492,0.21558338,-5.1915865,0.0,0.0,0.0
1447754007,8.698335,-10.284188,-30.807943,-0.04941092,0.0,-0.14299159,-0.04759531,-1.2861111,-0.09980499,0.34542596,-5.2114143,0.0,0.0,0.0
1447854711,8.698335,-10.284188,-30.807943,-0.04941092,0.0,-0.1354936,-0.039895296,-1.2861111,-0.10083634,0.20085381,-5.1845355,0.0,0.0,0.0
1447958629,8.698335,-10.284188,-30.807943,-0.04941092,0.0,-0.122164674,-0.03454995,-1.2861111,-0.07485542,0.26502275,-5.2441483,0.0,0.0,0.0
1448059589,8.698335,-10.284188,-30.807943,-0.04941092,0.0,-0.107362606,-0.02990675,-1.2861111,-0.09645099,0.29385996,-5.2651615,0.0,0.0,0.0
1448159103,8.698335,-10.284188,-30.807943,-0.04941092,0.0,-0.08601928,-0.02749772,-1.2861111,-0.04052697,0.27470225,-5.264835,0.0,0.0,0.0
1448260192,8.698335,-10.284188,-30.807943,-0.04941092,0.0,-0.06427731,-0.024770688,-1.2861111,0.0011944203,0.33772025,-5.3091,0.0,0.0,0.0
1448360749,8.698335,-10.284188,-30.807943,-0.04941092,0.0,-0.036158085,-0.025225496,-1.2861111,-0.010474714,0.29007393,-5.3182387,0.0,0.0,0.0
1448459957,8.698335,-10.284188,-30.807943,-0.04941092,0.0,-0.0123703955,-0.023431635,-1.2861111,0.01392144,0.26792946,-5.2507434,0.0,0.0,0.0
1448561543,8.698335,-10.284188,-30.807943,-0.04941092,0.0,0.020259762,-0.027002143,-1.2861111,0.054583006,0.26794472,-5.3123493,0.0,0.0,0.0
1448665124,8.698335,-10.284188,-30.807943,-0.04941092,0.0,0.048676156,-0.028997134,-1.2861111,0.03935095,0.271209,-5.330303,0.0,0.0,0.0
1448765560,8.698335,-10.284188,-30.807943,-0.04941092,0.0,0.08377695,-0.033537958,-1.2861111,0.069423676,0.2238091,-5.282042,0.0,0.0,0.0
1448866208,8.698335,-10.284188,-30.807943,-0.04941092,0.0,0.11440849,-0.036884688,-1.2861111,0.104157366,0.24312079,-5.285948,0.0,0.0,0.0
1448970626,8.698335,-10.284188,-30.807943,-0.04941092,0.0,0.15331264,-0.043509293,-1.2861111,0.109555416,0.2329613,-5.2716594,0.0,0.0,0.0
1449075354,8.698335,-10.284188,-30.807943,-0.04941092,0.0,0.18346581,-0.047221135,-1.2861111,0.136353,0.26017123,-5.3159847,0.0,0.0,0.0
1449179575,8.698335,-10.284188,-30.807943,-0.04941092,0.0,0.22381863,-0.053854797,-1.2861111,0.18737431,0.23043369,-5.309123,0.0,0.0,0.0
1449279119,8.698335,-10.284188,-30.807943,-0.04941092,0.0,0.24930143,-0.056144238,-1.2861111,0.17658949,0.24889721,-5.3023324,0.0,0.0,0.0
1449383369,8.698335,-10.284188,-30.807943,-0.04941092,0.0,0.28450277,-0.061941672,-1.2861111,0.17976736,0.24232072,-5.2845445,0.0,0.0,0.0
1449484168,8.698335,-10.284188,-30.807943,-0.04941092,0.0,0.30619672,-0.06345286,-1.2861111,0.17747283,0.3171477,-5.2550282,0.0,0.0,0.0
1449584578,8.698335,-10.284188,-30.807943,-0.04941092,0.0,0.3329126,-0.068991184,-1.2861111,0.1558346,0.20367141,-5.249259,0.0,0.0,0.0
1449684775,8.698335,-10.284188,-30.807943,-0.04941092,0.0,0.34437156,-0.06869493,-1.2861111,0.1353745,0.24071077,-5.211637,0.0,0.0,0.0
1449788773,8.698335,-10.284188,-30.807943,-0.04941092,0.0,0.36217427,-0.071787976,-1.2861111,0.16255368,0.2612927,-5.2111373,0.0,0.0,0.0
1449890150,8.698335,-10.284188,-30.807943,-0.04941092,0.0,0.36856332,-0.07073703,-1.2861111,0.11710562,0.3212047,-5.2273626,0.0,0.0,0.0
1449989848,8.698335,-10.284188,-30.807943,-0.04941092,0.0,0.37513354,-0.07222557,-1.2861111,0.08150146,0.27700683,-5.1763115,0.0,0.0,0.0
1450091138,8.698335,-10.284188,-30.807943,-0.04941092,0.0,0.37232044,-0.0702188,-1.2861111,0.073166005,0.32924592,-5.2027006,0.0,0.0,0.0
1450194997,8.698335,-10.284188,-30.807943,-0.04941092,0.0,0.36903805,-0.070907354,-1.2861111,-0.011476496,0.2925485,-5.186024,0.0,0.0,0.0
1450295374,8.698335,-10.284188,-30.807943,-0.04941092,0.0,0.35350484,-0.06742654,-1.2861111,-0.060341235,0.28618783,-5.1961536,0.0,0.0,0.0
1450395581,8.698335,-10.284188,-30.807943,-0.04941092,0.0,0.34014693,-0.0736217,-1.2861111,-0.09560124,0.32530075,-5.229851,0.0,0.0,0.0
1450499629,8.698335,-10.284188,-30.807943,-0.04941092,0.0,0.3151026,-0.076486446,-1.2861111,-0.153303,0.28122926,-5.308469,0.0,0.0,0.0
1450600261,8.698335,-10.284188,-30.807943,-0.04941092,0.0,0.2898907,-0.08390198,-1.2861111,-0.20823821,0.2570017,-5.3087244,0.0,0.0,0.0
1450700585,8.698335,-10.284188,-30.807943,-0.04941092,0.0,0.25913867,-0.08939318,-1.2861111,-0.23062,0.29323038,-5.3178296,0.0,0.0,0.0
1450804992,8.698335,-10.284188,-30.807943,-0.04941092,0.0,0.22748065,-0.096986294,-1.2861111,-0.22020794,0.25650513,-5.3039446,0.0,0.0,0.0
1450904973,8.698335,-10.284188,-30.807943,-0.04941092,0.0,0.1930829,-0.10013823,-1.2861111,-0.26659462,0.23754217,-5.2606745,0.0,0.0,0.0
1451005236,8.698335,-10.284188,-30.807943,-0.04941092,0.0,0.16448984,-0.10538936,-1.2861111,-0.20787145,0.23978974,-5.2229385,0.0,0.0,0.0
1451105892,8.698335,-10.284188,-30.807943,-0.04941092,0.0,0.1336463,-0.106420375,-1.2861111,-0.24768053,0.2832969,-5.26215,0.0,0.0,0.0
1451209791,8.698335,-10.284188,-30.807943,-0.04941092,0.0,0.10501246,-0.1090559,-1.2861111,-0.20961694,0.2937573,-5.2747045,0.0,0.0,0.0
1451311083,8.698335,-10.284188,-30.807943,-0.04941092,0.0,0.0797018,-0.10821514,-1.2861111,-0.22836986,0.28090036,-5.2810173,0.0,0.0,0.0
1451410726,8.698335,-10.284188,-30.807943,-0.04941092,0.0,0.0593451,-0.10683622,-1.2861111,-0.17830198,0.32211012,-5.304073,0.0,0.0,0.0
1451511679,8.698335,-10.284188,-30.807943,-0.04941092,0.0,0.041570473,-0.10253911,-1.2861111,-0.14781831,0.37198228,-5.3475494,0.0,0.0,0.0
1451615945,8.698335,-10.284188,-30.807943,-0.04941092,0.0,0.026350737,-0.09708323,-1.2861111,-0.11795124,0.3130268,-5.3978114,0.0,0.0,0.0
1451719827,8.698335,-10.284188,-30.807943,-0.04941092,0.0,0.013690424,-0.08971028,-1.2861111,-0.10072797,0.29471523,-5.418646,0.0,0.0,0.0
1451820514,8.698335,-10.284188,-30.807943,-0.04941092,0.0,0.0025349616,-0.08174572,-1.2861111,-0.12173034,0.35692605,-5.431198,0.0,0.0,0.0
1451924614,8.698335,-10.284188,-30.807943,-0.04941092,0.0,-0.008616877,-0.072870634,-1.2861111,-0.1251776,0.2831339,-5.4421797,0.0,0.0,0.0
1452024954,8.698335,-10.284188,-30.807943,-0.04941092,0.0,-0.02049985,-0.0644875,-1.2861111,-0.13242017,0.37180176,-5.459243,0.0,0.0,0.0
1452125151,8.698335,-10.284188,-30.807943,-0.04941092,0.0,-0.0337862,-0.05597391,-1.2861111,-0.20515962,0.29334265,-5.4644656,0.0,0.0,0.0
1452226695,8.698335,-10.284188,-30.807943,-0.04941092,0.0,-0.050286103,-0.04720845,-1.2861111,-0.21629038,0.2910204,-5.455127,0.0,0.0,0.0
1452330255,8.698335,-10.284188,-30.807943,-0.04941092,0.0,-0.07135944,-0.03745365,-1.2861111,-0.24235487,0.30756092,-5.4072404,0.0,0.0,0.0
1452430672,8.698335,-10.284188,-30.807943,-0.04941092,0.0,-0.094155975,-0.02777133,-1.2861111,-0.33410567,0.33771133,-5.3974085,0.0,0.0,0.0
1452530796,8.698335,-10.284188,-30.807943,-0.04941092,0.0,-0.11944036,-0.016662072,-1.2861111,-0.34140727,0.3041794,-5.411828,0.0,0.0,0.0
1452632204,8.698335,-10.284188,-30.807943,-0.04941092,0.0,-0.14595689,-0.004726553,-1.2861111,-0.37394065,0.2984015,-5.409521,0.0,0.0,0.0
1452735746,8.698335,-10.284188,-30.807943,-0.04941092,0.0,-0.17284489,0.008229112,-1.2861111,-0.4007926,0.36031917,-5.4626074,0.0,0.0,0.0
1452835594,8.698335,-10.284188,-30.807943,-0.04941092,0.0,-0.19629283,0.020550584,-1.2861111,-0.3699457,0.36024654,-5.4347453,0.0,0.0,0.0
1452936604,8.698335,-10.284188,-30.807943,-0.04941092,0.0,-0.21900964,0.032244205,-1.2861111,-0.3769124,0.34251335,-5.4592204,0.0,0.0,0.0
1453040400,8.698335,-10.284188,-30.807943,-0.04941092,0.0,-0.23862433,0.043209407,-1.2861111,-0.37197995,0.3135744,-5.437279,0.0,0.0,0.0
1453140962,8.698335,-10.284188,-30.807943,-0.04941092,0.0,-0.25564697,0.053571224,-1.2861111,-0.355601,0.30927756,-5.433138,0.0,0.0,0.0
1453241985,8.698335,-10.284188,-30.807943,-0.04941092,0.0,-0.27023253,0.06348095,-1.2861111,-0.32221627,0.35931846,-5.4041085,0.0,0.0,0.0
1453341814,8.698335,-10.284188,-30.807943,-0.04941092,0.0,-0.28282216,0.072752856,-1.2861111,-0.3189229,0.3269855,-5.404058,0.0,0.0,0.0
1453445553,8.698335,-10.284188,-30.807943,-0.04941092,0.0,-0.29394683,0.081460334,-1.2861111,-0.31914514,0.39849365,-5.36329,0.0,0.0,0.0
1453546277,8.698335,-10.284188,-30.807943,-0.04941092,0.0,-0.304257,0.09045138,-1.2861111,-0.3312416,0.35816133,-5.4066663,0.0,0.0,0.0
1453646367,8.698335,-10.284188,-30.807943,-0.04941092,0.0,-0.31049293,0.097904965,-1.2861111,-0.3326336,0.32564566,-5.4338937,0.0,0.0,0.0
1453750386,8.698335,-10.284188,-30.807943,-0.04941092,0.0,-0.3162922,0.105707355,-1.2861111,-0.3007359,0.3269914,-5.4170628,0.0,0.0,0.0
1453851819,8.698335,-10.284188,-30.807943,-0.04941092,0.0,-0.31923574,0.11191702,-1.2861111,-0.3416314,0.34654954,-5.4543767,0.0,0.0,0.0
1453951099,8.698335,-10.284188,-30.807943,-0.04941092,0.0,-0.31922397,0.117263265,-1.2861111,-0.30305198,0.41083625,-5.459523,0.0,0.0,0.0
1454052315,8.698335,-10.284188,-30.807943,-0.04941092,0.0,-0.31719455,0.12147341,-1.2861111,-0.28821707,0.3809729,-5.504217,0.0,0.0,0.0
1454156195,8.698335,-10.284188,-30.807943,-0.04941092,0.0,-0.31377986,0.12494335,-1.2861111,-0.30582184,0.35000244,-5.493484,0.0,0.0,0.0
1454257465,8.698335,-10.284188,-30.807943,-0.04941092,0.0,-0.3078076,0.12618908,-1.2861111,-0.26212808,0.29818162,-5.542472,0.0,0.0,0.0
1454357033,8.698335,-10.284188,-30.807943,-0.04941092,0.0,-0.30332112,0.12747468,-1.2861111,-0.25056025,0.3380475,-5.5370107,0.0,0.0,0.0
1454460737,8.698335,-10.284188,-30.807943,-0.04941092,0.0,-0.2961194,0.12610121,-1.2861111,-0.25284487,0.26972625,-5.5546556,0.0,0.0,0.0
1454562225,8.698335,-10.284188,-30.807943,-0.04941092,0.0,-0.2915052,0.12454834,-1.2861111,-0.28361452,0.2795635,-5.5359726,0.0,0.0,0.0
1454661891,8.698335,-10.284188,-30.807943,-0.04941092,0.0,-0.28366926,0.12044329,-1.2861111,-0.2571429,0.287111,-5.5431542,0.0,0.0,0.0
1454763032,8.698335,-10.284188,-30.807943,-0.04941092,0.0,-0.2785024,0.1161489,-1.2861111,-0.22762254,0.3328036,-5.551659,0.0,0.0,0.0
1454866950,8.698335,-10.284188,-30.807943,-0.04941092,0.0,-0.2700178,0.10981149,-1.2861111,-0.23407903,0.2594929,-5.5203767,0.0,0.0,0.0
1454967165,8.698335,-10.284188,-30.807943,-0.04941092,0.0,-0.26310328,0.10400772,-1.2861111,-0.20539069,0.3026176,-5.5253997,0.0,0.0,0.0
1455067614,8.698335,-10.284188,-30.807943,-0.04941092,0.0,-0.25420192,0.097780846,-1.2861111,-0.21597475,0.32272005,-5.531926,0.0,0.0,0.0
1455167690,8.698335,-10.284188,-30.807943,-0.04941092,0.0,-0.24673022,0.093095966,-1.2861111,-0.2100863,0.35440847,-5.4909787,0.0,0.0,0.0
1455268245,8.698335,-10.284188,-30.807943,-0.04941092,0.0,-0.23723817,0.08806682,-1.2861111,-0.19782133,0.3142586,-5.535238,0.0,0.0,0.0
1455369121,8.698335,-10.284188,-30.807943,-0.04941092,0.0,-0.2282444,0.086230375,-1.2861111,-0.19795218,0.30373356,-5.4884434,0.0,0.0,0.0
1455473982,8.698335,-10.284188,-30.807943,-0.04941092,0.0,-0.21518092,0.08358216,-1.2861111,-0.16702783,0.33031952,-5.4587793,0.0,0.0,0.0
1455577146,8.698335,-10.284188,-30.807943,-0.04941092,0.0,-0.2049079,0.08190698,-1.2861111,-0.13813539,0.28846174,-5.4852157,0.0,0.0,0.0
1455678021,8.698335,-10.284188,-30.807943,-0.04941092,0.0,-0.19155993,0.078495026,-1.2861111,-0.15208623,0.32120615,-5.4250903,0.0,0.0,0.0
1455777919,8.698335,-10.284188,-30.807943,-0.04941092,0.0,-0.18136753,0.07523618,-1.2861111,-0.11769618,0.2525032,-5.490895,0.0,0.0,0.0
1455882649,8.698335,-10.284188,-30.807943,-0.04941092,0.0,-0.16748413,0.069928885,-1.2861111,-0.1697828,0.26432237,-5.4172664,0.0,0.0,0.0
1455982834,8.698335,-10.284188,-30.807943,-0.04941092,0.0,-0.15921606,0.064101554,-1.2861111,-0.12735571,0.21930878,-5.4112473,0.0,0.0,0.0
1456083168,8.698335,-10.284188,-30.807943,-0.04941092,0.0,-0.14856705,0.056250237,-1.2861111,-0.18021552,0.23553489,-5.4063115,0.0,0.0,0.0
1456187430,8.698335,-10.284188,-30.807943,-0.04941092,0.0,-0.14317913,0.048473213,-1.2861111,-0.19294634,0.23195763,-5.3799024,0.0,0.0,0.0
1456292450,8.698335,-10.284188,-30.807943,-0.04941092,0.0,-0.13634615,0.038882397,-1.2861111,-0.19896422,0.21477333,-5.4280667,0.0,0.0,0.0
1456392501,8.698335,-10.284188,-30.807943,-0.04941092,0.0,-0.13535137,0.030364275,-1.2861111,-0.18301992,0.20676845,-5.4119706,0.0,0.0,0.0
1456491998,8.698335,-10.284188,-30.807943,-0.04941092,0.0,-0.13213511,0.020555114,-1.2861111,-0.19866312,0.16372547,-5.372167,0.0,0.0,0.0
1456596724,8.698335,-10.284188,-30.807943,-0.04941092,0.0,-0.13402952,0.012074136,-1.2861111,-0.2272334,0.29917982,-5.3336396,0.0,0.0,0.0
1456697451,8.698335,-10.284188,-30.807943,-0.04941092,0.0,-0.13454413,0.004849768,-1.2861111,-0.23794112,0.17417248,-5.3475566,0.0,0.0,0.0
1456798076,8.698335,-10.284188,-30.807943,-0.04941092,0.0,-0.13456406,-0.000100564954,-1.2861111,-0.23234336,0.21417437,-5.3476434,0.0,0.0,0.0
1456897989,8.698335,-10.284188,-30.807943,-0.04941092,0.0,-0.13414097,-0.003264284,-1.2861111,-0.25071,0.26507503,-5.311238,0.0,0.0,0.0
1457003470,8.698335,-10.284188,-30.807943,-0.04941092,0.0,-0.13372602,-0.0033005236,-1.2861111,-0.24192181,0.28043514,-5.3555264,0.0,0.0,0.0
1457106837,8.698335,-10.284188,-30.807943,-0.04941092,0.0,-0.13172922,-0.0025494576,-1.2861111,-0.23282686,0.2104417,-5.339933,0.0,0.0,0.0
1457207705,8.698335,-10.284188,-30.807943,-0.04941092,0.0,-0.12940444,-0.0005127907,-1.2861111,-0.22468327,0.31375778,-5.3353844,0.0,0.0,0.0
1457307617,8.698335,-10.284188,-30.807943,-0.04941092,0.0,-0.12615557,0.0016180992,-1.2861111,-0.2442211,0.22860265,-5.329462,0.0,0.0,0.0
1457411816,8.698335,-10.284188,-30.807943,-0.04941092,0.0,-0.12176514,0.004521799,-1.2861111,-0.21321602,0.21734336,-5.3342047,0.0,0.0,0.0
1457513364,8.698335,-10.284188,-30.807943,-0.04941092,0.0,-0.117079355,0.007417345,-1.2861111,-0.22944663,0.22481248,-5.340281,0.0,0.0,0.0
1457612249,8.698335,-10.284188,-30.807943,-0.04941092,0.0,-0.112081,0.010729646,-1.2861111,-0.2377916,0.21171977,-5.3186355,0.0,0.0,0.0
1457716968,8.698335,-10.284188,-30.807943,-0.04941092,0.0,-0.10608425,0.013922357,-1.2861111,-0.21337603,0.2698957,-5.3516407,0.0,0.0,0.0
1457817565,8.698335,-10.284188,-30.807943,-0.04941092,0.0,-0.099812984,0.017483806,-1.2861111,-0.21074276,0.32254958,-5.372158,0.0,0.0,0.0
1457917838,8.698335,-10.284188,-30.807943,-0.04941092,0.0,-0.09344206,0.020187283,-1.2861111,-0.22458386,0.25857025,-5.337336,0.0,0.0,0.0
1458018037,8.698335,-10.284188,-30.807943,-0.04941092,0.0,-0.08747611,0.023677157,-1.2861111,-0.16307905,0.2983311,-5.35045,0.0,0.0,0.0
1458123312,8.698335,-10.284188,-30.807943,-0.04941092,0.0,-0.080611415,0.026694106,-1.2102356,-0.21817122,0.2984085,-5.175456,0.0,0.0,0.0
1458223074,8.698335,-10.284188,-30.807943,-0.04941092,0.0,-0.07358909,0.02950902,-1.0744934,-0.19778922,0.35759985,-4.9654064,0.0,0.0,0.0
1458323015,8.698335,-10.284188,-30.807943,-0.04941092,0.0,-0.06663017,0.032852124,-0.94366074,-0.18107316,0.2776075,-4.839322,0.0,0.0,0.0
1458423862,8.698335,-10.284188,-30.807943,-0.04941092,0.0,-0.059558008,0.035211325,-0.8267937,-0.20204419,0.32408655,-4.81484,0.0,0.0,0.0
1458527483,-0.46701625,-6.4118795,-30.732756,2.740385,0.0,-6.640681,2.817406,-0.64305496,-1.983665,0.90137833,-4.6725693,0.0,0.0,0.0
1458629169,-0.46701625,-6.4118795,-30.81548,2.7401516,0.0,-6.7330756,2.860031,-0.62568855,-2.0217485,0.9164668,-4.760311,0.0,0.0,0.0
1458728473,-0.46701625,-6.4118795,-30.81548,2.7398283,0.0,-6.8241377,2.899719,-0.53561974,-2.0396683,0.89169747,-4.7738147,0.0,0.0,0.0
1458832351,-0.46701625,-6.4118795,-30.81548,2.7398283,0.0,-6.921133,2.9370825,-0.45075417,-2.0733457,0.9061391,-4.852394,0.0,0.0,0.0
1458933074,-0.46701625,-6.4118795,-30.81548,2.7398283,0.0,-7.017573,2.9678686,-0.3867588,-2.123372,0.88640094,-4.934424,0.0,0.0,0.0
1459034018,-0.46701625,-6.4118795,-30.81548,2.7398283,0.0,-7.1168413,2.9921308,-0.33583832,-2.2048018,0.8726529,-5.0850925,0.0,0.0,0.0
1459139714,-0.46701625,-6.4118795,-30.81548,2.7398283,0.0,-7.2234845,3.0110815,-0.29175568,-2.2553318,0.85708046,-5.174046,0.0,0.0,0.0
1459242302,-0.46701625,-6.4118795,-30.81548,2.7398283,0.0,-7.329457,3.0235906,-0.2590294,-2.3037283,0.85813516,-5.2719812,0.0,0.0,0.0
1459342777,-0.46701625,-6.4118795,-30.81548,2.7398283,0.0,-7.434614,3.0317476,-0.23690414,-2.3116248,0.8634852,-5.2918572,0.0,0.0,0.0
1459444553,-0.46701625,-6.4118795,-30.81548,2.7398283,0.0,-7.541014,3.0407677,-0.22249222,-2.3411098,0.90816087,-5.3850403,0.0,0.0,0.0
1459548247,-0.46701625,-6.4118795,-30.81548,2.7398283,0.0,-7.647965,3.0517335,-0.21060371,-2.3165932,0.9425352,-5.363401,0.0,0.0,0.0
1459655554,-0.46701625,-6.4118795,-30.81548,2.7398283,0.0,-7.7095795,3.052997,-0.2007618,-2.2822516,1.0273626,-5.3673315,0.0,0.0,0.0
1459756622,-0.46701625,-6.4118795,-30.81548,2.7398283,0.0,-7.4088397,2.926799,-0.18405151,-2.2084491,1.1009516,-5.2919116,0.0,0.0,0.0
1459856368,-0.46701625,-6.4118795,-30.81548,2.7398283,0.0,-7.0728674,2.8017714,-0.17516327,-2.1276753,1.2402374,-5.281408,0.0,0.0,0.0
1459957991,-0.46701625,-6.4118795,-30.81548,2.7398283,0.0,-6.702902,2.6791058,-0.16692734,-2.0067,1.39738,-5.2439733,0.0,0.0,0.0
1460060951,-0.46701625,-6.4118795,-30.81548,2.7398283,0.0,-6.281435,2.552229,-0.15796661,-1.5700347,1.4407091,-5.2853446,0.0,0.0,0.0
1460161323,-0.46701625,-6.4118795,-30.81548,2.7398283,0.0,-5.8452525,2.4317076,-0.14698029,-1.0772846,1.3917034,-5.274853,0.0,0.0,0.0
1460262091,-0.46701625,-6.4118795,-30.81548,2.7398283,0.0,-5.384067,2.3108711,-0.13744164,-0.52899253,1.2715751,-5.292875,0.0,0.0,0.0
1460365844,-0.46701625,-6.4118795,-30.81548,2.7398283,0.0,-4.888163,2.186854,-0.12671089,-0.05150425,1.231634,-5.317991,0.0,0.0,0.0
1460470874,-0.46701625,-6.4118795,-30.81548,2.7398283,0.0,-4.378779,2.0631092,-0.10897827,0.33245283,1.1692855,-5.189086,0.0,0.0,0.0
1460570959,-0.46701625,-6.4118795,-30.81548,2.7398283,0.0,-3.8889573,1.9498984,-0.08406067,0.7699153,1.0856333,-5.006997,0.0,0.0,0.0
1460671502,-0.46701625,-6.4118795,-30.81548,2.7398283,0.0,-3.4030697,1.8390703,-0.056346893,1.039779,1.0455444,-4.6752715,0.0,0.0,0.0
1460775549,-0.46701625,-6.4118795,-30.81548,2.7398283,0.0,-2.9107938,1.7303714,-0.018972397,1.2172949,1.0252774,-4.522807,0.0,0.0,0.0
1460875853,-0.46701625,-6.4118795,-30.81548,2.7398283,0.0,-2.462338,1.6303337,0.02259636,1.3609257,1.0067611,-4.412823,0.0,0.0,0.0
1460976280,-0.46701625,-6.4118795,-30.81548,2.7398283,0.0,-2.0397553,1.5364323,0.06881523,1.4460393,0.9964515,-4.2821507,0.0,0.0,0.0
1461077015,-0.46701625,-6.4118795,-30.81548,2.7398283,0.0,-1.6538025,1.4501384,0.12147331,1.4330007,1.021393,-4.2030005,0.0,0.0,0.0
1461181192,-0.46701625,-6.4118795,-30.81548,2.7398283,0.0,-1.2861046,1.3662769,0.17402649,1.357808,1.0064603,-4.116444,0.0,0.0,0.0
1461281486,-0.46701625,-6.4118795,-30.81548,2.7398283,0.0,-0.97548246,1.2924055,0.2209301,1.3560165,1.0243921,-4.0636992,0.0,0.0,0.0
1461381848,-0.46701625,-6.4118795,-30.81548,2.7398283,0.0,-0.6995639,1.2258333,0.25488472,1.1769457,0.9702142,-4.1501255,0.0,0.0,0.0
1461482362,-0.46701625,-6.4118795,-30.81548,2.7398283,0.0,-0.46691984,1.1614238,0.27806664,1.1789517,1.0276647,-4.3151436,0.0,0.0,0.0
1461582760,-0.46701625,-6.4118795,-30.81548,2.7398283,0.0,-0.2711746,1.0953943,0.2900753,0.9332734,0.91876835,-4.5408998,0.0,0.0,0.0
1461683082,-0.46701625,-6.4118795,-30.81548,2.7398283,0.0,-0.11805575,1.0296841,0.2899952,0.8573326,0.89683497,-4.6938643,0.0,0.0,0.0
1461783702,-0.46701625,-6.4118795,-30.81548,2.7398283,0.0,-0.004367922,0.95789254,0.28806496,0.6434623,0.9007864,-4.801858,0.0,0.0,0.0
1461884657,-0.46701625,-6.4118795,-30.81548,2.7398283,0.0,0.0764384,0.8933955,0.2872486,0.532251,0.9226086,-4.8415213,0.0,0.0,0.0
1461983487,-0.46701625,-6.4118795,-30.81548,2.7398283,0.0,0.1334615,0.83179176,0.28344345,0.45508033,0.97498864,-4.8730946,0.0,0.0,0.0
1462085044,-0.46701625,-6.4118795,-30.81548,2.7398283,0.0,0.168287,0.7798042,0.28409767,0.3294334,1.0512487,-4.8763046,0.0,0.0,0.0
1462192599,-0.46701625,-6.4118795,-30.81548,2.7398283,0.0,0.18808079,0.7309935,0.2846279,0.28880146,1.1430577,-4.917959,0.0,0.0,0.0
1462293189,-0.46701625,-6.4118795,-30.81548,2.7398283,0.0,0.19255298,0.6970891,0.28398705,0.17946777,1.1639153,-4.9071937,0.0,0.0,0.0
1462393449,-0.46701625,-6.4118795,-30.81548,2.7398283,0.0,0.18861832,0.6655217,0.27591133,0.19390212,1.3181305,-4.903602,0.0,0.0,0.0
1462493915,-0.43200007,-6.381455,-30.81548,0.72038484,0.0,0.2078768,0.6755863,0.27223778,0.13143486,1.2607228,-4.865133,0.0,0.0,0.0
1462594697,-0.36513978,-6.323362,-30.81548,0.72030586,0.0,0.25191373,0.70161587,0.27758408,0.16053243,1.2158232,-4.7523856,0.0,0.0,0.0
1462693870,-0.30031335,-6.2670355,-30.81548,0.72030586,0.0,0.29117456,0.73213595,0.2849579,0.22201557,1.2843312,-4.592768,0.0,0.0,0.0
1462799174,-0.22988117,-6.2058387,-30.81548,0.7201331,0.0,0.3352899,0.7618158,0.30033112,0.31873533,1.3205601,-4.6054306,0.0,0.0,0.0
1462902842,-0.16006136,-6.145174,-30.81548,0.72009635,0.0,0.37891045,0.7904641,0.30758667,0.32488564,1.2147434,-4.6072674,0.0,0.0,0.0
1463003811,-0.08552098,-6.080408,-30.81548,0.7198739,0.0,0.4284862,0.81055623,0.3090992,0.46092445,1.2197661,-4.6608396,0.0,0.0,0.0
1463103659,-0.011666775,-6.016238,-30.81548,0.7196629,0.0,0.47804525,0.8293977,0.3041153,0.49284124,1.1206175,-4.717688,0.0,0.0,0.0
1463204696,0.073641896,-5.942116,-30.81548,0.71949965,0.0,0.5361471,0.8397749,0.29405022,0.49721843,0.9731019,-4.753167,0.0,0.0,0.0
1463312315,0.16825938,-5.859905,-30.81548,0.71949965,0.0,0.59938496,0.8488226,0.2780342,0.40605867,0.82377326,-4.80368,0.0,0.0,0.0
1463412634,0.26447862,-5.7763023,-30.81548,0.71840644,0.0,0.6624313,0.8529086,0.26386452,0.5302788,0.83761066,-4.7926054,0.0,0.0,0.0
1463513529,0.37038314,-5.684284,-30.81548,0.71785647,0.0,0.72790986,0.8545013,0.25453377,0.47215092,0.7413636,-4.782498,0.0,0.0,0.0
1463614029,0.48339233,-5.586094,-30.81548,0.71730155,0.0,0.79227316,0.8568732,0.24991226,0.4876581,0.6933469,-4.7461104,0.0,0.0,0.0
1463718040,0.607935,-5.477882,-30.81548,0.7167932,0.0,0.85854465,0.8599024,0.24138641,0.33690572,0.65729654,-4.748868,0.0,0.0,0.0
1463818164,0.7353294,-5.3671923,-30.81548,0.716516,0.0,0.92206883,0.8630756,0.22924423,0.48412588,0.64856553,-4.7728524,0.0,0.0,0.0
1463918714,0.8693691,-5.2507286,-30.81548,0.7157586,0.0,0.9822811,0.8704558,0.21714973,0.51243204,0.6644234,-4.7824306,0.0,0.0,0.0
1464023021,1.0152768,-5.123953,-30.81548,0.71527463,0.0,1.0423592,0.88069713,0.21256828,0.42299446,0.6614782,-4.7228103,0.0,0.0,0.0
1464123884,1.1624928,-4.996041,-30.81548,0.7150923,0.0,1.0975472,0.894273,0.21238518,0.3236161,0.6834929,-4.763125,0.0,0.0,0.0
1464223597,1.3121231,-4.8660307,-30.81548,0.71448624,0.0,1.1479517,0.9121432,0.21120834,0.3256431,0.7096879,-4.734411,0.0,0.0,0.0
1464327491,1.4717394,-4.7273445,-30.81548,0.7142748,0.0,1.1982126,0.9334797,0.20811653,0.38378152,0.7139193,-4.8021383,0.0,0.0,0.0
1464432353,1.6357543,-4.584836,-30.81548,0.71407956,0.0,1.2460165,0.9583591,0.20205307,0.420438,0.6817728,-4.8575983,0.0,0.0,0.0
1464532514,1.7965459,-4.4451284,-30.81548,0.7139704,0.0,1.2894914,0.9846958,0.19125366,0.35766777,0.6891981,-4.8994164,0.0,0.0,0.0
1464633386,1.9622573,-4.3011456,-30.81548,0.7139198,0.0,1.3299958,1.0149196,0.18507767,0.28831,0.73030216,-4.898584,0.0,0.0,0.0
1464736957,2.1382854,-4.1481996,-30.81548,0.7139198,0.0,1.3700312,1.0478773,0.17745018,0.2703353,0.69916844,-4.933011,0.0,0.0,0.0
1464838148,2.3146505,-3.9949603,-30.81548,0.7138877,0.0,1.4064988,1.0830202,0.17299843,0.14960383,0.7553434,-4.940271,0.0,0.0,0.0
1464937814,2.4977627,-3.835859,-30.81548,0.7139953,0.0,1.4386034,1.122042,0.16131973,0.13304563,0.7475723,-4.9819965,0.0,0.0,0.0
1465042886,2.903902,-3.4829745,-30.81548,0.7140823,0.0,1.6668075,1.3400072,0.15172005,0.2776413,0.8769585,-4.973193,0.0,0.0,0.0
1465146888,3.314261,-3.1264243,-30.81548,0.71443707,0.0,1.8891724,1.559353,0.14916801,0.3590992,1.0569721,-5.0244846,0.0,0.0,0.0
1465247763,3.576607,-2.8984785,-30.81548,0.71473885,0.0,1.9676868,1.6566604,0.1505127,0.4261387,1.0487143,-5.0499144,0.0,0.0,0.0
1465347492,3.748672,-2.7489762,-30.81548,0.71489847,0.0,1.953887,1.6729134,0.15208435,0.35744575,0.9633025,-5.0677304,0.0,0.0,0.0
1465451407,3.9352016,-2.586905,-30.81548,0.7153232,0.0,1.9403236,1.688626,0.15625763,0.22954814,0.950808,-5.015563,0.0,0.0,0.0
1465552602,4.1239824,-2.4228783,-30.81548,0.7155855,0.0,1.928427,1.7021996,0.15701675,0.175772,0.8282533,-4.985792,0.0,0.0,0.0
1465652514,4.318845,-2.2535677,-30.81548,0.7155855,0.0,1.9180554,1.7138778,0.16017723,0.12733985,0.78811,-4.813798,0.0,0.0,0.0
1465753525,4.5201197,-2.0786848,-30.81548,0.7159856,0.0,1.9066215,1.7265888,0.17317963,0.036924724,0.8235542,-4.7311726,0.0,0.0,0.0
1465861035,4.7407613,-1.8869748,-30.81548,0.71626335,0.0,1.8942709,1.7401294,0.19389915,0.08575738,0.6611848,-4.617571,0.0,0.0,0.0
1465961909,4.9520454,-1.7033956,-30.81548,0.71648234,0.0,1.8828279,1.7525052,0.20771599,-0.07130106,0.84914905,-4.6236525,0.0,0.0,0.0
1466065867,5.1721454,-1.5121564,-30.81548,0.7167342,0.0,1.8706257,1.7655237,0.20363808,-0.04863807,0.76176745,-4.6548963,0.0,0.0,0.0
1466170757,5.396221,-1.3174627,-30.81548,0.7169967,0.0,1.8574896,1.7793386,0.18947983,-0.06177392,0.76836276,-4.6579227,0.0,0.0,0.0
1466271452,5.610133,-1.1315997,-30.81548,0.7169967,0.0,1.8439977,1.7933171,0.16265106,-0.10674186,0.87896496,-4.7186527,0.0,0.0,0.0
1466379399,5.8427477,-0.9294869,-30.81548,0.717724,0.0,1.8288883,1.8087233,0.13085365,-0.07340923,0.8308529,-4.8562894,0.0,0.0,0.0
1466483746,6.063608,-0.737587,-30.81548,0.71800566,0.0,1.8154937,1.8221679,0.09333992,-0.10996077,0.8183785,-4.906807,0.0,0.0,0.0
1466583886,6.2737093,-0.5550351,-30.81548,0.7182772,0.0,1.8029457,1.8345842,0.056447983,-0.06747412,0.8603943,-4.9171333,0.0,0.0,0.0
1466685559,6.4842844,-0.37207246,-30.81548,0.7185141,0.0,1.792424,1.8448652,0.030731201,-0.023333566,0.8155259,-4.8399286,0.0,0.0,0.0
1466792347,6.708849,-0.17695332,-30.81548,0.7186038,0.0,1.7854578,1.8516078,0.020048141,-0.11363042,0.8878543,-4.8269386,0.0,0.0,0.0
1466893347,6.917128,0.0040148497,-30.81548,0.7187965,0.0,1.7807286,1.856156,0.011108398,-0.039496545,0.8650732,-4.7955303,0.0,0.0,0.0
1466993174,7.121161,0.18129385,-30.81548,0.71888196,0.0,1.777573,1.8591781,0.006122589,-0.014035083,0.81581795,-4.6841197,0.0,0.0,0.0
1467093899,7.326089,0.35935068,-30.81548,0.71888196,0.0,1.7774919,1.8592564,0.0031929016,0.06301301,0.7365643,-4.6522174,0.0,0.0,0.0
1467198309,7.5370264,0.54262877,-30.81548,0.71888196,0.0,1.7793868,1.8574423,0.010072708,0.10280604,0.72011894,-4.5631013,0.0,0.0,0.0
1467302173,7.7481136,0.72603667,-30.81548,0.7188041,0.0,1.7846873,1.852351,0.018255234,0.10232539,0.6777467,-4.5744605,0.0,0.0,0.0
1467403002,7.954287,0.9051752,-30.81548,0.71866816,0.0,1.7920507,1.8452277,0.030866623,0.085169956,0.7589237,-4.616746,0.0,0.0,0.0
1467502689,8.158851,1.0829159,-30.81548,0.71866816,0.0,1.8016696,1.8358359,0.04158783,0.17827243,0.6439102,-4.634509,0.0,0.0,0.0
1467607462,8.375178,1.2708776,-30.81548,0.7182979,0.0,1.8122852,1.825359,0.049886703,0.13707446,0.6928768,-4.624773,0.0,0.0,0.0
1467707758,8.581709,1.4503268,-30.81548,0.71804416,0.0,1.8242896,1.813361,0.049339294,0.14909413,0.61490387,-4.577385,0.0,0.0,0.0
1467808343,8.790431,1.6316799,-30.81548,0.7177818,0.0,1.837435,1.8000401,0.055582047,0.11164038,0.6356437,-4.506087,0.0,0.0,0.0
1467912395,9.0085945,1.8212364,-30.81548,0.71749836,0.0,1.8504604,1.7866467,0.062034607,0.1051059,0.56774545,-4.478083,0.0,0.0,0.0
1468012712,9.2215395,2.0062585,-30.81548,0.71738905,0.0,1.8598067,1.776916,0.07278633,-0.032253444,0.54962987,-4.4772167,0.0,0.0,0.0
1468113184,9.440947,2.1968963,-30.81548,0.7171035,0.0,1.8668779,1.7694846,0.081617355,-0.01838884,0.56081074,-4.550395,0.0,0.0,0.0
1468216988,9.671877,2.3975458,-30.81548,0.7170472,0.0,1.8694826,1.7667334,0.091272354,-0.17077295,0.59700143,-4.5686636,0.0,0.0,0.0
1468318786,9.899731,2.5955215,-30.81548,0.7170319,0.0,1.8688525,1.7674005,0.087430954,-0.13869055,0.5179971,-4.605486,0.0,0.0,0.0
1468422141,10.138794,2.8032374,-30.81548,0.7171233,0.0,1.8655416,1.7708937,0.079919815,-0.16595247,0.5228673,-4.740258,0.0,0.0,0.0
1468522737,10.372204,3.0060415,-30.81548,0.71722966,0.0,1.8607715,1.7759067,0.07084656,-0.21717739,0.49906722,-4.7510123,0.0,0.0,0.0
1468626625,10.613987,3.2161214,-30.81548,0.71722966,0.0,1.8551136,1.781813,0.065776825,-0.24865966,0.55606437,-4.839325,0.0,0.0,0.0
1468727686,10.848772,3.4201198,-30.81548,0.71749216,0.0,1.8495119,1.7876275,0.06745148,-0.26011008,0.55297846,-4.770299,0.0,0.0,0.0
1468827761,11.081636,3.6224494,-30.81548,0.71764725,0.0,1.8441285,1.7931803,0.07491493,-0.25566015,0.5054023,-4.73383,0.0,0.0,0.0
1468928203,11.317575,3.8274505,-30.81548,0.71770763,0.0,1.8384751,1.7989781,0.08272171,-0.2704337,0.55848897,-4.8738422,0.0,0.0,0.0
1469033067,11.561199,4.0391297,-30.81548,0.71792597,0.0,1.8331215,1.8044325,0.09356499,-0.29121318,0.5185774,-4.7565436,0.0,0.0,0.0
1469136170,11.803899,4.250005,-30.81548,0.7180495,0.0,1.8276712,1.8099518,0.098711014,-0.30433536,0.5811368,-4.8556385,0.0,0.0,0.0
1469237717,12.037545,4.453015,-30.81548,0.71818566,0.0,1.8225976,1.8150618,0.11114502,-0.27850303,0.53747594,-4.860329,0.0,0.0,0.0
1469337053,12.268605,4.653776,-30.81548,0.718297,0.0,1.8189166,1.81875,0.11837196,-0.28155375,0.5716999,-4.921708,0.0,0.0,0.0
1469441932,12.509506,4.863089,-30.81548,0.7183432,0.0,1.8161986,1.8214647,0.12764359,-0.29455197,0.5939856,-4.85828,0.0,0.0,0.0
1469542557,12.73733,5.06104,-30.81548,0.718449,0.0,1.8145542,1.823103,0.1365509,-0.3265488,0.61346716,-4.8469906,0.0,0.0,0.0
1469642718,12.964811,5.2586923,-30.81548,0.7184874,0.0,1.8135622,1.8240905,0.13802528,-0.33157933,0.6645691,-4.8572083,0.0,0.0,0.0
1469743128,13.189071,5.453545,-30.81548,0.7185343,0.0,1.8122938,1.8253499,0.1371975,-0.31907907,0.68358845,-4.8720536,0.0,0.0,0.0
1469843563,13.413521,5.648564,-30.81548,0.7185822,0.0,1.8109819,1.8266503,0.13311958,-0.29919213,0.60161334,-4.8142643,0.0,0.0,0.0
1469943722,13.6375675,5.8432317,-30.81548,0.71860564,0.0,1.8096284,1.8279914,0.13538551,-0.36132723,0.6714526,-4.883634,0.0,0.0,0.0
1470047957,13.870003,6.0451903,-30.81548,0.71867025,0.0,1.8087767,1.8288349,0.1441822,-0.29293424,0.5593911,-4.8880925,0.0,0.0,0.0
1470149093,14.095975,6.241531,-30.81548,0.7186896,0.0,1.8089625,1.82865,0.1393795,-0.28196418,0.528776,-5.031464,0.0,0.0,0.0
1470252503,14.32919,6.4441657,-30.81548,0.7186896,0.0,1.8110453,1.8265871,0.12858582,-0.33606532,0.59873503,-5.124956,0.0,0.0,0.0
1470353772,14.553849,6.6393666,-30.81548,0.71862257,0.0,1.8147933,1.8228612,0.11376572,-0.3312697,0.56709564,-5.1244807,0.0,0.0,0.0
1470457886,14.783838,6.839198,-30.81548,0.71851826,0.0,1.8207883,1.8168753,0.09800911,-0.23750637,0.55686086,-5.097785,0.0,0.0,0.0
1470562153,15.013134,7.038428,-30.81548,0.718292,0.0,1.8296208,1.8079808,0.08523178,-0.21877314,0.57846385,-5.0924687,0.0,0.0,0.0
1470666242,15.2375345,7.2334023,-30.81548,0.71807104,0.0,1.8399754,1.7974405,0.08051491,-0.16458838,0.5440485,-4.9928756,0.0,0.0,0.0
1470766657,15.448528,7.41673,-30.81548,0.71776855,0.0,1.8529899,1.7840223,0.085617065,-0.10940737,0.5611562,-4.8667045,0.0,0.0,0.0
1470866911,15.655159,7.596266,-30.81548,0.7174362,0.0,1.8666215,1.7697543,0.09259033,-0.074100204,0.5672155,-4.8107057,0.0,0.0,0.0
1470970965,15.864714,7.7783437,-30.81548,0.71706504,0.0,1.8822969,1.753071,0.102451324,0.009428197,0.50392365,-4.8219595,0.0,0.0,0.0
1471071523,16.066067,7.953294,-30.81548,0.7165886,0.0,1.8969206,1.7372383,0.11590958,0.048932172,0.5102837,-4.7644763,0.0,0.0,0.0
1471171787,16.259525,8.121386,-30.81548,0.71614313,0.0,1.913925,1.7184861,0.13108826,0.040665325,0.5412784,-4.7884126,0.0,0.0,0.0
1471272378,16.453817,8.290201,-30.81548,0.71591276,0.0,1.9304476,1.6999047,0.14063454,0.12305405,0.49043608,-4.8071995,0.0,0.0,0.0
1471376212,16.64997,8.460631,-30.81548,0.7154005,0.0,1.9488066,1.678826,0.14531898,0.12935477,0.4862266,-4.7507935,0.0,0.0,0.0
1471478534,16.838007,8.624013,-30.81548,0.71492666,0.0,1.9653844,1.659387,0.15324783,0.20019487,0.50646454,-4.5840163,0.0,0.0,0.0
1471577172,17.020605,8.782667,-30.81548,0.71443725,0.0,1.9826155,1.6387626,0.16625404,0.23116556,0.52200437,-4.4456134,0.0,0.0,0.0
1471681876,17.210003,8.94723,-30.81548,0.7137548,0.0,1.998483,1.6193726,0.18830872,0.24604443,0.57590437,-4.2801366,0.0,0.0,0.0
1471782556,17.383606,9.09807,-30.81548,0.713514,0.0,2.0129616,1.6013434,0.20514679,0.26431996,0.59569246,-4.2603855,0.0,0.0,0.0
1471882808,17.560043,9.25137,-30.81548,0.7129461,0.0,2.0248961,1.5862224,0.21120071,0.28007305,0.54059714,-4.3035336,0.0,0.0,0.0
1471983185,17.728878,9.398068,-30.81548,0.71262145,0.0,2.035105,1.5731037,0.1915226,0.27885124,0.5576147,-4.416115,0.0,0.0,0.0
1472087169,17.90873,9.554336,-30.81548,0.7123664,0.0,2.0432308,1.5625356,0.16036987,0.2875468,0.5625776,-4.578838,0.0,0.0,0.0
1472187683,18.080172,9.703299,-30.81548,0.7121712,0.0,2.048702,1.5553511,0.12818527,0.16995893,0.63202816,-4.6686935,0.0,0.0,0.0
1472288659,18.25386,9.854212,-30.81548,0.71210206,0.0,2.0519762,1.5510287,0.09781265,0.24148144,0.5516072,-4.8173494,0.0,0.0,0.0
1472392324,18.436245,10.01268,-30.81548,0.71199167,0.0,2.0531921,1.5494206,0.06639671,0.1375247,0.61051553,-4.8781085,0.0,0.0,0.0
1472493479,18.614586,10.167638,-30.81548,0.7119795,0.0,2.052663,1.550119,0.037078857,0.14775296,0.55612254,-4.8790216,0.0,0.0,0.0
1472597049,18.803312,10.331617,-30.81548,0.7119795,0.0,2.0493815,1.5544561,0.017471313,0.11342029,0.5413552,-4.865139,0.0,0.0,0.0
1472697896,18.987276,10.491458,-30.81548,0.71212727,0.0,2.0455472,1.5594988,0.0061397552,0.09909326,0.5367956,-4.883663,0.0,0.0,0.0
1472802204,19.178852,10.657913,-30.81548,0.7122722,0.0,2.0403287,1.5663218,-0.0018424988,0.0848562,0.5175832,-4.905792,0.0,0.0,0.0
1472902383,19.368143,10.822384,-30.81548,0.7124488,0.0,2.0347261,1.5735906,-0.015556335,0.06523894,0.50321096,-4.866036,0.0,0.0,0.0
1473002713,19.558325,10.987627,-30.81548,0.71262014,0.0,2.0290964,1.5808421,-0.027103424,0.06393743,0.4969578,-4.94119,0.0,0.0,0.0
1473103849,19.749163,11.153442,-30.81548,0.7127079,0.0,2.0235136,1.5879849,-0.034158707,0.03904925,0.49348688,-4.8765936,0.0,0.0,0.0
1473207063,19.946432,11.324843,-30.81548,0.7129794,0.0,2.0166318,1.596716,-0.039726257,0.049558453,0.45844856,-4.8332224,0.0,0.0,0.0
1473307526,20.140472,11.49344,-30.81548,0.7131454,0.0,2.0109167,1.6039069,-0.049987793,0.026752587,0.47419822,-4.876315,0.0,0.0,0.0
1473408566,20.333021,11.660742,-30.81548,0.7133415,0.0,2.0050025,1.6112925,-0.067129135,0.009108836,0.47486413,-5.001585,0.0,0.0,0.0
1473512579,20.53812,11.838945,-30.81548,0.7134727,0.0,1.9998637,1.6176652,-0.08223724,-0.0052415403,0.50092345,-5.0955825,0.0,0.0,0.0
1473616741,20.743776,12.017637,-30.81548,0.7135534,0.0,1.9955095,1.6230341,-0.096443176,-0.035798356,0.45383817,-5.190752,0.0,0.0,0.0
1473717162,20.946245,12.193557,-30.81548,0.7137246,0.0,1.9930669,1.626033,-0.11327362,0.018957557,0.35032934,-5.2457256,0.0,0.0,0.0
1473818028,21.146881,12.367883,-30.81548,0.7137789,0.0,1.9913474,1.6281394,-0.13278389,-0.045774758,0.40124074,-5.1347613,0.0,0.0,0.0
1473921571,21.356535,12.550046,-30.81548,0.7137839,0.0,1.9907603,1.6288569,-0.15205002,-0.027403912,0.3658643,-5.131432,0.0,0.0,0.0
1474022069,21.558332,12.725383,-30.81548,0.71381485,0.0,1.9900355,1.6297402,-0.1660595,0.0047186855,0.36944717,-5.102459,0.0,0.0,0.0
1474122137,21.758223,12.899062,-30.81548,0.71381253,0.0,1.9900373,1.6297367,-0.17078781,-0.070743784,0.42669532,-5.1232057,0.0,0.0,0.0
1474222840,21.959372,13.073836,-30.81548,0.71377265,0.0,1.9908056,1.6288007,-0.1732006,-0.059010535,0.39485866,-5.063685,0.0,0.0,0.0
1474326832,22.168182,13.255265,-30.81548,0.7137289,0.0,1.9919761,1.6273675,-0.17117119,-0.09851015,0.4469835,-5.0406346,0.0,0.0,0.0
1474427946,22.37158,13.4319935,-30.81548,0.71367687,0.0,1.9933097,1.6257349,-0.16980171,-0.047018237,0.41343573,-5.142162,0.0,0.0,0.0
1474527593,22.574242,13.608081,-30.81548,0.71362364,0.0,1.9946162,1.6241304,-0.17388916,0.00356296,0.37202898,-5.112085,0.0,0.0,0.0
1474631771,22.784954,13.7911625,-30.81548,0.7135948,0.0,1.9958193,1.6226554,-0.18601608,-0.0620193,0.44644502,-5.1619077,0.0,0.0,0.0
1474732738,22.987635,13.967267,-30.81548,0.7135554,0.0,1.9976223,1.620433,-0.19345474,-0.06678662,0.3897193,-5.0938005,0.0,0.0,0.0
1474832329,23.189175,14.14238,-30.81548,0.7134607,0.0,1.9990755,1.6186419,-0.19760323,-0.09419293,0.423433,-5.152644,0.0,0.0,0.0
1474933992,23.390896,14.31765,-30.81548,0.7134377,0.0,2.0002224,1.6172222,-0.19603348,-0.028268313,0.37383267,-5.0956397,0.0,0.0,0.0
1475038005,23.598465,14.498002,-30.81548,0.71336526,0.0,2.000632,1.6167148,-0.18948936,-0.098685,0.43848327,-5.056682,0.0,0.0,0.0
1475137827,23.800009,14.673117,-30.81548,0.71336085,0.0,2.0007498,1.6165708,-0.18877602,-0.1465882,0.48863468,-5.0383463,0.0,0.0,0.0
1475238649,23.999554,14.8464985,-30.81548,0.7133436,0.0,2.0007641,1.6165545,-0.19146538,-0.11665178,0.4496452,-5.1079307,0.0,0.0,0.0
1475343468,24.207054,15.02679,-30.81548,0.7133331,0.0,2.0006447,1.616703,-0.1881218,-0.098351665,0.44209716,-5.0685596,0.0,0.0,0.0
1475447445,24.4109,15.203908,-30.81548,0.71331954,0.0,2.0009744,1.61629,-0.1840496,-0.050356302,0.37776044,-5.103891,0.0,0.0,0.0
1475546658,24.607609,15.374822,-30.81548,0.71325636,0.0,2.0023043,1.6146437,-0.17874908,-0.041861862,0.40169138,-5.0866313,0.0,0.0,0.0
1475647572,24.80643,15.547573,-30.81548,0.71317005,0.0,2.0042486,1.6122311,-0.16982651,-0.08165927,0.3990718,-5.064231,0.0,0.0,0.0
1475751421,25.00992,15.72438,-30.81548,0.71317005,0.0,2.0057127,1.6104091,-0.15729141,-0.10924289,0.45111874,-5.084877,0.0,0.0,0.0
1475853136,25.207615,15.896151,-30.81548,0.7130696,0.0,2.0064864,1.609446,-0.14821625,-0.06871368,0.39766216,-5.048726,0.0,0.0,0.0
1475952266,25.402172,16.065197,-30.81548,0.7130445,0.0,2.0082169,1.6072844,-0.14011955,-0.050712388,0.3954062,-5.1186132,0.0,0.0,0.0
1476054221,25.598711,16.235966,-30.81548,0.71294665,0.0,2.00975,1.6053663,-0.12947845,-0.03565469,0.37731493,-5.053832,0.0,0.0,0.0
1476157306,25.801495,16.412157,-30.81548,0.7128284,0.0,2.0120456,1.6024872,-0.116817474,-0.12094242,0.46597126,-5.035209,0.0,0.0,0.0
