timestamp,voltage_v,voltage_filtered_v,current_a,current_filtered_a,average_current_a,discharged_mah,remaining,scale,temperature,cell_count,capacity,cycle_count,run_time_to_empty,average_time_to_empty,serial_number,connected,system_source,priority,is_powering_off,warning
1430858221,25.225876,25.210762,0.049599998,0.0601355,0.0,22.938314,1.0,1.0,0.0,6,0,0,0,0,0,1,1,0,0,0
1431352012,25.124893,25.202665,0.049599998,0.060975533,0.0,22.946733,1.0,1.0,0.0,6,0,0,0,0,0,1,1,0,0,0
1431869554,24.963318,25.188519,0.062,0.061930396,0.0,22.955778,1.0,1.0,0.0,6,0,0,0,0,0,1,1,0,0,0
1432363030,24.741152,24.921747,0.062,0.061427467,0.0,22.96419,1.0,1.0,0.0,6,0,0,0,0,0,1,1,0,0,0
1432868774,24.680561,24.841866,0.062,0.06073363,0.0,22.972612,1.0,1.0,0.0,6,0,0,0,0,0,1,1,0,0,0
1433374222,24.599773,24.777359,0.062,0.059466857,0.0,22.980818,1.0,1.0,0.0,6,0,0,0,0,0,1,1,0,0,0
1433867958,24.61997,24.728678,0.0744,0.060888316,0.0,22.989283,1.0,1.0,0.0,6,0,0,0,0,0,1,1,0,0,0
1434374228,24.579576,24.688004,0.049599998,0.058552492,0.0,22.997393,1.0,1.0,0.0,6,0,0,0,0,0,1,1,0,0,0
1434868164,24.640167,24.665497,0.062,0.059317533,0.0,23.005648,1.0,1.0,0.0,6,0,0,0,0,0,1,1,0,0,0
1435373546,24.579576,24.645586,0.0744,0.061111443,0.0,23.01439,1.0,1.0,0.0,6,0,0,0,0,0,1,1,0,0,0
1435879158,24.599773,24.626423,0.049599998,0.060568776,0.0,23.022892,1.0,1.0,0.0,6,0,0,0,0,0,1,1,0,0,0
1436372710,24.579576,24.599817,0.062,0.06077284,0.0,23.031317,1.0,1.0,0.0,6,0,0,0,0,0,1,1,0,0,0
1436879041,24.498789,24.585035,0.062,0.060921993,0.0,23.03992,1.0,1.0,0.0,6,0,0,0,0,0,1,1,0,0,0
1437384707,24.55938,24.56852,0.062,0.061346106,0.0,23.048553,1.0,1.0,0.0,6,0,0,0,0,0,1,1,0,0,0
1437878330,24.55938,24.56064,0.062,0.061471365,0.0,23.05701,1.0,1.0,0.0,6,0,0,0,0,0,1,1,0,0,0
1438383850,24.498789,24.54806,0.049599998,0.0609201,0.0,23.065619,1.0,1.0,0.0,6,0,0,0,0,0,1,1,0,0,0
1438890366,24.478592,24.537167,0.062,0.061655123,0.0,23.074305,1.0,1.0,0.0,6,0,0,0,0,0,1,1,0,0,0
1439383880,24.478592,24.527802,0.062,0.06145333,0.0,23.082684,1.0,1.0,0.0,6,0,0,0,0,0,1,1,0,0,0
1439889583,24.478592,24.515205,0.049599998,0.058908172,0.0,23.090736,1.0,1.0,0.0,6,0,0,0,0,0,1,1,0,0,0
1440395145,24.478592,24.502964,0.062,0.06018492,0.0,23.099236,1.0,1.0,0.0,6,0,0,0,0,0,1,1,0,0,0
1440888712,24.478592,24.494942,0.062,0.061626635,0.0,23.107862,1.0,1.0,0.0,6,0,0,0,0,0,1,1,0,0,0
1441394365,24.478592,24.493948,0.062,0.06072606,0.0,23.116228,1.0,1.0,0.0,6,0,0,0,0,0,1,1,0,0,0
1441900696,24.518986,24.493687,0.062,0.0598877,0.0,23.124535,1.0,1.0,0.0,6,0,0,0,0,0,1,1,0,0,0
1442394622,24.458397,24.487564,0.062,0.06068758,0.0,23.132957,1.0,1.0,0.0,6,0,0,0,0,0,1,1,0,0,0
1442900149,24.418003,24.47754,0.049599998,0.061074603,0.0,23.141623,1.0,1.0,0.0,6,0,0,0,0,0,1,1,0,0,0
1443405518,24.4382,24.471199,0.062,0.06110804,0.0,23.15024,1.0,1.0,0.0,6,0,0,0,0,0,1,1,0,0,0
1443899079,24.4382,24.46461,0.062,0.06011319,0.0,23.158327,1.0,1.0,0.0,6,0,0,0,0,0,1,1,0,0,0
1444404790,24.478592,24.462841,0.062,0.059727725,0.0,23.166716,1.0,1.0,0.0,6,0,0,0,0,0,1,1,0,0,0
1444911376,24.418003,24.45657,0.062,0.060181435,0.0,23.175228,1.0,1.0,0.0,6,0,0,0,0,0,1,1,0,0,0
1445404696,24.4382,24.453533,0.0744,0.060808834,0.0,23.183607,1.0,1.0,0.0,6,0,0,0,0,0,1,1,0,0,0
1445910228,24.4382,24.438803,0.0744,0.060626805,0.0,23.192104,1.0,1.0,0.0,6,0,0,0,0,0,1,1,0,0,0
1446415917,24.4382,24.425364,0.049599998,0.06144421,0.0,23.20094,1.0,1.0,0.0,6,0,0,0,0,0,1,1,0,0,0
1446910805,24.458397,24.427107,0.062,0.059538744,0.0,23.208958,1.0,1.0,0.0,6,0,0,0,0,0,1,1,0,0,0
1447415953,24.518986,24.430857,0.062,0.059751548,0.0,23.217321,1.0,1.0,0.0,6,0,0,0,0,0,1,1,0,0,0
1447921580,24.37761,24.429203,0.062,0.06031119,0.0,23.225819,1.0,1.0,0.0,6,0,0,0,0,0,1,1,0,0,0
1448415143,24.418003,24.420818,0.049599998,0.059312306,0.0,23.233898,1.0,1.0,0.0,6,0,0,0,0,0,1,1,0,0,0
1448920980,24.37761,24.412245,0.062,0.0599285,0.0,23.242395,1.0,1.0,0.0,6,0,0,0,0,0,1,1,0,0,0
1449427405,24.37761,24.406492,0.049599998,0.059941888,0.0,23.250868,1.0,1.0,0.0,6,0,0,0,0,0,1,1,0,0,0
1449920682,24.397806,24.40207,0.049599998,0.06034664,0.0,23.259201,1.0,1.0,0.0,6,0,0,0,0,0,1,1,0,0,0
1450426231,24.4382,24.401495,0.062,0.05919233,0.0,23.267448,1.0,1.0,0.0,6,0,0,0,0,0,1,1,0,0,0
1450932207,24.357412,24.396233,0.062,0.06087807,0.0,23.27617,1.0,1.0,0.0,6,0,0,0,0,0,1,1,0,0,0
1451425583,24.37761,24.389887,0.062,0.05941276,0.0,23.284222,1.0,1.0,0.0,6,0,0,0,0,0,1,1,0,0,0
1451931126,24.357412,24.377745,0.049599998,0.060016584,0.0,23.292772,1.0,1.0,0.0,6,0,0,0,0,0,1,1,0,0,0
1452437819,24.37761,24.36535,0.062,0.06120691,0.0,23.30153,1.0,1.0,0.0,6,0,0,0,0,0,1,1,0,0,0
1452931362,24.337215,24.354958,0.062,0.06111189,0.0,23.309912,1.0,1.0,0.0,6,0,0,0,0,0,1,1,0,0,0
1453436669,24.317019,24.353643,0.062,0.062322225,0.0,23.318815,1.0,1.0,0.0,6,0,0,0,0,0,1,1,0,0,0
1453942592,24.276625,24.343578,0.062,0.059340287,0.0,23.326862,1.0,1.0,0.0,6,0,0,0,0,0,1,1,0,0,0
1454436141,24.276625,24.328314,0.062,0.058898147,0.0,23.334864,1.0,1.0,0.0,6,0,0,0,0,0,1,1,0,0,0
1454942314,24.317019,24.315517,0.062,0.05949967,0.0,23.343332,1.0,1.0,0.0,6,0,0,0,0,0,1,1,0,0,0
1455448161,24.357412,24.312393,0.062,0.059034023,0.0,23.351551,1.0,1.0,0.0,6,0,0,0,0,0,1,1,0,0,0
1455941557,24.317019,24.31236,0.062,0.060371928,0.0,23.35996,1.0,1.0,0.0,6,0,0,0,0,0,1,1,0,0,0
1456447051,24.317019,24.312618,0.062,0.059791233,0.0,23.368244,1.0,1.0,0.0,6,0,0,0,0,0,1,1,0,0,0
1456952991,24.296822,24.316397,0.049599998,0.05876899,0.0,23.376423,1.0,1.0,0.0,6,0,0,0,0,0,1,1,0,0,0
1457446543,24.317019,24.319517,0.049599998,0.05961899,0.0,23.384724,1.0,1.0,0.0,6,0,0,0,0,0,1,1,0,0,0
1457952692,24.317019,24.33073,0.049599998,0.05962588,0.0,23.393194,1.0,1.0,0.0,6,0,0,0,0,0,1,1,0,0,0
1458458296,24.4382,24.350775,0.0744,0.060822107,0.0,23.401775,1.0,1.0,0.0,6,0,0,0,0,0,1,1,0,0,0
1458952024,24.276625,24.340681,0.0744,0.06030507,0.0,23.409985,1.0,1.0,0.0,6,0,0,0,0,0,1,1,0,0,0
1459457811,24.23623,24.297668,0.062,0.060664985,0.0,23.418484,1.0,1.0,0.0,6,0,0,0,0,0,1,1,0,0,0
1459963162,24.216034,24.266756,0.062,0.059438825,0.0,23.426647,1.0,1.0,0.0,6,0,0,0,0,0,1,1,0,0,0
1460457760,24.357412,24.284565,0.062,0.059744954,0.0,23.43495,1.0,1.0,0.0,6,0,0,0,0,0,1,1,0,0,0
1460963033,24.4382,24.333508,0.062,0.06062651,0.0,23.443571,1.0,1.0,0.0,6,0,0,0,0,0,1,1,0,0,0
1461468783,24.458397,24.39161,0.099199995,0.06233406,0.0,23.45244,1.0,1.0,0.0,6,0,0,0,0,0,1,1,0,0,0
1461962519,24.4382,24.402193,0.062,0.061627105,0.0,23.460861,1.0,1.0,0.0,6,0,0,0,0,0,1,1,0,0,0
1462467964,24.054459,24.396246,0.062,0.060074836,0.0,23.469187,1.0,1.0,0.0,6,0,0,0,0,0,1,1,0,0,0
1462974260,24.418003,24.379719,0.062,0.059225596,0.0,23.477446,1.0,1.0,0.0,6,0,0,0,0,0,1,1,0,0,0
1463468785,24.37761,24.388145,0.062,0.059598673,0.0,23.485712,1.0,1.0,0.0,6,0,0,0,0,0,1,1,0,0,0
1463973587,24.418003,24.392492,0.062,0.06016746,0.0,23.494202,1.0,1.0,0.0,6,0,0,0,0,0,1,1,0,0,0
1464479161,24.397806,24.39462,0.062,0.062553175,0.0,23.503199,1.0,1.0,0.0,6,0,0,0,0,0,1,1,0,0,0
1464972956,24.357412,24.389359,0.062,0.060272038,0.0,23.51116,1.0,1.0,0.0,6,0,0,0,0,0,1,1,0,0,0
1465479028,24.418003,24.378014,0.062,0.060800083,0.0,23.519796,1.0,1.0,0.0,6,0,0,0,0,0,1,1,0,0,0
1465984688,24.458397,24.397411,0.062,0.061343946,0.0,23.528461,1.0,1.0,0.0,6,0,0,0,0,0,1,1,0,0,0
1466478367,24.397806,24.400814,0.062,0.06089593,0.0,23.53675,1.0,1.0,0.0,6,0,0,0,0,0,1,1,0,0,0
1466983956,24.4382,24.397335,0.062,0.060681812,0.0,23.545258,1.0,1.0,0.0,6,0,0,0,0,0,1,1,0,0,0
1467489488,24.37761,24.406982,0.062,0.06056798,0.0,23.553755,1.0,1.0,0.0,6,0,0,0,0,0,1,1,0,0,0
1467983038,24.4382,24.420454,0.062,0.060449652,0.0,23.562046,1.0,1.0,0.0,6,0,0,0,0,0,1,1,0,0,0
1468489794,24.418003,24.42298,0.062,0.061823003,0.0,23.57089,1.0,1.0,0.0,6,0,0,0,0,0,1,1,0,0,0
1468995345,24.397806,24.416458,0.049599998,0.062297925,0.0,23.579672,1.0,1.0,0.0,6,0,0,0,0,0,1,1,0,0,0
1469488925,24.397806,24.407927,0.062,0.06134298,0.0,23.587963,1.0,1.0,0.0,6,0,0,0,0,0,1,1,0,0,0
1469994617,24.37761,24.401142,0.062,0.06135641,0.0,23.596601,1.0,1.0,0.0,6,0,0,0,0,0,1,1,0,0,0
1470500993,24.317019,24.380253,0.062,0.06153858,0.0,23.605282,1.0,1.0,0.0,6,0,0,0,0,0,1,1,0,0,0
1470994570,24.37761,24.379065,0.062,0.059474614,0.0,23.613283,1.0,1.0,0.0,6,0,0,0,0,0,1,1,0,0,0
1471500165,24.4382,24.383715,0.062,0.059058372,0.0,23.621492,1.0,1.0,0.0,6,0,0,0,0,0,1,1,0,0,0
1472005499,24.4382,24.412928,0.049599998,0.058781143,0.0,23.629786,1.0,1.0,0.0,6,0,0,0,0,0,1,1,0,0,0
1472499185,24.397806,24.40382,0.049599998,0.061200764,0.0,23.638453,1.0,1.0,0.0,6,0,0,0,0,0,1,1,0,0,0
1473005534,24.357412,24.39,0.062,0.060789235,0.0,23.646923,1.0,1.0,0.0,6,0,0,0,0,0,1,1,0,0,0
1473511160,24.276625,24.381392,0.062,0.059936807,0.0,23.655342,1.0,1.0,0.0,6,0,0,0,0,0,1,1,0,0,0
1474005064,24.4382,24.35984,0.062,0.061326437,0.0,23.663895,1.0,1.0,0.0,6,0,0,0,0,0,1,1,0,0,0
1474510331,24.317019,24.349411,0.062,0.06058778,0.0,23.672348,1.0,1.0,0.0,6,0,0,0,0,0,1,1,0,0,0
1475015886,24.296822,24.340061,0.062,0.061547574,0.0,23.681055,1.0,1.0,0.0,6,0,0,0,0,0,1,1,0,0,0
1475509564,24.357412,24.335453,0.062,0.061575945,0.0,23.689465,1.0,1.0,0.0,6,0,0,0,0,0,1,1,0,0,0
1476015851,24.296822,24.331537,0.062,0.06251545,0.0,23.698364,1.0,1.0,0.0,6,0,0,0,0,0,1,1,0,0,0
1476521550,24.276625,24.32654,0.062,0.061114915,0.0,23.706814,1.0,1.0,0.0,6,0,0,0,0,0,1,1,0,0,0
1477015348,24.337215,24.33018,0.062,0.060496483,0.0,23.715025,1.0,1.0,0.0,6,0,0,0,0,0,1,1,0,0,0
1477520769,24.256428,24.33218,0.062,0.060306143,0.0,23.723406,1.0,1.0,0.0,6,0,0,0,0,0,1,1,0,0,0
1478026568,24.37761,24.339205,0.062,0.06093484,0.0,23.731985,1.0,1.0,0.0,6,0,0,0,0,0,1,1,0,0,0
1478520712,24.337215,24.332762,0.049599998,0.06078912,0.0,23.740368,1.0,1.0,0.0,6,0,0,0,0,0,1,1,0,0,0
1479026604,24.357412,24.336868,0.062,0.059852548,0.0,23.748705,1.0,1.0,0.0,6,0,0,0,0,0,1,1,0,0,0
1479531878,24.37761,24.348812,0.049599998,0.058971554,0.0,23.756994,1.0,1.0,0.0,6,0,0,0,0,0,1,1,0,0,0
1480025565,24.317019,24.350807,0.062,0.05945959,0.0,23.765163,1.0,1.0,0.0,6,0,0,0,0,0,1,1,0,0,0
1480531079,24.296822,24.342773,0.049599998,0.059163876,0.0,23.773449,1.0,1.0,0.0,6,0,0,0,0,0,1,1,0,0,0
1481036678,24.276625,24.332129,0.049599998,0.05894019,0.0,23.781748,1.0,1.0,0.0,6,0,0,0,0,0,1,1,0,0,0
1481531334,24.276625,24.321306,0.062,0.05870118,0.0,23.789808,1.0,1.0,0.0,6,0,0,0,0,0,1,1,0,0,0
1482036994,24.317019,24.315687,0.049599998,0.06044002,0.0,23.798515,1.0,1.0,0.0,6,0,0,0,0,0,1,1,0,0,0
1482542618,24.317019,24.317131,0.062,0.06031049,0.0,23.806976,1.0,1.0,0.0,6,0,0,0,0,0,1,1,0,0,0
1483035863,24.276625,24.317266,0.049599998,0.060116664,0.0,23.815216,1.0,1.0,0.0,6,0,0,0,0,0,1,1,0,0,0
1483541510,24.337215,24.319092,0.049599998,0.058631632,0.0,23.823343,1.0,1.0,0.0,6,0,0,0,0,0,1,1,0,0,0
1484047947,24.317019,24.314608,0.062,0.060422704,0.0,23.832027,1.0,1.0,0.0,6,0,0,0,0,0,1,1,0,0,0
1484541465,24.276625,24.30879,0.062,0.060761206,0.0,23.840445,1.0,1.0,0.0,6,0,0,0,0,0,1,1,0,0,0
1485047332,24.317019,24.30832,0.049599998,0.060874358,0.0,23.848993,1.0,1.0,0.0,6,0,0,0,0,0,1,1,0,0,0
1485552744,24.276625,24.31313,0.049599998,0.0606048,0.0,23.857538,1.0,1.0,0.0,6,0,0,0,0,0,1,1,0,0,0
1486046265,24.296822,24.318968,0.062,0.060995813,0.0,23.865866,1.0,1.0,0.0,6,0,0,0,0,0,1,1,0,0,0
1486552962,24.317019,24.322008,0.062,0.05947951,0.0,23.874046,1.0,1.0,0.0,6,0,0,0,0,0,1,1,0,0,0
1487058311,24.337215,24.324986,0.062,0.0592619,0.0,23.882296,1.0,1.0,0.0,6,0,0,0,0,0,1,1,0,0,0
1487551846,24.337215,24.32836,0.062,0.058999505,0.0,23.890463,1.0,1.0,0.0,6,0,0,0,0,0,1,1,0,0,0
1488057558,24.37761,24.336521,0.062,0.059531335,0.0,23.898888,1.0,1.0,0.0,6,0,0,0,0,0,1,1,0,0,0
1488563342,24.276625,24.334337,0.062,0.05898729,0.0,23.9071,1.0,1.0,0.0,6,0,0,0,0,0,1,1,0,0,0
1489057754,24.317019,24.323341,0.049599998,0.05955692,0.0,23.915363,1.0,1.0,0.0,6,0,0,0,0,0,1,1,0,0,0
1489563137,24.256428,24.298386,0.062,0.060730204,0.0,23.924028,1.0,1.0,0.0,6,0,0,0,0,0,1,1,0,0,0
1490056768,24.317019,24.28938,0.062,0.060503807,0.0,23.932348,1.0,1.0,0.0,6,0,0,0,0,0,1,1,0,0,0
1490562566,24.054459,24.181887,0.0744,0.060906626,0.0,23.94089,1.0,1.0,0.0,6,0,0,0,0,0,1,1,0,0,0
1491067954,24.195837,24.161587,0.062,0.05945471,0.0,23.949057,1.0,1.0,0.0,6,0,0,0,0,0,1,1,0,0,0
1491562623,24.216034,24.162165,0.0744,0.06002487,0.0,23.957365,1.0,1.0,0.0,6,0,0,0,0,0,1,1,0,0,0
1492067891,24.135246,24.159195,0.062,0.059604928,0.0,23.965687,1.0,1.0,0.0,6,0,0,0,0,0,1,1,0,0,0
1492573997,24.11505,24.14548,0.049599998,0.058328956,0.0,23.97382,1.0,1.0,0.0,6,0,0,0,0,0,1,1,0,0,0
1493067402,24.155443,24.130621,0.099199995,0.05931327,0.0,23.982067,1.0,1.0,0.0,6,0,0,0,0,0,1,1,0,0,0
1493572765,24.11505,24.143095,0.0744,0.061028015,0.0,23.990807,1.0,1.0,0.0,6,0,0,0,0,0,1,1,0,0,0
1494078573,24.155443,24.152124,0.062,0.060930155,0.0,23.999365,1.0,1.0,0.0,6,0,0,0,0,0,1,1,0,0,0
1494584678,24.155443,24.155863,0.0372,0.058528036,0.0,24.007421,1.0,1.0,0.0,6,0,0,0,0,0,1,1,0,0,0
1495079514,24.17564,24.155294,0.062,0.059764747,0.0,24.015772,1.0,1.0,0.0,6,0,0,0,0,0,1,1,0,0,0
1495583964,24.17564,24.156141,0.062,0.061124567,0.0,24.02443,1.0,1.0,0.0,6,0,0,0,0,0,1,1,0,0,0
1496090265,24.17564,24.159637,0.062,0.06036514,0.0,24.032818,1.0,1.0,0.0,6,0,0,0,0,0,1,1,0,0,0
1496583044,24.155443,24.157852,0.049599998,0.060062043,0.0,24.040918,1.0,1.0,0.0,6,0,0,0,0,0,1,1,0,0,0
1497089896,24.155443,24.15989,0.049599998,0.059226606,0.0,24.049307,1.0,1.0,0.0,6,0,0,0,0,0,1,1,0,0,0
1497595182,24.094852,24.147505,0.012399999,0.059644736,0.0,24.057758,1.0,1.0,0.0,6,0,0,0,0,0,1,1,0,0,0
1498088961,24.094852,24.130161,0.062,0.059467822,0.0,24.065924,1.0,1.0,0.0,6,0,0,0,0,0,1,1,0,0,0
1498594329,24.17564,24.130857,0.062,0.058814656,0.0,24.074085,1.0,1.0,0.0,6,0,0,0,0,0,1,1,0,0,0
1499099825,24.11505,24.12738,0.024799999,0.05850798,0.0,24.082298,1.0,1.0,0.0,6,0,0,0,0,0,1,1,0,0,0
1499594340,24.155443,24.124403,0.062,0.058759253,0.0,24.090475,1.0,1.0,0.0,6,0,0,0,0,0,1,1,0,0,0
1500100292,24.054459,24.118057,0.062,0.059387513,0.0,24.098904,1.0,1.0,0.0,6,0,0,0,0,0,1,1,0,0,0
1500605753,24.11505,24.117529,0.0744,0.059750643,0.0,24.10728,1.0,1.0,0.0,6,0,0,0,0,0,1,1,0,0,0
1501099047,24.135246,24.115929,0.062,0.05972523,0.0,24.115438,1.0,1.0,0.0,6,0,0,0,0,0,1,1,0,0,0
1501604770,24.11505,24.104305,0.049599998,0.059491932,0.0,24.123823,1.0,1.0,0.0,6,0,0,0,0,0,1,1,0,0,0
1502111365,24.054459,24.099329,0.049599998,0.05913563,0.0,24.132133,1.0,1.0,0.0,6,0,0,0,0,0,1,1,0,0,0
1502605031,24.074656,24.100142,0.049599998,0.058794037,0.0,24.140182,1.0,1.0,0.0,6,0,0,0,0,0,1,1,0,0,0
1503110376,24.074656,24.095644,0.062,0.05856595,0.0,24.148386,1.0,1.0,0.0,6,0,0,0,0,0,1,1,0,0,0
1503615907,24.034262,24.084467,0.049599998,0.060338207,0.0,24.15701,1.0,1.0,0.0,6,0,0,0,0,0,1,1,0,0,0
1504109782,24.094852,24.067324,0.049599998,0.05983763,0.0,24.165138,1.0,1.0,0.0,6,0,0,0,0,0,1,1,0,0,0
1504616404,24.014065,24.083849,0.062,0.060568076,0.0,24.173697,1.0,1.0,0.0,6,0,0,0,0,0,1,1,0,0,0
1505121544,24.014065,24.061617,0.049599998,0.059042115,0.0,24.181864,1.0,1.0,0.0,6,0,0,0,0,0,1,1,0,0,0
1505615224,24.074656,24.050041,0.049599998,0.059507664,0.0,24.190111,1.0,1.0,0.0,6,0,0,0,0,0,1,1,0,0,0
1506120737,24.014065,24.05678,0.062,0.058771834,0.0,24.19833,1.0,1.0,0.0,6,0,0,0,0,0,1,1,0,0,0
1506626320,24.135246,24.073,0.062,0.059580553,0.0,24.206785,1.0,1.0,0.0,6,0,0,0,0,0,1,1,0,0,0
1507119982,24.11505,24.096825,0.0868,0.059853856,0.0,24.214998,1.0,1.0,0.0,6,0,0,0,0,0,1,1,0,0,0
1507626575,24.195837,24.11323,0.062,0.059050526,0.0,24.223228,1.0,1.0,0.0,6,0,0,0,0,0,1,1,0,0,0
1508132222,24.074656,24.133076,0.062,0.059200913,0.0,24.231524,1.0,1.0,0.0,6,0,0,0,0,0,1,1,0,0,0
1508625511,24.11505,24.142427,0.062,0.05957901,0.0,24.239721,1.0,1.0,0.0,6,0,0,0,0,0,1,1,0,0,0
1509131099,24.155443,24.151644,0.062,0.059474334,0.0,24.24809,1.0,1.0,0.0,6,0,0,0,0,0,1,1,0,0,0
1509637542,24.17564,24.158674,0.062,0.06007314,0.0,24.256697,1.0,1.0,0.0,6,0,0,0,0,0,1,1,0,0,0
1510131385,24.195837,24.161228,0.062,0.060947478,0.0,24.265154,1.0,1.0,0.0,6,0,0,0,0,0,1,1,0,0,0
1510636737,24.155443,24.160574,0.062,0.058700774,0.0,24.27311,1.0,1.0,0.0,6,0,0,0,0,0,1,1,0,0,0
1511142568,24.155443,24.163534,0.062,0.058789663,0.0,24.281372,1.0,1.0,0.0,6,0,0,0,0,0,1,1,0,0,0
1511635882,24.074656,24.165567,0.062,0.060573064,0.0,24.289873,1.0,1.0,0.0,6,0,0,0,0,0,1,1,0,0,0
1512142591,24.195837,24.163815,0.062,0.05992628,0.0,24.298279,1.0,1.0,0.0,6,0,0,0,0,0,1,1,0,0,0
1512648150,24.195837,24.169447,0.062,0.06075089,0.0,24.3069,1.0,1.0,0.0,6,0,0,0,0,0,1,1,0,0,0
1513141471,24.23623,24.180283,0.062,0.060437974,0.0,24.315145,1.0,1.0,0.0,6,0,0,0,0,0,1,1,0,0,0
1513647538,24.17564,24.184034,0.062,0.0593983,0.0,24.323439,1.0,1.0,0.0,6,0,0,0,0,0,1,1,0,0,0
1514152656,24.17564,24.180435,0.049599998,0.05897308,0.0,24.331642,1.0,1.0,0.0,6,0,0,0,0,0,1,1,0,0,0
1514646339,24.17564,24.18333,0.024799999,0.0584496,0.0,24.339645,1.0,1.0,0.0,6,0,0,0,0,0,1,1,0,0,0
1515153022,24.195837,24.18707,0.062,0.06114943,0.0,24.348495,1.0,1.0,0.0,6,0,0,0,0,0,1,1,0,0,0
1515658329,24.135246,24.187084,0.049599998,0.061645158,0.0,24.357193,1.0,1.0,0.0,6,0,0,0,0,0,1,1,0,0,0
1516151876,24.135246,24.175186,0.024799999,0.059244398,0.0,24.36511,1.0,1.0,0.0,6,0,0,0,0,0,1,1,0,0,0
1516657882,24.17564,24.170113,0.062,0.059341118,0.0,24.373533,1.0,1.0,0.0,6,0,0,0,0,0,1,1,0,0,0
1517163012,24.23623,24.159191,0.062,0.060212918,0.0,24.382069,1.0,1.0,0.0,6,0,0,0,0,0,1,1,0,0,0
1517657778,24.11505,24.14793,0.062,0.057544608,0.0,24.389755,1.0,1.0,0.0,6,0,0,0,0,0,1,1,0,0,0
1518163149,24.074656,24.12672,0.049599998,0.05857493,0.0,24.398077,1.0,1.0,0.0,6,0,0,0,0,0,1,1,0,0,0
1518668755,24.155443,24.122858,0.062,0.05817338,0.0,24.4062,1.0,1.0,0.0,6,0,0,0,0,0,1,1,0,0,0
1519162669,24.11505,24.122087,0.0744,0.06032426,0.0,24.414703,1.0,1.0,0.0,6,0,0,0,0,0,1,1,0,0,0
1519667948,24.155443,24.11043,0.0744,0.059579972,0.0,24.422947,1.0,1.0,0.0,6,0,0,0,0,0,1,1,0,0,0
1520174286,24.11505,24.102774,0.0868,0.059991136,0.0,24.431332,1.0,1.0,0.0,6,0,0,0,0,0,1,1,0,0,0
1520667854,24.155443,24.11504,0.049599998,0.060055204,0.0,24.439623,1.0,1.0,0.0,6,0,0,0,0,0,1,1,0,0,0
1521173571,24.135246,24.129282,0.062,0.05985705,0.0,24.447998,1.0,1.0,0.0,6,0,0,0,0,0,1,1,0,0,0
1521679179,24.11505,24.125944,0.062,0.058251392,0.0,24.456032,1.0,1.0,0.0,6,0,0,0,0,0,1,1,0,0,0
1522172648,24.17564,24.129131,0.062,0.059273336,0.0,24.464235,1.0,1.0,0.0,6,0,0,0,0,0,1,1,0,0,0
1522679177,24.054459,24.113409,0.062,0.059232756,0.0,24.472628,1.0,1.0,0.0,6,0,0,0,0,0,1,1,0,0,0
1523172973,24.074656,24.092007,0.062,0.059193604,0.0,24.480719,1.0,1.0,0.0,6,0,0,0,0,0,1,1,0,0,0
1523678634,24.014065,24.065079,0.062,0.05949626,0.0,24.489094,1.0,1.0,0.0,6,0,0,0,0,0,1,1,0,0,0
1524183953,24.155443,24.093826,0.062,0.05966822,0.0,24.497507,1.0,1.0,0.0,6,0,0,0,0,0,1,1,0,0,0
1524677491,24.11505,24.118202,0.062,0.060131125,0.0,24.505754,1.0,1.0,0.0,6,0,0,0,0,0,1,1,0,0,0
1525183858,24.11505,24.12704,0.062,0.06043667,0.0,24.514273,1.0,1.0,0.0,6,0,0,0,0,0,1,1,0,0,0
1525689741,24.074656,24.116352,0.062,0.06034078,0.0,24.52273,1.0,1.0,0.0,6,0,0,0,0,0,1,1,0,0,0
1526183352,24.11505,24.10711,0.062,0.060139153,0.0,24.530937,1.0,1.0,0.0,6,0,0,0,0,0,1,1,0,0,0
1526688741,24.054459,24.102695,0.062,0.059926737,0.0,24.53935,1.0,1.0,0.0,6,0,0,0,0,0,1,1,0,0,0
1527194330,24.054459,24.08749,0.049599998,0.059396625,0.0,24.547604,1.0,1.0,0.0,6,0,0,0,0,0,1,1,0,0,0
1527689025,24.094852,24.084059,0.062,0.058630515,0.0,24.555544,1.0,1.0,0.0,6,0,0,0,0,0,1,1,0,0,0
1528194694,24.155443,24.085924,0.062,0.059879098,0.0,24.564093,1.0,1.0,0.0,6,0,0,0,0,0,1,1,0,0,0
1528700237,24.11505,24.09457,0.062,0.06081585,0.0,24.57276,1.0,1.0,0.0,6,0,0,0,0,0,1,1,0,0,0
1529193848,24.094852,24.096575,0.049599998,0.059886992,0.0,24.580921,1.0,1.0,0.0,6,0,0,0,0,0,1,1,0,0,0
1529699048,24.11505,24.10731,0.049599998,0.059134386,0.0,24.589123,1.0,1.0,0.0,6,0,0,0,0,0,1,1,0,0,0
1530205914,23.993868,24.097343,0.049599998,0.059923418,0.0,24.597633,1.0,1.0,0.0,6,0,0,0,0,0,1,1,0,0,0
1530699588,24.11505,24.09058,0.049599998,0.058724258,0.0,24.605597,1.0,1.0,0.0,6,0,0,0,0,0,1,1,0,0,0
1531204763,24.11505,24.102194,0.062,0.06021066,0.0,24.614206,1.0,1.0,0.0,6,0,0,0,0,0,1,1,0,0,0
1531710361,24.11505,24.108871,0.062,0.059680052,0.0,24.622456,1.0,1.0,0.0,6,0,0,0,0,0,1,1,0,0,0
1532204945,24.17564,24.11999,0.062,0.05969982,0.0,24.630566,1.0,1.0,0.0,6,0,0,0,0,0,1,1,0,0,0
1532710645,24.155443,24.128784,0.062,0.05980298,0.0,24.63894,1.0,1.0,0.0,6,0,0,0,0,0,1,1,0,0,0
1533215968,24.17564,24.141554,0.0744,0.060030885,0.0,24.647402,1.0,1.0,0.0,6,0,0,0,0,0,1,1,0,0,0
1533709496,24.135246,24.144728,0.049599998,0.057538595,0.0,24.65507,1.0,1.0,0.0,6,0,0,0,0,0,1,1,0,0,0
1534215470,24.17564,24.147013,0.062,0.05862748,0.0,24.663404,1.0,1.0,0.0,6,0,0,0,0,0,1,1,0,0,0
1534721760,24.195837,24.149342,0.062,0.059593115,0.0,24.671877,1.0,1.0,0.0,6,0,0,0,0,0,1,1,0,0,0
1535215154,24.094852,24.145128,0.049599998,0.0595469,0.0,24.680084,1.0,1.0,0.0,6,0,0,0,0,0,1,1,0,0,0
1535720737,24.155443,24.149351,0.049599998,0.058441617,0.0,24.68813,1.0,1.0,0.0,6,0,0,0,0,0,1,1,0,0,0
1536226334,24.11505,24.137672,0.049599998,0.059877135,0.0,24.696629,1.0,1.0,0.0,6,0,0,0,0,0,1,1,0,0,0
1536719952,24.034262,24.101748,0.0744,0.05925382,0.0,24.70463,1.0,1.0,0.0,6,0,0,0,0,0,1,1,0,0,0
1537226550,23.993868,24.066961,0.062,0.0601951,0.0,24.713186,1.0,1.0,0.0,6,0,0,0,0,0,1,1,0,0,0
1537731999,24.014065,24.054485,0.049599998,0.05826926,0.0,24.721195,1.0,1.0,0.0,6,0,0,0,0,0,1,1,0,0,0
1538225529,24.054459,24.04609,0.049599998,0.057603024,0.0,24.728996,1.0,1.0,0.0,6,0,0,0,0,0,1,1,0,0,0
1538731165,24.074656,24.05631,0.062,0.059061002,0.0,24.737457,1.0,1.0,0.0,6,0,0,0,0,0,1,1,0,0,0
1539237822,24.034262,24.064688,0.0868,0.059392463,0.0,24.745817,1.0,1.0,0.0,6,0,0,0,0,0,1,1,0,0,0
1539731002,24.034262,24.052917,0.049599998,0.059275925,0.0,24.753975,1.0,1.0,0.0,6,0,0,0,0,0,1,1,0,0,0
1540236701,24.054459,24.047342,0.049599998,0.057644416,0.0,24.761944,1.0,1.0,0.0,6,0,0,0,0,0,1,1,0,0,0
1540742715,24.034262,24.047277,0.062,0.0591896,0.0,24.770494,1.0,1.0,0.0,6,0,0,0,0,0,1,1,0,0,0
1541236177,23.993868,24.044762,0.062,0.06016677,0.0,24.778822,1.0,1.0,0.0,6,0,0,0,0,0,1,1,0,0,0
1541741493,23.993868,24.03608,0.0744,0.059210617,0.0,24.787067,1.0,1.0,0.0,6,0,0,0,0,0,1,1,0,0,0
1542248187,23.993868,24.02746,0.062,0.059008293,0.0,24.795382,1.0,1.0,0.0,6,0,0,0,0,0,1,1,0,0,0
1542741517,24.054459,24.023533,0.062,0.05876158,0.0,24.80337,1.0,1.0,0.0,6,0,0,0,0,0,1,1,0,0,0
1543247329,24.014065,24.032604,0.024799999,0.05813066,0.0,24.811543,1.0,1.0,0.0,6,0,0,0,0,0,1,1,0,0,0
1543752948,24.054459,24.050104,0.049599998,0.059666175,0.0,24.820126,1.0,1.0,0.0,6,0,0,0,0,0,1,1,0,0,0
1544246655,24.034262,24.054552,0.062,0.059485134,0.0,24.828287,1.0,1.0,0.0,6,0,0,0,0,0,1,1,0,0,0
1544752733,24.054459,24.05294,0.049599998,0.059030633,0.0,24.836426,1.0,1.0,0.0,6,0,0,0,0,0,1,1,0,0,0
1545258677,24.11505,24.061132,0.062,0.059509944,0.0,24.844763,1.0,1.0,0.0,6,0,0,0,0,0,1,1,0,0,0
1545751991,24.135246,24.084787,0.062,0.059670053,0.0,24.852976,1.0,1.0,0.0,6,0,0,0,0,0,1,1,0,0,0
1546257492,23.993868,24.062012,0.062,0.05876727,0.0,24.860971,1.0,1.0,0.0,6,0,0,0,0,0,1,1,0,0,0
1546763109,23.91308,24.035763,0.049599998,0.058245882,0.0,24.869068,1.0,1.0,0.0,6,0,0,0,0,0,1,1,0,0,0
1547257769,24.034262,24.02906,0.049599998,0.05690496,0.0,24.8768,1.0,1.0,0.0,6,0,0,0,0,0,1,1,0,0,0
1547763166,24.074656,24.037209,0.049599998,0.058678765,0.0,24.885212,1.0,1.0,0.0,6,0,0,0,0,0,1,1,0,0,0
1548268757,24.034262,24.04501,0.049599998,0.05858383,0.0,24.89342,1.0,1.0,0.0,6,0,0,0,0,0,1,1,0,0,0
1548763051,24.054459,24.049805,0.062,0.057941083,0.0,24.90128,1.0,1.0,0.0,6,0,0,0,0,0,1,1,0,0,0
1549268715,24.074656,24.060179,0.062,0.058002234,0.0,24.909365,1.0,1.0,0.0,6,0,0,0,0,0,1,1,0,0,0
1549774173,24.074656,24.062115,0.049599998,0.05852904,0.0,24.91762,1.0,1.0,0.0,6,0,0,0,0,0,1,1,0,0,0
1550267955,24.074656,24.063448,0.062,0.057558432,0.0,24.92542,1.0,1.0,0.0,6,0,0,0,0,0,1,1,0,0,0
1550773485,24.074656,24.063011,0.062,0.058523655,0.0,24.933838,1.0,1.0,0.0,6,0,0,0,0,0,1,1,0,0,0
1551279850,24.034262,24.05847,0.062,0.05870144,0.0,24.942188,1.0,1.0,0.0,6,0,0,0,0,0,1,1,0,0,0
1551772774,24.054459,24.057247,0.062,0.058774576,0.0,24.950224,1.0,1.0,0.0,6,0,0,0,0,0,1,1,0,0,0
1552279165,24.074656,24.056812,0.062,0.057162147,0.0,24.958157,1.0,1.0,0.0,6,0,0,0,0,0,1,1,0,0,0
1552784678,24.054459,24.052515,0.062,0.059629895,0.0,24.966742,1.0,1.0,0.0,6,0,0,0,0,0,1,1,0,0,0
1553278356,24.094852,24.047842,0.062,0.058315117,0.0,24.97458,1.0,1.0,0.0,6,0,0,0,0,0,1,1,0,0,0
1553783857,24.034262,24.040447,0.062,0.058719013,0.0,24.98292,1.0,1.0,0.0,6,0,0,0,0,0,1,1,0,0,0
1554290749,24.034262,24.03891,0.049599998,0.05664555,0.0,24.99068,1.0,1.0,0.0,6,0,0,0,0,0,1,1,0,0,0
1554783956,24.014065,24.036787,0.062,0.05794285,0.0,24.998808,1.0,1.0,0.0,6,0,0,0,0,0,1,1,0,0,0
1555289808,24.014065,24.029366,0.049599998,0.057537455,0.0,25.006891,1.0,1.0,0.0,6,0,0,0,0,0,1,1,0,0,0
1555795135,24.11505,24.039743,0.049599998,0.058175843,0.0,25.01514,1.0,1.0,0.0,6,0,0,0,0,0,1,1,0,0,0
1556289545,24.11505,24.047855,0.049599998,0.05795875,0.0,25.023033,1.0,1.0,0.0,6,0,0,0,0,0,1,1,0,0,0
1556795320,23.953474,24.047232,0.062,0.058069106,0.0,25.031122,1.0,1.0,0.0,6,0,0,0,0,0,1,1,0,0,0
1557300750,23.993868,23.955029,0.062,0.058449354,0.0,25.039331,1.0,1.0,0.0,6,0,0,0,0,0,1,1,0,0,0
1557794368,24.074656,23.994022,0.062,0.058913898,0.0,25.047415,1.0,1.0,0.0,6,0,0,0,0,0,1,1,0,0,0
1558299973,24.014065,24.023102,0.0744,0.05881738,0.0,25.05554,1.0,1.0,0.0,6,0,0,0,0,0,1,1,0,0,0
1558806576,23.933277,24.02395,0.062,0.05863482,0.0,25.063635,1.0,1.0,0.0,6,0,0,0,0,0,1,1,0,0,0
1559299939,23.933277,24.014376,0.062,0.058799975,0.0,25.071722,1.0,1.0,0.0,6,0,0,0,0,0,1,1,0,0,0
1559805579,24.054459,24.009644,0.049599998,0.05768207,0.0,25.079685,1.0,1.0,0.0,6,0,0,0,0,0,1,1,0,0,0
1560311141,24.014065,24.004826,0.062,0.05818814,0.0,25.087938,1.0,1.0,0.0,6,0,0,0,0,0,1,1,0,0,0
1560805774,23.953474,23.996246,0.062,0.059705235,0.0,25.096264,1.0,1.0,0.0,6,0,0,0,0,0,1,1,0,0,0
1561311058,23.933277,23.990889,0.049599998,0.059571162,0.0,25.104633,1.0,1.0,0.0,6,0,0,0,0,0,1,1,0,0,0
1561816662,23.973671,23.989159,0.0372,0.058490917,0.0,25.1128,1.0,1.0,0.0,6,0,0,0,0,0,1,1,0,0,0
1562310296,24.054459,23.992033,0.049599998,0.058230735,0.0,25.120766,1.0,1.0,0.0,6,0,0,0,0,0,1,1,0,0,0
1562816948,24.074656,24.004448,0.062,0.057649747,0.0,25.128862,1.0,1.0,0.0,6,0,0,0,0,0,1,1,0,0,0
1563322553,24.034262,24.018875,0.062,0.058163293,0.0,25.137032,1.0,1.0,0.0,6,0,0,0,0,0,1,1,0,0,0
1563816174,24.054459,24.024492,0.062,0.06005871,0.0,25.145449,1.0,1.0,0.0,6,0,0,0,0,0,1,1,0,0,0
1564321579,24.034262,24.019356,0.049599998,0.060521923,0.0,25.15403,1.0,1.0,0.0,6,0,0,0,0,0,1,1,0,0,0
1564828346,24.034262,24.014872,0.062,0.058906797,0.0,25.162148,1.0,1.0,0.0,6,0,0,0,0,0,1,1,0,0,0
1565321446,23.953474,24.014614,0.0744,0.05870586,0.0,25.170187,1.0,1.0,0.0,6,0,0,0,0,0,1,1,0,0,0
1565827454,24.054459,24.013464,0.062,0.057887495,0.0,25.178278,1.0,1.0,0.0,6,0,0,0,0,0,1,1,0,0,0
1566332699,23.993868,24.011261,0.049599998,0.057436578,0.0,25.186354,1.0,1.0,0.0,6,0,0,0,0,0,1,1,0,0,0
1566826391,23.993868,24.00295,0.062,0.059476297,0.0,25.194696,1.0,1.0,0.0,6,0,0,0,0,0,1,1,0,0,0
1567332783,23.973671,24.000181,0.062,0.058090474,0.0,25.202675,1.0,1.0,0.0,6,0,0,0,0,0,1,1,0,0,0
1567838339,24.014065,23.996195,0.049599998,0.057266854,0.0,25.210714,1.0,1.0,0.0,6,0,0,0,0,0,1,1,0,0,0
1568331829,23.953474,23.994556,0.062,0.05958623,0.0,25.219128,1.0,1.0,0.0,6,0,0,0,0,0,1,1,0,0,0
1568837541,23.993868,23.993399,0.062,0.060426928,0.0,25.227625,1.0,1.0,0.0,6,0,0,0,0,0,1,1,0,0,0
1569343048,23.973671,23.986694,0.062,0.05997911,0.0,25.236044,1.0,1.0,0.0,6,0,0,0,0,0,1,1,0,0,0
1569837544,24.014065,23.983576,0.062,0.058663145,0.0,25.24402,1.0,1.0,0.0,6,0,0,0,0,0,1,1,0,0,0
1570343070,23.91308,23.98272,0.024799999,0.059108876,0.0,25.252346,1.0,1.0,0.0,6,0,0,0,0,0,1,1,0,0,0
1570836673,23.973671,23.981722,0.062,0.05848362,0.0,25.260303,1.0,1.0,0.0,6,0,0,0,0,0,1,1,0,0,0
1571342602,23.993868,23.980898,0.049599998,0.057436764,0.0,25.268312,1.0,1.0,0.0,6,0,0,0,0,0,1,1,0,0,0
1571848999,23.953474,23.975922,0.062,0.055713374,0.0,25.275911,1.0,1.0,0.0,6,0,0,0,0,0,1,1,0,0,0
1572342348,23.953474,23.973299,0.062,0.05687717,0.0,25.283749,1.0,1.0,0.0,6,0,0,0,0,0,1,1,0,0,0
1572847913,23.953474,23.970863,0.062,0.057217028,0.0,25.291752,1.0,1.0,0.0,6,0,0,0,0,0,1,1,0,0,0
1573353471,23.91308,23.963013,0.049599998,0.05859043,0.0,25.300087,1.0,1.0,0.0,6,0,0,0,0,0,1,1,0,0,0
1573847913,23.91308,23.957148,0.049599998,0.057000425,0.0,25.307766,1.0,1.0,0.0,6,0,0,0,0,0,1,1,0,0,0
1574353496,23.91308,23.948973,0.062,0.057380583,0.0,25.315935,1.0,1.0,0.0,6,0,0,0,0,0,1,1,0,0,0
1574859417,23.91308,23.94247,0.062,0.05952006,0.0,25.324528,1.0,1.0,0.0,6,0,0,0,0,0,1,1,0,0,0
1575352751,23.933277,23.94102,0.062,0.05906304,0.0,25.33261,1.0,1.0,0.0,6,0,0,0,0,0,1,1,0,0,0
1575858299,23.933277,23.94007,0.049599998,0.058678303,0.0,25.340818,1.0,1.0,0.0,6,0,0,0,0,0,1,1,0,0,0
1576364756,23.953474,23.935577,0.062,0.059219107,0.0,25.349117,1.0,1.0,0.0,6,0,0,0,0,0,1,1,0,0,0
1576858365,23.933277,23.931797,0.062,0.057862032,0.0,25.35692,1.0,1.0,0.0,6,0,0,0,0,0,1,1,0,0,0
1577363832,23.933277,23.93142,0.062,0.058746547,0.0,25.365206,1.0,1.0,0.0,6,0,0,0,0,0,1,1,0,0,0
1577869825,23.91308,23.93056,0.0744,0.057934895,0.0,25.373215,1.0,1.0,0.0,6,0,0,0,0,0,1,1,0,0,0
1578363951,23.953474,23.93166,0.062,0.057839274,0.0,25.381157,1.0,1.0,0.0,6,0,0,0,0,0,1,1,0,0,0
1578869471,23.953474,23.935757,0.062,0.057900928,0.0,25.38933,1.0,1.0,0.0,6,0,0,0,0,0,1,1,0,0,0
1579375067,23.953474,23.933361,0.062,0.057519995,0.0,25.397326,1.0,1.0,0.0,6,0,0,0,0,0,1,1,0,0,0
1579869736,23.993868,23.933792,0.062,0.058272433,0.0,25.405432,1.0,1.0,0.0,6,0,0,0,0,0,1,1,0,0,0
1580375347,23.91308,23.949118,0.049599998,0.056331605,0.0,25.413233,1.0,1.0,0.0,6,0,0,0,0,0,1,1,0,0,0
1580880726,23.933277,23.945066,0.024799999,0.056420084,0.0,25.421144,1.0,1.0,0.0,6,0,0,0,0,0,1,1,0,0,0
1581374274,23.933277,23.946589,0.049599998,0.057825886,0.0,25.429274,1.0,1.0,0.0,6,0,0,0,0,0,1,1,0,0,0
1581880188,23.832293,23.953135,0.062,0.057427507,0.0,25.437323,1.0,1.0,0.0,6,0,0,0,0,0,1,1,0,0,0
1582374216,23.973671,23.946669,0.062,0.057447087,0.0,25.445246,1.0,1.0,0.0,6,0,0,0,0,0,1,1,0,0,0
1582879952,23.953474,23.952131,0.099199995,0.059534717,0.0,25.453825,1.0,1.0,0.0,6,0,0,0,0,0,1,1,0,0,0
1583385444,23.953474,23.950779,0.049599998,0.057786044,0.0,25.461744,1.0,1.0,0.0,6,0,0,0,0,0,1,1,0,0,0
1583879182,23.872686,23.93924,0.062,0.058085345,0.0,25.469744,1.0,1.0,0.0,6,0,0,0,0,0,1,1,0,0,0
1584384734,23.91308,23.922054,0.062,0.05797907,0.0,25.477959,1.0,1.0,0.0,6,0,0,0,0,0,1,1,0,0,0
1584891366,23.812096,23.91374,0.062,0.057814915,0.0,25.486063,1.0,1.0,0.0,6,0,0,0,0,0,1,1,0,0,0
1585384645,23.933277,23.91853,0.062,0.056556445,0.0,25.493652,1.0,1.0,0.0,6,0,0,0,0,0,1,1,0,0,0
1585890694,23.933277,23.921305,0.062,0.0581662,0.0,25.501963,1.0,1.0,0.0,6,0,0,0,0,0,1,1,0,0,0
1586396738,23.933277,23.92106,0.062,0.05761813,0.0,25.509928,1.0,1.0,0.0,6,0,0,0,0,0,1,1,0,0,0
1586890327,23.933277,23.919603,0.062,0.057110373,0.0,25.517555,1.0,1.0,0.0,6,0,0,0,0,0,1,1,0,0,0
1587395947,23.91308,23.922258,0.062,0.057676107,0.0,25.525675,1.0,1.0,0.0,6,0,0,0,0,0,1,1,0,0,0
1587901579,23.933277,23.92414,0.049599998,0.059844874,0.0,25.534342,1.0,1.0,0.0,6,0,0,0,0,0,1,1,0,0,0
1588395963,23.933277,23.926,0.049599998,0.058641497,0.0,25.542313,1.0,1.0,0.0,6,0,0,0,0,0,1,1,0,0,0
1588901552,23.872686,23.917246,0.049599998,0.057971682,0.0,25.55039,1.0,1.0,0.0,6,0,0,0,0,0,1,1,0,0,0
1589407368,23.892883,23.916702,0.062,0.057307504,0.0,25.55845,1.0,1.0,0.0,6,0,0,0,0,0,1,1,0,0,0
1589900687,23.872686,23.912561,0.062,0.057160288,0.0,25.566326,1.0,1.0,0.0,6,0,0,0,0,0,1,1,0,0,0
1590407412,23.91308,23.9122,0.062,0.058291093,0.0,25.574598,1.0,1.0,0.0,6,0,0,0,0,0,1,1,0,0,0
1590912962,23.85249,23.910797,0.049599998,0.0572288,0.0,25.582558,1.0,1.0,0.0,6,0,0,0,0,0,1,1,0,0,0
1591406813,23.91308,23.908745,0.049599998,0.057424277,0.0,25.590399,1.0,1.0,0.0,6,0,0,0,0,0,1,1,0,0,0
1591911991,23.892883,23.909739,0.062,0.05752936,0.0,25.598387,1.0,1.0,0.0,6,0,0,0,0,0,1,1,0,0,0
1592418536,23.892883,23.91,0.062,0.05847316,0.0,25.606655,1.0,1.0,0.0,6,0,0,0,0,0,1,1,0,0,0
1592911874,23.91308,23.912403,0.062,0.05740334,0.0,25.614529,1.0,1.0,0.0,6,0,0,0,0,0,1,1,0,0,0
1593417797,23.91308,23.9057,0.0744,0.057309605,0.0,25.622536,1.0,1.0,0.0,6,0,0,0,0,0,1,1,0,0,0
1593923080,23.91308,23.901222,0.062,0.05921063,0.0,25.631031,1.0,1.0,0.0,6,0,0,0,0,0,1,1,0,0,0
1594417758,23.892883,23.901299,0.062,0.059060924,0.0,25.639101,1.0,1.0,0.0,6,0,0,0,0,0,1,1,0,0,0
1594923088,23.91308,23.897118,0.049599998,0.057517532,0.0,25.64706,1.0,1.0,0.0,6,0,0,0,0,0,1,1,0,0,0
1595428736,23.872686,23.889256,0.049599998,0.05604442,0.0,25.654787,1.0,1.0,0.0,6,0,0,0,0,0,1,1,0,0,0
1595922347,23.872686,23.886894,0.049599998,0.057191644,0.0,25.66279,1.0,1.0,0.0,6,0,0,0,0,0,1,1,0,0,0
1596428760,23.91308,23.890507,0.099199995,0.057820622,0.0,25.670877,1.0,1.0,0.0,6,0,0,0,0,0,1,1,0,0,0
1596934331,23.872686,23.901545,0.062,0.0580987,0.0,25.679007,1.0,1.0,0.0,6,0,0,0,0,0,1,1,0,0,0
1597427902,23.872686,23.898905,0.062,0.057922926,0.0,25.686924,1.0,1.0,0.0,6,0,0,0,0,0,1,1,0,0,0
1597934351,23.872686,23.891891,0.062,0.05847677,0.0,25.695232,1.0,1.0,0.0,6,0,0,0,0,0,1,1,0,0,0
1598439880,23.85249,23.890318,0.062,0.05822555,0.0,25.703363,1.0,1.0,0.0,6,0,0,0,0,0,1,1,0,0,0
1598933740,23.872686,23.886217,0.062,0.059243955,0.0,25.711584,1.0,1.0,0.0,6,0,0,0,0,0,1,1,0,0,0
1599439138,23.872686,23.878918,0.049599998,0.05859117,0.0,25.719755,1.0,1.0,0.0,6,0,0,0,0,0,1,1,0,0,0
1599945551,23.872686,23.873657,0.049599998,0.057849385,0.0,25.72791,1.0,1.0,0.0,6,0,0,0,0,0,1,1,0,0,0
1600439406,23.872686,23.873755,0.062,0.058574513,0.0,25.736,1.0,1.0,0.0,6,0,0,0,0,0,1,1,0,0,0
1600944733,23.892883,23.881947,0.062,0.05793676,0.0,25.744005,1.0,1.0,0.0,6,0,0,0,0,0,1,1,0,0,0
1601450373,23.872686,23.88204,0.062,0.05725867,0.0,25.751968,1.0,1.0,0.0,6,0,0,0,0,0,1,1,0,0,0
1601943870,23.872686,23.880733,0.062,0.05843646,0.0,25.760103,1.0,1.0,0.0,6,0,0,0,0,0,1,1,0,0,0
1602450334,23.91308,23.889294,0.049599998,0.057725642,0.0,25.768162,1.0,1.0,0.0,6,0,0,0,0,0,1,1,0,0,0
1602955990,23.872686,23.891914,0.062,0.057828072,0.0,25.77628,1.0,1.0,0.0,6,0,0,0,0,0,1,1,0,0,0
1603449549,23.872686,23.886839,0.049599998,0.05605385,0.0,25.783834,1.0,1.0,0.0,6,0,0,0,0,0,1,1,0,0,0
1603955976,23.892883,23.88563,0.062,0.055668745,0.0,25.791685,1.0,1.0,0.0,6,0,0,0,0,0,1,1,0,0,0
1604449780,23.832293,23.888355,0.062,0.056241363,0.0,25.799484,1.0,1.0,0.0,6,0,0,0,0,0,1,1,0,0,0
1604955160,23.892883,23.889887,0.049599998,0.056317225,0.0,25.807446,1.0,1.0,0.0,6,0,0,0,0,0,1,1,0,0,0
1605460734,23.832293,23.886602,0.062,0.057937343,0.0,25.815744,1.0,1.0,0.0,6,0,0,0,0,0,1,1,0,0,0
1605954245,23.872686,23.87597,0.049599998,0.057912216,0.0,25.82371,1.0,1.0,0.0,6,0,0,0,0,0,1,1,0,0,0
1606460758,23.832293,23.86689,0.062,0.057231743,0.0,25.831686,1.0,1.0,0.0,6,0,0,0,0,0,1,1,0,0,0
1606966293,23.872686,23.869488,0.062,0.057018094,0.0,25.839605,1.0,1.0,0.0,6,0,0,0,0,0,1,1,0,0,0
1607459865,23.85249,23.867653,0.049599998,0.057333633,0.0,25.847443,1.0,1.0,0.0,6,0,0,0,0,0,1,1,0,0,0
1607966192,23.91308,23.869871,0.049599998,0.05681598,0.0,25.85533,1.0,1.0,0.0,6,0,0,0,0,0,1,1,0,0,0
1608471870,23.892883,23.873217,0.049599998,0.05634813,0.0,25.863163,1.0,1.0,0.0,6,0,0,0,0,0,1,1,0,0,0
1608965833,23.91308,23.87326,0.049599998,0.05633889,0.0,25.870882,1.0,1.0,0.0,6,0,0,0,0,0,1,1,0,0,0
1609471914,23.892883,23.876194,0.062,0.056565143,0.0,25.87877,1.0,1.0,0.0,6,0,0,0,0,0,1,1,0,0,0
1609977533,23.91308,23.876131,0.062,0.057788845,0.0,25.886986,1.0,1.0,0.0,6,0,0,0,0,0,1,1,0,0,0
1610471079,23.85249,23.87536,0.0744,0.058033016,0.0,25.894947,1.0,1.0,0.0,6,0,0,0,0,0,1,1,0,0,0
1610976590,23.91308,23.874578,0.049599998,0.057725817,0.0,25.902983,1.0,1.0,0.0,6,0,0,0,0,0,1,1,0,0,0
1611482573,23.832293,23.871277,0.062,0.057606254,0.0,25.91112,1.0,1.0,0.0,6,0,0,0,0,0,1,1,0,0,0
1611976711,23.85249,23.868294,0.049599998,0.056573357,0.0,25.918842,1.0,1.0,0.0,6,0,0,0,0,0,1,1,0,0,0
1612482663,23.91308,23.871325,0.049599998,0.056164734,0.0,25.92677,1.0,1.0,0.0,6,0,0,0,0,0,1,1,0,0,0
1612987897,23.872686,23.869944,0.062,0.057048716,0.0,25.934853,1.0,1.0,0.0,6,0,0,0,0,0,1,1,0,0,0
1613482570,23.872686,23.874182,0.062,0.057501726,0.0,25.942717,1.0,1.0,0.0,6,0,0,0,0,0,1,1,0,0,0
1613987865,23.872686,23.875113,0.062,0.05847428,0.0,25.950964,1.0,1.0,0.0,6,0,0,0,0,0,1,1,0,0,0
1614493471,23.91308,23.882166,0.062,0.057681296,0.0,25.95901,1.0,1.0,0.0,6,0,0,0,0,0,1,1,0,0,0
1614987441,23.630325,23.866577,0.049599998,0.05793488,0.0,25.966978,1.0,1.0,0.0,6,0,0,0,0,0,1,1,0,0,0
1615494618,23.85249,23.85794,0.062,0.058250055,0.0,25.975185,1.0,1.0,0.0,6,0,0,0,0,0,1,1,0,0,0
1615999140,23.85249,23.854666,0.062,0.057826523,0.0,25.983252,1.0,1.0,0.0,6,0,0,0,0,0,1,1,0,0,0
1616504714,23.711113,23.826315,0.0372,0.05625605,0.0,25.99109,1.0,1.0,0.0,6,0,0,0,0,0,1,1,0,0,0
1617010375,23.751507,23.79983,0.062,0.058091324,0.0,25.999332,1.0,1.0,0.0,6,0,0,0,0,0,1,1,0,0,0
1617516736,23.832293,23.801064,0.062,0.05702759,0.0,26.007303,1.0,1.0,0.0,6,0,0,0,0,0,1,1,0,0,0
1618010322,23.872686,23.812346,0.062,0.057930928,0.0,26.015297,1.0,1.0,0.0,6,0,0,0,0,0,1,1,0,0,0
1618516749,23.892883,23.831053,0.049599998,0.05784712,0.0,26.023403,1.0,1.0,0.0,6,0,0,0,0,0,1,1,0,0,0
1619022356,23.892883,23.852615,0.049599998,0.05784892,0.0,26.031528,1.0,1.0,0.0,6,0,0,0,0,0,1,1,0,0,0
1619515877,23.91308,23.866987,0.062,0.056820467,0.0,26.039198,1.0,1.0,0.0,6,0,0,0,0,0,1,1,0,0,0
1620021585,23.91308,23.871885,0.062,0.05740968,0.0,26.04733,1.0,1.0,0.0,6,0,0,0,0,0,1,1,0,0,0
1620527033,23.892883,23.874495,0.049599998,0.057181243,0.0,26.05538,1.0,1.0,0.0,6,0,0,0,0,0,1,1,0,0,0
1621021502,23.953474,23.873423,0.062,0.056021605,0.0,26.062983,1.0,1.0,0.0,6,0,0,0,0,0,1,1,0,0,0
1621527438,23.832293,23.873259,0.049599998,0.055901222,0.0,26.07082,1.0,1.0,0.0,6,0,0,0,0,0,1,1,0,0,0
1622032714,23.91308,23.867125,0.062,0.057946354,0.0,26.079245,1.0,1.0,0.0,6,0,0,0,0,0,1,1,0,0,0
1622526334,23.872686,23.86347,0.062,0.059681337,0.0,26.087587,1.0,1.0,0.0,6,0,0,0,0,0,1,1,0,0,0
1623032968,23.832293,23.861765,0.062,0.057692442,0.0,26.095558,1.0,1.0,0.0,6,0,0,0,0,0,1,1,0,0,0
1623538352,23.832293,23.856176,0.062,0.058371715,0.0,26.103777,1.0,1.0,0.0,6,0,0,0,0,0,1,1,0,0,0
1624032254,23.832293,23.853268,0.049599998,0.059285708,0.0,26.111946,1.0,1.0,0.0,6,0,0,0,0,0,1,1,0,0,0
1624538301,23.85249,23.856264,0.062,0.058459222,0.0,26.120026,1.0,1.0,0.0,6,0,0,0,0,0,1,1,0,0,0
1625043954,23.91308,23.85938,0.049599998,0.0588844,0.0,26.128387,1.0,1.0,0.0,6,0,0,0,0,0,1,1,0,0,0
1625537501,23.791899,23.858534,0.062,0.057775483,0.0,26.13614,1.0,1.0,0.0,6,0,0,0,0,0,1,1,0,0,0
1626044307,23.85249,23.855776,0.049599998,0.058248907,0.0,26.144457,1.0,1.0,0.0,6,0,0,0,0,0,1,1,0,0,0
1626549544,23.85249,23.851746,0.062,0.058436953,0.0,26.152819,1.0,1.0,0.0,6,0,0,0,0,0,1,1,0,0,0
1627043093,23.872686,23.850958,0.049599998,0.057550717,0.0,26.160572,1.0,1.0,0.0,6,0,0,0,0,0,1,1,0,0,0
1627548653,23.872686,23.853624,0.062,0.057325102,0.0,26.168573,1.0,1.0,0.0,6,0,0,0,0,0,1,1,0,0,0
1628055387,23.85249,23.855543,0.062,0.058275636,0.0,26.176788,1.0,1.0,0.0,6,0,0,0,0,0,1,1,0,0,0
1628548761,23.832293,23.855682,0.049599998,0.058462556,0.0,26.184784,1.0,1.0,0.0,6,0,0,0,0,0,1,1,0,0,0
1629054337,23.872686,23.857555,0.062,0.058232754,0.0,26.19286,1.0,1.0,0.0,6,0,0,0,0,0,1,1,0,0,0
1629559942,23.832293,23.852451,0.049599998,0.05749888,0.0,26.200867,1.0,1.0,0.0,6,0,0,0,0,0,1,1,0,0,0
1630054344,23.85249,23.850632,0.062,0.05794059,0.0,26.208755,1.0,1.0,0.0,6,0,0,0,0,0,1,1,0,0,0
1630559877,23.832293,23.84633,0.062,0.057444945,0.0,26.21675,1.0,1.0,0.0,6,0,0,0,0,0,1,1,0,0,0
1631065756,23.832293,23.836248,0.049599998,0.057612017,0.0,26.224888,1.0,1.0,0.0,6,0,0,0,0,0,1,1,0,0,0
1631559096,23.85249,23.837017,0.049599998,0.056868557,0.0,26.232552,1.0,1.0,0.0,6,0,0,0,0,0,1,1,0,0,0
1632065470,23.872686,23.834356,0.062,0.054472834,0.0,26.24003,1.0,1.0,0.0,6,0,0,0,0,0,1,1,0,0,0
1632571107,23.832293,23.839016,0.062,0.055958543,0.0,26.248,1.0,1.0,0.0,6,0,0,0,0,0,1,1,0,0,0
1633065415,23.872686,23.841988,0.062,0.05519167,0.0,26.255524,1.0,1.0,0.0,6,0,0,0,0,0,1,1,0,0,0
1633571324,23.832293,23.842773,0.049599998,0.056035437,0.0,26.263529,1.0,1.0,0.0,6,0,0,0,0,0,1,1,0,0,0
1634076769,23.85249,23.844837,0.062,0.056786805,0.0,26.271614,1.0,1.0,0.0,6,0,0,0,0,0,1,1,0,0,0
1634570349,23.832293,23.843601,0.049599998,0.05733635,0.0,26.279572,1.0,1.0,0.0,6,0,0,0,0,0,1,1,0,0,0
1635076148,23.832293,23.837507,0.049599998,0.05736852,0.0,26.287752,1.0,1.0,0.0,6,0,0,0,0,0,1,1,0,0,0
1635582638,23.832293,23.832623,0.062,0.057501297,0.0,26.29585,1.0,1.0,0.0,6,0,0,0,0,0,1,1,0,0,0
1636075960,23.832293,23.827734,0.062,0.05814966,0.0,26.303852,1.0,1.0,0.0,6,0,0,0,0,0,1,1,0,0,0
1636581465,23.771704,23.822065,0.049599998,0.05768152,0.0,26.311943,1.0,1.0,0.0,6,0,0,0,0,0,1,1,0,0,0
1637088190,23.832293,23.821587,0.062,0.057982285,0.0,26.320177,1.0,1.0,0.0,6,0,0,0,0,0,1,1,0,0,0
1637581564,23.812096,23.823595,0.0372,0.057679635,0.0,26.328043,1.0,1.0,0.0,6,0,0,0,0,0,1,1,0,0,0
1638087366,23.832293,23.823334,0.062,0.05787841,0.0,26.336212,1.0,1.0,0.0,6,0,0,0,0,0,1,1,0,0,0
1638593441,23.832293,23.818188,0.062,0.057428937,0.0,26.344223,1.0,1.0,0.0,6,0,0,0,0,0,1,1,0,0,0
1639086983,23.85249,23.813883,0.049599998,0.059129618,0.0,26.35247,1.0,1.0,0.0,6,0,0,0,0,0,1,1,0,0,0
1639592781,23.832293,23.809715,0.062,0.059106454,0.0,26.360723,1.0,1.0,0.0,6,0,0,0,0,0,1,1,0,0,0
1640099337,23.791899,23.81541,0.062,0.05800848,0.0,26.36866,1.0,1.0,0.0,6,0,0,0,0,0,1,1,0,0,0
1642098334,23.73131,23.768879,0.049599998,0.05729948,0.0,26.400595,1.0,1.0,0.0,6,0,0,0,0,0,1,1,0,0,0
1643109564,23.711113,23.735682,0.049599998,0.058107503,0.0,26.416891,1.0,1.0,0.0,6,0,0,0,0,0,1,1,0,0,0
1643603958,23.791899,23.747402,0.049599998,0.058442786,0.0,26.424952,1.0,1.0,0.0,6,0,0,0,0,0,1,1,0,0,0
1644109570,23.751507,23.754555,0.049599998,0.057357017,0.0,26.432993,1.0,1.0,0.0,6,0,0,0,0,0,1,1,0,0,0
1644615377,23.791899,23.75822,0.049599998,0.056204297,0.0,26.440796,1.0,1.0,0.0,6,0,0,0,0,0,1,1,0,0,0
1645120737,23.791899,23.777754,0.062,0.05711078,0.0,26.448933,1.0,1.0,0.0,6,0,0,0,0,0,1,1,0,0,0
1645627966,22.963829,23.758791,0.049599998,0.05777886,0.0,26.457111,1.0,1.0,0.0,6,0,0,0,0,0,1,1,0,0,0
1646120950,23.73131,23.75859,0.062,0.056625616,0.0,26.464735,1.0,1.0,0.0,6,0,0,0,0,0,1,1,0,0,0
1646626814,23.812096,23.76871,0.049599998,0.05679944,0.0,26.47278,1.0,1.0,0.0,6,0,0,0,0,0,1,1,0,0,0
1647120747,23.832293,23.784578,0.049599998,0.05700303,0.0,26.480576,1.0,1.0,0.0,6,0,0,0,0,0,1,1,0,0,0
1647626593,23.791899,23.789589,0.049599998,0.055649415,0.0,26.488165,1.0,1.0,0.0,6,0,0,0,0,0,1,1,0,0,0
1648131876,23.812096,23.79423,0.049599998,0.05566821,0.0,26.495916,1.0,1.0,0.0,6,0,0,0,0,0,1,1,0,0,0
1648626333,23.751507,23.787598,0.062,0.057020955,0.0,26.503876,1.0,1.0,0.0,6,0,0,0,0,0,1,1,0,0,0
1649131903,23.771704,23.784157,0.049599998,0.057498023,0.0,26.512037,1.0,1.0,0.0,6,0,0,0,0,0,1,1,0,0,0
1649637505,23.812096,23.782944,0.062,0.05829623,0.0,26.520376,1.0,1.0,0.0,6,0,0,0,0,0,1,1,0,0,0
1650131130,23.711113,23.781609,0.049599998,0.056577127,0.0,26.527967,1.0,1.0,0.0,6,0,0,0,0,0,1,1,0,0,0
1650638068,23.791899,23.781904,0.099199995,0.05890866,0.0,26.536455,1.0,1.0,0.0,6,0,0,0,0,0,1,1,0,0,0
1651143029,23.751507,23.785118,0.049599998,0.05800519,0.0,26.54457,1.0,1.0,0.0,6,0,0,0,0,0,1,1,0,0,0
1651636685,23.812096,23.788095,0.049599998,0.05716909,0.0,26.552286,1.0,1.0,0.0,6,0,0,0,0,0,1,1,0,0,0
1652143170,23.771704,23.792135,0.049599998,0.056716852,0.0,26.560205,1.0,1.0,0.0,6,0,0,0,0,0,1,1,0,0,0
1652648776,23.812096,23.790571,0.049599998,0.05735304,0.0,26.568333,1.0,1.0,0.0,6,0,0,0,0,0,1,1,0,0,0
1653142299,23.751507,23.788677,0.062,0.05614807,0.0,26.575926,1.0,1.0,0.0,6,0,0,0,0,0,1,1,0,0,0
1653647971,23.85249,23.791103,0.062,0.056845013,0.0,26.584013,1.0,1.0,0.0,6,0,0,0,0,0,1,1,0,0,0
1654154198,23.771704,23.785652,0.062,0.057205945,0.0,26.592062,1.0,1.0,0.0,6,0,0,0,0,0,1,1,0,0,0
1654647879,23.771704,23.773731,0.049599998,0.05734847,0.0,26.599897,1.0,1.0,0.0,6,0,0,0,0,0,1,1,0,0,0
1655154257,23.791899,23.769112,0.062,0.057397492,0.0,26.607965,1.0,1.0,0.0,6,0,0,0,0,0,1,1,0,0,0
1655659878,23.771704,23.772692,0.049599998,0.05767628,0.0,26.616135,1.0,1.0,0.0,6,0,0,0,0,0,1,1,0,0,0
1656153497,23.791899,23.778624,0.062,0.05745869,0.0,26.623932,1.0,1.0,0.0,6,0,0,0,0,0,1,1,0,0,0
1656659347,23.751507,23.775166,0.062,0.057289265,0.0,26.63198,1.0,1.0,0.0,6,0,0,0,0,0,1,1,0,0,0
1657165501,23.771704,23.765985,0.049599998,0.05706729,0.0,26.640026,1.0,1.0,0.0,6,0,0,0,0,0,1,1,0,0,0
1657659079,23.751507,23.765768,0.049599998,0.057185747,0.0,26.647911,1.0,1.0,0.0,6,0,0,0,0,0,1,1,0,0,0
1658165117,23.73131,23.757982,0.049599998,0.05612787,0.0,26.655718,1.0,1.0,0.0,6,0,0,0,0,0,1,1,0,0,0
1658671176,23.791899,23.75928,0.062,0.05701675,0.0,26.663862,1.0,1.0,0.0,6,0,0,0,0,0,1,1,0,0,0
1659165041,23.791899,23.76314,0.062,0.057470713,0.0,26.671707,1.0,1.0,0.0,6,0,0,0,0,0,1,1,0,0,0
1659670641,23.771704,23.764677,0.062,0.057124466,0.0,26.679752,1.0,1.0,0.0,6,0,0,0,0,0,1,1,0,0,0
1660175861,23.791899,23.76286,0.062,0.059383757,0.0,26.68834,1.0,1.0,0.0,6,0,0,0,0,0,1,1,0,0,0
1660670320,23.690916,23.762918,0.062,0.058184654,0.0,26.69624,1.0,1.0,0.0,6,0,0,0,0,0,1,1,0,0,0
1661175851,23.690916,23.757078,0.049599998,0.058205985,0.0,26.704279,1.0,1.0,0.0,6,0,0,0,0,0,1,1,0,0,0
1661681781,23.711113,23.75418,0.062,0.058047775,0.0,26.712498,1.0,1.0,0.0,6,0,0,0,0,0,1,1,0,0,0
1662175943,23.771704,23.747988,0.062,0.05796203,0.0,26.720425,1.0,1.0,0.0,6,0,0,0,0,0,1,1,0,0,0
1662681548,23.690916,23.751509,0.049599998,0.056986425,0.0,26.728384,1.0,1.0,0.0,6,0,0,0,0,0,1,1,0,0,0
1663187455,23.690916,23.74984,0.049599998,0.055452645,0.0,26.736015,1.0,1.0,0.0,6,0,0,0,0,0,1,1,0,0,0
1663681528,23.751507,23.754204,0.062,0.056632213,0.0,26.743902,1.0,1.0,0.0,6,0,0,0,0,0,1,1,0,0,0
1664187443,23.711113,23.754204,0.049599998,0.057303697,0.0,26.751944,1.0,1.0,0.0,6,0,0,0,0,0,1,1,0,0,0
1664693091,23.711113,23.74329,0.062,0.056782737,0.0,26.759909,1.0,1.0,0.0,6,0,0,0,0,0,1,1,0,0,0
1665187017,23.73131,23.734806,0.049599998,0.0565195,0.0,26.76762,1.0,1.0,0.0,6,0,0,0,0,0,1,1,0,0,0
1665693014,23.711113,23.730444,0.062,0.0556096,0.0,26.775293,1.0,1.0,0.0,6,0,0,0,0,0,1,1,0,0,0
1666198661,23.690916,23.726246,0.062,0.055490635,0.0,26.78309,1.0,1.0,0.0,6,0,0,0,0,0,1,1,0,0,0
1666692239,23.67072,23.716503,0.099199995,0.05625628,0.0,26.790771,1.0,1.0,0.0,6,0,0,0,0,0,1,1,0,0,0
1667198314,23.711113,23.712877,0.049599998,0.056520704,0.0,26.798733,1.0,1.0,0.0,6,0,0,0,0,0,1,1,0,0,0
1667703866,23.73131,23.715382,0.049599998,0.056180876,0.0,26.806555,1.0,1.0,0.0,6,0,0,0,0,0,1,1,0,0,0
1668197850,23.690916,23.71986,0.049599998,0.05593198,0.0,26.814196,1.0,1.0,0.0,6,0,0,0,0,0,1,1,0,0,0
1668703402,23.711113,23.716803,0.049599998,0.05660754,0.0,26.82229,1.0,1.0,0.0,6,0,0,0,0,0,1,1,0,0,0
1669209560,23.771704,23.71348,0.062,0.057133783,0.0,26.830341,1.0,1.0,0.0,6,0,0,0,0,0,1,1,0,0,0
1669703018,23.73131,23.71609,0.049599998,0.057566036,0.0,26.838306,1.0,1.0,0.0,6,0,0,0,0,0,1,1,0,0,0
1670209796,23.751507,23.724586,0.0744,0.056905027,0.0,26.846243,1.0,1.0,0.0,6,0,0,0,0,0,1,1,0,0,0
1670715168,23.73131,23.723091,0.062,0.05707286,0.0,26.854279,1.0,1.0,0.0,6,0,0,0,0,0,1,1,0,0,0
1671208661,23.711113,23.716263,0.062,0.057335548,0.0,26.862158,1.0,1.0,0.0,6,0,0,0,0,0,1,1,0,0,0
1671714359,23.690916,23.709871,0.049599998,0.057141542,0.0,26.870205,1.0,1.0,0.0,6,0,0,0,0,0,1,1,0,0,0
1672208662,23.67072,23.722254,0.062,0.05705357,0.0,26.8781,1.0,1.0,0.0,6,0,0,0,0,0,1,1,0,0,0
1672714294,23.690916,23.705725,0.062,0.056989264,0.0,26.886066,1.0,1.0,0.0,6,0,0,0,0,0,1,1,0,0,0
1673220742,23.67072,23.699526,0.049599998,0.056642577,0.0,26.89399,1.0,1.0,0.0,6,0,0,0,0,0,1,1,0,0,0
1673714351,23.711113,23.69431,0.062,0.057095263,0.0,26.901834,1.0,1.0,0.0,6,0,0,0,0,0,1,1,0,0,0
1674220249,23.751507,23.704433,0.062,0.057460506,0.0,26.909967,1.0,1.0,0.0,6,0,0,0,0,0,1,1,0,0,0
1674725583,23.690916,23.70041,0.062,0.055377282,0.0,26.917557,1.0,1.0,0.0,6,0,0,0,0,0,1,1,0,0,0
1675219981,23.711113,23.701605,0.0744,0.0576588,0.0,26.925743,1.0,1.0,0.0,6,0,0,0,0,0,1,1,0,0,0
1675725536,23.751507,23.70308,0.062,0.05757037,0.0,26.93387,1.0,1.0,0.0,6,0,0,0,0,0,1,1,0,0,0
1676231389,23.67072,23.701292,0.062,0.057094622,0.0,26.941883,1.0,1.0,0.0,6,0,0,0,0,0,1,1,0,0,0
1676725786,23.751507,23.699808,0.062,0.0557334,0.0,26.949396,1.0,1.0,0.0,6,0,0,0,0,0,1,1,0,0,0
1677231361,23.711113,23.700094,0.062,0.05716568,0.0,26.957558,1.0,1.0,0.0,6,0,0,0,0,0,1,1,0,0,0
1677736649,23.690916,23.700191,0.062,0.056279935,0.0,26.965345,1.0,1.0,0.0,6,0,0,0,0,0,1,1,0,0,0
1678231066,23.690916,23.695396,0.049599998,0.056144442,0.0,26.973038,1.0,1.0,0.0,6,0,0,0,0,0,1,1,0,0,0
1678736568,23.67072,23.691202,0.049599998,0.055413626,0.0,26.980738,1.0,1.0,0.0,6,0,0,0,0,0,1,1,0,0,0
1679242420,23.650522,23.68042,0.049599998,0.058047507,0.0,26.989117,1.0,1.0,0.0,6,0,0,0,0,0,1,1,0,0,0
1679736627,23.690916,23.67806,0.062,0.057445694,0.0,26.99697,1.0,1.0,0.0,6,0,0,0,0,0,1,1,0,0,0
1680242347,23.690916,23.682962,0.049599998,0.05682293,0.0,27.00485,1.0,1.0,0.0,6,0,0,0,0,0,1,1,0,0,0
1680747907,23.711113,23.684052,0.062,0.057119362,0.0,27.01281,1.0,1.0,0.0,6,0,0,0,0,0,1,1,0,0,0
1681242340,23.711113,23.686285,0.049599998,0.055042528,0.0,27.020168,1.0,1.0,0.0,6,0,0,0,0,0,1,1,0,0,0
1681747911,23.690916,23.686995,0.049599998,0.055999123,0.0,27.028131,1.0,1.0,0.0,6,0,0,0,0,0,1,1,0,0,0
1682253464,23.690916,23.675703,0.049599998,0.056493476,0.0,27.036047,1.0,1.0,0.0,6,0,0,0,0,0,1,1,0,0,0
1682746993,23.711113,23.664854,0.049599998,0.057165347,0.0,27.043968,1.0,1.0,0.0,6,0,0,0,0,0,1,1,0,0,0
1683253761,23.711113,23.681515,0.0744,0.058959574,0.0,27.052374,1.0,1.0,0.0,6,0,0,0,0,0,1,1,0,0,0
1683759171,23.509144,23.645468,0.049599998,0.05836695,0.0,27.060497,1.0,1.0,0.0,6,0,0,0,0,0,1,1,0,0,0
1684253491,23.52934,23.610199,0.062,0.058193143,0.0,27.068392,1.0,1.0,0.0,6,0,0,0,0,0,1,1,0,0,0
1684759013,23.549538,23.585943,0.049599998,0.057198636,0.0,27.076515,1.0,1.0,0.0,6,0,0,0,0,0,1,1,0,0,0
1685264758,23.549538,23.5674,0.049599998,0.0578525,0.0,27.084644,1.0,1.0,0.0,6,0,0,0,0,0,1,1,0,0,0
1685758765,23.589931,23.569334,0.062,0.055954445,0.0,27.09209,1.0,1.0,0.0,6,0,0,0,0,0,1,1,0,0,0
1686264663,23.630325,23.58893,0.062,0.057161015,0.0,27.100195,1.0,1.0,0.0,6,0,0,0,0,0,1,1,0,0,0
1686770359,23.650522,23.61061,0.062,0.05687399,0.0,27.108116,1.0,1.0,0.0,6,0,0,0,0,0,1,1,0,0,0
1687263922,23.711113,23.624655,0.062,0.058283716,0.0,27.11624,1.0,1.0,0.0,6,0,0,0,0,0,1,1,0,0,0
1687770321,23.630325,23.631542,0.0744,0.05808168,0.0,27.124372,1.0,1.0,0.0,6,0,0,0,0,0,1,1,0,0,0
1688275965,23.52934,23.617264,0.049599998,0.056229524,0.0,27.132042,1.0,1.0,0.0,6,0,0,0,0,0,1,1,0,0,0
1688770348,23.569735,23.598093,0.049599998,0.054511968,0.0,27.139393,1.0,1.0,0.0,6,0,0,0,0,0,1,1,0,0,0
1689275929,23.52934,23.57951,0.062,0.055153124,0.0,27.147228,1.0,1.0,0.0,6,0,0,0,0,0,1,1,0,0,0
1689781490,23.52934,23.566036,0.049599998,0.055669945,0.0,27.155071,1.0,1.0,0.0,6,0,0,0,0,0,1,1,0,0,0
1690287592,23.509144,23.55235,0.062,0.056169074,0.0,27.162994,1.0,1.0,0.0,6,0,0,0,0,0,1,1,0,0,0
1690781461,23.569735,23.54627,0.062,0.055981632,0.0,27.170668,1.0,1.0,0.0,6,0,0,0,0,0,1,1,0,0,0
1691287367,23.509144,23.537945,0.062,0.05636696,0.0,27.178598,1.0,1.0,0.0,6,0,0,0,0,0,1,1,0,0,0
1691793792,23.448553,23.524015,0.0868,0.056103557,0.0,27.186415,1.0,1.0,0.0,6,0,0,0,0,0,1,1,0,0,0
1692287393,23.488947,23.513874,0.049599998,0.05629672,0.0,27.194212,1.0,1.0,0.0,6,0,0,0,0,0,1,1,0,0,0
1692793112,23.46875,23.508837,0.062,0.05602708,0.0,27.202007,1.0,1.0,0.0,6,0,0,0,0,0,1,1,0,0,0
1693298307,23.52934,23.50914,0.049599998,0.05662851,0.0,27.210007,1.0,1.0,0.0,6,0,0,0,0,0,1,1,0,0,0
1693793015,23.509144,23.509668,0.049599998,0.054915637,0.0,27.217402,1.0,1.0,0.0,6,0,0,0,0,0,1,1,0,0,0
1694298368,23.52934,23.512209,0.049599998,0.055116877,0.0,27.225105,1.0,1.0,0.0,6,0,0,0,0,0,1,1,0,0,0
1694804777,23.509144,23.508118,0.049599998,0.056092173,0.0,27.23307,1.0,1.0,0.0,6,0,0,0,0,0,1,1,0,0,0
1695298589,23.488947,23.504719,0.049599998,0.055781722,0.0,27.24071,1.0,1.0,0.0,6,0,0,0,0,0,1,1,0,0,0
1695803932,23.509144,23.50064,0.049599998,0.056488015,0.0,27.248669,1.0,1.0,0.0,6,0,0,0,0,0,1,1,0,0,0
1696309479,23.488947,23.497406,0.049599998,0.05490652,0.0,27.256128,1.0,1.0,0.0,6,0,0,0,0,0,1,1,0,0,0
1696803899,23.46875,23.484978,0.049599998,0.05560009,0.0,27.263851,1.0,1.0,0.0,6,0,0,0,0,0,1,1,0,0,0
1697309400,23.448553,23.48082,0.062,0.056408193,0.0,27.271807,1.0,1.0,0.0,6,0,0,0,0,0,1,1,0,0,0
1697803118,23.448553,23.482307,0.049599998,0.056472853,0.0,27.279474,1.0,1.0,0.0,6,0,0,0,0,0,1,1,0,0,0
1698309876,23.428356,23.475014,0.049599998,0.05601374,0.0,27.287373,1.0,1.0,0.0,6,0,0,0,0,0,1,1,0,0,0
1698815495,23.46875,23.478727,0.062,0.056080405,0.0,27.295212,1.0,1.0,0.0,6,0,0,0,0,0,1,1,0,0,0
1699308759,23.428356,23.47919,0.049599998,0.055012915,0.0,27.302584,1.0,1.0,0.0,6,0,0,0,0,0,1,1,0,0,0
1699815137,23.509144,23.479237,0.049599998,0.05537878,0.0,27.310394,1.0,1.0,0.0,6,0,0,0,0,0,1,1,0,0,0
1700320781,23.509144,23.486141,0.049599998,0.055978686,0.0,27.318363,1.0,1.0,0.0,6,0,0,0,0,0,1,1,0,0,0
1700814323,23.488947,23.491749,0.062,0.055420764,0.0,27.325912,1.0,1.0,0.0,6,0,0,0,0,0,1,1,0,0,0
1701320769,23.46875,23.491001,0.049599998,0.056519482,0.0,27.333935,1.0,1.0,0.0,6,0,0,0,0,0,1,1,0,0,0
1701826358,23.488947,23.493053,0.062,0.05449681,0.0,27.341316,1.0,1.0,0.0,6,0,0,0,0,0,1,1,0,0,0
1702320238,23.46875,23.49579,0.062,0.055764966,0.0,27.34903,1.0,1.0,0.0,6,0,0,0,0,0,1,1,0,0,0
1702826323,23.52934,23.498075,0.062,0.05459052,0.0,27.356628,1.0,1.0,0.0,6,0,0,0,0,0,1,1,0,0,0
1703332222,23.488947,23.498922,0.049599998,0.05462515,0.0,27.364382,1.0,1.0,0.0,6,0,0,0,0,0,1,1,0,0,0
1703825523,23.509144,23.503757,0.049599998,0.05454102,0.0,27.371794,1.0,1.0,0.0,6,0,0,0,0,0,1,1,0,0,0
1704332000,23.46875,23.50142,0.049599998,0.05536831,0.0,27.379648,1.0,1.0,0.0,6,0,0,0,0,0,1,1,0,0,0
1704837551,23.488947,23.494955,0.062,0.05629614,0.0,27.387646,1.0,1.0,0.0,6,0,0,0,0,0,1,1,0,0,0
1705331118,23.52934,23.493341,0.062,0.055366483,0.0,27.395145,1.0,1.0,0.0,6,0,0,0,0,0,1,1,0,0,0
1705837577,23.448553,23.49194,0.049599998,0.05625279,0.0,27.403162,1.0,1.0,0.0,6,0,0,0,0,0,1,1,0,0,0
1706331036,23.367765,23.476524,0.049599998,0.055395786,0.0,27.41061,1.0,1.0,0.0,6,0,0,0,0,0,1,1,0,0,0
1706837899,23.488947,23.481104,0.049599998,0.055855487,0.0,27.418518,1.0,1.0,0.0,6,0,0,0,0,0,1,1,0,0,0
1707343009,23.448553,23.480635,0.062,0.055370018,0.0,27.426212,1.0,1.0,0.0,6,0,0,0,0,0,1,1,0,0,0
1707836676,23.46875,23.476427,0.049599998,0.055366494,0.0,27.433842,1.0,1.0,0.0,6,0,0,0,0,0,1,1,0,0,0
1708342320,23.509144,23.48151,0.049599998,0.055840474,0.0,27.441761,1.0,1.0,0.0,6,0,0,0,0,0,1,1,0,0,0
1708848751,23.52934,23.488808,0.049599998,0.05461894,0.0,27.449358,1.0,1.0,0.0,6,0,0,0,0,0,1,1,0,0,0
1709342382,23.46875,23.494509,0.049599998,0.055183735,0.0,27.456951,1.0,1.0,0.0,6,0,0,0,0,0,1,1,0,0,0
1709848713,23.52934,23.498993,0.049599998,0.055739064,0.0,27.46485,1.0,1.0,0.0,6,0,0,0,0,0,1,1,0,0,0
1710354252,23.46875,23.498259,0.062,0.05642802,0.0,27.47281,1.0,1.0,0.0,6,0,0,0,0,0,1,1,0,0,0
1710848194,23.448553,23.494562,0.049599998,0.056625724,0.0,27.480574,1.0,1.0,0.0,6,0,0,0,0,0,1,1,0,0,0
1711354326,23.448553,23.483454,0.049599998,0.056143504,0.0,27.48845,1.0,1.0,0.0,6,0,0,0,0,0,1,1,0,0,0
1711859871,23.46875,23.485725,0.0744,0.05499248,0.0,27.496029,1.0,1.0,0.0,6,0,0,0,0,0,1,1,0,0,0
1712353434,23.509144,23.500734,0.049599998,0.055316187,0.0,27.503641,1.0,1.0,0.0,6,0,0,0,0,0,1,1,0,0,0
1712859959,23.428356,23.512272,0.062,0.05479947,0.0,27.51129,1.0,1.0,0.0,6,0,0,0,0,0,1,1,0,0,0
1713365597,23.448553,23.477255,0.062,0.05513446,0.0,27.519037,1.0,1.0,0.0,6,0,0,0,0,0,1,1,0,0,0
1713859134,23.46875,23.45386,0.049599998,0.055760376,0.0,27.52671,1.0,1.0,0.0,6,0,0,0,0,0,1,1,0,0,0
1714365512,23.428356,23.446985,0.062,0.05596527,0.0,27.534525,1.0,1.0,0.0,6,0,0,0,0,0,1,1,0,0,0
1714871153,23.46875,23.458332,0.049599998,0.056272715,0.0,27.542454,1.0,1.0,0.0,6,0,0,0,0,0,1,1,0,0,0
1715364779,23.46875,23.459656,0.049599998,0.054448914,0.0,27.549793,1.0,1.0,0.0,6,0,0,0,0,0,1,1,0,0,0
1715871132,23.46875,23.45855,0.049599998,0.056405958,0.0,27.55793,1.0,1.0,0.0,6,0,0,0,0,0,1,1,0,0,0
1716376627,23.46875,23.466967,0.062,0.055808466,0.0,27.565678,1.0,1.0,0.0,6,0,0,0,0,0,1,1,0,0,0
1716870310,23.509144,23.477919,0.062,0.055588473,0.0,27.573309,1.0,1.0,0.0,6,0,0,0,0,0,1,1,0,0,0
1717376668,23.448553,23.47818,0.062,0.05561346,0.0,27.581078,1.0,1.0,0.0,6,0,0,0,0,0,1,1,0,0,0
1717882622,23.448553,23.466719,0.062,0.055904876,0.0,27.588966,1.0,1.0,0.0,6,0,0,0,0,0,1,1,0,0,0
1718376663,23.428356,23.46136,0.062,0.05720453,0.0,27.596895,1.0,1.0,0.0,6,0,0,0,0,0,1,1,0,0,0
1718882330,23.428356,23.449734,0.049599998,0.055474497,0.0,27.604568,1.0,1.0,0.0,6,0,0,0,0,0,1,1,0,0,0
1719387942,23.428356,23.447119,0.062,0.057422057,0.0,27.612902,1.0,1.0,0.0,6,0,0,0,0,0,1,1,0,0,0
1719894325,23.46875,23.446793,0.062,0.057008326,0.0,27.620869,1.0,1.0,0.0,6,0,0,0,0,0,1,1,0,0,0
1720387932,23.46875,23.45692,0.049599998,0.05575835,0.0,27.628416,1.0,1.0,0.0,6,0,0,0,0,0,1,1,0,0,0
1720893553,23.488947,23.461042,0.062,0.055384662,0.0,27.63616,1.0,1.0,0.0,6,0,0,0,0,0,1,1,0,0,0
1721400185,23.428356,23.467289,0.049599998,0.052447107,0.0,27.643349,1.0,1.0,0.0,6,0,0,0,0,0,1,1,0,0,0
1721893559,23.46875,23.460873,0.049599998,0.05488171,0.0,27.651186,1.0,1.0,0.0,6,0,0,0,0,0,1,1,0,0,0
1722399185,23.448553,23.455822,0.049599998,0.05491245,0.0,27.658978,1.0,1.0,0.0,6,0,0,0,0,0,1,1,0,0,0
1722905462,23.367765,23.445826,0.012399999,0.054945756,0.0,27.66675,1.0,1.0,0.0,6,0,0,0,0,0,1,1,0,0,0
1723399384,23.610128,23.450895,0.049599998,0.05498979,0.0,27.674257,1.0,1.0,0.0,6,0,0,0,0,0,1,1,0,0,0
1723904751,23.509144,23.501226,0.049599998,0.055663478,0.0,27.682125,1.0,1.0,0.0,6,0,0,0,0,0,1,1,0,0,0
1724411148,23.509144,23.511435,0.062,0.057167057,0.0,27.690258,1.0,1.0,0.0,6,0,0,0,0,0,1,1,0,0,0
1724904667,23.428356,23.493965,0.062,0.057768602,0.0,27.698212,1.0,1.0,0.0,6,0,0,0,0,0,1,1,0,0,0
1725410303,23.509144,23.47425,0.049599998,0.05650598,0.0,27.70605,1.0,1.0,0.0,6,0,0,0,0,0,1,1,0,0,0
1725916745,23.448553,23.469307,0.049599998,0.056226972,0.0,27.713928,1.0,1.0,0.0,6,0,0,0,0,0,1,1,0,0,0
1726410349,23.488947,23.47071,0.049599998,0.05567175,0.0,27.72148,1.0,1.0,0.0,6,0,0,0,0,0,1,1,0,0,0
1726915854,23.46875,23.476465,0.062,0.055399284,0.0,27.72928,1.0,1.0,0.0,6,0,0,0,0,0,1,1,0,0,0
1727422366,23.46875,23.477585,0.049599998,0.054623123,0.0,27.73684,1.0,1.0,0.0,6,0,0,0,0,0,1,1,0,0,0
1727915920,23.52934,23.488688,0.049599998,0.05483717,0.0,27.744421,1.0,1.0,0.0,6,0,0,0,0,0,1,1,0,0,0
1728422593,23.509144,23.493843,0.049599998,0.053092457,0.0,27.751858,1.0,1.0,0.0,6,0,0,0,0,0,1,1,0,0,0
1728928151,23.549538,23.504213,0.062,0.055456802,0.0,27.7599,1.0,1.0,0.0,6,0,0,0,0,0,1,1,0,0,0
1729421622,23.509144,23.510717,0.049599998,0.05772071,0.0,27.76811,1.0,1.0,0.0,6,0,0,0,0,0,1,1,0,0,0
1729927944,23.589931,23.514202,0.049599998,0.056522436,0.0,27.775951,1.0,1.0,0.0,6,0,0,0,0,0,1,1,0,0,0
1730433489,23.448553,23.51154,0.049599998,0.055763375,0.0,27.783787,1.0,1.0,0.0,6,0,0,0,0,0,1,1,0,0,0
1730927345,23.549538,23.50637,0.049599998,0.053922933,0.0,27.791,1.0,1.0,0.0,6,0,0,0,0,0,1,1,0,0,0
1731433459,23.46875,23.50141,0.062,0.052954063,0.0,27.798393,1.0,1.0,0.0,6,0,0,0,0,0,1,1,0,0,0
1731939157,23.46875,23.494228,0.062,0.05374303,0.0,27.806026,1.0,1.0,0.0,6,0,0,0,0,0,1,1,0,0,0
1732432739,23.488947,23.49211,0.049599998,0.05350209,0.0,27.8134,1.0,1.0,0.0,6,0,0,0,0,0,1,1,0,0,0
1732939042,23.549538,23.497015,0.024799999,0.054200664,0.0,27.821218,1.0,1.0,0.0,6,0,0,0,0,0,1,1,0,0,0
1733444678,23.488947,23.499939,0.062,0.05547771,0.0,27.829138,1.0,1.0,0.0,6,0,0,0,0,0,1,1,0,0,0
1733939098,23.52934,23.50611,0.049599998,0.055250287,0.0,27.836699,1.0,1.0,0.0,6,0,0,0,0,0,1,1,0,0,0
1734444709,23.46875,23.49846,0.049599998,0.057096485,0.0,27.844954,1.0,1.0,0.0,6,0,0,0,0,0,1,1,0,0,0
1734950349,23.509144,23.487833,0.062,0.05802844,0.0,27.853212,1.0,1.0,0.0,6,0,0,0,0,0,1,1,0,0,0
1735443917,23.46875,23.484077,0.049599998,0.056319833,0.0,27.86075,1.0,1.0,0.0,6,0,0,0,0,0,1,1,0,0,0
1735950354,23.488947,23.476906,0.062,0.057664495,0.0,27.869055,1.0,1.0,0.0,6,0,0,0,0,0,1,1,0,0,0
1736456028,23.40816,23.463835,0.049599998,0.056234267,0.0,27.876862,1.0,1.0,0.0,6,0,0,0,0,0,1,1,0,0,0
1736950257,23.40816,23.451597,0.062,0.055736814,0.0,27.884462,1.0,1.0,0.0,6,0,0,0,0,0,1,1,0,0,0
