timestamp,noutputs,output[0],output[1],output[2],output[3],output[4],output[5],output[6],output[7],output[8],output[9],output[10],output[11],output[12],output[13],output[14],output[15]
1430852329,8,1161.0,1157.0,1153.0,1150.0,1150.0,1154.0,1159.0,1162.0,0.0,0.0,0.0,0.0,0.0,0.0,0.0,0.0
1430984207,8,1461.0,1457.0,1453.0,1449.0,1450.0,1453.0,1458.0,1461.0,0.0,0.0,0.0,0.0,0.0,0.0,0.0,0.0
1431028197,8,1466.0,1463.0,1458.0,1455.0,1456.0,1459.0,1464.0,1467.0,0.0,0.0,0.0,0.0,0.0,0.0,0.0,0.0
1431052239,8,1469.0,1466.0,1461.0,1458.0,1458.0,1462.0,1466.0,1470.0,0.0,0.0,0.0,0.0,0.0,0.0,0.0,0.0
1431096181,8,1474.0,1472.0,1466.0,1464.0,1463.0,1468.0,1471.0,1475.0,0.0,0.0,0.0,0.0,0.0,0.0,0.0,0.0
1431141097,8,1480.0,1478.0,1472.0,1470.0,1468.0,1473.0,1476.0,1481.0,0.0,0.0,0.0,0.0,0.0,0.0,0.0,0.0
1431188983,8,1486.0,1484.0,1478.0,1475.0,1473.0,1478.0,1481.0,1487.0,0.0,0.0,0.0,0.0,0.0,0.0,0.0,0.0
1431232973,8,1492.0,1487.0,1485.0,1479.0,1482.0,1483.0,1489.0,1490.0,0.0,0.0,0.0,0.0,0.0,0.0,0.0,0.0
1431256981,8,1503.0,1489.0,1494.0,1478.0,1487.0,1479.0,1496.0,1490.0,0.0,0.0,0.0,0.0,0.0,0.0,0.0,0.0
1431304991,8,1496.0,1504.0,1493.0,1495.0,1484.0,1492.0,1488.0,1500.0,0.0,0.0,0.0,0.0,0.0,0.0,0.0,0.0
1431345559,8,1501.0,1498.0,1499.0,1498.0,1502.0,1502.0,1504.0,1502.0,0.0,0.0,0.0,0.0,0.0,0.0,0.0,0.0
1431394108,8,1518.0,1522.0,1507.0,1501.0,1489.0,1496.0,1500.0,1517.0,0.0,0.0,0.0,0.0,0.0,0.0,0.0,0.0
1431441800,8,1518.0,1525.0,1508.0,1509.0,1496.0,1509.0,1507.0,1524.0,0.0,0.0,0.0,0.0,0.0,0.0,0.0,0.0
1431485765,8,1525.0,1517.0,1516.0,1510.0,1515.0,1516.0,1524.0,1523.0,0.0,0.0,0.0,0.0,0.0,0.0,0.0,0.0
1431529853,8,1534.0,1525.0,1522.0,1513.0,1517.0,1518.0,1529.0,1530.0,0.0,0.0,0.0,0.0,0.0,0.0,0.0,0.0
1431553856,8,1526.0,1526.0,1526.0,1526.0,1526.0,1528.0,1527.0,1528.0,0.0,0.0,0.0,0.0,0.0,0.0,0.0,0.0
1431597839,8,1540.0,1532.0,1535.0,1526.0,1531.0,1526.0,1536.0,1533.0,0.0,0.0,0.0,0.0,0.0,0.0,0.0,0.0
1431638620,8,1547.0,1542.0,1540.0,1532.0,1533.0,1532.0,1540.0,1542.0,0.0,0.0,0.0,0.0,0.0,0.0,0.0,0.0
1431682535,8,1555.0,1548.0,1551.0,1537.0,1541.0,1534.0,1545.0,1544.0,0.0,0.0,0.0,0.0,0.0,0.0,0.0,0.0
1431726565,8,1561.0,1555.0,1554.0,1544.0,1545.0,1542.0,1551.0,1553.0,0.0,0.0,0.0,0.0,0.0,0.0,0.0,0.0
1431774614,8,1566.0,1562.0,1555.0,1549.0,1548.0,1551.0,1559.0,1564.0,0.0,0.0,0.0,0.0,0.0,0.0,0.0,0.0
1431818613,8,1570.0,1566.0,1560.0,1555.0,1555.0,1559.0,1565.0,1569.0,0.0,0.0,0.0,0.0,0.0,0.0,0.0,0.0
1431863459,8,1572.0,1568.0,1569.0,1565.0,1568.0,1567.0,1571.0,1570.0,0.0,0.0,0.0,0.0,0.0,0.0,0.0,0.0
1431907397,8,1565.0,1562.0,1578.0,1576.0,1584.0,1571.0,1571.0,1558.0,0.0,0.0,0.0,0.0,0.0,0.0,0.0,0.0
1431951126,8,1555.0,1546.0,1583.0,1578.0,1600.0,1570.0,1572.0,1539.0,0.0,0.0,0.0,0.0,0.0,0.0,0.0,0.0
1431991370,8,1542.0,1541.0,1588.0,1593.0,1615.0,1579.0,1568.0,1527.0,0.0,0.0,0.0,0.0,0.0,0.0,0.0,0.0
1432032142,8,1557.0,1538.0,1597.0,1584.0,1622.0,1573.0,1582.0,1527.0,0.0,0.0,0.0,0.0,0.0,0.0,0.0,0.0
1432076549,8,1558.0,1528.0,1575.0,1553.0,1593.0,1553.0,1576.0,1529.0,0.0,0.0,0.0,0.0,0.0,0.0,0.0,0.0
1432124265,8,1553.0,1520.0,1554.0,1530.0,1566.0,1537.0,1564.0,1527.0,0.0,0.0,0.0,0.0,0.0,0.0,0.0,0.0
1432148294,8,1538.0,1512.0,1544.0,1526.0,1558.0,1532.0,1553.0,1518.0,0.0,0.0,0.0,0.0,0.0,0.0,0.0,0.0
1432192265,8,1517.0,1474.0,1526.0,1494.0,1545.0,1504.0,1540.0,1487.0,0.0,0.0,0.0,0.0,0.0,0.0,0.0,0.0
1432236251,8,1513.0,1455.0,1508.0,1461.0,1522.0,1474.0,1527.0,1468.0,0.0,0.0,0.0,0.0,0.0,0.0,0.0,0.0
1432280238,8,1499.0,1454.0,1499.0,1452.0,1496.0,1450.0,1496.0,1452.0,0.0,0.0,0.0,0.0,0.0,0.0,0.0,0.0
1432324990,8,1486.0,1445.0,1501.0,1449.0,1492.0,1433.0,1477.0,1429.0,0.0,0.0,0.0,0.0,0.0,0.0,0.0,0.0
1432372968,8,1474.0,1417.0,1484.0,1432.0,1495.0,1432.0,1484.0,1417.0,0.0,0.0,0.0,0.0,0.0,0.0,0.0,0.0
1432393019,8,1473.0,1420.0,1489.0,1436.0,1496.0,1430.0,1480.0,1414.0,0.0,0.0,0.0,0.0,0.0,0.0,0.0,0.0
1432440984,8,1479.0,1410.0,1472.0,1412.0,1483.0,1425.0,1490.0,1422.0,0.0,0.0,0.0,0.0,0.0,0.0,0.0,0.0
1432484993,8,1464.0,1402.0,1464.0,1417.0,1491.0,1437.0,1493.0,1420.0,0.0,0.0,0.0,0.0,0.0,0.0,0.0,0.0
1432529755,8,1469.0,1398.0,1452.0,1408.0,1482.0,1442.0,1500.0,1433.0,0.0,0.0,0.0,0.0,0.0,0.0,0.0,0.0
1432577552,8,1466.0,1389.0,1441.0,1405.0,1488.0,1457.0,1513.0,1441.0,0.0,0.0,0.0,0.0,0.0,0.0,0.0,0.0
1432618134,8,1470.0,1401.0,1446.0,1408.0,1481.0,1450.0,1505.0,1443.0,0.0,0.0,0.0,0.0,0.0,0.0,0.0,0.0
1432665572,8,1470.0,1403.0,1443.0,1410.0,1479.0,1455.0,1506.0,1448.0,0.0,0.0,0.0,0.0,0.0,0.0,0.0,0.0
1432706546,8,1472.0,1402.0,1443.0,1407.0,1479.0,1453.0,1508.0,1448.0,0.0,0.0,0.0,0.0,0.0,0.0,0.0,0.0
1432730592,8,1481.0,1406.0,1446.0,1402.0,1474.0,1446.0,1509.0,1451.0,0.0,0.0,0.0,0.0,0.0,0.0,0.0,0.0
1432774581,8,1481.0,1412.0,1445.0,1406.0,1473.0,1451.0,1508.0,1457.0,0.0,0.0,0.0,0.0,0.0,0.0,0.0,0.0
1432814615,8,1486.0,1405.0,1448.0,1398.0,1476.0,1445.0,1514.0,1453.0,0.0,0.0,0.0,0.0,0.0,0.0,0.0,0.0
1432858617,8,1488.0,1404.0,1449.0,1398.0,1478.0,1446.0,1517.0,1453.0,0.0,0.0,0.0,0.0,0.0,0.0,0.0,0.0
1432902571,8,1489.0,1415.0,1455.0,1404.0,1473.0,1441.0,1507.0,1452.0,0.0,0.0,0.0,0.0,0.0,0.0,0.0,0.0
1432946537,8,1488.0,1415.0,1452.0,1404.0,1472.0,1443.0,1508.0,1454.0,0.0,0.0,0.0,0.0,0.0,0.0,0.0,0.0
1432987367,8,1489.0,1417.0,1461.0,1408.0,1477.0,1438.0,1505.0,1447.0,0.0,0.0,0.0,0.0,0.0,0.0,0.0,0.0
1433031432,8,1489.0,1416.0,1458.0,1407.0,1476.0,1442.0,1507.0,1451.0,0.0,0.0,0.0,0.0,0.0,0.0,0.0,0.0
1433079511,8,1489.0,1410.0,1457.0,1405.0,1482.0,1445.0,1514.0,1450.0,0.0,0.0,0.0,0.0,0.0,0.0,0.0,0.0
1433123480,8,1489.0,1417.0,1463.0,1413.0,1482.0,1444.0,1507.0,1449.0,0.0,0.0,0.0,0.0,0.0,0.0,0.0,0.0
1433164221,8,1485.0,1415.0,1461.0,1414.0,1483.0,1445.0,1506.0,1447.0,0.0,0.0,0.0,0.0,0.0,0.0,0.0,0.0
1433208199,8,1481.0,1415.0,1462.0,1418.0,1484.0,1447.0,1503.0,1444.0,0.0,0.0,0.0,0.0,0.0,0.0,0.0,0.0
1433248270,8,1483.0,1414.0,1463.0,1416.0,1487.0,1448.0,1508.0,1445.0,0.0,0.0,0.0,0.0,0.0,0.0,0.0,0.0
1433272200,8,1481.0,1411.0,1461.0,1418.0,1491.0,1455.0,1512.0,1448.0,0.0,0.0,0.0,0.0,0.0,0.0,0.0,0.0
1433316160,8,1482.0,1414.0,1459.0,1418.0,1488.0,1454.0,1511.0,1450.0,0.0,0.0,0.0,0.0,0.0,0.0,0.0,0.0
1433364174,8,1479.0,1411.0,1459.0,1420.0,1491.0,1458.0,1512.0,1449.0,0.0,0.0,0.0,0.0,0.0,0.0,0.0,0.0
1433404241,8,1480.0,1414.0,1462.0,1421.0,1491.0,1454.0,1509.0,1446.0,0.0,0.0,0.0,0.0,0.0,0.0,0.0,0.0
1433469008,8,1477.0,1416.0,1457.0,1424.0,1489.0,1460.0,1508.0,1452.0,0.0,0.0,0.0,0.0,0.0,0.0,0.0,0.0
1433489043,8,1480.0,1417.0,1461.0,1423.0,1489.0,1457.0,1508.0,1450.0,0.0,0.0,0.0,0.0,0.0,0.0,0.0,0.0
1433536991,8,1486.0,1421.0,1468.0,1424.0,1491.0,1460.0,1510.0,1454.0,0.0,0.0,0.0,0.0,0.0,0.0,0.0,0.0
1433584961,8,1482.0,1423.0,1464.0,1428.0,1489.0,1458.0,1507.0,1453.0,0.0,0.0,0.0,0.0,0.0,0.0,0.0,0.0
1433632997,8,1486.0,1421.0,1467.0,1426.0,1493.0,1458.0,1512.0,1453.0,0.0,0.0,0.0,0.0,0.0,0.0,0.0,0.0
1433673820,8,1486.0,1421.0,1463.0,1425.0,1492.0,1461.0,1514.0,1457.0,0.0,0.0,0.0,0.0,0.0,0.0,0.0,0.0
1433717805,8,1489.0,1419.0,1461.0,1420.0,1491.0,1462.0,1519.0,1460.0,0.0,0.0,0.0,0.0,0.0,0.0,0.0,0.0
1433741565,8,1493.0,1419.0,1462.0,1418.0,1491.0,1460.0,1522.0,1461.0,0.0,0.0,0.0,0.0,0.0,0.0,0.0,0.0
1433789772,8,1490.0,1411.0,1459.0,1414.0,1495.0,1462.0,1526.0,1459.0,0.0,0.0,0.0,0.0,0.0,0.0,0.0,0.0
1433829560,8,1488.0,1407.0,1458.0,1414.0,1498.0,1463.0,1528.0,1457.0,0.0,0.0,0.0,0.0,0.0,0.0,0.0,0.0
1433877808,8,1488.0,1410.0,1466.0,1420.0,1501.0,1460.0,1523.0,1451.0,0.0,0.0,0.0,0.0,0.0,0.0,0.0,0.0
1433918686,8,1487.0,1401.0,1462.0,1415.0,1507.0,1463.0,1531.0,1449.0,0.0,0.0,0.0,0.0,0.0,0.0,0.0,0.0
1433962553,8,1484.0,1406.0,1463.0,1418.0,1501.0,1460.0,1522.0,1448.0,0.0,0.0,0.0,0.0,0.0,0.0,0.0,0.0
1434002573,8,1484.0,1412.0,1470.0,1422.0,1499.0,1453.0,1514.0,1443.0,0.0,0.0,0.0,0.0,0.0,0.0,0.0,0.0
1434046644,8,1483.0,1404.0,1464.0,1419.0,1503.0,1460.0,1522.0,1445.0,0.0,0.0,0.0,0.0,0.0,0.0,0.0,0.0
1434090581,8,1484.0,1405.0,1462.0,1416.0,1499.0,1458.0,1521.0,1447.0,0.0,0.0,0.0,0.0,0.0,0.0,0.0,0.0
1434131369,8,1486.0,1409.0,1465.0,1418.0,1499.0,1456.0,1519.0,1447.0,0.0,0.0,0.0,0.0,0.0,0.0,0.0,0.0
1434171561,8,1483.0,1414.0,1462.0,1420.0,1491.0,1456.0,1513.0,1450.0,0.0,0.0,0.0,0.0,0.0,0.0,0.0,0.0
1434215431,8,1486.0,1413.0,1468.0,1423.0,1501.0,1459.0,1519.0,1449.0,0.0,0.0,0.0,0.0,0.0,0.0,0.0,0.0
1434263434,8,1484.0,1414.0,1471.0,1427.0,1502.0,1458.0,1515.0,1445.0,0.0,0.0,0.0,0.0,0.0,0.0,0.0,0.0
1434308137,8,1476.0,1419.0,1463.0,1434.0,1497.0,1467.0,1510.0,1452.0,0.0,0.0,0.0,0.0,0.0,0.0,0.0,0.0
1434332219,8,1477.0,1409.0,1457.0,1427.0,1503.0,1474.0,1523.0,1455.0,0.0,0.0,0.0,0.0,0.0,0.0,0.0,0.0
1434372208,8,1470.0,1402.0,1447.0,1426.0,1503.0,1481.0,1526.0,1458.0,0.0,0.0,0.0,0.0,0.0,0.0,0.0,0.0
1434416224,8,1478.0,1413.0,1459.0,1430.0,1502.0,1473.0,1521.0,1456.0,0.0,0.0,0.0,0.0,0.0,0.0,0.0,0.0
1434464244,8,1475.0,1413.0,1455.0,1428.0,1496.0,1471.0,1516.0,1455.0,0.0,0.0,0.0,0.0,0.0,0.0,0.0,0.0
1434512219,8,1473.0,1414.0,1448.0,1427.0,1491.0,1474.0,1515.0,1461.0,0.0,0.0,0.0,0.0,0.0,0.0,0.0,0.0
1434556164,8,1479.0,1421.0,1458.0,1428.0,1490.0,1465.0,1510.0,1457.0,0.0,0.0,0.0,0.0,0.0,0.0,0.0,0.0
1434600973,8,1482.0,1423.0,1463.0,1431.0,1493.0,1466.0,1512.0,1458.0,0.0,0.0,0.0,0.0,0.0,0.0,0.0,0.0
1434645039,8,1482.0,1420.0,1455.0,1426.0,1490.0,1470.0,1517.0,1464.0,0.0,0.0,0.0,0.0,0.0,0.0,0.0,0.0
1434684974,8,1477.0,1415.0,1446.0,1424.0,1490.0,1478.0,1522.0,1468.0,0.0,0.0,0.0,0.0,0.0,0.0,0.0,0.0
1434704975,8,1483.0,1413.0,1452.0,1420.0,1493.0,1471.0,1524.0,1464.0,0.0,0.0,0.0,0.0,0.0,0.0,0.0,0.0
1434752984,8,1480.0,1410.0,1446.0,1420.0,1495.0,1479.0,1529.0,1469.0,0.0,0.0,0.0,0.0,0.0,0.0,0.0,0.0
1434797761,8,1482.0,1414.0,1440.0,1419.0,1484.0,1478.0,1523.0,1475.0,0.0,0.0,0.0,0.0,0.0,0.0,0.0,0.0
1434841805,8,1483.0,1417.0,1443.0,1414.0,1480.0,1469.0,1520.0,1471.0,0.0,0.0,0.0,0.0,0.0,0.0,0.0,0.0
1434889830,8,1486.0,1421.0,1449.0,1414.0,1476.0,1459.0,1513.0,1466.0,0.0,0.0,0.0,0.0,0.0,0.0,0.0,0.0
1434933537,8,1493.0,1420.0,1452.0,1411.0,1480.0,1460.0,1521.0,1468.0,0.0,0.0,0.0,0.0,0.0,0.0,0.0,0.0
1434977794,8,1486.0,1415.0,1449.0,1413.0,1483.0,1463.0,1520.0,1466.0,0.0,0.0,0.0,0.0,0.0,0.0,0.0,0.0
1434997809,8,1486.0,1419.0,1453.0,1416.0,1481.0,1459.0,1514.0,1462.0,0.0,0.0,0.0,0.0,0.0,0.0,0.0,0.0
1435042592,8,1487.0,1414.0,1450.0,1410.0,1482.0,1459.0,1519.0,1463.0,0.0,0.0,0.0,0.0,0.0,0.0,0.0,0.0
1435086535,8,1487.0,1414.0,1454.0,1412.0,1484.0,1455.0,1516.0,1458.0,0.0,0.0,0.0,0.0,0.0,0.0,0.0,0.0
1435130591,8,1480.0,1417.0,1454.0,1420.0,1485.0,1460.0,1511.0,1457.0,0.0,0.0,0.0,0.0,0.0,0.0,0.0,0.0
1435174535,8,1490.0,1411.0,1462.0,1414.0,1495.0,1456.0,1522.0,1453.0,0.0,0.0,0.0,0.0,0.0,0.0,0.0,0.0
1435222572,8,1483.0,1415.0,1450.0,1415.0,1483.0,1462.0,1516.0,1462.0,0.0,0.0,0.0,0.0,0.0,0.0,0.0,0.0
1435267391,8,1489.0,1407.0,1459.0,1415.0,1500.0,1465.0,1530.0,1458.0,0.0,0.0,0.0,0.0,0.0,0.0,0.0,0.0
1435311387,8,1491.0,1419.0,1461.0,1420.0,1492.0,1462.0,1521.0,1461.0,0.0,0.0,0.0,0.0,0.0,0.0,0.0,0.0
1435355355,8,1496.0,1409.0,1462.0,1409.0,1496.0,1458.0,1531.0,1458.0,0.0,0.0,0.0,0.0,0.0,0.0,0.0,0.0
1435395546,8,1494.0,1410.0,1460.0,1412.0,1496.0,1462.0,1530.0,1460.0,0.0,0.0,0.0,0.0,0.0,0.0,0.0,0.0
1435436152,8,1496.0,1415.0,1464.0,1413.0,1494.0,1457.0,1526.0,1458.0,0.0,0.0,0.0,0.0,0.0,0.0,0.0,0.0
1435456167,8,1495.0,1417.0,1463.0,1413.0,1490.0,1456.0,1523.0,1460.0,0.0,0.0,0.0,0.0,0.0,0.0,0.0,0.0
1435504551,8,1496.0,1422.0,1470.0,1420.0,1494.0,1456.0,1520.0,1457.0,0.0,0.0,0.0,0.0,0.0,0.0,0.0,0.0
1435548201,8,1493.0,1416.0,1467.0,1420.0,1498.0,1461.0,1525.0,1458.0,0.0,0.0,0.0,0.0,0.0,0.0,0.0,0.0
1435588248,8,1498.0,1420.0,1476.0,1421.0,1500.0,1453.0,1522.0,1452.0,0.0,0.0,0.0,0.0,0.0,0.0,0.0,0.0
1435632189,8,1494.0,1412.0,1466.0,1417.0,1501.0,1462.0,1530.0,1457.0,0.0,0.0,0.0,0.0,0.0,0.0,0.0,0.0
1435679972,8,1494.0,1411.0,1466.0,1414.0,1499.0,1457.0,1527.0,1454.0,0.0,0.0,0.0,0.0,0.0,0.0,0.0,0.0
1435720269,8,1493.0,1418.0,1468.0,1421.0,1496.0,1458.0,1521.0,1455.0,0.0,0.0,0.0,0.0,0.0,0.0,0.0,0.0
1435764948,8,1497.0,1416.0,1471.0,1417.0,1497.0,1454.0,1524.0,1454.0,0.0,0.0,0.0,0.0,0.0,0.0,0.0,0.0
1435812964,8,1494.0,1417.0,1465.0,1414.0,1491.0,1453.0,1520.0,1455.0,0.0,0.0,0.0,0.0,0.0,0.0,0.0,0.0
1435860975,8,1494.0,1420.0,1468.0,1420.0,1494.0,1456.0,1520.0,1457.0,0.0,0.0,0.0,0.0,0.0,0.0,0.0,0.0
1435901067,8,1498.0,1420.0,1476.0,1421.0,1499.0,1452.0,1520.0,1451.0,0.0,0.0,0.0,0.0,0.0,0.0,0.0,0.0
1435941527,8,1495.0,1420.0,1472.0,1420.0,1496.0,1454.0,1519.0,1454.0,0.0,0.0,0.0,0.0,0.0,0.0,0.0,0.0
1435981796,8,1498.0,1420.0,1472.0,1421.0,1499.0,1458.0,1524.0,1457.0,0.0,0.0,0.0,0.0,0.0,0.0,0.0,0.0
1436025866,8,1500.0,1422.0,1475.0,1420.0,1497.0,1452.0,1521.0,1455.0,0.0,0.0,0.0,0.0,0.0,0.0,0.0,0.0
1436045924,8,1501.0,1420.0,1471.0,1417.0,1496.0,1456.0,1527.0,1459.0,0.0,0.0,0.0,0.0,0.0,0.0,0.0,0.0
1436109837,8,1512.0,1425.0,1481.0,1415.0,1497.0,1448.0,1528.0,1459.0,0.0,0.0,0.0,0.0,0.0,0.0,0.0,0.0
1436130550,8,1505.0,1423.0,1475.0,1416.0,1495.0,1452.0,1526.0,1459.0,0.0,0.0,0.0,0.0,0.0,0.0,0.0,0.0
1436170615,8,1512.0,1420.0,1478.0,1410.0,1498.0,1449.0,1533.0,1459.0,0.0,0.0,0.0,0.0,0.0,0.0,0.0,0.0
1436218705,8,1513.0,1422.0,1477.0,1410.0,1496.0,1449.0,1532.0,1461.0,0.0,0.0,0.0,0.0,0.0,0.0,0.0,0.0
1436266545,8,1515.0,1426.0,1478.0,1411.0,1494.0,1449.0,1531.0,1463.0,0.0,0.0,0.0,0.0,0.0,0.0,0.0,0.0
1436314623,8,1515.0,1425.0,1476.0,1409.0,1492.0,1449.0,1531.0,1465.0,0.0,0.0,0.0,0.0,0.0,0.0,0.0,0.0
1436354605,8,1515.0,1425.0,1479.0,1410.0,1493.0,1446.0,1530.0,1461.0,0.0,0.0,0.0,0.0,0.0,0.0,0.0,0.0
1436399379,8,1514.0,1418.0,1477.0,1407.0,1499.0,1449.0,1536.0,1460.0,0.0,0.0,0.0,0.0,0.0,0.0,0.0,0.0
1436423383,8,1517.0,1422.0,1486.0,1410.0,1499.0,1441.0,1530.0,1454.0,0.0,0.0,0.0,0.0,0.0,0.0,0.0,0.0
1436471365,8,1513.0,1418.0,1479.0,1408.0,1499.0,1447.0,1534.0,1457.0,0.0,0.0,0.0,0.0,0.0,0.0,0.0,0.0
1436511368,8,1517.0,1417.0,1478.0,1401.0,1495.0,1442.0,1535.0,1457.0,0.0,0.0,0.0,0.0,0.0,0.0,0.0,0.0
1436559468,8,1516.0,1416.0,1483.0,1406.0,1501.0,1441.0,1534.0,1451.0,0.0,0.0,0.0,0.0,0.0,0.0,0.0,0.0
1436604287,8,1514.0,1415.0,1481.0,1404.0,1500.0,1442.0,1534.0,1452.0,0.0,0.0,0.0,0.0,0.0,0.0,0.0,0.0
1436644241,8,1516.0,1413.0,1481.0,1401.0,1500.0,1440.0,1536.0,1452.0,0.0,0.0,0.0,0.0,0.0,0.0,0.0,0.0
1436688170,8,1513.0,1413.0,1483.0,1406.0,1503.0,1441.0,1532.0,1447.0,0.0,0.0,0.0,0.0,0.0,0.0,0.0,0.0
1436728197,8,1509.0,1415.0,1480.0,1407.0,1498.0,1441.0,1527.0,1448.0,0.0,0.0,0.0,0.0,0.0,0.0,0.0,0.0
1436772005,8,1508.0,1414.0,1483.0,1412.0,1505.0,1445.0,1530.0,1447.0,0.0,0.0,0.0,0.0,0.0,0.0,0.0,0.0
1436812246,8,1503.0,1416.0,1484.0,1419.0,1507.0,1449.0,1526.0,1446.0,0.0,0.0,0.0,0.0,0.0,0.0,0.0,0.0
1436860228,8,1496.0,1415.0,1475.0,1419.0,1502.0,1453.0,1523.0,1448.0,0.0,0.0,0.0,0.0,0.0,0.0,0.0,0.0
1436904957,8,1502.0,1420.0,1480.0,1419.0,1499.0,1448.0,1521.0,1450.0,0.0,0.0,0.0,0.0,0.0,0.0,0.0,0.0
1436949115,8,1499.0,1426.0,1474.0,1421.0,1492.0,1451.0,1517.0,1456.0,0.0,0.0,0.0,0.0,0.0,0.0,0.0,0.0
1436989005,8,1503.0,1425.0,1478.0,1419.0,1494.0,1448.0,1518.0,1454.0,0.0,0.0,0.0,0.0,0.0,0.0,0.0,0.0
1437032967,8,1505.0,1431.0,1476.0,1419.0,1489.0,1448.0,1517.0,1460.0,0.0,0.0,0.0,0.0,0.0,0.0,0.0,0.0
1437077779,8,1506.0,1432.0,1478.0,1421.0,1490.0,1449.0,1518.0,1460.0,0.0,0.0,0.0,0.0,0.0,0.0,0.0,0.0
1437101818,8,1508.0,1431.0,1470.0,1414.0,1485.0,1452.0,1523.0,1468.0,0.0,0.0,0.0,0.0,0.0,0.0,0.0,0.0
1437145788,8,1509.0,1437.0,1473.0,1420.0,1485.0,1454.0,1522.0,1472.0,0.0,0.0,0.0,0.0,0.0,0.0,0.0,0.0
1437189825,8,1510.0,1438.0,1471.0,1420.0,1485.0,1457.0,1524.0,1475.0,0.0,0.0,0.0,0.0,0.0,0.0,0.0,0.0
1437237930,8,1514.0,1434.0,1471.0,1414.0,1485.0,1454.0,1528.0,1474.0,0.0,0.0,0.0,0.0,0.0,0.0,0.0,0.0
1437281926,8,1511.0,1432.0,1471.0,1417.0,1482.0,1454.0,1524.0,1476.0,0.0,0.0,0.0,0.0,0.0,0.0,0.0,0.0
1437326366,8,1513.0,1434.0,1465.0,1412.0,1482.0,1457.0,1530.0,1480.0,0.0,0.0,0.0,0.0,0.0,0.0,0.0,0.0
1437366609,8,1512.0,1437.0,1466.0,1415.0,1480.0,1457.0,1525.0,1479.0,0.0,0.0,0.0,0.0,0.0,0.0,0.0,0.0
1437406572,8,1510.0,1435.0,1465.0,1415.0,1481.0,1459.0,1527.0,1479.0,0.0,0.0,0.0,0.0,0.0,0.0,0.0,0.0
1437450582,8,1507.0,1442.0,1469.0,1418.0,1477.0,1453.0,1519.0,1477.0,0.0,0.0,0.0,0.0,0.0,0.0,0.0,0.0
1437494667,8,1507.0,1435.0,1464.0,1415.0,1480.0,1457.0,1523.0,1476.0,0.0,0.0,0.0,0.0,0.0,0.0,0.0,0.0
1437535455,8,1506.0,1434.0,1467.0,1418.0,1483.0,1456.0,1522.0,1472.0,0.0,0.0,0.0,0.0,0.0,0.0,0.0,0.0
1437559867,8,1506.0,1435.0,1468.0,1419.0,1483.0,1455.0,1521.0,1471.0,0.0,0.0,0.0,0.0,0.0,0.0,0.0,0.0
1437627405,8,1504.0,1426.0,1472.0,1417.0,1491.0,1453.0,1523.0,1463.0,0.0,0.0,0.0,0.0,0.0,0.0,0.0,0.0
1437651385,8,1497.0,1428.0,1467.0,1421.0,1487.0,1456.0,1517.0,1463.0,0.0,0.0,0.0,0.0,0.0,0.0,0.0,0.0
1437699396,8,1500.0,1429.0,1475.0,1423.0,1491.0,1453.0,1516.0,1459.0,0.0,0.0,0.0,0.0,0.0,0.0,0.0,0.0
1437743357,8,1499.0,1430.0,1474.0,1424.0,1490.0,1454.0,1515.0,1460.0,0.0,0.0,0.0,0.0,0.0,0.0,0.0,0.0
1437788205,8,1502.0,1425.0,1474.0,1419.0,1493.0,1452.0,1521.0,1458.0,0.0,0.0,0.0,0.0,0.0,0.0,0.0,0.0
1437832227,8,1498.0,1426.0,1472.0,1421.0,1491.0,1453.0,1517.0,1458.0,0.0,0.0,0.0,0.0,0.0,0.0,0.0,0.0
1437856221,8,1504.0,1430.0,1481.0,1424.0,1495.0,1450.0,1518.0,1456.0,0.0,0.0,0.0,0.0,0.0,0.0,0.0,0.0
1437896205,8,1503.0,1423.0,1478.0,1420.0,1498.0,1452.0,1523.0,1455.0,0.0,0.0,0.0,0.0,0.0,0.0,0.0,0.0
1437960164,8,1505.0,1425.0,1484.0,1424.0,1503.0,1451.0,1523.0,1453.0,0.0,0.0,0.0,0.0,0.0,0.0,0.0,0.0
1437984259,8,1501.0,1420.0,1478.0,1422.0,1504.0,1457.0,1527.0,1455.0,0.0,0.0,0.0,0.0,0.0,0.0,0.0,0.0
1438029129,8,1504.0,1423.0,1480.0,1423.0,1502.0,1458.0,1524.0,1457.0,0.0,0.0,0.0,0.0,0.0,0.0,0.0,0.0
1438072991,8,1504.0,1416.0,1477.0,1418.0,1507.0,1458.0,1534.0,1457.0,0.0,0.0,0.0,0.0,0.0,0.0,0.0,0.0
1438116768,8,1503.0,1419.0,1479.0,1419.0,1503.0,1454.0,1528.0,1454.0,0.0,0.0,0.0,0.0,0.0,0.0,0.0,0.0
1438165002,8,1499.0,1414.0,1473.0,1419.0,1506.0,1460.0,1532.0,1456.0,0.0,0.0,0.0,0.0,0.0,0.0,0.0,0.0
1438209374,8,1496.0,1412.0,1474.0,1421.0,1510.0,1463.0,1533.0,1453.0,0.0,0.0,0.0,0.0,0.0,0.0,0.0,0.0
1438253839,8,1495.0,1406.0,1476.0,1419.0,1514.0,1459.0,1533.0,1446.0,0.0,0.0,0.0,0.0,0.0,0.0,0.0,0.0
1438277763,8,1494.0,1410.0,1476.0,1422.0,1511.0,1460.0,1530.0,1448.0,0.0,0.0,0.0,0.0,0.0,0.0,0.0,0.0
1438325759,8,1499.0,1410.0,1485.0,1424.0,1519.0,1458.0,1533.0,1444.0,0.0,0.0,0.0,0.0,0.0,0.0,0.0,0.0
1438369760,8,1496.0,1415.0,1479.0,1426.0,1512.0,1461.0,1528.0,1450.0,0.0,0.0,0.0,0.0,0.0,0.0,0.0,0.0
1438414601,8,1496.0,1412.0,1481.0,1423.0,1511.0,1454.0,1526.0,1443.0,0.0,0.0,0.0,0.0,0.0,0.0,0.0,0.0
1438462948,8,1496.0,1419.0,1482.0,1427.0,1506.0,1454.0,1521.0,1447.0,0.0,0.0,0.0,0.0,0.0,0.0,0.0,0.0
1438486364,8,1493.0,1421.0,1477.0,1430.0,1506.0,1462.0,1522.0,1452.0,0.0,0.0,0.0,0.0,0.0,0.0,0.0,0.0
1438534641,8,1495.0,1422.0,1478.0,1428.0,1504.0,1458.0,1520.0,1451.0,0.0,0.0,0.0,0.0,0.0,0.0,0.0,0.0
1438578603,8,1498.0,1419.0,1480.0,1427.0,1509.0,1459.0,1527.0,1452.0,0.0,0.0,0.0,0.0,0.0,0.0,0.0,0.0
1438622581,8,1493.0,1416.0,1469.0,1424.0,1504.0,1467.0,1529.0,1459.0,0.0,0.0,0.0,0.0,0.0,0.0,0.0,0.0
1438666562,8,1498.0,1414.0,1473.0,1421.0,1507.0,1463.0,1532.0,1456.0,0.0,0.0,0.0,0.0,0.0,0.0,0.0,0.0
1438707420,8,1498.0,1417.0,1474.0,1421.0,1503.0,1458.0,1526.0,1454.0,0.0,0.0,0.0,0.0,0.0,0.0,0.0,0.0
1438747403,8,1495.0,1409.0,1467.0,1417.0,1506.0,1465.0,1535.0,1458.0,0.0,0.0,0.0,0.0,0.0,0.0,0.0,0.0
1438791436,8,1498.0,1420.0,1480.0,1425.0,1506.0,1456.0,1524.0,1451.0,0.0,0.0,0.0,0.0,0.0,0.0,0.0,0.0
1438835373,8,1499.0,1419.0,1474.0,1421.0,1503.0,1460.0,1528.0,1457.0,0.0,0.0,0.0,0.0,0.0,0.0,0.0,0.0
1438880182,8,1504.0,1423.0,1480.0,1422.0,1501.0,1454.0,1525.0,1456.0,0.0,0.0,0.0,0.0,0.0,0.0,0.0,0.0
1438904144,8,1504.0,1420.0,1477.0,1419.0,1502.0,1455.0,1528.0,1456.0,0.0,0.0,0.0,0.0,0.0,0.0,0.0,0.0
1438952211,8,1504.0,1418.0,1478.0,1419.0,1506.0,1457.0,1532.0,1456.0,0.0,0.0,0.0,0.0,0.0,0.0,0.0,0.0
1438996261,8,1500.0,1420.0,1471.0,1420.0,1500.0,1462.0,1530.0,1462.0,0.0,0.0,0.0,0.0,0.0,0.0,0.0,0.0
1439044175,8,1503.0,1419.0,1471.0,1415.0,1498.0,1457.0,1530.0,1461.0,0.0,0.0,0.0,0.0,0.0,0.0,0.0,0.0
1439088235,8,1500.0,1420.0,1465.0,1416.0,1494.0,1461.0,1529.0,1465.0,0.0,0.0,0.0,0.0,0.0,0.0,0.0,0.0
1439112391,8,1507.0,1425.0,1473.0,1418.0,1495.0,1457.0,1529.0,1464.0,0.0,0.0,0.0,0.0,0.0,0.0,0.0,0.0
1439152772,8,1506.0,1424.0,1473.0,1411.0,1492.0,1450.0,1530.0,1464.0,0.0,0.0,0.0,0.0,0.0,0.0,0.0,0.0
1439196954,8,1508.0,1423.0,1472.0,1414.0,1495.0,1455.0,1530.0,1464.0,0.0,0.0,0.0,0.0,0.0,0.0,0.0,0.0
1439236995,8,1503.0,1432.0,1469.0,1421.0,1488.0,1458.0,1522.0,1469.0,0.0,0.0,0.0,0.0,0.0,0.0,0.0,0.0
1439280979,8,1505.0,1425.0,1471.0,1417.0,1495.0,1458.0,1529.0,1466.0,0.0,0.0,0.0,0.0,0.0,0.0,0.0,0.0
1439325532,8,1503.0,1430.0,1468.0,1419.0,1487.0,1457.0,1522.0,1468.0,0.0,0.0,0.0,0.0,0.0,0.0,0.0,0.0
1439365911,8,1501.0,1432.0,1473.0,1425.0,1491.0,1457.0,1519.0,1464.0,0.0,0.0,0.0,0.0,0.0,0.0,0.0,0.0
1439409824,8,1503.0,1432.0,1474.0,1425.0,1493.0,1459.0,1522.0,1466.0,0.0,0.0,0.0,0.0,0.0,0.0,0.0,0.0
1439457783,8,1502.0,1430.0,1476.0,1425.0,1495.0,1457.0,1521.0,1462.0,0.0,0.0,0.0,0.0,0.0,0.0,0.0,0.0
1439505798,8,1492.0,1425.0,1467.0,1427.0,1495.0,1464.0,1520.0,1462.0,0.0,0.0,0.0,0.0,0.0,0.0,0.0,0.0
1439549563,8,1495.0,1432.0,1477.0,1434.0,1499.0,1462.0,1517.0,1460.0,0.0,0.0,0.0,0.0,0.0,0.0,0.0,0.0
1439590579,8,1493.0,1430.0,1473.0,1435.0,1501.0,1469.0,1521.0,1464.0,0.0,0.0,0.0,0.0,0.0,0.0,0.0,0.0
1439614676,8,1491.0,1426.0,1466.0,1430.0,1497.0,1469.0,1521.0,1465.0,0.0,0.0,0.0,0.0,0.0,0.0,0.0,0.0
1439662558,8,1494.0,1436.0,1470.0,1436.0,1493.0,1468.0,1516.0,1469.0,0.0,0.0,0.0,0.0,0.0,0.0,0.0,0.0
1439706611,8,1491.0,1437.0,1467.0,1437.0,1491.0,1470.0,1515.0,1470.0,0.0,0.0,0.0,0.0,0.0,0.0,0.0,0.0
1439750573,8,1491.0,1436.0,1464.0,1437.0,1492.0,1476.0,1519.0,1475.0,0.0,0.0,0.0,0.0,0.0,0.0,0.0,0.0
1439798738,8,1494.0,1446.0,1469.0,1442.0,1488.0,1473.0,1513.0,1477.0,0.0,0.0,0.0,0.0,0.0,0.0,0.0,0.0
1439839474,8,1500.0,1443.0,1471.0,1437.0,1491.0,1471.0,1519.0,1477.0,0.0,0.0,0.0,0.0,0.0,0.0,0.0,0.0
1439883403,8,1496.0,1445.0,1467.0,1438.0,1486.0,1473.0,1516.0,1480.0,0.0,0.0,0.0,0.0,0.0,0.0,0.0,0.0
1439903455,8,1496.0,1446.0,1469.0,1441.0,1488.0,1474.0,1516.0,1479.0,0.0,0.0,0.0,0.0,0.0,0.0,0.0,0.0
1439951386,8,1499.0,1444.0,1469.0,1437.0,1490.0,1473.0,1520.0,1479.0,0.0,0.0,0.0,0.0,0.0,0.0,0.0,0.0
1439995430,8,1500.0,1443.0,1470.0,1435.0,1489.0,1471.0,1520.0,1478.0,0.0,0.0,0.0,0.0,0.0,0.0,0.0,0.0
1440040148,8,1497.0,1447.0,1468.0,1439.0,1486.0,1472.0,1515.0,1480.0,0.0,0.0,0.0,0.0,0.0,0.0,0.0,0.0
1440084182,8,1501.0,1449.0,1470.0,1438.0,1485.0,1470.0,1516.0,1481.0,0.0,0.0,0.0,0.0,0.0,0.0,0.0,0.0
1440128180,8,1500.0,1444.0,1464.0,1433.0,1484.0,1472.0,1519.0,1483.0,0.0,0.0,0.0,0.0,0.0,0.0,0.0,0.0
1440172230,8,1504.0,1447.0,1468.0,1431.0,1483.0,1469.0,1518.0,1483.0,0.0,0.0,0.0,0.0,0.0,0.0,0.0,0.0
1440212258,8,1504.0,1446.0,1470.0,1431.0,1484.0,1466.0,1518.0,1480.0,0.0,0.0,0.0,0.0,0.0,0.0,0.0,0.0
1440252217,8,1505.0,1447.0,1471.0,1431.0,1483.0,1463.0,1517.0,1479.0,0.0,0.0,0.0,0.0,0.0,0.0,0.0,0.0
1440300165,8,1504.0,1443.0,1467.0,1429.0,1484.0,1467.0,1521.0,1482.0,0.0,0.0,0.0,0.0,0.0,0.0,0.0,0.0
1440345025,8,1503.0,1445.0,1470.0,1432.0,1485.0,1466.0,1518.0,1479.0,0.0,0.0,0.0,0.0,0.0,0.0,0.0,0.0
1440364934,8,1502.0,1443.0,1471.0,1431.0,1485.0,1464.0,1517.0,1475.0,0.0,0.0,0.0,0.0,0.0,0.0,0.0,0.0
1440413064,8,1500.0,1442.0,1475.0,1435.0,1490.0,1464.0,1515.0,1471.0,0.0,0.0,0.0,0.0,0.0,0.0,0.0,0.0
1440461070,8,1500.0,1439.0,1481.0,1437.0,1498.0,1462.0,1517.0,1464.0,0.0,0.0,0.0,0.0,0.0,0.0,0.0,0.0
1440508988,8,1497.0,1435.0,1479.0,1436.0,1500.0,1464.0,1518.0,1462.0,0.0,0.0,0.0,0.0,0.0,0.0,0.0,0.0
1440553800,8,1497.0,1430.0,1475.0,1433.0,1502.0,1468.0,1524.0,1464.0,0.0,0.0,0.0,0.0,0.0,0.0,0.0,0.0
1440577755,8,1494.0,1427.0,1470.0,1431.0,1500.0,1469.0,1524.0,1465.0,0.0,0.0,0.0,0.0,0.0,0.0,0.0,0.0
1440621805,8,1499.0,1426.0,1474.0,1430.0,1503.0,1467.0,1527.0,1463.0,0.0,0.0,0.0,0.0,0.0,0.0,0.0,0.0
1440681794,8,1504.0,1425.0,1474.0,1423.0,1501.0,1464.0,1531.0,1465.0,0.0,0.0,0.0,0.0,0.0,0.0,0.0,0.0
1440705781,8,1502.0,1423.0,1471.0,1422.0,1501.0,1466.0,1533.0,1467.0,0.0,0.0,0.0,0.0,0.0,0.0,0.0,0.0
1440746324,8,1503.0,1422.0,1469.0,1420.0,1500.0,1467.0,1535.0,1469.0,0.0,0.0,0.0,0.0,0.0,0.0,0.0,0.0
1440806589,8,1502.0,1425.0,1474.0,1424.0,1501.0,1464.0,1529.0,1464.0,0.0,0.0,0.0,0.0,0.0,0.0,0.0,0.0
1440850608,8,1495.0,1420.0,1465.0,1423.0,1499.0,1468.0,1529.0,1465.0,0.0,0.0,0.0,0.0,0.0,0.0,0.0,0.0
1440874608,8,1500.0,1422.0,1471.0,1422.0,1499.0,1462.0,1528.0,1462.0,0.0,0.0,0.0,0.0,0.0,0.0,0.0,0.0
1440914577,8,1498.0,1424.0,1469.0,1424.0,1498.0,1465.0,1527.0,1465.0,0.0,0.0,0.0,0.0,0.0,0.0,0.0,0.0
1440958597,8,1498.0,1412.0,1466.0,1416.0,1503.0,1465.0,1535.0,1461.0,0.0,0.0,0.0,0.0,0.0,0.0,0.0,0.0
1440999391,8,1497.0,1419.0,1464.0,1419.0,1497.0,1465.0,1530.0,1465.0,0.0,0.0,0.0,0.0,0.0,0.0,0.0,0.0
1441043378,8,1502.0,1419.0,1473.0,1419.0,1502.0,1460.0,1531.0,1460.0,0.0,0.0,0.0,0.0,0.0,0.0,0.0,0.0
1441087365,8,1499.0,1418.0,1464.0,1415.0,1494.0,1462.0,1529.0,1465.0,0.0,0.0,0.0,0.0,0.0,0.0,0.0,0.0
1441127410,8,1502.0,1416.0,1469.0,1414.0,1499.0,1459.0,1532.0,1461.0,0.0,0.0,0.0,0.0,0.0,0.0,0.0,0.0
1441168204,8,1503.0,1422.0,1468.0,1413.0,1491.0,1455.0,1526.0,1463.0,0.0,0.0,0.0,0.0,0.0,0.0,0.0,0.0
1441228223,8,1498.0,1413.0,1463.0,1411.0,1495.0,1459.0,1531.0,1461.0,0.0,0.0,0.0,0.0,0.0,0.0,0.0,0.0
1441252179,8,1503.0,1418.0,1469.0,1412.0,1494.0,1453.0,1527.0,1459.0,0.0,0.0,0.0,0.0,0.0,0.0,0.0,0.0
1441296144,8,1502.0,1417.0,1474.0,1413.0,1496.0,1448.0,1524.0,1452.0,0.0,0.0,0.0,0.0,0.0,0.0,0.0,0.0
1441339917,8,1496.0,1410.0,1468.0,1413.0,1500.0,1456.0,1529.0,1453.0,0.0,0.0,0.0,0.0,0.0,0.0,0.0,0.0
1441384286,8,1495.0,1406.0,1467.0,1412.0,1503.0,1457.0,1531.0,1452.0,0.0,0.0,0.0,0.0,0.0,0.0,0.0,0.0
1441428219,8,1495.0,1413.0,1471.0,1417.0,1501.0,1458.0,1532.0,1451.0,0.0,0.0,0.0,0.0,0.0,0.0,0.0,0.0
1441472960,8,1497.0,1403.0,1474.0,1414.0,1507.0,1455.0,1532.0,1450.0,0.0,0.0,0.0,0.0,0.0,0.0,0.0,0.0
1441497138,8,1498.0,1405.0,1473.0,1411.0,1506.0,1453.0,1531.0,1447.0,0.0,0.0,0.0,0.0,0.0,0.0,0.0,0.0
1441564953,8,1497.0,1396.0,1470.0,1409.0,1516.0,1461.0,1543.0,1447.0,0.0,0.0,0.0,0.0,0.0,0.0,0.0,0.0
1441605326,8,1494.0,1401.0,1471.0,1414.0,1512.0,1460.0,1535.0,1447.0,0.0,0.0,0.0,0.0,0.0,0.0,0.0,0.0
1441648966,8,1489.0,1395.0,1467.0,1412.0,1514.0,1461.0,1536.0,1444.0,0.0,0.0,0.0,0.0,0.0,0.0,0.0,0.0
1441689764,8,1495.0,1398.0,1471.0,1412.0,1515.0,1460.0,1539.0,1446.0,0.0,0.0,0.0,0.0,0.0,0.0,0.0,0.0
1441713778,8,1495.0,1402.0,1469.0,1412.0,1509.0,1458.0,1534.0,1448.0,0.0,0.0,0.0,0.0,0.0,0.0,0.0,0.0
1441761552,8,1492.0,1397.0,1465.0,1410.0,1511.0,1460.0,1537.0,1447.0,0.0,0.0,0.0,0.0,0.0,0.0,0.0,0.0
1441805813,8,1495.0,1407.0,1469.0,1414.0,1505.0,1457.0,1530.0,1450.0,0.0,0.0,0.0,0.0,0.0,0.0,0.0,0.0
1441849808,8,1491.0,1403.0,1464.0,1410.0,1502.0,1456.0,1529.0,1449.0,0.0,0.0,0.0,0.0,0.0,0.0,0.0,0.0
1441894724,8,1488.0,1410.0,1461.0,1418.0,1499.0,1464.0,1526.0,1456.0,0.0,0.0,0.0,0.0,0.0,0.0,0.0,0.0
1441942590,8,1490.0,1417.0,1464.0,1424.0,1500.0,1467.0,1525.0,1460.0,0.0,0.0,0.0,0.0,0.0,0.0,0.0,0.0
1441962744,8,1494.0,1412.0,1467.0,1415.0,1498.0,1456.0,1526.0,1454.0,0.0,0.0,0.0,0.0,0.0,0.0,0.0,0.0
1442030644,8,1492.0,1414.0,1456.0,1412.0,1489.0,1462.0,1526.0,1464.0,0.0,0.0,0.0,0.0,0.0,0.0,0.0,0.0
1442070696,8,1499.0,1421.0,1466.0,1415.0,1491.0,1457.0,1524.0,1463.0,0.0,0.0,0.0,0.0,0.0,0.0,0.0,0.0
1442115383,8,1492.0,1419.0,1455.0,1415.0,1486.0,1464.0,1524.0,1468.0,0.0,0.0,0.0,0.0,0.0,0.0,0.0,0.0
1442135400,8,1494.0,1421.0,1462.0,1423.0,1497.0,1471.0,1529.0,1469.0,0.0,0.0,0.0,0.0,0.0,0.0,0.0,0.0
1442199473,8,1493.0,1430.0,1463.0,1428.0,1490.0,1467.0,1519.0,1470.0,0.0,0.0,0.0,0.0,0.0,0.0,0.0,0.0
1442223403,8,1498.0,1426.0,1461.0,1421.0,1490.0,1468.0,1527.0,1474.0,0.0,0.0,0.0,0.0,0.0,0.0,0.0,0.0
1442267369,8,1501.0,1429.0,1464.0,1423.0,1492.0,1469.0,1529.0,1475.0,0.0,0.0,0.0,0.0,0.0,0.0,0.0,0.0
1442311412,8,1500.0,1429.0,1460.0,1421.0,1489.0,1470.0,1529.0,1477.0,0.0,0.0,0.0,0.0,0.0,0.0,0.0,0.0
1442356201,8,1502.0,1428.0,1463.0,1419.0,1489.0,1465.0,1529.0,1475.0,0.0,0.0,0.0,0.0,0.0,0.0,0.0,0.0
1442396538,8,1500.0,1428.0,1460.0,1420.0,1489.0,1470.0,1530.0,1478.0,0.0,0.0,0.0,0.0,0.0,0.0,0.0,0.0
1442440178,8,1504.0,1427.0,1465.0,1420.0,1494.0,1468.0,1534.0,1476.0,0.0,0.0,0.0,0.0,0.0,0.0,0.0,0.0
1442484164,8,1502.0,1426.0,1459.0,1417.0,1490.0,1464.0,1532.0,1477.0,0.0,0.0,0.0,0.0,0.0,0.0,0.0,0.0
1442528165,8,1504.0,1429.0,1467.0,1422.0,1494.0,1467.0,1531.0,1474.0,0.0,0.0,0.0,0.0,0.0,0.0,0.0,0.0
1442572234,8,1504.0,1426.0,1466.0,1422.0,1497.0,1470.0,1535.0,1475.0,0.0,0.0,0.0,0.0,0.0,0.0,0.0,0.0
1442616990,8,1502.0,1420.0,1464.0,1419.0,1500.0,1470.0,1537.0,1472.0,0.0,0.0,0.0,0.0,0.0,0.0,0.0,0.0
1442641058,8,1504.0,1424.0,1465.0,1420.0,1499.0,1472.0,1538.0,1476.0,0.0,0.0,0.0,0.0,0.0,0.0,0.0,0.0
1442685551,8,1506.0,1426.0,1474.0,1424.0,1504.0,1468.0,1536.0,1470.0,0.0,0.0,0.0,0.0,0.0,0.0,0.0,0.0
1442729038,8,1503.0,1421.0,1468.0,1421.0,1503.0,1471.0,1538.0,1471.0,0.0,0.0,0.0,0.0,0.0,0.0,0.0,0.0
1442773009,8,1499.0,1424.0,1465.0,1424.0,1500.0,1473.0,1534.0,1472.0,0.0,0.0,0.0,0.0,0.0,0.0,0.0,0.0
1442813756,8,1500.0,1421.0,1465.0,1422.0,1501.0,1472.0,1535.0,1471.0,0.0,0.0,0.0,0.0,0.0,0.0,0.0,0.0
1442853767,8,1500.0,1429.0,1469.0,1427.0,1497.0,1469.0,1528.0,1471.0,0.0,0.0,0.0,0.0,0.0,0.0,0.0,0.0
1442893801,8,1498.0,1426.0,1466.0,1424.0,1495.0,1467.0,1526.0,1469.0,0.0,0.0,0.0,0.0,0.0,0.0,0.0,0.0
1442937913,8,1496.0,1421.0,1463.0,1423.0,1499.0,1473.0,1533.0,1471.0,0.0,0.0,0.0,0.0,0.0,0.0,0.0,0.0
1442978356,8,1496.0,1425.0,1465.0,1426.0,1497.0,1470.0,1528.0,1469.0,0.0,0.0,0.0,0.0,0.0,0.0,0.0,0.0
1443022549,8,1494.0,1419.0,1458.0,1422.0,1498.0,1475.0,1534.0,1473.0,0.0,0.0,0.0,0.0,0.0,0.0,0.0,0.0
1443066574,8,1490.0,1418.0,1455.0,1424.0,1499.0,1480.0,1534.0,1474.0,0.0,0.0,0.0,0.0,0.0,0.0,0.0,0.0
1443110607,8,1497.0,1420.0,1461.0,1422.0,1500.0,1476.0,1537.0,1474.0,0.0,0.0,0.0,0.0,0.0,0.0,0.0,0.0
1443154945,8,1492.0,1415.0,1451.0,1417.0,1496.0,1477.0,1536.0,1475.0,0.0,0.0,0.0,0.0,0.0,0.0,0.0,0.0
1443198652,8,1497.0,1415.0,1460.0,1418.0,1503.0,1475.0,1540.0,1471.0,0.0,0.0,0.0,0.0,0.0,0.0,0.0,0.0
1443242624,8,1497.0,1420.0,1456.0,1418.0,1494.0,1473.0,1534.0,1475.0,0.0,0.0,0.0,0.0,0.0,0.0,0.0,0.0
1443287503,8,1495.0,1418.0,1458.0,1420.0,1498.0,1475.0,1536.0,1473.0,0.0,0.0,0.0,0.0,0.0,0.0,0.0,0.0
1443335539,8,1496.0,1417.0,1454.0,1414.0,1492.0,1470.0,1534.0,1473.0,0.0,0.0,0.0,0.0,0.0,0.0,0.0,0.0
1443359357,8,1501.0,1423.0,1463.0,1419.0,1495.0,1469.0,1533.0,1472.0,0.0,0.0,0.0,0.0,0.0,0.0,0.0,0.0
1443403393,8,1498.0,1422.0,1468.0,1421.0,1497.0,1463.0,1528.0,1464.0,0.0,0.0,0.0,0.0,0.0,0.0,0.0,0.0
1443448213,8,1496.0,1419.0,1465.0,1423.0,1501.0,1470.0,1532.0,1466.0,0.0,0.0,0.0,0.0,0.0,0.0,0.0,0.0
1443496224,8,1493.0,1420.0,1463.0,1424.0,1499.0,1470.0,1529.0,1466.0,0.0,0.0,0.0,0.0,0.0,0.0,0.0,0.0
1443544173,8,1495.0,1419.0,1467.0,1425.0,1503.0,1470.0,1531.0,1464.0,0.0,0.0,0.0,0.0,0.0,0.0,0.0,0.0
1443588259,8,1494.0,1420.0,1471.0,1426.0,1502.0,1465.0,1525.0,1459.0,0.0,0.0,0.0,0.0,0.0,0.0,0.0,0.0
1443632228,8,1493.0,1418.0,1466.0,1425.0,1504.0,1471.0,1530.0,1463.0,0.0,0.0,0.0,0.0,0.0,0.0,0.0,0.0
1443677046,8,1497.0,1425.0,1470.0,1426.0,1498.0,1466.0,1525.0,1464.0,0.0,0.0,0.0,0.0,0.0,0.0,0.0,0.0
1443716996,8,1492.0,1423.0,1461.0,1426.0,1497.0,1473.0,1528.0,1470.0,0.0,0.0,0.0,0.0,0.0,0.0,0.0,0.0
1443740950,8,1493.0,1424.0,1459.0,1425.0,1494.0,1475.0,1528.0,1474.0,0.0,0.0,0.0,0.0,0.0,0.0,0.0,0.0
1443805135,8,1495.0,1425.0,1464.0,1426.0,1496.0,1471.0,1534.0,1470.0,0.0,0.0,0.0,0.0,0.0,0.0,0.0,0.0
1443828940,8,1494.0,1417.0,1456.0,1418.0,1496.0,1473.0,1533.0,1472.0,0.0,0.0,0.0,0.0,0.0,0.0,0.0,0.0
1443877084,8,1495.0,1426.0,1465.0,1425.0,1495.0,1468.0,1525.0,1468.0,0.0,0.0,0.0,0.0,0.0,0.0,0.0,0.0
1443920992,8,1489.0,1418.0,1459.0,1424.0,1498.0,1473.0,1528.0,1467.0,0.0,0.0,0.0,0.0,0.0,0.0,0.0,0.0
1443961779,8,1488.0,1417.0,1461.0,1425.0,1499.0,1470.0,1526.0,1463.0,0.0,0.0,0.0,0.0,0.0,0.0,0.0,0.0
1444005873,8,1483.0,1421.0,1461.0,1430.0,1496.0,1471.0,1519.0,1462.0,0.0,0.0,0.0,0.0,0.0,0.0,0.0,0.0
1444049795,8,1483.0,1410.0,1456.0,1423.0,1501.0,1473.0,1528.0,1460.0,0.0,0.0,0.0,0.0,0.0,0.0,0.0,0.0
1444073813,8,1482.0,1418.0,1458.0,1427.0,1496.0,1471.0,1520.0,1461.0,0.0,0.0,0.0,0.0,0.0,0.0,0.0,0.0
1444117786,8,1487.0,1417.0,1463.0,1425.0,1499.0,1468.0,1523.0,1460.0,0.0,0.0,0.0,0.0,0.0,0.0,0.0,0.0
1444178538,8,1489.0,1413.0,1465.0,1422.0,1500.0,1464.0,1524.0,1455.0,0.0,0.0,0.0,0.0,0.0,0.0,0.0,0.0
1444218589,8,1491.0,1411.0,1459.0,1417.0,1499.0,1468.0,1531.0,1462.0,0.0,0.0,0.0,0.0,0.0,0.0,0.0,0.0
1444242608,8,1487.0,1413.0,1459.0,1421.0,1498.0,1469.0,1526.0,1461.0,0.0,0.0,0.0,0.0,0.0,0.0,0.0,0.0
1444290596,8,1485.0,1414.0,1459.0,1423.0,1498.0,1468.0,1523.0,1459.0,0.0,0.0,0.0,0.0,0.0,0.0,0.0,0.0
1444338594,8,1488.0,1408.0,1457.0,1418.0,1501.0,1471.0,1532.0,1461.0,0.0,0.0,0.0,0.0,0.0,0.0,0.0,0.0
1444382655,8,1488.0,1412.0,1455.0,1418.0,1496.0,1471.0,1529.0,1465.0,0.0,0.0,0.0,0.0,0.0,0.0,0.0,0.0
1444423397,8,1485.0,1414.0,1452.0,1420.0,1494.0,1474.0,1528.0,1467.0,0.0,0.0,0.0,0.0,0.0,0.0,0.0,0.0
1444467365,8,1489.0,1414.0,1455.0,1419.0,1496.0,1471.0,1530.0,1466.0,0.0,0.0,0.0,0.0,0.0,0.0,0.0,0.0
1444487494,8,1487.0,1416.0,1453.0,1421.0,1494.0,1473.0,1527.0,1468.0,0.0,0.0,0.0,0.0,0.0,0.0,0.0,0.0
1444531381,8,1498.0,1422.0,1465.0,1420.0,1495.0,1463.0,1527.0,1466.0,0.0,0.0,0.0,0.0,0.0,0.0,0.0,0.0
1444596140,8,1496.0,1409.0,1458.0,1410.0,1497.0,1464.0,1535.0,1463.0,0.0,0.0,0.0,0.0,0.0,0.0,0.0,0.0
1444620167,8,1496.0,1418.0,1457.0,1417.0,1495.0,1471.0,1534.0,1472.0,0.0,0.0,0.0,0.0,0.0,0.0,0.0,0.0
1444667968,8,1496.0,1417.0,1460.0,1413.0,1492.0,1462.0,1528.0,1465.0,0.0,0.0,0.0,0.0,0.0,0.0,0.0,0.0
1444712235,8,1498.0,1422.0,1461.0,1416.0,1490.0,1463.0,1527.0,1469.0,0.0,0.0,0.0,0.0,0.0,0.0,0.0,0.0
1444755931,8,1499.0,1425.0,1463.0,1419.0,1490.0,1464.0,1527.0,1470.0,0.0,0.0,0.0,0.0,0.0,0.0,0.0,0.0
1444796192,8,1501.0,1413.0,1463.0,1412.0,1499.0,1465.0,1538.0,1466.0,0.0,0.0,0.0,0.0,0.0,0.0,0.0,0.0
1444844162,8,1499.0,1417.0,1461.0,1414.0,1495.0,1465.0,1533.0,1467.0,0.0,0.0,0.0,0.0,0.0,0.0,0.0,0.0
1444889097,8,1494.0,1409.0,1462.0,1418.0,1507.0,1472.0,1539.0,1464.0,0.0,0.0,0.0,0.0,0.0,0.0,0.0,0.0
1444929002,8,1500.0,1408.0,1462.0,1413.0,1508.0,1472.0,1546.0,1466.0,0.0,0.0,0.0,0.0,0.0,0.0,0.0,0.0
1444976993,8,1503.0,1416.0,1465.0,1416.0,1503.0,1469.0,1540.0,1469.0,0.0,0.0,0.0,0.0,0.0,0.0,0.0,0.0
1445020938,8,1505.0,1413.0,1468.0,1415.0,1509.0,1470.0,1546.0,1468.0,0.0,0.0,0.0,0.0,0.0,0.0,0.0,0.0
1445045003,8,1508.0,1408.0,1464.0,1407.0,1507.0,1468.0,1550.0,1469.0,0.0,0.0,0.0,0.0,0.0,0.0,0.0,0.0
1445089799,8,1506.0,1418.0,1473.0,1419.0,1508.0,1467.0,1541.0,1466.0,0.0,0.0,0.0,0.0,0.0,0.0,0.0,0.0
1445133784,8,1512.0,1422.0,1475.0,1418.0,1507.0,1468.0,1545.0,1472.0,0.0,0.0,0.0,0.0,0.0,0.0,0.0,0.0
1445177897,8,1509.0,1419.0,1470.0,1417.0,1506.0,1470.0,1544.0,1472.0,0.0,0.0,0.0,0.0,0.0,0.0,0.0,0.0
1445217812,8,1514.0,1425.0,1475.0,1418.0,1503.0,1465.0,1541.0,1472.0,0.0,0.0,0.0,0.0,0.0,0.0,0.0,0.0
1445261762,8,1518.0,1422.0,1476.0,1414.0,1506.0,1465.0,1549.0,1473.0,0.0,0.0,0.0,0.0,0.0,0.0,0.0,0.0
1445305814,8,1507.0,1422.0,1465.0,1417.0,1501.0,1473.0,1544.0,1478.0,0.0,0.0,0.0,0.0,0.0,0.0,0.0,0.0
1445346620,8,1516.0,1425.0,1474.0,1419.0,1507.0,1472.0,1549.0,1478.0,0.0,0.0,0.0,0.0,0.0,0.0,0.0,0.0
1445390360,8,1514.0,1426.0,1474.0,1421.0,1507.0,1471.0,1546.0,1476.0,0.0,0.0,0.0,0.0,0.0,0.0,0.0,0.0
1445430684,8,1512.0,1424.0,1469.0,1419.0,1505.0,1474.0,1547.0,1479.0,0.0,0.0,0.0,0.0,0.0,0.0,0.0,0.0
1445470586,8,1509.0,1428.0,1473.0,1426.0,1505.0,1474.0,1541.0,1477.0,0.0,0.0,0.0,0.0,0.0,0.0,0.0,0.0
1445518354,8,1509.0,1426.0,1472.0,1421.0,1502.0,1469.0,1540.0,1474.0,0.0,0.0,0.0,0.0,0.0,0.0,0.0,0.0
1445559320,8,1507.0,1426.0,1472.0,1423.0,1502.0,1469.0,1537.0,1472.0,0.0,0.0,0.0,0.0,0.0,0.0,0.0,0.0
1445599387,8,1511.0,1423.0,1474.0,1421.0,1508.0,1472.0,1545.0,1474.0,0.0,0.0,0.0,0.0,0.0,0.0,0.0,0.0
1445639393,8,1509.0,1421.0,1472.0,1419.0,1506.0,1470.0,1544.0,1472.0,0.0,0.0,0.0,0.0,0.0,0.0,0.0,0.0
1445687370,8,1508.0,1423.0,1468.0,1420.0,1504.0,1474.0,1544.0,1477.0,0.0,0.0,0.0,0.0,0.0,0.0,0.0,0.0
1445711373,8,1507.0,1424.0,1471.0,1422.0,1504.0,1471.0,1540.0,1473.0,0.0,0.0,0.0,0.0,0.0,0.0,0.0,0.0
1445776178,8,1511.0,1423.0,1473.0,1421.0,1508.0,1473.0,1547.0,1475.0,0.0,0.0,0.0,0.0,0.0,0.0,0.0,0.0
1445820212,8,1511.0,1426.0,1474.0,1423.0,1507.0,1472.0,1544.0,1475.0,0.0,0.0,0.0,0.0,0.0,0.0,0.0,0.0
1445840219,8,1508.0,1428.0,1477.0,1427.0,1506.0,1469.0,1537.0,1471.0,0.0,0.0,0.0,0.0,0.0,0.0,0.0,0.0
1445884241,8,1508.0,1423.0,1472.0,1421.0,1506.0,1472.0,1543.0,1473.0,0.0,0.0,0.0,0.0,0.0,0.0,0.0,0.0
1445928168,8,1505.0,1425.0,1471.0,1425.0,1505.0,1473.0,1539.0,1473.0,0.0,0.0,0.0,0.0,0.0,0.0,0.0,0.0
1445972523,8,1509.0,1428.0,1478.0,1429.0,1510.0,1473.0,1541.0,1473.0,0.0,0.0,0.0,0.0,0.0,0.0,0.0,0.0
1446012283,8,1507.0,1426.0,1474.0,1428.0,1511.0,1478.0,1544.0,1476.0,0.0,0.0,0.0,0.0,0.0,0.0,0.0,0.0
1446056940,8,1509.0,1427.0,1472.0,1424.0,1506.0,1474.0,1542.0,1477.0,0.0,0.0,0.0,0.0,0.0,0.0,0.0,0.0
1446096937,8,1512.0,1431.0,1472.0,1425.0,1504.0,1475.0,1543.0,1481.0,0.0,0.0,0.0,0.0,0.0,0.0,0.0,0.0
1446144937,8,1513.0,1430.0,1476.0,1427.0,1508.0,1475.0,1544.0,1479.0,0.0,0.0,0.0,0.0,0.0,0.0,0.0,0.0
1446193047,8,1510.0,1430.0,1467.0,1424.0,1501.0,1478.0,1544.0,1484.0,0.0,0.0,0.0,0.0,0.0,0.0,0.0,0.0
1446233876,8,1511.0,1433.0,1474.0,1429.0,1506.0,1477.0,1542.0,1481.0,0.0,0.0,0.0,0.0,0.0,0.0,0.0,0.0
1446277578,8,1510.0,1428.0,1467.0,1421.0,1500.0,1474.0,1543.0,1481.0,0.0,0.0,0.0,0.0,0.0,0.0,0.0,0.0
1446317796,8,1517.0,1429.0,1468.0,1416.0,1499.0,1473.0,1549.0,1485.0,0.0,0.0,0.0,0.0,0.0,0.0,0.0,0.0
1446361786,8,1515.0,1430.0,1471.0,1420.0,1501.0,1472.0,1545.0,1482.0,0.0,0.0,0.0,0.0,0.0,0.0,0.0,0.0
1446401824,8,1514.0,1425.0,1473.0,1418.0,1504.0,1470.0,1545.0,1476.0,0.0,0.0,0.0,0.0,0.0,0.0,0.0,0.0
1446445763,8,1513.0,1427.0,1476.0,1423.0,1507.0,1470.0,1544.0,1474.0,0.0,0.0,0.0,0.0,0.0,0.0,0.0,0.0
1446490614,8,1509.0,1425.0,1468.0,1419.0,1500.0,1470.0,1541.0,1476.0,0.0,0.0,0.0,0.0,0.0,0.0,0.0,0.0
1446530575,8,1513.0,1422.0,1474.0,1418.0,1507.0,1470.0,1547.0,1474.0,0.0,0.0,0.0,0.0,0.0,0.0,0.0,0.0
1446574569,8,1507.0,1422.0,1463.0,1419.0,1503.0,1479.0,1547.0,1481.0,0.0,0.0,0.0,0.0,0.0,0.0,0.0,0.0
1446598610,8,1514.0,1420.0,1474.0,1417.0,1510.0,1471.0,1551.0,1474.0,0.0,0.0,0.0,0.0,0.0,0.0,0.0,0.0
1446646688,8,1508.0,1417.0,1465.0,1415.0,1505.0,1474.0,1549.0,1476.0,0.0,0.0,0.0,0.0,0.0,0.0,0.0,0.0
1446694708,8,1507.0,1420.0,1461.0,1413.0,1497.0,1471.0,1542.0,1478.0,0.0,0.0,0.0,0.0,0.0,0.0,0.0,0.0
1446739404,8,1506.0,1417.0,1456.0,1411.0,1496.0,1475.0,1547.0,1482.0,0.0,0.0,0.0,0.0,0.0,0.0,0.0,0.0
1446779393,8,1505.0,1415.0,1453.0,1407.0,1494.0,1472.0,1546.0,1480.0,0.0,0.0,0.0,0.0,0.0,0.0,0.0,0.0
1446823362,8,1504.0,1416.0,1453.0,1407.0,1492.0,1470.0,1543.0,1479.0,0.0,0.0,0.0,0.0,0.0,0.0,0.0,0.0
1446867407,8,1500.0,1417.0,1453.0,1411.0,1492.0,1471.0,1538.0,1477.0,0.0,0.0,0.0,0.0,0.0,0.0,0.0,0.0
1446908227,8,1496.0,1420.0,1455.0,1414.0,1488.0,1466.0,1529.0,1472.0,0.0,0.0,0.0,0.0,0.0,0.0,0.0,0.0
1446948323,8,1497.0,1420.0,1457.0,1415.0,1490.0,1467.0,1531.0,1472.0,0.0,0.0,0.0,0.0,0.0,0.0,0.0,0.0
1446992195,8,1494.0,1421.0,1453.0,1415.0,1486.0,1468.0,1528.0,1473.0,0.0,0.0,0.0,0.0,0.0,0.0,0.0,0.0
1447036221,8,1493.0,1418.0,1450.0,1411.0,1483.0,1465.0,1526.0,1472.0,0.0,0.0,0.0,0.0,0.0,0.0,0.0,0.0
1447079943,8,1497.0,1416.0,1452.0,1409.0,1487.0,1466.0,1532.0,1473.0,0.0,0.0,0.0,0.0,0.0,0.0,0.0,0.0
1447100215,8,1498.0,1418.0,1451.0,1410.0,1487.0,1468.0,1534.0,1477.0,0.0,0.0,0.0,0.0,0.0,0.0,0.0,0.0
1447144975,8,1499.0,1416.0,1457.0,1413.0,1494.0,1469.0,1536.0,1472.0,0.0,0.0,0.0,0.0,0.0,0.0,0.0,0.0
1447192987,8,1496.0,1415.0,1453.0,1409.0,1488.0,1464.0,1531.0,1470.0,0.0,0.0,0.0,0.0,0.0,0.0,0.0,0.0
1447240946,8,1496.0,1416.0,1453.0,1410.0,1488.0,1466.0,1532.0,1472.0,0.0,0.0,0.0,0.0,0.0,0.0,0.0,0.0
1447289038,8,1491.0,1412.0,1447.0,1411.0,1489.0,1466.0,1532.0,1471.0,0.0,0.0,0.0,0.0,0.0,0.0,0.0,0.0
1447313016,8,1494.0,1416.0,1446.0,1409.0,1484.0,1470.0,1531.0,1477.0,0.0,0.0,0.0,0.0,0.0,0.0,0.0,0.0
1447356931,8,1496.0,1415.0,1450.0,1407.0,1485.0,1465.0,1532.0,1473.0,0.0,0.0,0.0,0.0,0.0,0.0,0.0,0.0
1447397802,8,1489.0,1417.0,1447.0,1417.0,1488.0,1476.0,1531.0,1477.0,0.0,0.0,0.0,0.0,0.0,0.0,0.0,0.0
1447441763,8,1491.0,1412.0,1452.0,1415.0,1495.0,1472.0,1533.0,1469.0,0.0,0.0,0.0,0.0,0.0,0.0,0.0,0.0
1447489971,8,1488.0,1412.0,1449.0,1417.0,1495.0,1477.0,1534.0,1472.0,0.0,0.0,0.0,0.0,0.0,0.0,0.0,0.0
1447533868,8,1486.0,1416.0,1451.0,1422.0,1496.0,1479.0,1531.0,1472.0,0.0,0.0,0.0,0.0,0.0,0.0,0.0,0.0
1447577550,8,1490.0,1414.0,1454.0,1417.0,1494.0,1472.0,1531.0,1469.0,0.0,0.0,0.0,0.0,0.0,0.0,0.0,0.0
1447618313,8,1499.0,1414.0,1460.0,1412.0,1496.0,1466.0,1535.0,1467.0,0.0,0.0,0.0,0.0,0.0,0.0,0.0,0.0
1447662568,8,1494.0,1425.0,1460.0,1420.0,1488.0,1464.0,1522.0,1469.0,0.0,0.0,0.0,0.0,0.0,0.0,0.0,0.0
1447706688,8,1491.0,1417.0,1451.0,1414.0,1488.0,1469.0,1528.0,1471.0,0.0,0.0,0.0,0.0,0.0,0.0,0.0,0.0
1447750576,8,1494.0,1417.0,1453.0,1415.0,1491.0,1471.0,1533.0,1473.0,0.0,0.0,0.0,0.0,0.0,0.0,0.0,0.0
1447794594,8,1497.0,1422.0,1455.0,1414.0,1486.0,1466.0,1528.0,1473.0,0.0,0.0,0.0,0.0,0.0,0.0,0.0,0.0
1447834598,8,1497.0,1415.0,1452.0,1410.0,1490.0,1469.0,1535.0,1474.0,0.0,0.0,0.0,0.0,0.0,0.0,0.0,0.0
1447879370,8,1492.0,1421.0,1451.0,1417.0,1486.0,1472.0,1528.0,1476.0,0.0,0.0,0.0,0.0,0.0,0.0,0.0,0.0
1447919377,8,1501.0,1426.0,1462.0,1417.0,1489.0,1464.0,1529.0,1473.0,0.0,0.0,0.0,0.0,0.0,0.0,0.0,0.0
1447943412,8,1503.0,1424.0,1461.0,1413.0,1487.0,1461.0,1529.0,1473.0,0.0,0.0,0.0,0.0,0.0,0.0,0.0,0.0
1447987388,8,1499.0,1423.0,1454.0,1415.0,1487.0,1471.0,1533.0,1479.0,0.0,0.0,0.0,0.0,0.0,0.0,0.0,0.0
1448031482,8,1505.0,1424.0,1463.0,1418.0,1495.0,1470.0,1537.0,1477.0,0.0,0.0,0.0,0.0,0.0,0.0,0.0,0.0
1448072207,8,1505.0,1425.0,1463.0,1419.0,1497.0,1473.0,1539.0,1479.0,0.0,0.0,0.0,0.0,0.0,0.0,0.0,0.0
1448120174,8,1506.0,1423.0,1456.0,1419.0,1496.0,1479.0,1540.0,1482.0,0.0,0.0,0.0,0.0,0.0,0.0,0.0,0.0
1448164175,8,1501.0,1420.0,1457.0,1416.0,1495.0,1473.0,1538.0,1477.0,0.0,0.0,0.0,0.0,0.0,0.0,0.0,0.0
1448208188,8,1503.0,1416.0,1459.0,1414.0,1500.0,1474.0,1544.0,1477.0,0.0,0.0,0.0,0.0,0.0,0.0,0.0,0.0
1448252245,8,1499.0,1424.0,1460.0,1421.0,1496.0,1474.0,1535.0,1476.0,0.0,0.0,0.0,0.0,0.0,0.0,0.0,0.0
1448296745,8,1502.0,1423.0,1455.0,1417.0,1494.0,1478.0,1539.0,1481.0,0.0,0.0,0.0,0.0,0.0,0.0,0.0,0.0
1448336997,8,1504.0,1424.0,1462.0,1419.0,1496.0,1473.0,1538.0,1478.0,0.0,0.0,0.0,0.0,0.0,0.0,0.0,0.0
1448376989,8,1501.0,1427.0,1459.0,1421.0,1492.0,1474.0,1534.0,1480.0,0.0,0.0,0.0,0.0,0.0,0.0,0.0,0.0
1448420986,8,1504.0,1423.0,1458.0,1414.0,1492.0,1472.0,1539.0,1480.0,0.0,0.0,0.0,0.0,0.0,0.0,0.0,0.0
1448469023,8,1504.0,1425.0,1462.0,1422.0,1499.0,1478.0,1540.0,1481.0,0.0,0.0,0.0,0.0,0.0,0.0,0.0,0.0
1448516959,8,1503.0,1425.0,1459.0,1418.0,1493.0,1473.0,1537.0,1480.0,0.0,0.0,0.0,0.0,0.0,0.0,0.0,0.0
1448557775,8,1504.0,1426.0,1463.0,1420.0,1496.0,1474.0,1538.0,1479.0,0.0,0.0,0.0,0.0,0.0,0.0,0.0,0.0
1448581812,8,1504.0,1423.0,1461.0,1418.0,1496.0,1473.0,1540.0,1479.0,0.0,0.0,0.0,0.0,0.0,0.0,0.0,0.0
1448629817,8,1509.0,1426.0,1465.0,1417.0,1496.0,1471.0,1541.0,1480.0,0.0,0.0,0.0,0.0,0.0,0.0,0.0,0.0
1448677782,8,1503.0,1424.0,1458.0,1417.0,1494.0,1474.0,1539.0,1481.0,0.0,0.0,0.0,0.0,0.0,0.0,0.0,0.0
1448721749,8,1507.0,1422.0,1462.0,1414.0,1496.0,1471.0,1542.0,1479.0,0.0,0.0,0.0,0.0,0.0,0.0,0.0,0.0
1448762535,8,1499.0,1420.0,1453.0,1414.0,1491.0,1474.0,1538.0,1480.0,0.0,0.0,0.0,0.0,0.0,0.0,0.0,0.0
1448806583,8,1502.0,1421.0,1457.0,1418.0,1497.0,1477.0,1541.0,1481.0,0.0,0.0,0.0,0.0,0.0,0.0,0.0,0.0
1448850621,8,1501.0,1424.0,1456.0,1420.0,1495.0,1479.0,1540.0,1483.0,0.0,0.0,0.0,0.0,0.0,0.0,0.0,0.0
1448894723,8,1506.0,1425.0,1462.0,1418.0,1497.0,1473.0,1540.0,1480.0,0.0,0.0,0.0,0.0,0.0,0.0,0.0,0.0
1448918630,8,1502.0,1425.0,1458.0,1419.0,1495.0,1476.0,1539.0,1482.0,0.0,0.0,0.0,0.0,0.0,0.0,0.0,0.0
1448962578,8,1499.0,1420.0,1457.0,1417.0,1495.0,1474.0,1537.0,1476.0,0.0,0.0,0.0,0.0,0.0,0.0,0.0,0.0
1449007518,8,1503.0,1423.0,1463.0,1421.0,1501.0,1476.0,1540.0,1476.0,0.0,0.0,0.0,0.0,0.0,0.0,0.0,0.0
1449055359,8,1502.0,1422.0,1459.0,1418.0,1495.0,1473.0,1538.0,1478.0,0.0,0.0,0.0,0.0,0.0,0.0,0.0,0.0
1449099447,8,1500.0,1422.0,1458.0,1418.0,1494.0,1473.0,1535.0,1477.0,0.0,0.0,0.0,0.0,0.0,0.0,0.0,0.0
1449143409,8,1499.0,1424.0,1462.0,1424.0,1499.0,1477.0,1536.0,1477.0,0.0,0.0,0.0,0.0,0.0,0.0,0.0,0.0
1449188307,8,1501.0,1424.0,1462.0,1422.0,1497.0,1474.0,1536.0,1477.0,0.0,0.0,0.0,0.0,0.0,0.0,0.0,0.0
1449228248,8,1495.0,1426.0,1456.0,1425.0,1493.0,1479.0,1532.0,1480.0,0.0,0.0,0.0,0.0,0.0,0.0,0.0,0.0
1449272182,8,1494.0,1423.0,1454.0,1422.0,1494.0,1478.0,1533.0,1478.0,0.0,0.0,0.0,0.0,0.0,0.0,0.0,0.0
1449296327,8,1499.0,1420.0,1454.0,1418.0,1495.0,1478.0,1540.0,1481.0,0.0,0.0,0.0,0.0,0.0,0.0,0.0,0.0
1449344212,8,1498.0,1422.0,1452.0,1420.0,1494.0,1482.0,1540.0,1484.0,0.0,0.0,0.0,0.0,0.0,0.0,0.0,0.0
1449387986,8,1502.0,1423.0,1458.0,1417.0,1493.0,1473.0,1537.0,1479.0,0.0,0.0,0.0,0.0,0.0,0.0,0.0,0.0
1449428975,8,1503.0,1422.0,1460.0,1417.0,1497.0,1473.0,1540.0,1478.0,0.0,0.0,0.0,0.0,0.0,0.0,0.0,0.0
1449477113,8,1500.0,1426.0,1460.0,1420.0,1492.0,1470.0,1531.0,1476.0,0.0,0.0,0.0,0.0,0.0,0.0,0.0,0.0
1449525000,8,1497.0,1416.0,1453.0,1414.0,1495.0,1475.0,1539.0,1477.0,0.0,0.0,0.0,0.0,0.0,0.0,0.0,0.0
1449568937,8,1500.0,1424.0,1460.0,1420.0,1495.0,1473.0,1535.0,1477.0,0.0,0.0,0.0,0.0,0.0,0.0,0.0,0.0
1449593000,8,1503.0,1424.0,1460.0,1418.0,1494.0,1473.0,1537.0,1479.0,0.0,0.0,0.0,0.0,0.0,0.0,0.0,0.0
1449633009,8,1498.0,1420.0,1454.0,1416.0,1493.0,1475.0,1537.0,1479.0,0.0,0.0,0.0,0.0,0.0,0.0,0.0,0.0
1449681792,8,1500.0,1414.0,1453.0,1409.0,1493.0,1470.0,1540.0,1475.0,0.0,0.0,0.0,0.0,0.0,0.0,0.0,0.0
1449729890,8,1502.0,1418.0,1455.0,1410.0,1497.0,1472.0,1544.0,1476.0,0.0,0.0,0.0,0.0,0.0,0.0,0.0,0.0
1449753860,8,1502.0,1412.0,1453.0,1408.0,1496.0,1473.0,1545.0,1477.0,0.0,0.0,0.0,0.0,0.0,0.0,0.0,0.0
1449817797,8,1503.0,1412.0,1453.0,1403.0,1490.0,1469.0,1547.0,1474.0,0.0,0.0,0.0,0.0,0.0,0.0,0.0,0.0
1449842001,8,1508.0,1414.0,1459.0,1404.0,1493.0,1463.0,1542.0,1473.0,0.0,0.0,0.0,0.0,0.0,0.0,0.0,0.0
1449881817,8,1506.0,1410.0,1455.0,1403.0,1495.0,1467.0,1547.0,1475.0,0.0,0.0,0.0,0.0,0.0,0.0,0.0,0.0
1449926347,8,1506.0,1413.0,1459.0,1404.0,1493.0,1462.0,1540.0,1471.0,0.0,0.0,0.0,0.0,0.0,0.0,0.0,0.0
1449970559,8,1508.0,1409.0,1461.0,1401.0,1498.0,1461.0,1545.0,1468.0,0.0,0.0,0.0,0.0,0.0,0.0,0.0,0.0
1450010630,8,1508.0,1400.0,1456.0,1391.0,1495.0,1455.0,1547.0,1465.0,0.0,0.0,0.0,0.0,0.0,0.0,0.0,0.0
1450054762,8,1505.0,1405.0,1456.0,1397.0,1495.0,1459.0,1544.0,1467.0,0.0,0.0,0.0,0.0,0.0,0.0,0.0,0.0
1450115369,8,1504.0,1408.0,1453.0,1398.0,1490.0,1461.0,1541.0,1470.0,0.0,0.0,0.0,0.0,0.0,0.0,0.0,0.0
1450135362,8,1503.0,1405.0,1451.0,1395.0,1488.0,1457.0,1539.0,1467.0,0.0,0.0,0.0,0.0,0.0,0.0,0.0,0.0
1450179364,8,1505.0,1411.0,1457.0,1400.0,1489.0,1456.0,1537.0,1467.0,0.0,0.0,0.0,0.0,0.0,0.0,0.0,0.0
1450219481,8,1507.0,1420.0,1457.0,1404.0,1485.0,1460.0,1535.0,1475.0,0.0,0.0,0.0,0.0,0.0,0.0,0.0,0.0
1450267378,8,1511.0,1425.0,1462.0,1405.0,1482.0,1453.0,1531.0,1474.0,0.0,0.0,0.0,0.0,0.0,0.0,0.0,0.0
1450308307,8,1508.0,1428.0,1458.0,1410.0,1484.0,1464.0,1534.0,1481.0,0.0,0.0,0.0,0.0,0.0,0.0,0.0,0.0
1450355946,8,1508.0,1429.0,1459.0,1410.0,1482.0,1461.0,1530.0,1479.0,0.0,0.0,0.0,0.0,0.0,0.0,0.0,0.0
1450400255,8,1504.0,1426.0,1454.0,1411.0,1483.0,1467.0,1533.0,1482.0,0.0,0.0,0.0,0.0,0.0,0.0,0.0,0.0
1450444165,8,1506.0,1429.0,1458.0,1415.0,1486.0,1468.0,1534.0,1482.0,0.0,0.0,0.0,0.0,0.0,0.0,0.0,0.0
1450468183,8,1506.0,1427.0,1456.0,1412.0,1484.0,1467.0,1534.0,1483.0,0.0,0.0,0.0,0.0,0.0,0.0,0.0,0.0
1450511992,8,1502.0,1430.0,1455.0,1417.0,1485.0,1472.0,1532.0,1485.0,0.0,0.0,0.0,0.0,0.0,0.0,0.0,0.0
1450556164,8,1504.0,1434.0,1459.0,1421.0,1485.0,1471.0,1530.0,1485.0,0.0,0.0,0.0,0.0,0.0,0.0,0.0,0.0
1450616966,8,1502.0,1427.0,1458.0,1423.0,1495.0,1480.0,1539.0,1484.0,0.0,0.0,0.0,0.0,0.0,0.0,0.0,0.0
1450661002,8,1498.0,1427.0,1454.0,1422.0,1491.0,1479.0,1535.0,1484.0,0.0,0.0,0.0,0.0,0.0,0.0,0.0,0.0
1450684979,8,1504.0,1424.0,1461.0,1420.0,1498.0,1477.0,1541.0,1481.0,0.0,0.0,0.0,0.0,0.0,0.0,0.0,0.0
1450725074,8,1501.0,1414.0,1462.0,1418.0,1507.0,1478.0,1547.0,1474.0,0.0,0.0,0.0,0.0,0.0,0.0,0.0,0.0
1450772979,8,1500.0,1410.0,1456.0,1413.0,1505.0,1478.0,1548.0,1475.0,0.0,0.0,0.0,0.0,0.0,0.0,0.0,0.0
1450817777,8,1501.0,1406.0,1454.0,1407.0,1502.0,1475.0,1549.0,1474.0,0.0,0.0,0.0,0.0,0.0,0.0,0.0,0.0
1450857815,8,1506.0,1410.0,1458.0,1408.0,1503.0,1474.0,1551.0,1475.0,0.0,0.0,0.0,0.0,0.0,0.0,0.0,0.0
1450901560,8,1504.0,1406.0,1453.0,1403.0,1500.0,1472.0,1551.0,1475.0,0.0,0.0,0.0,0.0,0.0,0.0,0.0,0.0
1450949541,8,1501.0,1412.0,1459.0,1412.0,1500.0,1470.0,1542.0,1471.0,0.0,0.0,0.0,0.0,0.0,0.0,0.0,0.0
1450993870,8,1495.0,1410.0,1461.0,1409.0,1496.0,1463.0,1537.0,1467.0,0.0,0.0,0.0,0.0,0.0,0.0,0.0,0.0
1451038604,8,1499.0,1408.0,1452.0,1405.0,1494.0,1468.0,1541.0,1471.0,0.0,0.0,0.0,0.0,0.0,0.0,0.0,0.0
1451082567,8,1498.0,1416.0,1458.0,1417.0,1499.0,1475.0,1540.0,1474.0,0.0,0.0,0.0,0.0,0.0,0.0,0.0,0.0
1451126619,8,1504.0,1416.0,1459.0,1411.0,1498.0,1470.0,1542.0,1474.0,0.0,0.0,0.0,0.0,0.0,0.0,0.0,0.0
1451146617,8,1496.0,1413.0,1453.0,1412.0,1495.0,1472.0,1538.0,1473.0,0.0,0.0,0.0,0.0,0.0,0.0,0.0,0.0
1451214624,8,1494.0,1410.0,1460.0,1421.0,1509.0,1479.0,1543.0,1469.0,0.0,0.0,0.0,0.0,0.0,0.0,0.0,0.0
1451238575,8,1493.0,1408.0,1453.0,1416.0,1504.0,1479.0,1543.0,1472.0,0.0,0.0,0.0,0.0,0.0,0.0,0.0,0.0
1451283382,8,1494.0,1409.0,1459.0,1418.0,1506.0,1476.0,1541.0,1467.0,0.0,0.0,0.0,0.0,0.0,0.0,0.0,0.0
1451323354,8,1490.0,1410.0,1466.0,1429.0,1517.0,1482.0,1545.0,1466.0,0.0,0.0,0.0,0.0,0.0,0.0,0.0,0.0
1451367438,8,1488.0,1404.0,1456.0,1421.0,1512.0,1484.0,1544.0,1466.0,0.0,0.0,0.0,0.0,0.0,0.0,0.0,0.0
1451411445,8,1491.0,1416.0,1462.0,1430.0,1511.0,1484.0,1539.0,1470.0,0.0,0.0,0.0,0.0,0.0,0.0,0.0,0.0
1451456199,8,1495.0,1414.0,1465.0,1426.0,1512.0,1480.0,1542.0,1468.0,0.0,0.0,0.0,0.0,0.0,0.0,0.0,0.0
1451499947,8,1498.0,1423.0,1468.0,1429.0,1507.0,1478.0,1537.0,1472.0,0.0,0.0,0.0,0.0,0.0,0.0,0.0,0.0
1451548187,8,1503.0,1427.0,1470.0,1429.0,1506.0,1478.0,1539.0,1476.0,0.0,0.0,0.0,0.0,0.0,0.0,0.0,0.0
1451572211,8,1500.0,1428.0,1468.0,1433.0,1507.0,1482.0,1538.0,1477.0,0.0,0.0,0.0,0.0,0.0,0.0,0.0,0.0
1451616256,8,1499.0,1425.0,1465.0,1431.0,1508.0,1486.0,1541.0,1479.0,0.0,0.0,0.0,0.0,0.0,0.0,0.0,0.0
1451660236,8,1507.0,1430.0,1466.0,1427.0,1503.0,1482.0,1544.0,1485.0,0.0,0.0,0.0,0.0,0.0,0.0,0.0,0.0
1451708180,8,1508.0,1438.0,1462.0,1430.0,1497.0,1488.0,1543.0,1495.0,0.0,0.0,0.0,0.0,0.0,0.0,0.0,0.0
1451753012,8,1511.0,1437.0,1458.0,1425.0,1493.0,1486.0,1545.0,1499.0,0.0,0.0,0.0,0.0,0.0,0.0,0.0,0.0
1451796962,8,1514.0,1445.0,1463.0,1429.0,1491.0,1485.0,1543.0,1501.0,0.0,0.0,0.0,0.0,0.0,0.0,0.0,0.0
1451836968,8,1511.0,1449.0,1461.0,1433.0,1488.0,1487.0,1538.0,1502.0,0.0,0.0,0.0,0.0,0.0,0.0,0.0,0.0
1451881013,8,1510.0,1449.0,1464.0,1434.0,1488.0,1483.0,1534.0,1499.0,0.0,0.0,0.0,0.0,0.0,0.0,0.0,0.0
1451920998,8,1513.0,1450.0,1466.0,1434.0,1489.0,1484.0,1536.0,1500.0,0.0,0.0,0.0,0.0,0.0,0.0,0.0,0.0
1451961738,8,1511.0,1446.0,1463.0,1432.0,1492.0,1487.0,1540.0,1501.0,0.0,0.0,0.0,0.0,0.0,0.0,0.0,0.0
1452005797,8,1506.0,1442.0,1465.0,1438.0,1500.0,1491.0,1540.0,1495.0,0.0,0.0,0.0,0.0,0.0,0.0,0.0,0.0
1452053759,8,1508.0,1442.0,1472.0,1440.0,1506.0,1490.0,1542.0,1492.0,0.0,0.0,0.0,0.0,0.0,0.0,0.0,0.0
1452097886,8,1508.0,1438.0,1463.0,1433.0,1502.0,1493.0,1547.0,1497.0,0.0,0.0,0.0,0.0,0.0,0.0,0.0,0.0
1452121804,8,1517.0,1438.0,1471.0,1430.0,1505.0,1486.0,1551.0,1495.0,0.0,0.0,0.0,0.0,0.0,0.0,0.0,0.0
1452165769,8,1518.0,1443.0,1470.0,1429.0,1498.0,1483.0,1547.0,1498.0,0.0,0.0,0.0,0.0,0.0,0.0,0.0,0.0
1452210606,8,1521.0,1445.0,1463.0,1424.0,1490.0,1484.0,1548.0,1506.0,0.0,0.0,0.0,0.0,0.0,0.0,0.0,0.0
1452258373,8,1525.0,1442.0,1464.0,1418.0,1490.0,1479.0,1551.0,1504.0,0.0,0.0,0.0,0.0,0.0,0.0,0.0,0.0
1452298596,8,1522.0,1439.0,1458.0,1415.0,1488.0,1481.0,1551.0,1505.0,0.0,0.0,0.0,0.0,0.0,0.0,0.0,0.0
1452338625,8,1521.0,1440.0,1459.0,1417.0,1488.0,1481.0,1550.0,1504.0,0.0,0.0,0.0,0.0,0.0,0.0,0.0,0.0
1452386564,8,1521.0,1439.0,1460.0,1417.0,1490.0,1481.0,1551.0,1503.0,0.0,0.0,0.0,0.0,0.0,0.0,0.0,0.0
1452427328,8,1512.0,1433.0,1465.0,1416.0,1491.0,1475.0,1548.0,1498.0,0.0,0.0,0.0,0.0,0.0,0.0,0.0,0.0
1452471368,8,1515.0,1432.0,1465.0,1419.0,1498.0,1478.0,1548.0,1490.0,0.0,0.0,0.0,0.0,0.0,0.0,0.0,0.0
1452515366,8,1513.0,1433.0,1467.0,1422.0,1499.0,1477.0,1545.0,1487.0,0.0,0.0,0.0,0.0,0.0,0.0,0.0,0.0
1452563330,8,1519.0,1432.0,1475.0,1421.0,1503.0,1472.0,1547.0,1483.0,0.0,0.0,0.0,0.0,0.0,0.0,0.0,0.0
1452603387,8,1514.0,1440.0,1469.0,1428.0,1497.0,1479.0,1541.0,1491.0,0.0,0.0,0.0,0.0,0.0,0.0,0.0,0.0
1452624199,8,1518.0,1433.0,1470.0,1420.0,1500.0,1475.0,1548.0,1489.0,0.0,0.0,0.0,0.0,0.0,0.0,0.0,0.0
1452668244,8,1519.0,1439.0,1475.0,1428.0,1503.0,1479.0,1547.0,1490.0,0.0,0.0,0.0,0.0,0.0,0.0,0.0,0.0
1452716258,8,1513.0,1433.0,1465.0,1424.0,1500.0,1483.0,1548.0,1492.0,0.0,0.0,0.0,0.0,0.0,0.0,0.0,0.0
1452764255,8,1514.0,1432.0,1469.0,1427.0,1508.0,1487.0,1553.0,1491.0,0.0,0.0,0.0,0.0,0.0,0.0,0.0,0.0
1452788240,8,1511.0,1428.0,1460.0,1421.0,1501.0,1485.0,1551.0,1492.0,0.0,0.0,0.0,0.0,0.0,0.0,0.0,0.0
1452856239,8,1514.0,1430.0,1468.0,1422.0,1504.0,1480.0,1549.0,1487.0,0.0,0.0,0.0,0.0,0.0,0.0,0.0,0.0
1452877049,8,1516.0,1430.0,1470.0,1424.0,1507.0,1483.0,1554.0,1489.0,0.0,0.0,0.0,0.0,0.0,0.0,0.0,0.0
1452920975,8,1517.0,1430.0,1472.0,1425.0,1510.0,1483.0,1554.0,1488.0,0.0,0.0,0.0,0.0,0.0,0.0,0.0,0.0
1452964971,8,1507.0,1430.0,1465.0,1430.0,1507.0,1489.0,1549.0,1489.0,0.0,0.0,0.0,0.0,0.0,0.0,0.0,0.0
1453012976,8,1511.0,1431.0,1472.0,1431.0,1511.0,1486.0,1550.0,1486.0,0.0,0.0,0.0,0.0,0.0,0.0,0.0,0.0
1453057042,8,1505.0,1428.0,1463.0,1430.0,1508.0,1491.0,1550.0,1489.0,0.0,0.0,0.0,0.0,0.0,0.0,0.0,0.0
1453101551,8,1507.0,1425.0,1461.0,1423.0,1504.0,1486.0,1550.0,1488.0,0.0,0.0,0.0,0.0,0.0,0.0,0.0,0.0
1453145786,8,1516.0,1436.0,1472.0,1426.0,1502.0,1478.0,1546.0,1488.0,0.0,0.0,0.0,0.0,0.0,0.0,0.0,0.0
1453189781,8,1514.0,1431.0,1465.0,1421.0,1501.0,1481.0,1549.0,1490.0,0.0,0.0,0.0,0.0,0.0,0.0,0.0,0.0
1453234126,8,1515.0,1432.0,1466.0,1421.0,1498.0,1478.0,1548.0,1490.0,0.0,0.0,0.0,0.0,0.0,0.0,0.0,0.0
1453257916,8,1514.0,1436.0,1468.0,1423.0,1496.0,1475.0,1542.0,1488.0,0.0,0.0,0.0,0.0,0.0,0.0,0.0,0.0
1453317757,8,1515.0,1433.0,1465.0,1420.0,1496.0,1477.0,1546.0,1491.0,0.0,0.0,0.0,0.0,0.0,0.0,0.0,0.0
1453358562,8,1511.0,1437.0,1463.0,1424.0,1492.0,1479.0,1541.0,1493.0,0.0,0.0,0.0,0.0,0.0,0.0,0.0,0.0
1453402996,8,1517.0,1433.0,1463.0,1417.0,1495.0,1477.0,1548.0,1493.0,0.0,0.0,0.0,0.0,0.0,0.0,0.0,0.0
1453426564,8,1515.0,1438.0,1465.0,1421.0,1491.0,1475.0,1541.0,1492.0,0.0,0.0,0.0,0.0,0.0,0.0,0.0,0.0
1453470583,8,1515.0,1431.0,1461.0,1418.0,1497.0,1481.0,1551.0,1494.0,0.0,0.0,0.0,0.0,0.0,0.0,0.0,0.0
1453518567,8,1515.0,1430.0,1464.0,1419.0,1500.0,1480.0,1550.0,1491.0,0.0,0.0,0.0,0.0,0.0,0.0,0.0,0.0
1453562618,8,1513.0,1425.0,1461.0,1419.0,1505.0,1486.0,1556.0,1492.0,0.0,0.0,0.0,0.0,0.0,0.0,0.0,0.0
1453603381,8,1514.0,1429.0,1463.0,1421.0,1503.0,1486.0,1555.0,1494.0,0.0,0.0,0.0,0.0,0.0,0.0,0.0,0.0
1453643382,8,1514.0,1433.0,1461.0,1421.0,1497.0,1483.0,1549.0,1495.0,0.0,0.0,0.0,0.0,0.0,0.0,0.0,0.0
1453687335,8,1513.0,1431.0,1464.0,1422.0,1500.0,1482.0,1550.0,1491.0,0.0,0.0,0.0,0.0,0.0,0.0,0.0,0.0
1453735356,8,1517.0,1438.0,1476.0,1428.0,1503.0,1476.0,1544.0,1486.0,0.0,0.0,0.0,0.0,0.0,0.0,0.0,0.0
1453780178,8,1515.0,1438.0,1471.0,1429.0,1502.0,1481.0,1546.0,1491.0,0.0,0.0,0.0,0.0,0.0,0.0,0.0,0.0
1453800700,8,1514.0,1435.0,1472.0,1428.0,1504.0,1481.0,1546.0,1487.0,0.0,0.0,0.0,0.0,0.0,0.0,0.0,0.0
1453848188,8,1520.0,1439.0,1475.0,1428.0,1505.0,1481.0,1550.0,1491.0,0.0,0.0,0.0,0.0,0.0,0.0,0.0,0.0
1453892237,8,1517.0,1436.0,1470.0,1425.0,1501.0,1480.0,1548.0,1491.0,0.0,0.0,0.0,0.0,0.0,0.0,0.0,0.0
1453935959,8,1519.0,1435.0,1471.0,1426.0,1505.0,1484.0,1554.0,1494.0,0.0,0.0,0.0,0.0,0.0,0.0,0.0,0.0
1453984175,8,1521.0,1436.0,1471.0,1423.0,1502.0,1481.0,1552.0,1494.0,0.0,0.0,0.0,0.0,0.0,0.0,0.0,0.0
1454024985,8,1522.0,1442.0,1475.0,1427.0,1501.0,1478.0,1548.0,1493.0,0.0,0.0,0.0,0.0,0.0,0.0,0.0,0.0
1454072993,8,1527.0,1444.0,1478.0,1426.0,1502.0,1478.0,1551.0,1496.0,0.0,0.0,0.0,0.0,0.0,0.0,0.0,0.0
1454113042,8,1525.0,1445.0,1479.0,1430.0,1504.0,1481.0,1551.0,1496.0,0.0,0.0,0.0,0.0,0.0,0.0,0.0,0.0
1454161041,8,1526.0,1442.0,1476.0,1425.0,1502.0,1478.0,1551.0,1495.0,0.0,0.0,0.0,0.0,0.0,0.0,0.0,0.0
1454201033,8,1526.0,1443.0,1482.0,1430.0,1508.0,1480.0,1553.0,1493.0,0.0,0.0,0.0,0.0,0.0,0.0,0.0,0.0
1454241771,8,1528.0,1442.0,1480.0,1427.0,1506.0,1480.0,1554.0,1495.0,0.0,0.0,0.0,0.0,0.0,0.0,0.0,0.0
1454265767,8,1525.0,1445.0,1478.0,1429.0,1503.0,1480.0,1551.0,1496.0,0.0,0.0,0.0,0.0,0.0,0.0,0.0,0.0
1454309820,8,1527.0,1442.0,1478.0,1430.0,1510.0,1487.0,1558.0,1498.0,0.0,0.0,0.0,0.0,0.0,0.0,0.0,0.0
1454357817,8,1524.0,1442.0,1475.0,1428.0,1504.0,1483.0,1553.0,1497.0,0.0,0.0,0.0,0.0,0.0,0.0,0.0,0.0
1454401871,8,1524.0,1442.0,1479.0,1431.0,1508.0,1483.0,1553.0,1495.0,0.0,0.0,0.0,0.0,0.0,0.0,0.0,0.0
1454449873,8,1526.0,1439.0,1480.0,1426.0,1507.0,1478.0,1554.0,1492.0,0.0,0.0,0.0,0.0,0.0,0.0,0.0,0.0
1454490588,8,1524.0,1443.0,1480.0,1431.0,1508.0,1482.0,1552.0,1493.0,0.0,0.0,0.0,0.0,0.0,0.0,0.0,0.0
1454514560,8,1524.0,1441.0,1477.0,1430.0,1508.0,1485.0,1555.0,1496.0,0.0,0.0,0.0,0.0,0.0,0.0,0.0,0.0
1454558713,8,1523.0,1441.0,1476.0,1431.0,1509.0,1487.0,1556.0,1497.0,0.0,0.0,0.0,0.0,0.0,0.0,0.0,0.0
1454602565,8,1524.0,1442.0,1478.0,1432.0,1510.0,1488.0,1557.0,1498.0,0.0,0.0,0.0,0.0,0.0,0.0,0.0,0.0
1454642576,8,1524.0,1443.0,1479.0,1434.0,1511.0,1488.0,1556.0,1497.0,0.0,0.0,0.0,0.0,0.0,0.0,0.0,0.0
1454686617,8,1524.0,1438.0,1476.0,1426.0,1508.0,1482.0,1555.0,1494.0,0.0,0.0,0.0,0.0,0.0,0.0,0.0,0.0
1454727374,8,1525.0,1435.0,1475.0,1426.0,1512.0,1487.0,1562.0,1496.0,0.0,0.0,0.0,0.0,0.0,0.0,0.0,0.0
1454771372,8,1523.0,1443.0,1478.0,1432.0,1507.0,1484.0,1552.0,1495.0,0.0,0.0,0.0,0.0,0.0,0.0,0.0,0.0
1454815453,8,1524.0,1439.0,1479.0,1429.0,1510.0,1483.0,1555.0,1493.0,0.0,0.0,0.0,0.0,0.0,0.0,0.0,0.0
1454855366,8,1526.0,1441.0,1478.0,1428.0,1507.0,1482.0,1554.0,1495.0,0.0,0.0,0.0,0.0,0.0,0.0,0.0,0.0
1454896149,8,1521.0,1436.0,1472.0,1427.0,1508.0,1488.0,1558.0,1497.0,0.0,0.0,0.0,0.0,0.0,0.0,0.0,0.0
1454944163,8,1523.0,1439.0,1474.0,1427.0,1507.0,1485.0,1556.0,1497.0,0.0,0.0,0.0,0.0,0.0,0.0,0.0,0.0
1454988215,8,1519.0,1438.0,1475.0,1431.0,1509.0,1486.0,1552.0,1492.0,0.0,0.0,0.0,0.0,0.0,0.0,0.0,0.0
1455028310,8,1522.0,1433.0,1471.0,1423.0,1507.0,1483.0,1557.0,1494.0,0.0,0.0,0.0,0.0,0.0,0.0,0.0,0.0
1455076208,8,1521.0,1435.0,1476.0,1429.0,1513.0,1487.0,1557.0,1492.0,0.0,0.0,0.0,0.0,0.0,0.0,0.0,0.0
1455120189,8,1518.0,1435.0,1471.0,1426.0,1506.0,1484.0,1553.0,1493.0,0.0,0.0,0.0,0.0,0.0,0.0,0.0,0.0
1455144245,8,1525.0,1434.0,1479.0,1425.0,1512.0,1482.0,1559.0,1491.0,0.0,0.0,0.0,0.0,0.0,0.0,0.0,0.0
1455188987,8,1522.0,1434.0,1474.0,1424.0,1507.0,1480.0,1554.0,1491.0,0.0,0.0,0.0,0.0,0.0,0.0,0.0,0.0
1455228987,8,1521.0,1434.0,1474.0,1425.0,1508.0,1483.0,1556.0,1492.0,0.0,0.0,0.0,0.0,0.0,0.0,0.0,0.0
1455276965,8,1524.0,1433.0,1477.0,1424.0,1511.0,1480.0,1557.0,1489.0,0.0,0.0,0.0,0.0,0.0,0.0,0.0,0.0
1455320964,8,1520.0,1431.0,1474.0,1425.0,1512.0,1485.0,1559.0,1491.0,0.0,0.0,0.0,0.0,0.0,0.0,0.0,0.0
1455364964,8,1517.0,1428.0,1470.0,1422.0,1510.0,1484.0,1557.0,1489.0,0.0,0.0,0.0,0.0,0.0,0.0,0.0,0.0
1455405819,8,1517.0,1431.0,1473.0,1424.0,1507.0,1480.0,1552.0,1487.0,0.0,0.0,0.0,0.0,0.0,0.0,0.0,0.0
1455453780,8,1516.0,1433.0,1471.0,1425.0,1504.0,1480.0,1550.0,1489.0,0.0,0.0,0.0,0.0,0.0,0.0,0.0,0.0
1455497964,8,1518.0,1428.0,1470.0,1422.0,1510.0,1484.0,1558.0,1490.0,0.0,0.0,0.0,0.0,0.0,0.0,0.0,0.0
1455521761,8,1515.0,1430.0,1469.0,1424.0,1506.0,1482.0,1551.0,1488.0,0.0,0.0,0.0,0.0,0.0,0.0,0.0,0.0
1455561775,8,1521.0,1439.0,1472.0,1423.0,1498.0,1476.0,1547.0,1492.0,0.0,0.0,0.0,0.0,0.0,0.0,0.0,0.0
1455605833,8,1516.0,1440.0,1470.0,1425.0,1496.0,1476.0,1542.0,1490.0,0.0,0.0,0.0,0.0,0.0,0.0,0.0,0.0
1455650595,8,1522.0,1440.0,1475.0,1425.0,1501.0,1476.0,1547.0,1491.0,0.0,0.0,0.0,0.0,0.0,0.0,0.0,0.0
1455694665,8,1524.0,1442.0,1475.0,1424.0,1499.0,1475.0,1547.0,1493.0,0.0,0.0,0.0,0.0,0.0,0.0,0.0,0.0
1455742624,8,1524.0,1441.0,1474.0,1424.0,1499.0,1476.0,1549.0,1493.0,0.0,0.0,0.0,0.0,0.0,0.0,0.0,0.0
1455786693,8,1523.0,1435.0,1475.0,1421.0,1503.0,1474.0,1551.0,1488.0,0.0,0.0,0.0,0.0,0.0,0.0,0.0,0.0
