timestamp,vel_pos_innov[0],vel_pos_innov[1],vel_pos_innov[2],vel_pos_innov[3],vel_pos_innov[4],vel_pos_innov[5],mag_innov[0],mag_innov[1],mag_innov[2],heading_innov,airspeed_innov,beta_innov,flow_innov[0],flow_innov[1],hagl_innov,vel_pos_innov_var[0],vel_pos_innov_var[1],vel_pos_innov_var[2],vel_pos_innov_var[3],vel_pos_innov_var[4],vel_pos_innov_var[5],mag_innov_var[0],mag_innov_var[1],mag_innov_var[2],heading_innov_var,airspeed_innov_var,beta_innov_var,flow_innov_var[0],flow_innov_var[1],hagl_innov_var,output_tracking_error[0],output_tracking_error[1],output_tracking_error[2],drag_innov[0],drag_innov[1],drag_innov_var[0],drag_innov_var[1],aux_vel_innov[0],aux_vel_innov[1]
1430858361,0.058576584,-0.005740068,0.032309577,0.0010738373,-0.047533035,0.1819725,0.0,0.0,0.0,0.031315785,0.0,0.0,0.0,0.0,0.0,0.26203704,0.2620369,0.57207876,0.38822114,0.38822114,4.0571666,0.0,0.0,0.0,0.090147965,0.0,0.0,0.0,0.0,0.0,0.00020503327,0.0066924,0.022064483,0.0,0.0,0.0,0.0,0.0,0.0
1431062656,0.024696484,-0.00026748702,0.089708984,-0.0035142899,-0.05239582,0.06655121,0.0,0.0,0.0,0.038800538,0.0,0.0,0.0,0.0,0.0,0.2623526,0.26235244,0.5721203,0.38991526,0.38991526,4.057088,0.0,0.0,0.0,0.09014797,0.0,0.0,0.0,0.0,0.0,0.00017322182,0.007100329,0.02104428,0.0,0.0,0.0,0.0,0.0,0.0
1431263180,0.055621006,-0.04145649,0.013211183,0.0014152527,-0.055158615,-0.0063934326,0.0,0.0,0.0,0.10197723,0.0,0.0,0.0,0.0,0.0,0.26195878,0.26195863,0.5720979,0.38795125,0.38795125,4.0569515,0.0,0.0,0.0,0.090148054,0.0,0.0,0.0,0.0,0.0,0.00050395355,0.0035871684,0.011658541,0.0,0.0,0.0,0.0,0.0,0.0
1431464236,0.06212372,0.011715375,0.036714107,0.015946388,-0.06236267,-0.06545639,0.0,0.0,0.0,-0.016365174,0.0,0.0,0.0,0.0,0.0,0.2620307,0.26203054,0.57206666,0.38829625,0.38829625,4.056907,0.0,0.0,0.0,0.09014822,0.0,0.0,0.0,0.0,0.0,0.0004815769,0.00494997,0.015981393,0.0,0.0,0.0,0.0,0.0,0.0
1431665039,-0.020389242,-0.002622351,0.04571539,0.015486717,-0.07097912,-0.37842178,0.0,0.0,0.0,-0.007010855,0.0,0.0,0.0,0.0,0.0,0.26198515,0.26198483,0.57205313,0.38687155,0.38687152,4.0569534,0.0,0.0,0.0,0.09014821,0.0,0.0,0.0,0.0,0.0,9.3193696e-05,0.00607625,0.02077551,0.0,0.0,0.0,0.0,0.0,0.0
1431869774,0.0964534,0.046421602,0.045619577,0.020435333,-0.076215744,0.30120087,0.0,0.0,0.0,-0.012100201,0.0,0.0,0.0,0.0,0.0,0.26202607,0.26202598,0.5720971,0.387067,0.38706696,4.056864,0.0,0.0,0.0,0.09014829,0.0,0.0,0.0,0.0,0.0,0.00020483817,0.003552941,0.010630679,0.0,0.0,0.0,0.0,0.0,0.0
1432074690,0.011520497,0.022058941,0.09030079,0.026123047,-0.073589325,-0.8381119,0.0,0.0,0.0,-0.062359206,0.0,0.0,0.0,0.0,0.0,0.26203606,0.26203597,0.5721166,0.38709491,0.3870949,4.0568385,0.0,0.0,0.0,0.09014837,0.0,0.0,0.0,0.0,0.0,0.00011239115,0.008631707,0.029515553,0.0,0.0,0.0,0.0,0.0,0.0
1432274551,-0.03300654,-0.009301332,-0.08785551,0.028386116,-0.06606865,-0.10034561,0.0,0.0,0.0,-0.06492211,0.0,0.0,0.0,0.0,0.0,0.26211846,0.2621217,0.57204807,0.38801876,0.38801873,4.0567656,0.0,0.0,0.0,0.0901483,0.0,0.0,0.0,0.0,0.0,0.0012595942,0.00894453,0.029366279,0.0,0.0,0.0,0.0,0.0,0.0
1432475400,-0.03300654,-0.009301332,-0.08785551,0.028386116,-0.06606865,-0.19867706,0.0,0.0,0.0,0.033494025,0.0,0.0,0.0,0.0,0.0,0.26211846,0.2621217,0.57204807,0.38801876,0.38801873,4.05725,0.0,0.0,0.0,0.09014846,0.0,0.0,0.0,0.0,0.0,0.0013014225,0.0043841447,0.014119355,0.0,0.0,0.0,0.0,0.0,0.0
1432675918,-0.2548563,0.052203238,0.04407823,-0.0023679733,-0.04458809,0.26292038,0.0,0.0,0.0,0.047986507,0.0,0.0,0.0,0.0,0.0,0.26263934,0.26264402,0.57208174,0.3894184,0.3894188,4.0571012,0.0,0.0,0.0,0.09014845,0.0,0.0,0.0,0.0,0.0,0.0005729095,0.0144424355,0.03430886,0.0,0.0,0.0,0.0,0.0,0.0
1432877015,-0.2548563,0.052203238,0.04407823,-0.0023679733,-0.04458809,0.48913574,0.0,0.0,0.0,-0.062377416,0.0,0.0,0.0,0.0,0.0,0.26263934,0.26264402,0.57208174,0.3894184,0.3894188,4.057127,0.0,0.0,0.0,0.09014852,0.0,0.0,0.0,0.0,0.0,0.00078103517,0.007920901,0.02194229,0.0,0.0,0.0,0.0,0.0,0.0
1433081780,-0.05394514,0.19799677,0.0720104,-0.027109146,-0.008944511,0.12572479,0.0,0.0,0.0,-0.043502886,0.0,0.0,0.0,0.0,0.0,0.26257214,0.26255774,0.57213527,0.39099243,0.3909927,4.0570703,0.0,0.0,0.0,0.09014861,0.0,0.0,0.0,0.0,0.0,0.00097220315,0.01477989,0.024198785,0.0,0.0,0.0,0.0,0.0,0.0
1433282613,-0.14253348,0.011563271,0.076846,-0.035913467,-0.011208534,-0.7890148,0.0,0.0,0.0,0.022705365,0.0,0.0,0.0,0.0,0.0,0.26249024,0.26246974,0.5721191,0.3907947,0.39079377,4.0569696,0.0,0.0,0.0,0.090148464,0.0,0.0,0.0,0.0,0.0,0.000820992,0.014625489,0.03019683,0.0,0.0,0.0,0.0,0.0,0.0
1433483449,-0.0710052,-0.06985447,0.08483118,-0.04136181,-0.033551216,-1.1000423,0.0,0.0,0.0,-0.06850068,0.0,0.0,0.0,0.0,0.0,0.26251492,0.2624966,0.5720908,0.3900446,0.39004177,4.0568805,0.0,0.0,0.0,0.09014839,0.0,0.0,0.0,0.0,0.0,0.0007184891,0.014046421,0.038292572,0.0,0.0,0.0,0.0,0.0,0.0
1433688222,-0.025575802,0.1430147,0.026710033,-0.03892708,-0.025295258,-0.21952438,0.0,0.0,0.0,0.016011314,0.0,0.0,0.0,0.0,0.0,0.2624486,0.26243615,0.572109,0.39125156,0.39124718,4.0565715,0.0,0.0,0.0,0.09014845,0.0,0.0,0.0,0.0,0.0,0.0006273964,0.009439882,0.018161934,0.0,0.0,0.0,0.0,0.0,0.0
1433888757,-0.0007813573,0.045315653,-0.019323409,-0.03568554,-0.023692131,-0.033042908,0.0,0.0,0.0,0.011528445,0.0,0.0,0.0,0.0,0.0,0.2623715,0.26236597,0.5721164,0.39114413,0.39113906,4.0566053,0.0,0.0,0.0,0.090148345,0.0,0.0,0.0,0.0,0.0,0.00056512636,0.0071765566,0.017496107,0.0,0.0,0.0,0.0,0.0,0.0
1434092939,-0.09064125,-0.11565906,-0.1141628,-0.044442177,-0.038022995,0.83377075,0.0,0.0,0.0,0.007724939,0.0,0.0,0.0,0.0,0.0,0.2622906,0.26228967,0.5720987,0.39089248,0.39088756,4.056504,0.0,0.0,0.0,0.09014842,0.0,0.0,0.0,0.0,0.0,0.000611387,0.009886665,0.025732512,0.0,0.0,0.0,0.0,0.0,0.0
1434294619,-0.06852436,0.055549935,-0.11049175,-0.0366621,-0.042751312,0.58929825,0.0,0.0,0.0,-0.060724508,0.0,0.0,0.0,0.0,0.0,0.26226178,0.2622623,0.57211566,0.39096692,0.39096263,4.0569696,0.0,0.0,0.0,0.09014833,0.0,0.0,0.0,0.0,0.0,0.0005949182,0.009126599,0.028149748,0.0,0.0,0.0,0.0,0.0,0.0
1434498643,0.01690619,0.064566635,-0.14445359,-0.003862381,-0.07164192,0.48345184,0.0,0.0,0.0,-0.038308337,0.0,0.0,0.0,0.0,0.0,0.26222897,0.26222873,0.57213306,0.38985208,0.3898488,4.056653,0.0,0.0,0.0,0.09014824,0.0,0.0,0.0,0.0,0.0,0.0008899973,0.008116223,0.03310269,0.0,0.0,0.0,0.0,0.0,0.0
1434699453,-0.095268436,0.09569234,-0.060422122,-0.00420475,-0.069247246,-0.30730057,0.0,0.0,0.0,-0.019254224,0.0,0.0,0.0,0.0,0.0,0.26230898,0.26230723,0.57213116,0.39044237,0.39044017,4.0570803,0.0,0.0,0.0,0.09014816,0.0,0.0,0.0,0.0,0.0,0.00093462743,0.007597061,0.027935999,0.0,0.0,0.0,0.0,0.0,0.0
1434899916,-0.07449931,0.13995275,-0.058462203,0.0072698593,-0.07260895,1.2636757,0.0,0.0,0.0,-0.014289182,0.0,0.0,0.0,0.0,0.0,0.26220474,0.26220226,0.5721128,0.39007726,0.39007592,4.0566893,0.0,0.0,0.0,0.09014815,0.0,0.0,0.0,0.0,0.0,0.0007059084,0.01035002,0.035100274,0.0,0.0,0.0,0.0,0.0,0.0
1435105063,-0.024234056,0.084778756,-0.0018004775,0.021730423,-0.07963562,0.48487473,0.0,0.0,0.0,0.0056530125,0.0,0.0,0.0,0.0,0.0,0.26218435,0.26217967,0.5721261,0.39122525,0.3912245,4.0571337,0.0,0.0,0.0,0.09014815,0.0,0.0,0.0,0.0,0.0,0.0006068283,0.0060330117,0.021253835,0.0,0.0,0.0,0.0,0.0,0.0
1435305799,-0.018927846,0.09878232,0.0069124103,0.0316267,-0.080046654,0.26530838,0.0,0.0,0.0,-0.011103183,0.0,0.0,0.0,0.0,0.0,0.26216894,0.2621616,0.5720619,0.39122313,0.39122272,4.056519,0.0,0.0,0.0,0.09014815,0.0,0.0,0.0,0.0,0.0,0.00039296754,0.006302427,0.020196384,0.0,0.0,0.0,0.0,0.0,0.0
1435510372,0.009619415,0.10960588,0.04683286,0.04333687,-0.08278847,0.48374176,0.0,0.0,0.0,-0.054938376,0.0,0.0,0.0,0.0,0.0,0.26204237,0.26203278,0.572041,0.39194348,0.3919431,4.0562887,0.0,0.0,0.0,0.09014821,0.0,0.0,0.0,0.0,0.0,0.00074582227,0.009172097,0.027438046,0.0,0.0,0.0,0.0,0.0,0.0
1435714665,0.04824699,0.17792694,0.037327886,0.043268204,-0.07197285,1.0135498,0.0,0.0,0.0,-0.05813957,0.0,0.0,0.0,0.0,0.0,0.2620935,0.26208073,0.5720946,0.3923006,0.39229983,4.0562754,0.0,0.0,0.0,0.0901482,0.0,0.0,0.0,0.0,0.0,0.0007749949,0.013703187,0.036876056,0.0,0.0,0.0,0.0,0.0,0.0
1435915170,0.047497734,0.044637397,0.008203387,0.051862717,-0.05723381,0.3356018,0.0,0.0,0.0,-0.007956356,0.0,0.0,0.0,0.0,0.0,0.26213428,0.26211953,0.5720672,0.3914073,0.3914058,4.0564876,0.0,0.0,0.0,0.09014818,0.0,0.0,0.0,0.0,0.0,0.0005715595,0.021207327,0.06498803,0.0,0.0,0.0,0.0,0.0,0.0
1436121057,0.010821382,0.23390685,0.09795076,0.060210228,-0.056141853,-0.13396072,0.0,0.0,0.0,0.0105011985,0.0,0.0,0.0,0.0,0.0,0.26205304,0.26203623,0.5720523,0.39106348,0.39106107,4.0563726,0.0,0.0,0.0,0.09014808,0.0,0.0,0.0,0.0,0.0,0.00038333033,0.016470088,0.047322564,0.0,0.0,0.0,0.0,0.0,0.0
1436321037,-0.026787704,0.06857997,-0.023454964,0.048426628,-0.042500496,0.4036827,0.0,0.0,0.0,-0.026927961,0.0,0.0,0.0,0.0,0.0,0.26199728,0.2619785,0.5720623,0.39090598,0.3909024,4.0565104,0.0,0.0,0.0,0.090147905,0.0,0.0,0.0,0.0,0.0,0.00023710757,0.011218342,0.034974724,0.0,0.0,0.0,0.0,0.0,0.0
1436525573,0.12174154,0.20413491,-0.059984565,0.08936596,-0.044677734,-0.0011405945,0.0,0.0,0.0,0.016308362,0.0,0.0,0.0,0.0,0.0,0.26199165,0.26197365,0.57207745,0.39091852,0.3909136,4.0566626,0.0,0.0,0.0,0.090148024,0.0,0.0,0.0,0.0,0.0,0.00044986536,0.013497628,0.029488608,0.0,0.0,0.0,0.0,0.0,0.0
1436726623,-0.061993953,-0.029025733,0.10934037,0.09830284,-0.05568695,0.14801407,0.0,0.0,0.0,-0.04141873,0.0,0.0,0.0,0.0,0.0,0.26194596,0.2619313,0.5721367,0.39063317,0.39062715,4.0568223,0.0,0.0,0.0,0.09014799,0.0,0.0,0.0,0.0,0.0,0.00046450464,0.0063736453,0.017621659,0.0,0.0,0.0,0.0,0.0,0.0
1436927397,0.06967759,0.15278602,-0.04720962,0.106170654,-0.045991898,-0.33639908,0.0,0.0,0.0,-0.04066886,0.0,0.0,0.0,0.0,0.0,0.26197538,0.26196617,0.57214606,0.39068276,0.390676,4.057199,0.0,0.0,0.0,0.090147875,0.0,0.0,0.0,0.0,0.0,0.00051943166,0.009509473,0.02302382,0.0,0.0,0.0,0.0,0.0,0.0
1437127941,-0.13878353,-0.046790898,-0.013387203,0.07297611,-0.06482315,-0.3905983,0.0,0.0,0.0,0.055906482,0.0,0.0,0.0,0.0,0.0,0.26198313,0.26197967,0.5721501,0.39072445,0.39071774,4.0570726,0.0,0.0,0.0,0.09014778,0.0,0.0,0.0,0.0,0.0,0.00037238168,0.007402168,0.02354426,0.0,0.0,0.0,0.0,0.0,0.0
1437328970,-0.1089395,0.112456664,0.0012202263,0.071816444,-0.053969383,0.36492157,0.0,0.0,0.0,-0.004129879,0.0,0.0,0.0,0.0,0.0,0.26196706,0.2619666,0.572156,0.38958848,0.38958234,4.057189,0.0,0.0,0.0,0.09014779,0.0,0.0,0.0,0.0,0.0,0.0003234239,0.005044165,0.017830689,0.0,0.0,0.0,0.0,0.0,0.0
1437533884,0.16615264,0.20290324,-0.114106834,0.059657097,-0.017798424,-0.2287674,0.0,0.0,0.0,-0.0018929765,0.0,0.0,0.0,0.0,0.0,0.26197234,0.26197395,0.57215816,0.38956827,0.3895632,4.057291,0.0,0.0,0.0,0.09014788,0.0,0.0,0.0,0.0,0.0,0.0005815841,0.011118505,0.027499508,0.0,0.0,0.0,0.0,0.0,0.0
1437737753,-0.23645538,-0.047064483,-0.13465804,0.020162582,-0.011788368,-0.5178795,0.0,0.0,0.0,-0.05896558,0.0,0.0,0.0,0.0,0.0,0.2619997,0.26200387,0.57208055,0.39075643,0.3907529,4.0570087,0.0,0.0,0.0,0.09014795,0.0,0.0,0.0,0.0,0.0,0.00061547046,0.012083011,0.034250036,0.0,0.0,0.0,0.0,0.0,0.0
1437938683,-0.012564793,0.2581092,0.042209744,-0.0025110245,0.017233849,-0.14858246,0.0,0.0,0.0,-0.006047424,0.0,0.0,0.0,0.0,0.0,0.2620637,0.26206636,0.5721125,0.39211342,0.39211184,4.05712,0.0,0.0,0.0,0.09014795,0.0,0.0,0.0,0.0,0.0,0.0006585823,0.01907611,0.05851894,0.0,0.0,0.0,0.0,0.0,0.0
1438139391,-0.015246503,-0.03791707,-0.001046896,-0.019212723,0.013256073,0.27598572,0.0,0.0,0.0,-0.034243323,0.0,0.0,0.0,0.0,0.0,0.2620776,0.26207593,0.5721197,0.39214742,0.3921476,4.056927,0.0,0.0,0.0,0.09014808,0.0,0.0,0.0,0.0,0.0,0.00048743185,0.010780518,0.03723957,0.0,0.0,0.0,0.0,0.0,0.0
1438339959,-0.075832434,0.03530001,-0.025258541,-0.04453087,0.018152237,0.46370697,0.0,0.0,0.0,-0.03078448,0.0,0.0,0.0,0.0,0.0,0.26203427,0.26202774,0.572098,0.39071047,0.39071172,4.056781,0.0,0.0,0.0,0.090148166,0.0,0.0,0.0,0.0,0.0,0.00056771375,0.011214334,0.0370641,0.0,0.0,0.0,0.0,0.0,0.0
1438540779,0.028683048,0.08592477,-0.048395276,-0.06616211,0.02308464,-0.13869095,0.0,0.0,0.0,-0.068160936,0.0,0.0,0.0,0.0,0.0,0.26207778,0.26206756,0.57211053,0.39075956,0.39076114,4.0569153,0.0,0.0,0.0,0.09014832,0.0,0.0,0.0,0.0,0.0,0.00078381086,0.008380893,0.028373327,0.0,0.0,0.0,0.0,0.0,0.0
1438741568,-0.08007894,0.1767416,-0.04105836,-0.069690704,0.03853321,0.5368309,0.0,0.0,0.0,0.0015050918,0.0,0.0,0.0,0.0,0.0,0.26215664,0.26214692,0.57207453,0.38992962,0.38993087,4.056815,0.0,0.0,0.0,0.09014832,0.0,0.0,0.0,0.0,0.0,0.0006773504,0.013859245,0.038853303,0.0,0.0,0.0,0.0,0.0,0.0
1438942383,-0.10815767,0.0051724017,-0.09675777,-0.035812378,0.026192665,-0.6395798,0.0,0.0,0.0,0.0047181062,0.0,0.0,0.0,0.0,0.0,0.2621718,0.26216543,0.5720887,0.38874322,0.38874388,4.056683,0.0,0.0,0.0,0.09014839,0.0,0.0,0.0,0.0,0.0,0.00058533653,0.01323144,0.038480643,0.0,0.0,0.0,0.0,0.0,0.0
1439147516,0.015178412,0.16047062,-0.059450805,-0.047312737,0.049603462,0.35583496,0.0,0.0,0.0,-0.046987526,0.0,0.0,0.0,0.0,0.0,0.26217347,0.26216763,0.5720262,0.38871145,0.3887114,4.0566134,0.0,0.0,0.0,0.09014829,0.0,0.0,0.0,0.0,0.0,0.00046001596,0.011576985,0.032633867,0.0,0.0,0.0,0.0,0.0,0.0
1439348153,0.0591013,0.15564115,0.11503804,-0.03528881,0.055874825,0.2411232,0.0,0.0,0.0,-0.014453739,0.0,0.0,0.0,0.0,0.0,0.2621729,0.2621661,0.57204294,0.3898278,0.38982707,4.056649,0.0,0.0,0.0,0.09014826,0.0,0.0,0.0,0.0,0.0,0.0004682614,0.008912403,0.019928645,0.0,0.0,0.0,0.0,0.0,0.0
1439552291,0.101817876,-0.023165435,0.015209734,-0.043330193,0.045470238,-0.37603378,0.0,0.0,0.0,-0.002701655,0.0,0.0,0.0,0.0,0.0,0.26214793,0.26214036,0.57205325,0.3908566,0.39085525,4.0568175,0.0,0.0,0.0,0.09014826,0.0,0.0,0.0,0.0,0.0,0.00034137274,0.0044728885,0.01099919,0.0,0.0,0.0,0.0,0.0,0.0
1439753023,-0.029493734,0.086438775,-0.011762857,-0.05472374,0.046811104,0.035884857,0.0,0.0,0.0,-0.057782833,0.0,0.0,0.0,0.0,0.0,0.26216015,0.2621544,0.5720664,0.39207634,0.39207435,4.056663,0.0,0.0,0.0,0.09014833,0.0,0.0,0.0,0.0,0.0,0.0002835029,0.0040916298,0.012768665,0.0,0.0,0.0,0.0,0.0,0.0
1439953557,0.06448933,0.057402827,-0.07652807,-0.04497242,0.03165531,0.35652924,0.0,0.0,0.0,-0.030079339,0.0,0.0,0.0,0.0,0.0,0.26216066,0.2621577,0.57208216,0.39330757,0.3933052,4.056604,0.0,0.0,0.0,0.09014831,0.0,0.0,0.0,0.0,0.0,0.00038840206,0.0022237382,0.0071729356,0.0,0.0,0.0,0.0,0.0,0.0
1440158376,0.02097534,0.06811945,-0.08347702,-0.033719063,0.03334427,0.053276062,0.0,0.0,0.0,-0.019657366,0.0,0.0,0.0,0.0,0.0,0.2621835,0.26218313,0.5720454,0.39352253,0.3935203,4.0566344,0.0,0.0,0.0,0.090148374,0.0,0.0,0.0,0.0,0.0,0.0005801331,0.0032106019,0.0077923043,0.0,0.0,0.0,0.0,0.0,0.0
1440359419,-0.013792479,0.10488905,0.030797184,-0.045993805,0.038431168,-0.36679077,0.0,0.0,0.0,-0.0729036,0.0,0.0,0.0,0.0,0.0,0.26213288,0.2621337,0.57203025,0.39208847,0.39208668,4.056531,0.0,0.0,0.0,0.09014829,0.0,0.0,0.0,0.0,0.0,0.00050150615,0.006274332,0.019716779,0.0,0.0,0.0,0.0,0.0,0.0
1440559943,0.034865737,0.035893522,-0.011404991,-0.033006668,0.025559425,-0.05680847,0.0,0.0,0.0,0.0147253275,0.0,0.0,0.0,0.0,0.0,0.26212478,0.262126,0.5720415,0.39199606,0.39199483,4.05657,0.0,0.0,0.0,0.09014836,0.0,0.0,0.0,0.0,0.0,0.00044636123,0.005544313,0.018378591,0.0,0.0,0.0,0.0,0.0,0.0
1440760951,0.00720004,0.01224108,-0.049251795,-0.03865719,0.02273941,-0.16414642,0.0,0.0,0.0,0.019570157,0.0,0.0,0.0,0.0,0.0,0.2621643,0.26216537,0.5720603,0.39206445,0.3920639,4.0567565,0.0,0.0,0.0,0.09014826,0.0,0.0,0.0,0.0,0.0,0.00024242453,0.0018806298,0.0032240688,0.0,0.0,0.0,0.0,0.0,0.0
1440961558,-0.10613498,-0.05606304,-0.017016053,-0.048401833,0.01103878,-1.1017647,0.0,0.0,0.0,-0.058066987,0.0,0.0,0.0,0.0,0.0,0.2621669,0.2621674,0.5720743,0.39092138,0.39092138,4.0566955,0.0,0.0,0.0,0.090148345,0.0,0.0,0.0,0.0,0.0,0.00037288552,0.008199827,0.016513957,0.0,0.0,0.0,0.0,0.0,0.0
1441162615,-0.023078255,0.10930241,0.103346705,-0.049185753,0.016367912,-0.20366669,0.0,0.0,0.0,-0.031146694,0.0,0.0,0.0,0.0,0.0,0.26218742,0.26218745,0.5720911,0.39096412,0.39096448,4.0568676,0.0,0.0,0.0,0.09014841,0.0,0.0,0.0,0.0,0.0,0.00055628835,0.0049815825,0.014437745,0.0,0.0,0.0,0.0,0.0,0.0
1441366546,0.06293091,0.02374617,0.019747257,-0.036937714,0.02062416,0.66709137,0.0,0.0,0.0,0.00068664923,0.0,0.0,0.0,0.0,0.0,0.2622131,0.26221398,0.5721046,0.3898286,0.38982916,4.056744,0.0,0.0,0.0,0.090148345,0.0,0.0,0.0,0.0,0.0,0.00034324522,0.00294703,0.0077720773,0.0,0.0,0.0,0.0,0.0,0.0
1441567443,-0.03401647,0.0800878,0.04668629,-0.037859917,0.029779434,-0.48334122,0.0,0.0,0.0,-0.005202897,0.0,0.0,0.0,0.0,0.0,0.2622277,0.26222837,0.57204056,0.38867512,0.38867572,4.0566053,0.0,0.0,0.0,0.09014833,0.0,0.0,0.0,0.0,0.0,0.00041123113,0.0019344524,0.004386919,0.0,0.0,0.0,0.0,0.0,0.0
1441772240,-0.03941418,0.1081509,0.056790233,-0.04879284,0.048392296,-0.48594284,0.0,0.0,0.0,-0.036661174,0.0,0.0,0.0,0.0,0.0,0.26222503,0.26222485,0.572058,0.38867205,0.38867262,4.0565615,0.0,0.0,0.0,0.09014824,0.0,0.0,0.0,0.0,0.0,0.00073685794,0.0043477872,0.008759117,0.0,0.0,0.0,0.0,0.0,0.0
1441973073,0.0044116974,-0.030354328,0.08751595,-0.044870377,0.03918743,-0.4296341,0.0,0.0,0.0,-0.09094672,0.0,0.0,0.0,0.0,0.0,0.26225087,0.2622489,0.57210183,0.3888175,0.3888179,4.0566077,0.0,0.0,0.0,0.090148315,0.0,0.0,0.0,0.0,0.0,0.00081392477,0.0028922039,0.0081215035,0.0,0.0,0.0,0.0,0.0,0.0
1442173563,0.034991562,-0.026221082,0.062811255,-0.045518875,0.028266907,0.40386963,0.0,0.0,0.0,-0.023491058,0.0,0.0,0.0,0.0,0.0,0.26221663,0.26221317,0.57211286,0.3874779,0.387478,4.056928,0.0,0.0,0.0,0.09014838,0.0,0.0,0.0,0.0,0.0,0.000445243,0.007138274,0.021145925,0.0,0.0,0.0,0.0,0.0,0.0
1442374371,-0.101364896,0.0483831,0.040935755,-0.066719055,0.026938438,0.027313232,0.0,0.0,0.0,-0.0694499,0.0,0.0,0.0,0.0,0.0,0.26213953,0.26213542,0.57209235,0.3871611,0.3871608,4.0570726,0.0,0.0,0.0,0.09014837,0.0,0.0,0.0,0.0,0.0,0.00024183944,0.013776936,0.04370162,0.0,0.0,0.0,0.0,0.0,0.0
1442578627,0.063203454,0.060745567,-0.018400073,-0.07792187,0.032203674,-0.5993118,0.0,0.0,0.0,-0.016359914,0.0,0.0,0.0,0.0,0.0,0.2621828,0.2621782,0.5721335,0.387475,0.3874743,4.056925,0.0,0.0,0.0,0.09014852,0.0,0.0,0.0,0.0,0.0,0.00038511105,0.007863988,0.028217033,0.0,0.0,0.0,0.0,0.0,0.0
1442779378,0.10204622,0.12057002,-0.0012042522,-0.06839275,0.0399971,-0.07125473,0.0,0.0,0.0,-0.06578251,0.0,0.0,0.0,0.0,0.0,0.26210913,0.2621056,0.57211035,0.38712627,0.38712522,4.0570693,0.0,0.0,0.0,0.090148516,0.0,0.0,0.0,0.0,0.0,0.00060473185,0.004398636,0.0113987215,0.0,0.0,0.0,0.0,0.0,0.0
1442980762,0.081612244,0.01655031,-0.048514247,-0.055500984,0.037018776,-0.09396362,0.0,0.0,0.0,-0.025576163,0.0,0.0,0.0,0.0,0.0,0.26209947,0.2620973,0.5721166,0.38598332,0.385982,4.057151,0.0,0.0,0.0,0.09014851,0.0,0.0,0.0,0.0,0.0,0.00041500124,0.0033422967,0.004558231,0.0,0.0,0.0,0.0,0.0,0.0
1443180974,0.08087301,-0.012764335,-0.05992949,-0.047372818,0.021660805,0.2037735,0.0,0.0,0.0,-0.03767775,0.0,0.0,0.0,0.0,0.0,0.26210883,0.26210818,0.5721236,0.38598442,0.3859831,4.0570626,0.0,0.0,0.0,0.09014874,0.0,0.0,0.0,0.0,0.0,0.00033046337,0.0047609583,0.009276541,0.0,0.0,0.0,0.0,0.0,0.0
1443385789,0.09344019,-0.014171606,0.10127914,-0.04687214,0.007331848,0.21523285,0.0,0.0,0.0,-0.03960442,0.0,0.0,0.0,0.0,0.0,0.26211202,0.26211244,0.57213384,0.38482448,0.3848233,4.057159,0.0,0.0,0.0,0.09014864,0.0,0.0,0.0,0.0,0.0,0.000526656,0.0056599984,0.009728788,0.0,0.0,0.0,0.0,0.0,0.0
1443586361,0.06957812,-0.11259353,-0.0059553385,-0.033999443,-0.007106781,-0.11669159,0.0,0.0,0.0,0.04824532,0.0,0.0,0.0,0.0,0.0,0.2621124,0.26211342,0.5721419,0.38364598,0.3836451,4.057268,0.0,0.0,0.0,0.09014855,0.0,0.0,0.0,0.0,0.0,0.00057296257,0.008733709,0.016274821,0.0,0.0,0.0,0.0,0.0,0.0
1443787169,0.03901854,0.048764348,0.14425421,-0.032814026,-0.013581276,0.47250748,0.0,0.0,0.0,-0.072047435,0.0,0.0,0.0,0.0,0.0,0.26203722,0.26203832,0.57211566,0.38332015,0.38331962,4.0570927,0.0,0.0,0.0,0.09014847,0.0,0.0,0.0,0.0,0.0,0.0005440174,0.0072716703,0.018124025,0.0,0.0,0.0,0.0,0.0,0.0
1443988184,0.10287337,-0.024509396,0.030877829,-0.021166801,-0.007358551,0.44087982,0.0,0.0,0.0,0.00035846978,0.0,0.0,0.0,0.0,0.0,0.26204532,0.2620462,0.5721245,0.38217396,0.3821738,4.0571985,0.0,0.0,0.0,0.090148464,0.0,0.0,0.0,0.0,0.0,0.00020265559,0.011597574,0.03350213,0.0,0.0,0.0,0.0,0.0,0.0
1444189055,0.075999886,0.0060616806,0.017219901,-0.008320808,-0.017335892,1.0190353,0.0,0.0,0.0,-0.049085103,0.0,0.0,0.0,0.0,0.0,0.26204738,0.26204774,0.5720513,0.3821378,0.38213804,4.0569415,0.0,0.0,0.0,0.09014845,0.0,0.0,0.0,0.0,0.0,0.0003094434,0.008365594,0.024361543,0.0,0.0,0.0,0.0,0.0,0.0
1444392990,0.10239769,-0.034217454,0.118335605,0.011024475,-0.013087273,-0.0117836,0.0,0.0,0.0,0.008096918,0.0,0.0,0.0,0.0,0.0,0.2620851,0.26208526,0.572091,0.3811285,0.38112903,4.056808,0.0,0.0,0.0,0.09014844,0.0,0.0,0.0,0.0,0.0,0.00025840956,0.0073586577,0.016157193,0.0,0.0,0.0,0.0,0.0,0.0
1444594568,0.029512562,-0.04325016,0.11689675,0.011478424,-0.039323807,-0.4394722,0.0,0.0,0.0,-0.04281431,0.0,0.0,0.0,0.0,0.0,0.2620774,0.26207805,0.5721069,0.37993807,0.3799388,4.056955,0.0,0.0,0.0,0.09014843,0.0,0.0,0.0,0.0,0.0,0.00039910906,0.00696254,0.016323622,0.0,0.0,0.0,0.0,0.0,0.0
1444794420,0.11651969,-0.03309615,0.0584203,0.015817642,-0.043925285,-0.28453064,0.0,0.0,0.0,-0.011316452,0.0,0.0,0.0,0.0,0.0,0.26206315,0.26206404,0.57211983,0.37988642,0.3798873,4.0570836,0.0,0.0,0.0,0.09014843,0.0,0.0,0.0,0.0,0.0,0.00044033575,0.008346178,0.018821213,0.0,0.0,0.0,0.0,0.0,0.0
1444995544,0.10096618,0.051367566,0.039986372,0.018134117,-0.041204453,-0.51094437,0.0,0.0,0.0,-0.028662998,0.0,0.0,0.0,0.0,0.0,0.2620994,0.26210082,0.5720833,0.37898088,0.37898186,4.0569506,0.0,0.0,0.0,0.09014843,0.0,0.0,0.0,0.0,0.0,0.0005555031,0.0065982644,0.015530063,0.0,0.0,0.0,0.0,0.0,0.0
1445196247,0.101305425,-0.06720895,-0.058914304,0.018884659,-0.05039978,0.3480835,0.0,0.0,0.0,-0.0461591,0.0,0.0,0.0,0.0,0.0,0.26201215,0.2620147,0.57206494,0.37859148,0.37859252,4.056818,0.0,0.0,0.0,0.09014834,0.0,0.0,0.0,0.0,0.0,0.00039225962,0.007715588,0.017595103,0.0,0.0,0.0,0.0,0.0,0.0
1445400946,0.043114793,-0.06488615,-0.045605183,0.0057229996,-0.04523182,-0.42309952,0.0,0.0,0.0,-0.019107781,0.0,0.0,0.0,0.0,0.0,0.26196644,0.26196975,0.5720755,0.37840006,0.3784012,4.0571213,0.0,0.0,0.0,0.09014832,0.0,0.0,0.0,0.0,0.0,0.00034744304,0.0067051984,0.016535336,0.0,0.0,0.0,0.0,0.0,0.0
1445601566,-0.03674633,-0.091494575,0.0652827,-0.017577171,-0.053774834,0.45352936,0.0,0.0,0.0,0.082279295,0.0,0.0,0.0,0.0,0.0,0.26195756,0.2619616,0.57208925,0.37953255,0.3795339,4.056971,0.0,0.0,0.0,0.090148404,0.0,0.0,0.0,0.0,0.0,0.00041653385,0.007183758,0.014806654,0.0,0.0,0.0,0.0,0.0,0.0
1445802695,-0.024582833,0.033833478,0.1567018,-0.024328232,-0.056257248,-0.7280922,0.0,0.0,0.0,-0.019401219,0.0,0.0,0.0,0.0,0.0,0.26196885,0.26197365,0.57210135,0.37950826,0.37950984,4.0571136,0.0,0.0,0.0,0.090148315,0.0,0.0,0.0,0.0,0.0,0.00032297007,0.0049172617,0.010636451,0.0,0.0,0.0,0.0,0.0,0.0
1446006621,0.0043911487,-0.10176976,-0.0002452135,-0.024689674,-0.07027435,-0.34622192,0.0,0.0,0.0,-0.033642698,0.0,0.0,0.0,0.0,0.0,0.26197502,0.2619801,0.5721135,0.3795166,0.3795185,4.0570107,0.0,0.0,0.0,0.0901483,0.0,0.0,0.0,0.0,0.0,0.00042765288,0.007101992,0.01581218,0.0,0.0,0.0,0.0,0.0,0.0
1446207465,0.08548007,0.020052603,-0.044568777,-0.023184776,-0.06463623,0.6282196,0.0,0.0,0.0,-0.03443545,0.0,0.0,0.0,0.0,0.0,0.26197985,0.2619848,0.57204753,0.37952682,0.37952906,4.056736,0.0,0.0,0.0,0.090148285,0.0,0.0,0.0,0.0,0.0,0.00037946147,0.0060212477,0.017118823,0.0,0.0,0.0,0.0,0.0,0.0
1446407970,0.04376565,-0.06453785,0.0013413429,-0.018780708,-0.06833553,0.096660614,0.0,0.0,0.0,-0.05528057,0.0,0.0,0.0,0.0,0.0,0.26195222,0.2619556,0.57205826,0.37939385,0.37939626,4.0568748,0.0,0.0,0.0,0.090148285,0.0,0.0,0.0,0.0,0.0,0.000515726,0.00569079,0.015499209,0.0,0.0,0.0,0.0,0.0,0.0
1446609071,0.07753016,-0.06622117,0.08940935,-0.0036029816,-0.06440163,0.1383934,0.0,0.0,0.0,-0.09016712,0.0,0.0,0.0,0.0,0.0,0.26197013,0.2619718,0.5720736,0.37827048,0.3782729,4.0570254,0.0,0.0,0.0,0.090148434,0.0,0.0,0.0,0.0,0.0,0.00061168545,0.0052108974,0.011022311,0.0,0.0,0.0,0.0,0.0,0.0
1446809826,0.001760751,-0.1064673,-0.019175053,0.004486084,-0.0683651,0.49974823,0.0,0.0,0.0,0.05247993,0.0,0.0,0.0,0.0,0.0,0.2619891,0.26198998,0.57208616,0.3782817,0.37828398,4.0569367,0.0,0.0,0.0,0.090148345,0.0,0.0,0.0,0.0,0.0,0.0004729983,0.0068090428,0.016345128,0.0,0.0,0.0,0.0,0.0,0.0
1447010675,0.011239819,-0.09830866,0.06593585,-0.008123398,-0.070233345,0.52345276,0.0,0.0,0.0,-0.03390781,0.0,0.0,0.0,0.0,0.0,0.26201454,0.26201385,0.5721011,0.37714258,0.37714458,4.0568156,0.0,0.0,0.0,0.09014842,0.0,0.0,0.0,0.0,0.0,0.0006863466,0.005911782,0.011467094,0.0,0.0,0.0,0.0,0.0,0.0
1447211446,0.027153946,-0.08591485,-0.001940608,-0.010284424,-0.06866264,-0.041965485,0.0,0.0,0.0,0.010816153,0.0,0.0,0.0,0.0,0.0,0.26202017,0.2620171,0.57211095,0.376997,0.37699848,4.0568366,0.0,0.0,0.0,0.09014832,0.0,0.0,0.0,0.0,0.0,0.00069244753,0.011652914,0.035503495,0.0,0.0,0.0,0.0,0.0,0.0
1447412285,-0.018387765,-0.03779593,0.023149371,-0.01354599,-0.05850315,-0.39639282,0.0,0.0,0.0,-0.027629506,0.0,0.0,0.0,0.0,0.0,0.26208374,0.26207736,0.5720778,0.37728015,0.3772809,4.0569887,0.0,0.0,0.0,0.09014831,0.0,0.0,0.0,0.0,0.0,0.00061290467,0.006010474,0.017976532,0.0,0.0,0.0,0.0,0.0,0.0
1447616755,0.098165125,-0.08595176,-0.034222245,0.006893158,-0.060281754,0.16233063,0.0,0.0,0.0,0.025799904,0.0,0.0,0.0,0.0,0.0,0.26202202,0.2620129,0.5720589,0.37582713,0.37582693,4.0569134,0.0,0.0,0.0,0.090148315,0.0,0.0,0.0,0.0,0.0,0.0005849767,0.0034238643,0.009975945,0.0,0.0,0.0,0.0,0.0,0.0
1447820953,0.109467,-0.051221475,-0.04703641,0.020723343,-0.064190865,-0.2579651,0.0,0.0,0.0,-0.08468583,0.0,0.0,0.0,0.0,0.0,0.26202315,0.26201385,0.5720747,0.37468567,0.37468436,4.057082,0.0,0.0,0.0,0.090148196,0.0,0.0,0.0,0.0,0.0,0.0005540993,0.0072973785,0.023818212,0.0,0.0,0.0,0.0,0.0,0.0
1448021761,0.010109056,-0.06829161,-0.021569729,0.13316727,-0.09002304,-0.34753418,0.0,0.0,0.0,-0.007271532,0.0,0.0,0.0,0.0,0.0,0.26213342,0.26212594,0.57207423,0.3684162,0.36841357,4.0572267,0.0,0.0,0.0,0.09014822,0.0,0.0,0.0,0.0,0.0,0.0005601155,0.005389623,0.014551437,0.0,0.0,0.0,0.0,0.0,0.0
1448226588,0.07363776,-0.04559367,-0.07704091,0.2162199,-0.10741711,0.54066086,0.0,0.0,0.0,0.037823886,0.0,0.0,0.0,0.0,0.0,0.26201516,0.26201004,0.57213175,0.36114568,0.36114225,4.057075,0.0,0.0,0.0,0.09014812,0.0,0.0,0.0,0.0,0.0,0.00061410456,0.009437304,0.024938513,0.0,0.0,0.0,0.0,0.0,0.0
1448427502,-0.016028605,-0.04571601,-0.036233306,0.29764462,-0.13190079,-0.47504807,0.0,0.0,0.0,-0.0105457865,0.0,0.0,0.0,0.0,0.0,0.26195908,0.26195624,0.5720635,0.35529742,0.35529342,4.057183,0.0,0.0,0.0,0.090148196,0.0,0.0,0.0,0.0,0.0,0.00056565733,0.014725866,0.043921836,0.0,0.0,0.0,0.0,0.0,0.0
1448632226,0.02720657,-0.08346671,0.0687654,0.34899998,-0.15907478,0.12339783,0.0,0.0,0.0,-0.014263887,0.0,0.0,0.0,0.0,0.0,0.2618777,0.2618749,0.5720671,0.3481952,0.34819102,4.0572224,0.0,0.0,0.0,0.09014817,0.0,0.0,0.0,0.0,0.0,0.0008061307,0.013737359,0.03918411,0.0,0.0,0.0,0.0,0.0,0.0
1448832984,0.030347228,0.021721154,0.097284675,0.40131283,-0.16005516,0.47341156,0.0,0.0,0.0,-0.003127616,0.0,0.0,0.0,0.0,0.0,0.26183924,0.26183635,0.57207566,0.3423214,0.3423172,4.0570745,0.0,0.0,0.0,0.09014833,0.0,0.0,0.0,0.0,0.0,0.00075391895,0.01532877,0.044356238,0.0,0.0,0.0,0.0,0.0,0.0
1449033817,-0.0117851645,0.029261827,-0.0026273727,0.43688393,-0.17467976,0.46686554,0.0,0.0,0.0,-0.017020237,0.0,0.0,0.0,0.0,0.0,0.26180246,0.26179957,0.5720879,0.33649093,0.33648682,4.057227,0.0,0.0,0.0,0.09014849,0.0,0.0,0.0,0.0,0.0,0.0006797412,0.015429336,0.0460994,0.0,0.0,0.0,0.0,0.0,0.0
1449234602,-0.017682966,0.07895364,0.05857432,0.4516363,-0.1754551,0.8669853,0.0,0.0,0.0,-0.022045698,0.0,0.0,0.0,0.0,0.0,0.26170424,0.2617019,0.5720685,0.33147496,0.3314711,4.0570774,0.0,0.0,0.0,0.09014841,0.0,0.0,0.0,0.0,0.0,0.00065527647,0.017298583,0.053057503,0.0,0.0,0.0,0.0,0.0,0.0
1449435150,-0.09619516,0.056443777,-0.028057814,0.44698334,-0.16972351,-0.6641998,0.0,0.0,0.0,-0.034016557,0.0,0.0,0.0,0.0,0.0,0.2616797,0.26167828,0.572081,0.32680368,0.32679996,4.056993,0.0,0.0,0.0,0.09014848,0.0,0.0,0.0,0.0,0.0,0.00069991173,0.011093197,0.036895003,0.0,0.0,0.0,0.0,0.0,0.0
1449639471,-0.16103296,-0.0077882484,-0.012366772,0.43212175,-0.1638956,-0.7834301,0.0,0.0,0.0,-0.031085175,0.0,0.0,0.0,0.0,0.0,0.2617017,0.26170176,0.5720492,0.32349133,0.32348773,4.057008,0.0,0.0,0.0,0.09014838,0.0,0.0,0.0,0.0,0.0,0.00074366614,0.007284873,0.028076267,0.0,0.0,0.0,0.0,0.0,0.0
1449839927,-0.1374233,0.014360264,0.061701894,0.4127736,-0.1544981,0.19686127,0.0,0.0,0.0,0.02291454,0.0,0.0,0.0,0.0,0.0,0.26164144,0.26164395,0.5721358,0.3187098,0.31870645,4.0571465,0.0,0.0,0.0,0.0901483,0.0,0.0,0.0,0.0,0.0,0.0006438438,0.006773792,0.025226997,0.0,0.0,0.0,0.0,0.0,0.0
1450040779,-0.18010241,-0.036304075,-0.020974994,0.41858625,-0.1774168,-0.28406525,0.0,0.0,0.0,0.0057440624,0.0,0.0,0.0,0.0,0.0,0.2616228,0.26162985,0.5720678,0.31411633,0.31411332,4.056982,0.0,0.0,0.0,0.09014837,0.0,0.0,0.0,0.0,0.0,0.0005225088,0.004563083,0.019313632,0.0,0.0,0.0,0.0,0.0,0.0
1450241809,-0.19832312,-0.03055758,0.025525331,0.38518143,-0.1707573,0.12644577,0.0,0.0,0.0,-0.038297106,0.0,0.0,0.0,0.0,0.0,0.26159537,0.261608,0.5720827,0.31058693,0.3105846,4.056912,0.0,0.0,0.0,0.09014844,0.0,0.0,0.0,0.0,0.0,0.00042435643,0.0024550867,0.009087584,0.0,0.0,0.0,0.0,0.0,0.0
1450442609,-0.23822439,-0.15582421,-0.018896937,0.38501787,-0.20526218,0.47509766,0.0,0.0,0.0,-0.03212561,0.0,0.0,0.0,0.0,0.0,0.26157096,0.26159036,0.57209986,0.30709833,0.3070972,4.056802,0.0,0.0,0.0,0.09014858,0.0,0.0,0.0,0.0,0.0,0.0005713656,0.0071639535,0.01605819,0.0,0.0,0.0,0.0,0.0,0.0
1450643390,-0.20447356,-0.05792582,-0.081050396,0.3486023,-0.20153332,-0.0038375854,0.0,0.0,0.0,-0.017687082,0.0,0.0,0.0,0.0,0.0,0.26152837,0.26155865,0.57204026,0.3036408,0.30364156,4.0567036,0.0,0.0,0.0,0.090148695,0.0,0.0,0.0,0.0,0.0,0.00070322736,0.010549429,0.029482374,0.0,0.0,0.0,0.0,0.0,0.0
1450844253,-0.2742079,0.0016428456,-0.04597032,0.30830956,-0.1844883,-0.0118255615,0.0,0.0,0.0,-0.014204215,0.0,0.0,0.0,0.0,0.0,0.2614713,0.26151162,0.57205904,0.30018547,0.30018908,4.0568857,0.0,0.0,0.0,0.09014857,0.0,0.0,0.0,0.0,0.0,0.0005883643,0.008309935,0.016001789,0.0,0.0,0.0,0.0,0.0,0.0
1451044779,-0.26150793,0.011101186,-0.14962912,0.30165386,-0.17024326,0.16164398,0.0,0.0,0.0,-0.056542106,0.0,0.0,0.0,0.0,0.0,0.2614448,0.2614862,0.5720761,0.29780352,0.2978106,4.0568323,0.0,0.0,0.0,0.09014844,0.0,0.0,0.0,0.0,0.0,0.00074154104,0.011684012,0.028838776,0.0,0.0,0.0,0.0,0.0,0.0
1451245013,-0.3409295,-0.017307326,0.04144478,0.2601862,-0.20154095,0.077373505,0.0,0.0,0.0,0.04130831,0.0,0.0,0.0,0.0,0.0,0.26138186,0.2614132,0.5720605,0.29318488,0.29319453,4.0569954,0.0,0.0,0.0,0.09014853,0.0,0.0,0.0,0.0,0.0,0.0006484477,0.012987453,0.029759524,0.0,0.0,0.0,0.0,0.0,0.0
1451449863,-0.23224035,-0.026428007,-0.021890879,0.23522282,-0.18480492,-0.57780457,0.0,0.0,0.0,-0.089148425,0.0,0.0,0.0,0.0,0.0,0.26136622,0.26138306,0.57207423,0.2908834,0.29089448,4.0571456,0.0,0.0,0.0,0.0901485,0.0,0.0,0.0,0.0,0.0,0.00069905736,0.01434605,0.039188944,0.0,0.0,0.0,0.0,0.0,0.0
1451650372,-0.3673797,0.0710517,0.030249953,0.19180775,-0.16773987,0.18006897,0.0,0.0,0.0,-0.076935545,0.0,0.0,0.0,0.0,0.0,0.26134574,0.26134944,0.57208467,0.2896108,0.28962147,4.057015,0.0,0.0,0.0,0.09014849,0.0,0.0,0.0,0.0,0.0,0.00085223967,0.017229676,0.044108707,0.0,0.0,0.0,0.0,0.0,0.0
1451851166,-0.36648196,0.08535491,0.04566133,0.15389347,-0.1371746,-0.59833145,0.0,0.0,0.0,-0.0715606,0.0,0.0,0.0,0.0,0.0,0.26125088,0.2612478,0.57206535,0.2891175,0.28912598,4.0571494,0.0,0.0,0.0,0.090148404,0.0,0.0,0.0,0.0,0.0,0.0008089135,0.023192408,0.0666975,0.0,0.0,0.0,0.0,0.0,0.0
1452052348,-0.348786,0.07973674,-0.030574918,0.12850475,-0.12758255,-0.9265175,0.0,0.0,0.0,-0.0004383251,0.0,0.0,0.0,0.0,0.0,0.26130986,0.2613058,0.5720571,0.2893532,0.28935844,4.057144,0.0,0.0,0.0,0.090148315,0.0,0.0,0.0,0.0,0.0,0.0008028725,0.020927742,0.05841477,0.0,0.0,0.0,0.0,0.0,0.0
1452252981,-0.36276433,0.09639022,0.06839502,0.101522446,-0.09773922,-0.30504608,0.0,0.0,0.0,-0.021982603,0.0,0.0,0.0,0.0,0.0,0.26128036,0.2612793,0.5720658,0.28915718,0.28915942,4.0570574,0.0,0.0,0.0,0.09014822,0.0,0.0,0.0,0.0,0.0,0.00065235066,0.020248493,0.05445443,0.0,0.0,0.0,0.0,0.0,0.0
1452457807,-0.41427857,0.09530765,0.05440259,0.075938225,-0.06808281,0.3134079,0.0,0.0,0.0,-0.042885914,0.0,0.0,0.0,0.0,0.0,0.26121894,0.2612195,0.57204694,0.2887741,0.28877443,4.0570736,0.0,0.0,0.0,0.090148285,0.0,0.0,0.0,0.0,0.0,0.0007000122,0.019534541,0.049357068,0.0,0.0,0.0,0.0,0.0,0.0
1452658577,-0.2943531,0.18574674,-0.036058903,0.077275276,-0.041412354,-0.090602875,0.0,0.0,0.0,-0.0057366975,0.0,0.0,0.0,0.0,0.0,0.26126924,0.2612705,0.5720869,0.28884128,0.28884056,4.056954,0.0,0.0,0.0,0.090148196,0.0,0.0,0.0,0.0,0.0,0.0004992096,0.019039923,0.04837116,0.0,0.0,0.0,0.0,0.0,0.0
1452858370,-0.26654068,0.15324351,-0.00881207,0.07683849,-0.011722565,0.06046295,0.0,0.0,0.0,-0.08632863,0.0,0.0,0.0,0.0,0.0,0.26128447,0.26128617,0.5721022,0.28878707,0.28878602,4.056761,0.0,0.0,0.0,0.09014825,0.0,0.0,0.0,0.0,0.0,0.00044042722,0.017915612,0.04620311,0.0,0.0,0.0,0.0,0.0,0.0
1453063422,-0.31217122,0.08513136,0.019791484,0.067237854,0.01125145,-0.29673767,0.0,0.0,0.0,-0.007393889,0.0,0.0,0.0,0.0,0.0,0.2612311,0.2612335,0.57211375,0.28861827,0.28861722,4.056939,0.0,0.0,0.0,0.09014833,0.0,0.0,0.0,0.0,0.0,0.00039396004,0.016254343,0.043464705,0.0,0.0,0.0,0.0,0.0,0.0
1453264220,-0.41150433,0.09236744,0.105477095,0.047340393,0.020887375,0.23511505,0.0,0.0,0.0,-0.0803605,0.0,0.0,0.0,0.0,0.0,0.261229,0.2612339,0.5720502,0.2886075,0.2886067,4.056811,0.0,0.0,0.0,0.09014832,0.0,0.0,0.0,0.0,0.0,0.0006665214,0.01696974,0.044114072,0.0,0.0,0.0,0.0,0.0,0.0
1453469023,-0.4322887,0.07184829,0.056296587,0.025288582,0.033766747,0.3791809,0.0,0.0,0.0,-0.04299308,0.0,0.0,0.0,0.0,0.0,0.26123676,0.26124638,0.57206774,0.28860644,0.28860617,4.0567746,0.0,0.0,0.0,0.09014832,0.0,0.0,0.0,0.0,0.0,0.00078433374,0.017379157,0.045756556,0.0,0.0,0.0,0.0,0.0,0.0
1453669793,-0.35495552,0.13631201,0.09090209,0.005490303,0.041918755,-0.1766777,0.0,0.0,0.0,-0.044917703,0.0,0.0,0.0,0.0,0.0,0.26122814,0.26124418,0.57208484,0.28858182,0.28858247,4.057176,0.0,0.0,0.0,0.0901484,0.0,0.0,0.0,0.0,0.0,0.0007992366,0.016207362,0.04291678,0.0,0.0,0.0,0.0,0.0,0.0
1453870845,-0.29335195,0.10987967,-0.0072795153,0.004928589,0.04779625,0.4409256,0.0,0.0,0.0,-0.03229726,0.0,0.0,0.0,0.0,0.0,0.26122302,0.26124454,0.57209754,0.288591,0.28859305,4.0570946,0.0,0.0,0.0,0.0901483,0.0,0.0,0.0,0.0,0.0,0.0007743394,0.014275655,0.04001783,0.0,0.0,0.0,0.0,0.0,0.0
1454071361,-0.20924658,0.09775113,-0.03864479,0.0011377335,0.049492836,0.8012085,0.0,0.0,0.0,0.054804593,0.0,0.0,0.0,0.0,0.0,0.2612616,0.2612869,0.57206273,0.28885773,0.28886184,4.0572557,0.0,0.0,0.0,0.09014846,0.0,0.0,0.0,0.0,0.0,0.00038642125,0.0103124045,0.03084704,0.0,0.0,0.0,0.0,0.0,0.0
1454272306,-0.22935888,0.10485482,0.046394825,0.007306099,0.04831791,0.3338089,0.0,0.0,0.0,0.0729593,0.0,0.0,0.0,0.0,0.0,0.26116997,0.2611974,0.5721227,0.28856882,0.288575,4.0572696,0.0,0.0,0.0,0.09014843,0.0,0.0,0.0,0.0,0.0,0.00039263663,0.008661199,0.02685504,0.0,0.0,0.0,0.0,0.0,0.0
1454475945,-0.30224305,0.124590605,0.033107042,-0.0019979477,0.050925255,-0.14742279,0.0,0.0,0.0,0.011768851,0.0,0.0,0.0,0.0,0.0,0.26107362,0.26110113,0.57209617,0.28819445,0.28820264,4.057409,0.0,0.0,0.0,0.09014824,0.0,0.0,0.0,0.0,0.0,0.00045537858,0.008163144,0.02442088,0.0,0.0,0.0,0.0,0.0,0.0
1454676750,-0.27210218,0.043542523,0.054253817,-0.023953438,0.049388885,-0.62577057,0.0,0.0,0.0,0.011709865,0.0,0.0,0.0,0.0,0.0,0.26114234,0.26116925,0.57213855,0.2885136,0.2885244,4.05754,0.0,0.0,0.0,0.09014831,0.0,0.0,0.0,0.0,0.0,0.0006500037,0.0062076203,0.020811263,0.0,0.0,0.0,0.0,0.0,0.0
1454877833,-0.24028045,0.014517352,-0.025455236,-0.03526783,0.040078163,0.2749138,0.0,0.0,0.0,-0.04902773,0.0,0.0,0.0,0.0,0.0,0.26113197,0.26115686,0.57214695,0.28853086,0.2885436,4.0576267,0.0,0.0,0.0,0.090148196,0.0,0.0,0.0,0.0,0.0,0.0008022554,0.0041682427,0.01696847,0.0,0.0,0.0,0.0,0.0,0.0
1455082633,-0.23348363,0.035238035,0.010790467,-0.027154922,0.036787987,-0.7183628,0.0,0.0,0.0,0.0036734939,0.0,0.0,0.0,0.0,0.0,0.26113635,0.26116022,0.5721533,0.28854734,0.28856167,4.057512,0.0,0.0,0.0,0.090148166,0.0,0.0,0.0,0.0,0.0,0.00075662625,0.0054331394,0.020197822,0.0,0.0,0.0,0.0,0.0,0.0
1455283103,-0.26197797,0.08407633,0.01767385,-0.022795677,0.034453392,0.017700195,0.0,0.0,0.0,0.03408388,0.0,0.0,0.0,0.0,0.0,0.2611279,0.26114863,0.572078,0.28856206,0.28857762,4.057314,0.0,0.0,0.0,0.09014807,0.0,0.0,0.0,0.0,0.0,0.00078201387,0.007316166,0.026306415,0.0,0.0,0.0,0.0,0.0,0.0
1455483973,-0.180942,0.13143706,0.12624025,-0.01856041,0.037371635,0.091465,0.0,0.0,0.0,-0.045537893,0.0,0.0,0.0,0.0,0.0,0.2611176,0.26113734,0.5720851,0.28854758,0.288564,4.0572987,0.0,0.0,0.0,0.09014796,0.0,0.0,0.0,0.0,0.0,0.00074589154,0.0041524232,0.013158756,0.0,0.0,0.0,0.0,0.0,0.0
1455684708,-0.23535189,0.027596928,0.11229193,-0.03168106,0.03396988,0.5626831,0.0,0.0,0.0,-0.032836914,0.0,0.0,0.0,0.0,0.0,0.2610929,0.26111138,0.5720885,0.288434,0.28845084,4.057435,0.0,0.0,0.0,0.09014786,0.0,0.0,0.0,0.0,0.0,0.0005434311,0.0054711653,0.018713959,0.0,0.0,0.0,0.0,0.0,0.0
1455885777,-0.20359755,0.014774613,0.24778235,-0.0366745,0.029875755,-0.21183777,0.0,0.0,0.0,0.020947713,0.0,0.0,0.0,0.0,0.0,0.26109564,0.26111206,0.572108,0.28848806,0.28850535,4.0575523,0.0,0.0,0.0,0.09014783,0.0,0.0,0.0,0.0,0.0,0.0005990574,0.009711921,0.021197034,0.0,0.0,0.0,0.0,0.0,0.0
1456086625,-0.16128972,0.06624326,0.08135891,-0.049120903,0.033058167,0.44301224,0.0,0.0,0.0,0.055889137,0.0,0.0,0.0,0.0,0.0,0.2610787,0.26108995,0.57210845,0.2883823,0.28839892,4.057517,0.0,0.0,0.0,0.090147786,0.0,0.0,0.0,0.0,0.0,0.00055580214,0.013615419,0.038379434,0.0,0.0,0.0,0.0,0.0,0.0
1456287541,-0.21862495,-0.012846716,0.07929504,-0.058911324,0.036847115,0.5270004,0.0,0.0,0.0,-0.006442085,0.0,0.0,0.0,0.0,0.0,0.2610816,0.2610873,0.5721168,0.28841972,0.28843495,4.0573883,0.0,0.0,0.0,0.09014786,0.0,0.0,0.0,0.0,0.0,0.0005981176,0.015970757,0.045482438,0.0,0.0,0.0,0.0,0.0,0.0
1456491377,-0.21862495,-0.012846716,0.07929504,-0.058911324,0.036847115,0.18103027,0.0,0.0,0.0,-0.029146,0.0,0.0,0.0,0.0,0.0,0.2610816,0.2610873,0.5721168,0.28841972,0.28843495,4.057522,0.0,0.0,0.0,0.09014803,0.0,0.0,0.0,0.0,0.0,0.00034947117,0.0072426028,0.02509255,0.0,0.0,0.0,0.0,0.0,0.0
1456695987,-0.07288337,0.00996729,0.14053404,-0.025823593,0.050994873,0.33573914,0.0,0.0,0.0,0.031042948,0.0,0.0,0.0,0.0,0.0,0.26106933,0.2610713,0.57205564,0.288413,0.28842393,4.0573235,0.0,0.0,0.0,0.09014793,0.0,0.0,0.0,0.0,0.0,0.00043950314,0.010565377,0.034173455,0.0,0.0,0.0,0.0,0.0,0.0
1456896753,-0.11805597,0.07661773,0.091074586,-0.023229599,0.04584503,-0.0337677,0.0,0.0,0.0,0.0031298436,0.0,0.0,0.0,0.0,0.0,0.26102602,0.26102716,0.5721146,0.28821343,0.28822216,4.05747,0.0,0.0,0.0,0.09014803,0.0,0.0,0.0,0.0,0.0,0.00047822463,0.010413175,0.032009017,0.0,0.0,0.0,0.0,0.0,0.0
1457097843,-0.089965716,0.013041213,0.08615506,-0.0066165924,0.05861473,0.23428726,0.0,0.0,0.0,-0.029845122,0.0,0.0,0.0,0.0,0.0,0.26109013,0.26109108,0.57207596,0.2885019,0.2885089,4.0567575,0.0,0.0,0.0,0.090148106,0.0,0.0,0.0,0.0,0.0,0.00053950807,0.012653096,0.040670913,0.0,0.0,0.0,0.0,0.0,0.0
1457302659,-0.08215372,0.033316474,0.08615565,0.01755619,0.057543755,0.74253845,0.0,0.0,0.0,-0.06123743,0.0,0.0,0.0,0.0,0.0,0.2610175,0.26101804,0.5720572,0.2882633,0.2882688,4.0566125,0.0,0.0,0.0,0.09014815,0.0,0.0,0.0,0.0,0.0,0.0004301023,0.015172855,0.048097614,0.0,0.0,0.0,0.0,0.0,0.0
1457503181,-0.100247525,0.0589708,0.09916067,0.0154771805,0.070409775,0.14713287,0.0,0.0,0.0,-0.019908026,0.0,0.0,0.0,0.0,0.0,0.26102138,0.26102176,0.5720736,0.28831065,0.2883149,4.0570416,0.0,0.0,0.0,0.09014806,0.0,0.0,0.0,0.0,0.0,0.0005550083,0.00976329,0.026626853,0.0,0.0,0.0,0.0,0.0,0.0
1457703986,-0.06940399,-0.0050554164,0.0452199,0.026483536,0.07881832,0.31277084,0.0,0.0,0.0,-0.020550132,0.0,0.0,0.0,0.0,0.0,0.26098984,0.26099026,0.5720814,0.28822216,0.28822538,4.0570455,0.0,0.0,0.0,0.09014797,0.0,0.0,0.0,0.0,0.0,0.00067355187,0.007943193,0.01876554,0.0,0.0,0.0,0.0,0.0,0.0
1457908161,-0.0770141,-0.027669357,0.022395134,0.011248589,0.08217621,-1.1497955,0.0,0.0,0.0,-0.011217698,0.0,0.0,0.0,0.0,0.0,0.26100174,0.26100236,0.5720953,0.28827396,0.28827634,4.05668,0.0,0.0,0.0,0.09014782,0.0,0.0,0.0,0.0,0.0,0.0005038674,0.0069960756,0.018190844,0.0,0.0,0.0,0.0,0.0,0.0
1458108781,-0.056200944,-0.029260412,0.03967786,0.021295547,0.07745361,-0.077804565,0.0,0.0,0.0,0.0007128045,0.0,0.0,0.0,0.0,0.0,0.26100016,0.2610013,0.5721088,0.28831747,0.28831917,4.0568185,0.0,0.0,0.0,0.09014782,0.0,0.0,0.0,0.0,0.0,0.00032343104,0.008004145,0.021256575,0.0,0.0,0.0,0.0,0.0,0.0
1458313863,-0.059022196,-0.022375224,-0.0522362,0.018577576,0.07280731,-0.500473,0.0,0.0,0.0,-0.01343121,0.0,0.0,0.0,0.0,0.0,0.2609508,0.26095206,0.5720876,0.2880742,0.28807536,4.056676,0.0,0.0,0.0,0.090148054,0.0,0.0,0.0,0.0,0.0,0.000180889,0.006615951,0.013890459,0.0,0.0,0.0,0.0,0.0,0.0
1458514351,-0.0036485419,-0.04864605,0.05579114,0.01508522,0.076909065,0.5809479,0.0,0.0,0.0,-0.11686125,0.0,0.0,0.0,0.0,0.0,0.26091802,0.26091984,0.5720244,0.28814268,0.2881435,4.0565715,0.0,0.0,0.0,0.09014806,0.0,0.0,0.0,0.0,0.0,9.377086e-05,0.007969108,0.015029466,0.0,0.0,0.0,0.0,0.0,0.0
1458719164,-0.09267858,0.0011522304,0.06646001,0.008148193,0.08354378,0.10690689,0.045624122,-0.006498401,-0.039170235,-0.03479205,0.0,0.0,0.0,0.0,0.0,0.2608203,0.26082236,0.5720423,0.2881857,0.28818625,4.056459,0.004167847,0.0041320333,0.004167691,0.090148084,0.0,0.0,0.0,0.0,0.0,0.00014197189,0.0051252404,0.011016936,0.0,0.0,0.0,0.0,0.0,0.0
1458923923,-0.19484642,-0.041138917,-0.04491186,-0.013031006,0.06917,0.3069725,-0.039546162,-0.021367865,-0.029923618,-0.03479205,0.0,0.0,0.0,0.0,0.0,0.26081055,0.26081228,0.57209265,0.28845868,0.28845885,4.056902,0.0027205807,0.0027248862,0.0027234051,0.090148084,0.0,0.0,0.0,0.0,0.0,0.00030107918,0.0061812117,0.01799437,0.0,0.0,0.0,0.0,0.0,0.0
1459124973,0.041911006,-0.03598559,0.2279445,0.00070762634,0.0581789,-0.26819992,0.008015327,-0.005965557,0.013893127,-0.03479205,0.0,0.0,0.0,0.0,0.0,0.26066908,0.26066214,0.5720871,0.28829935,0.28829956,4.0566173,0.0026502348,0.0026685637,0.0026647698,0.090148084,0.0,0.0,0.0,0.0,0.0,0.00015774251,0.0026714308,0.008491863,0.0,0.0,0.0,0.0,0.0,0.0
1459325776,-0.16279072,-0.09398645,-0.041116744,0.008631706,0.027737617,-0.39603043,-0.005525518,-0.0024135336,0.008443713,-0.03479205,0.0,0.0,0.0,0.0,0.0,0.26058304,0.26057565,0.5720436,0.28801957,0.2880196,4.0567636,0.0026324021,0.002638892,0.002633296,0.090148084,0.0,0.0,0.0,0.0,0.0,0.00018796427,0.00609464,0.018210119,0.0,0.0,0.0,0.0,0.0,0.0
1459526554,-0.07923806,-0.07589495,0.054823622,0.016767502,0.009750366,-1.0253983,0.0052408157,0.0013981033,1.8388033e-05,-0.03479205,0.0,0.0,0.0,0.0,0.0,0.26063156,0.26073518,0.57203126,0.28802323,0.2880243,4.056664,0.0026273408,0.0026275055,0.002601773,0.090148084,0.0,0.0,0.0,0.0,0.0,0.0002753267,0.011887437,0.036013264,0.0,0.0,0.0,0.0,0.0,0.0
1459730345,0.07951474,0.03575945,-0.0036768913,0.05257225,-0.011588097,0.44853592,-0.0067548063,0.009483537,0.030500501,-0.03479205,0.0,0.0,0.0,0.0,0.0,0.26066828,0.26107243,0.57200265,0.28775787,0.28776923,4.057075,0.0026179962,0.0026180344,0.002571268,0.090148084,0.0,0.0,0.0,0.0,0.0,6.706204e-05,0.01048813,0.018899996,0.0,0.0,0.0,0.0,0.0,0.0
1459931416,-0.108061075,0.041493177,-0.07278782,0.01624918,0.018624306,0.29174805,0.005071303,0.004540259,0.0037831664,-0.03479205,0.0,0.0,0.0,0.0,0.0,0.2609127,0.26189277,0.57201463,0.28831512,0.28837213,4.056879,0.0026078739,0.002606457,0.0025526441,0.090148084,0.0,0.0,0.0,0.0,0.0,5.8040925e-05,0.010592854,0.030360868,0.0,0.0,0.0,0.0,0.0,0.0
1460132313,0.090447426,0.019649386,-0.032701775,0.09038019,-0.0092868805,0.34566498,-0.0052000126,0.011096787,0.023927838,-0.03479205,0.0,0.0,0.0,0.0,0.0,0.2609748,0.26251143,0.5721067,0.28805754,0.288195,4.0569415,0.0026055167,0.0025977036,0.0025429598,0.090148084,0.0,0.0,0.0,0.0,0.0,0.0001932321,0.013966746,0.026405817,0.0,0.0,0.0,0.0,0.0,0.0
1460333020,-0.019824982,0.0015105009,-0.034490265,0.08599949,-0.0077285767,0.40741348,-0.035673983,0.005714815,0.009352624,-0.03479205,0.0,0.0,0.0,0.0,0.0,0.26116955,0.26316398,0.5721067,0.28822988,0.28850833,4.056888,0.0026095766,0.0025925161,0.0025363239,0.090148084,0.0,0.0,0.0,0.0,0.0,0.00021832125,0.013619837,0.02574427,0.0,0.0,0.0,0.0,0.0,0.0
1460533529,-0.049016953,0.08554387,0.0030750856,0.08691263,0.006629944,0.5293541,-0.009209813,-0.009588227,-0.04482901,-0.03479205,0.0,0.0,0.0,0.0,0.0,0.26140866,0.26357457,0.57215565,0.28827202,0.28872114,4.056979,0.0026070152,0.002600166,0.0025340207,0.090148084,0.0,0.0,0.0,0.0,0.0,0.00025502752,0.013076209,0.0266968,0.0,0.0,0.0,0.0,0.0,0.0
1460738306,0.020218372,0.07053256,-0.02283524,0.1637156,-0.011320114,0.2453003,-0.014688686,0.0102840215,0.011359274,-0.03479205,0.0,0.0,0.0,0.0,0.0,0.2616092,0.26357213,0.5721899,0.28983167,0.2904164,4.056852,0.0025995625,0.0026296382,0.002536733,0.090148084,0.0,0.0,0.0,0.0,0.0,0.00039574876,0.017049443,0.03005856,0.0,0.0,0.0,0.0,0.0,0.0
1460939359,-0.010706902,0.034588337,-0.10908434,0.036863327,0.021684647,0.7742958,0.014021568,-0.014841229,-0.05848947,-0.03479205,0.0,0.0,0.0,0.0,0.0,0.2623275,0.26370308,0.57216537,0.29182848,0.29259488,4.0571895,0.0025853554,0.0026422525,0.002540409,0.090148084,0.0,0.0,0.0,0.0,0.0,0.000300863,0.01224303,0.021127129,0.0,0.0,0.0,0.0,0.0,0.0
1461144196,0.028588772,0.0086122155,-0.007024795,0.10200167,0.00028324127,0.2367096,0.0062528327,0.017349988,-0.00058311224,-0.03479205,0.0,0.0,0.0,0.0,0.0,0.26269606,0.26342702,0.5720409,0.29373038,0.29451376,4.0575495,0.002577279,0.0026312694,0.0025416696,0.090148084,0.0,0.0,0.0,0.0,0.0,0.00021512072,0.014001396,0.027036754,0.0,0.0,0.0,0.0,0.0,0.0
1461349040,0.18320489,0.18884307,0.060006917,0.17490381,-0.0032510757,-0.018634796,0.009308055,0.00698483,-0.006463051,-0.03479205,0.0,0.0,0.0,0.0,0.0,0.26298848,0.2632747,0.571945,0.29646245,0.2971698,4.057428,0.0025717218,0.0026087854,0.0025416056,0.090148084,0.0,0.0,0.0,0.0,0.0,0.0005778564,0.02149002,0.0362527,0.0,0.0,0.0,0.0,0.0,0.0
1461548762,-0.033662796,-0.121454895,-0.20107685,0.2030631,-0.059257507,0.74396515,0.021116585,-0.013710052,-0.021032989,-0.03479205,0.0,0.0,0.0,0.0,0.0,0.26338896,0.26357675,0.57183754,0.29773805,0.29831633,4.057151,0.002568216,0.0025882123,0.0025374608,0.090148084,0.0,0.0,0.0,0.0,0.0,0.00049634394,0.017054327,0.03569844,0.0,0.0,0.0,0.0,0.0,0.0
1461750352,-0.43878675,-0.38675725,-0.14528705,0.13666037,-0.13390398,0.60933304,0.017728627,-0.006911516,-0.0062452555,-0.03479205,0.0,0.0,0.0,0.0,0.0,0.26374337,0.26421937,0.57178664,0.2981507,0.29856393,4.0573997,0.0025612912,0.002566464,0.0025295806,0.090148084,0.0,0.0,0.0,0.0,0.0,0.0010639281,0.02572908,0.041492853,0.0,0.0,0.0,0.0,0.0,0.0
1461954651,-0.013314962,-0.09497237,0.051214993,0.12925324,-0.16227531,0.20655441,-0.013917983,-0.00039470196,0.006737292,-0.03479205,0.0,0.0,0.0,0.0,0.0,0.26430228,0.26538736,0.5717776,0.29911405,0.2993716,4.057101,0.002556087,0.0025535629,0.0025241142,0.090148084,0.0,0.0,0.0,0.0,0.0,0.000977325,0.02450246,0.047260046,0.0,0.0,0.0,0.0,0.0,0.0
1462155376,-0.10379207,-0.16563845,0.09239437,0.14737004,-0.19116497,0.99194336,0.004299432,-0.009586945,-0.023357064,-0.03479205,0.0,0.0,0.0,0.0,0.0,0.2646617,0.26628697,0.5718699,0.30118138,0.30135095,4.0575633,0.0025504008,0.0025502383,0.0025201843,0.090148084,0.0,0.0,0.0,0.0,0.0,0.0009251015,0.029470738,0.060089476,0.0,0.0,0.0,0.0,0.0,0.0
1462356251,-0.07506658,-0.17295739,-0.026433036,0.15718734,-0.22463465,0.18148804,-0.00814274,0.00032664835,0.029477984,-0.03479205,0.0,0.0,0.0,0.0,0.0,0.26518255,0.26718733,0.5719167,0.30261227,0.30276814,4.0574894,0.002546803,0.0025493263,0.0025176846,0.090148084,0.0,0.0,0.0,0.0,0.0,0.0010624258,0.028942663,0.05564472,0.0,0.0,0.0,0.0,0.0,0.0
1462556698,-0.20587607,-0.2889291,-0.16431706,0.1599809,-0.25579548,-0.17331696,0.004392281,-0.0041280985,-0.013228118,-0.03479205,0.0,0.0,0.0,0.0,0.0,0.26584655,0.26797524,0.5720041,0.303495,0.30371457,4.057301,0.0025454673,0.0025447807,0.0025163235,0.090148084,0.0,0.0,0.0,0.0,0.0,0.001631766,0.038512062,0.072595924,0.0,0.0,0.0,0.0,0.0,0.0
1462761513,-0.14690827,-0.05741246,0.085730776,0.15919167,-0.28155088,0.003440857,0.002117455,0.0029342324,-0.008846283,-0.03479205,0.0,0.0,0.0,0.0,0.0,0.26593542,0.267963,0.5720008,0.30089173,0.30117252,4.0573115,0.0025427477,0.0025377716,0.0025153225,0.090148084,0.0,0.0,0.0,0.0,0.0,0.0013540593,0.028272543,0.062578395,0.0,0.0,0.0,0.0,0.0,0.0
1462962669,-0.29712167,-0.20984659,0.067585185,0.16159832,-0.27069044,-0.6563072,-0.003728345,0.0029878393,0.0117173195,-0.03479205,0.0,0.0,0.0,0.0,0.0,0.2665065,0.26837376,0.57198554,0.2998948,0.3003053,4.0575376,0.0025405732,0.0025319792,0.002514577,0.090148084,0.0,0.0,0.0,0.0,0.0,0.0014821548,0.031036593,0.059336446,0.0,0.0,0.0,0.0,0.0,0.0
1463166556,-0.3091665,-0.13535844,-0.09892569,0.13042599,-0.23643064,1.0564957,0.009345248,-0.015523434,-0.053666204,-0.03479205,0.0,0.0,0.0,0.0,0.0,0.26673838,0.26832423,0.57199955,0.2974689,0.29798615,4.057509,0.0025355858,0.002526209,0.0025140862,0.090148084,0.0,0.0,0.0,0.0,0.0,0.0014783196,0.028429085,0.054248955,0.0,0.0,0.0,0.0,0.0,0.0
1463367469,-0.19299671,0.090397045,-0.10980465,0.12433618,-0.21246529,-0.35012054,0.0003316328,-0.0037785023,-0.0060768723,-0.03479205,0.0,0.0,0.0,0.0,0.0,0.26660854,0.26792365,0.57195246,0.29427737,0.29484615,4.0574727,0.0025290367,0.0025221556,0.0025136408,0.090148084,0.0,0.0,0.0,0.0,0.0,0.0007961566,0.014490699,0.038581293,0.0,0.0,0.0,0.0,0.0,0.0
1463567972,-0.22043931,-0.06235367,-0.0029658154,0.11722165,-0.21900892,0.11009979,-0.01496017,0.017260611,0.021059394,-0.03479205,0.0,0.0,0.0,0.0,0.0,0.26630008,0.26742065,0.5719675,0.29174754,0.29233438,4.0574713,0.002522272,0.0025202525,0.00251313,0.090148084,0.0,0.0,0.0,0.0,0.0,0.0006695388,0.010592666,0.024638088,0.0,0.0,0.0,0.0,0.0,0.0
1463769061,-0.14713609,-0.04865086,0.1429628,0.11904439,-0.21981859,-0.6495285,0.0157464,0.019909114,-0.025737107,-0.03479205,0.0,0.0,0.0,0.0,0.0,0.26629177,0.26729137,0.57195926,0.29237705,0.29301444,4.0575776,0.0025178173,0.0025185824,0.0025125793,0.090148084,0.0,0.0,0.0,0.0,0.0,0.0006538911,0.011943691,0.033943422,0.0,0.0,0.0,0.0,0.0,0.0
1463973824,-0.24372226,-0.029402435,-0.07153284,0.09815404,-0.22528839,1.2167664,0.0021184683,-0.009596497,-0.027525455,-0.03479205,0.0,0.0,0.0,0.0,0.0,0.26597616,0.26688153,0.57205296,0.29241163,0.29306483,4.057826,0.0025156843,0.002517252,0.0025120021,0.090148084,0.0,0.0,0.0,0.0,0.0,0.0006972051,0.0100381,0.020142369,0.0,0.0,0.0,0.0,0.0,0.0
1464174820,-0.27096915,0.0014882088,-0.008366466,0.12518579,-0.21714354,-0.38455963,-0.0064664334,0.0065972507,0.011573762,-0.03479205,0.0,0.0,0.0,0.0,0.0,0.26558095,0.266391,0.572062,0.2924063,0.2930634,4.0575113,0.0025151654,0.0025168832,0.0025115523,0.090148084,0.0,0.0,0.0,0.0,0.0,0.0006131098,0.009559616,0.019058343,0.0,0.0,0.0,0.0,0.0,0.0
1464375161,-0.13084161,0.026589632,0.020534463,0.13184631,-0.2082963,-0.46836853,0.004920231,-0.0063415617,-0.032585382,-0.03479205,0.0,0.0,0.0,0.0,0.0,0.26508933,0.26581752,0.5720747,0.29235113,0.2930019,4.0575047,0.00251553,0.0025175172,0.002511184,0.090148084,0.0,0.0,0.0,0.0,0.0,0.000597781,0.0025630316,0.010191756,0.0,0.0,0.0,0.0,0.0,0.0
1464575954,-0.19119036,0.07543445,0.007102318,0.13819937,-0.1940546,0.63806915,-0.026492845,-0.004022613,0.026624471,-0.03479205,0.0,0.0,0.0,0.0,0.0,0.26453185,0.265169,0.5720832,0.2922115,0.2928455,4.0577693,0.0025172606,0.002518097,0.002510834,0.090148084,0.0,0.0,0.0,0.0,0.0,0.00036455525,0.003246167,0.00476724,0.0,0.0,0.0,0.0,0.0,0.0
1464776263,-0.20374835,0.07412541,0.101231955,0.14664802,-0.18370199,0.64741135,0.015902229,-0.010129407,-0.053976268,-0.03479205,0.0,0.0,0.0,0.0,0.0,0.2639551,0.26452273,0.57208854,0.29204696,0.29265895,4.05801,0.002519782,0.0025187228,0.002510532,0.090148084,0.0,0.0,0.0,0.0,0.0,0.00050085573,0.0059976517,0.010556113,0.0,0.0,0.0,0.0,0.0,0.0
1464977417,-0.3089639,0.07966256,-0.19782895,0.075701475,-0.17054129,0.8394737,-0.0031529367,0.014815986,0.014498711,-0.03479205,0.0,0.0,0.0,0.0,0.0,0.2632472,0.26374453,0.5720747,0.29094613,0.29150596,4.0579667,0.0025213433,0.0025201582,0.0025102447,0.090148084,0.0,0.0,0.0,0.0,0.0,0.00029186255,0.009382309,0.014912005,0.0,0.0,0.0,0.0,0.0,0.0
1465177953,-0.334401,0.1017012,-0.05825465,0.06712538,-0.11186218,0.74035263,0.013662823,-0.00774844,-0.012924492,-0.03479205,0.0,0.0,0.0,0.0,0.0,0.26285744,0.26331353,0.5721431,0.29140183,0.29195708,4.0579143,0.0025228092,0.002520308,0.0025099744,0.090148084,0.0,0.0,0.0,0.0,0.0,0.0003007967,0.016389776,0.036397137,0.0,0.0,0.0,0.0,0.0,0.0
1465378336,-0.17577195,0.03191459,-0.04237081,0.04766941,-0.08203888,0.34720612,-0.007821262,0.0050174147,-0.0023121536,-0.03479205,0.0,0.0,0.0,0.0,0.0,0.26234683,0.2627619,0.57211375,0.2908367,0.29135916,4.0580893,0.002523755,0.0025188483,0.0025097001,0.090148084,0.0,0.0,0.0,0.0,0.0,0.00041583675,0.015531203,0.039958272,0.0,0.0,0.0,0.0,0.0,0.0
1465579367,-0.13988483,0.08871937,-0.12176414,0.06853104,-0.036620617,0.20170593,0.018801063,0.009870961,-0.042859435,-0.03479205,0.0,0.0,0.0,0.0,0.0,0.2620422,0.26242247,0.57214653,0.29084492,0.2913519,4.058033,0.0025248704,0.0025176052,0.0025095032,0.090148084,0.0,0.0,0.0,0.0,0.0,0.00055270444,0.014776774,0.03193206,0.0,0.0,0.0,0.0,0.0,0.0
1465780194,-0.16696727,0.22773182,-0.047571763,0.06749225,-0.0150818825,0.25880432,-0.018846944,0.01120989,0.012724936,-0.03479205,0.0,0.0,0.0,0.0,0.0,0.261805,0.26212186,0.5721448,0.290509,0.2909908,4.058249,0.0025219535,0.0025168404,0.0025090973,0.090148084,0.0,0.0,0.0,0.0,0.0,0.00054226234,0.021565268,0.050265826,0.0,0.0,0.0,0.0,0.0,0.0
1465980949,-0.189955,0.009804964,-0.044860356,0.048137426,-0.03967166,-0.83055687,-0.0059550554,0.0070013106,0.002435118,-0.03479205,0.0,0.0,0.0,0.0,0.0,0.26166704,0.26192054,0.5721392,0.29015508,0.2906109,4.058174,0.0025190657,0.0025166264,0.002508704,0.090148084,0.0,0.0,0.0,0.0,0.0,0.00010750602,0.014725532,0.0341618,0.0,0.0,0.0,0.0,0.0,0.0
1466181552,-0.17637038,0.07554853,0.049500003,0.0586164,-0.05280757,-0.89058685,-0.0022824854,0.016361013,-1.2069941e-05,-0.03479205,0.0,0.0,0.0,0.0,0.0,0.26156658,0.26176062,0.5721366,0.28984952,0.29027644,4.058256,0.002517564,0.0025164094,0.0025084545,0.090148084,0.0,0.0,0.0,0.0,0.0,2.3445786e-05,0.022572063,0.0682459,0.0,0.0,0.0,0.0,0.0,0.0
1466382656,-0.16897488,0.13111413,-0.046055667,0.05149722,-0.060574293,-0.18407822,0.017634995,-0.0057768226,-0.021130085,-0.03479205,0.0,0.0,0.0,0.0,0.0,0.2614618,0.26160848,0.5722048,0.28943276,0.289824,4.0581875,0.0025161558,0.002515804,0.002508196,0.090148084,0.0,0.0,0.0,0.0,0.0,0.0002558001,0.026106827,0.082992,0.0,0.0,0.0,0.0,0.0,0.0
1466591515,-0.14517355,0.16924977,0.09409757,0.07959986,-0.037939787,-0.655674,-0.009875819,0.0005785674,0.003540486,-0.03479205,0.0,0.0,0.0,0.0,0.0,0.26150617,0.2615981,0.57214725,0.2894538,0.28981024,4.058412,0.002515409,0.0025142094,0.0025079653,0.090148084,0.0,0.0,0.0,0.0,0.0,0.00075658056,0.027755633,0.091033876,0.0,0.0,0.0,0.0,0.0,0.0
1466791415,-0.15047026,0.07580662,0.024387738,0.08408737,-0.038279295,-0.47556305,-0.02019979,-0.0020563602,0.001162231,-0.03479205,0.0,0.0,0.0,0.0,0.0,0.26153776,0.26156536,0.57221717,0.28921157,0.28952143,4.0584693,0.0025148,0.0025132732,0.002507791,0.090148084,0.0,0.0,0.0,0.0,0.0,0.00079160335,0.016020356,0.051319864,0.0,0.0,0.0,0.0,0.0,0.0
1466996243,-0.099181175,0.21771324,-0.056721583,0.070860386,-0.029549837,-1.1661892,-0.011087373,-0.008671105,-0.008878887,-0.03479205,0.0,0.0,0.0,0.0,0.0,0.26162824,0.26158792,0.57219344,0.28889066,0.2891466,4.058621,0.0025140764,0.0025126687,0.0025076147,0.090148084,0.0,0.0,0.0,0.0,0.0,0.000862593,0.019369258,0.058654144,0.0,0.0,0.0,0.0,0.0,0.0
1467197327,-0.18826985,0.08398223,0.038893797,0.050737858,-0.0266397,-0.29734802,0.004748836,-0.019057065,-0.04647824,-0.03479205,0.0,0.0,0.0,0.0,0.0,0.26175755,0.26167774,0.57217324,0.28876922,0.2889674,4.058502,0.0025134352,0.002512127,0.002507435,0.090148084,0.0,0.0,0.0,0.0,0.0,0.00073513034,0.010834023,0.031098993,0.0,0.0,0.0,0.0,0.0,0.0
1467397824,-0.18528199,0.06969941,-0.04474172,0.004360676,-0.04432094,-0.16648865,-0.017876998,0.0063913316,0.020126253,-0.03479205,0.0,0.0,0.0,0.0,0.0,0.26187992,0.26177704,0.5721516,0.28856686,0.28870636,4.058276,0.0025129614,0.0025116473,0.0025072834,0.090148084,0.0,0.0,0.0,0.0,0.0,0.0004948197,0.007412596,0.017601887,0.0,0.0,0.0,0.0,0.0,0.0
1467598703,-0.17867744,0.16805255,-0.0009031296,-0.03171301,-0.04523015,-0.8866863,-0.014764115,-0.018172339,-0.0091224015,-0.03479205,0.0,0.0,0.0,0.0,0.0,0.26199576,0.2618856,0.57214105,0.2885486,0.28863144,4.058209,0.0025127677,0.0025112815,0.0025071509,0.090148084,0.0,0.0,0.0,0.0,0.0,0.00039698437,0.012358916,0.034143835,0.0,0.0,0.0,0.0,0.0,0.0
1467799418,-0.08030093,0.15877378,-0.04972887,-0.018237114,-0.044846535,0.06952667,0.0051876903,-0.017745674,-0.036036313,-0.03479205,0.0,0.0,0.0,0.0,0.0,0.26210588,0.26199827,0.5721325,0.28856066,0.2885917,4.0581455,0.002512547,0.002511149,0.0025070384,0.090148084,0.0,0.0,0.0,0.0,0.0,0.0003533444,0.008915228,0.021268452,0.0,0.0,0.0,0.0,0.0,0.0
1467999623,-0.09327304,0.12649214,-0.09892774,-0.04423666,-0.04622045,0.044132233,-0.0071445704,0.01175575,0.010315716,-0.03479205,0.0,0.0,0.0,0.0,0.0,0.26222098,0.2621252,0.572126,0.28857517,0.28856266,4.058094,0.0025121237,0.0025113116,0.0025069208,0.090148084,0.0,0.0,0.0,0.0,0.0,0.00022211089,0.0071484796,0.016390875,0.0,0.0,0.0,0.0,0.0,0.0
1468200238,-0.13762295,0.08162248,0.004620105,-0.0628767,-0.047879614,0.1496582,-0.0046257973,-0.007772967,-0.023679614,-0.03479205,0.0,0.0,0.0,0.0,0.0,0.2623141,0.26223102,0.5721216,0.2886414,0.28859532,4.0580454,0.0025124275,0.0025118736,0.0025069225,0.090148084,0.0,0.0,0.0,0.0,0.0,0.000114298084,0.00566077,0.015782474,0.0,0.0,0.0,0.0,0.0,0.0
1468401010,-0.17152905,0.10787988,-0.082378045,-0.07283735,-0.04852748,-0.43728256,-0.00996238,-0.0068843365,0.009634674,-0.03479205,0.0,0.0,0.0,0.0,0.0,0.2623691,0.26229927,0.57212156,0.28872234,0.2886554,4.057716,0.0025123237,0.0025109344,0.0025067772,0.090148084,0.0,0.0,0.0,0.0,0.0,0.0005054429,0.008449896,0.021682788,0.0,0.0,0.0,0.0,0.0,0.0
1468601790,-0.027969837,0.2237767,0.12597635,-0.089817524,-0.071171045,0.14745712,-0.0058485866,0.0020640641,0.0025934875,-0.03479205,0.0,0.0,0.0,0.0,0.0,0.26226968,0.2622157,0.57214195,0.28828472,0.28821132,4.057713,0.0025114033,0.0025100892,0.002506542,0.090148084,0.0,0.0,0.0,0.0,0.0,0.0004932599,0.0071854135,0.016051147,0.0,0.0,0.0,0.0,0.0,0.0
1468802693,-0.07496023,0.11116278,-0.10483633,-0.046195984,-0.029883623,0.746418,-0.010405272,-0.022062972,-0.022584856,0.056016684,0.0,0.0,0.0,0.0,0.0,0.26244277,0.26240242,0.5721287,0.28997275,0.28989425,4.057713,0.002510922,0.0025098824,0.0025064105,0.09020936,0.0,0.0,0.0,0.0,0.0,0.0006172176,0.011360567,0.036920644,0.0,0.0,0.0,0.0,0.0,0.0
1469003416,-0.13085318,0.041391253,-0.0030877255,-0.059233665,-0.05078852,0.24289703,-0.010405272,-0.022062972,-0.022584856,-0.01658374,0.0,0.0,0.0,0.0,0.0,0.2624064,0.26238158,0.5720967,0.28980947,0.28973302,4.05771,0.002510922,0.0025098824,0.0025064105,0.090209186,0.0,0.0,0.0,0.0,0.0,0.00067882135,0.0140428245,0.0479449,0.0,0.0,0.0,0.0,0.0,0.0
1469204188,-0.043628216,0.16948295,-0.02253364,-0.04710579,-0.048612833,0.1740036,-0.010405272,-0.022062972,-0.022584856,-0.02509737,0.0,0.0,0.0,0.0,0.0,0.26246455,0.26245287,0.5721232,0.2900852,0.29001126,4.057585,0.002510922,0.0025098824,0.0025064105,0.090207584,0.0,0.0,0.0,0.0,0.0,0.00047789476,0.014853167,0.05060944,0.0,0.0,0.0,0.0,0.0,0.0
1469404992,-0.0063426495,0.052518487,-0.015714714,-0.0422163,-0.06644702,0.4937744,-0.010405272,-0.022062972,-0.022584856,-0.046709478,0.0,0.0,0.0,0.0,0.0,0.26245165,0.26245427,0.5721244,0.28916806,0.28909972,4.0576267,0.002510922,0.0025098824,0.0025064105,0.090205945,0.0,0.0,0.0,0.0,0.0,8.916499e-05,0.013391317,0.046980664,0.0,0.0,0.0,0.0,0.0,0.0
