timestamp,gyro_rad[0],gyro_rad[1],gyro_rad[2],gyro_integral_dt,accelerometer_timestamp_relative,accelerometer_m_s2[0],accelerometer_m_s2[1],accelerometer_m_s2[2],accelerometer_integral_dt
1430857713,0.0038663757,-0.0023024906,-0.0019741685,4032,0,0.05205672,-0.011257053,-9.901187,4032
1430985755,0.0014457726,-0.0023114674,-0.0004250536,4053,0,0.066668145,-0.009791824,-9.925367,4053
1431025712,0.00048659457,0.0013024141,-0.0008133915,4009,0,0.057732087,0.012938795,-9.868333,4009
1431069702,-0.0031375173,0.0008837657,-0.005625058,4000,0,0.04847195,0.0043740603,-9.9314375,4000
1431113732,-0.0009744783,-0.0043352842,-0.004207873,4022,0,0.04214718,0.016468363,-9.899515,4022
1431154503,0.0014418123,-0.0054834033,-0.0050155474,4000,0,0.04534904,0.005280584,-9.887115,4000
1431198509,-0.005550972,-0.012540621,-0.048245437,3974,0,0.2926385,-1.1019695,-10.469588,3974
1431238511,-0.05556424,-0.0555575,0.06493164,3988,0,0.6921202,2.6350098,-11.498747,3988
1431282503,-0.10177192,0.026218915,0.024621913,4001,0,-0.24840005,2.0645914,-9.262823,4001
1431327309,-0.11459585,-0.020690879,0.037218593,4797,0,0.6310903,-0.50290436,-9.802411,4797
1431367323,0.044466242,-2.7765947e-05,-0.047136277,4045,0,0.021371119,2.1917145,-10.824168,4045
1431411278,0.017030045,0.025592476,-0.026873471,4000,0,-0.9521109,-0.02393437,-10.477333,4000
1431451321,-0.06603314,-0.026339803,0.0043125176,4043,0,1.9574397,-0.91439533,-9.918038,4043
1431495280,-0.045687485,-0.030775106,-0.0074512633,3995,0,0.53941417,-0.3107048,-9.788258,3995
1431535295,-0.027381899,0.006493654,-0.0035435904,3970,0,-2.0449855,0.5545207,-10.012281,3970
1431579278,-0.0022320352,0.019635048,0.014600501,4000,0,1.7024599,0.12056301,-9.92673,4000
1431620103,0.004182873,0.007913846,-0.0026896154,4000,0,0.87135524,-0.5942729,-9.421321,4000
1431664118,0.057995677,-0.007372929,0.022088073,4016,0,-1.1763597,-0.05618576,-9.969039,4016
1431708102,0.026640262,0.011005712,0.010533671,3993,0,-0.68698984,0.78145486,-10.407012,3993
1431752148,-0.013042384,-0.032483175,-0.0058069183,4028,0,1.2275923,-1.0080655,-9.102393,4028
1431792149,-0.011191003,-0.033801567,0.0013203651,4047,0,-0.41517597,-0.69026357,-9.903675,4047
1431832902,-0.027157025,0.018539568,-0.0007940878,3981,0,-1.5046104,0.07484536,-11.255315,3981
1431876903,-0.030877916,0.101036035,0.02502615,4000,0,0.59411055,-0.21372384,-9.773347,4000
1431916909,0.041343886,0.12332567,0.014214152,3993,0,0.6237326,1.371524,-8.970172,3993
1431960903,-0.3811481,0.37085068,-0.07157982,4001,0,3.231513,-2.645078,-8.167225,4001
1432000902,0.07833433,0.42469805,0.093919136,3992,0,-0.7945206,0.21716098,-14.558386,3992
1432041679,-0.17804953,0.020612296,-0.025395304,3997,0,0.69903207,1.8524916,-4.5735145,3997
1432081702,0.059618317,-0.22926793,0.15867934,4000,0,-2.2056367,-1.430753,-16.7713,4000
1432125711,-0.06484826,-0.15265748,-0.040381968,4009,0,-0.1499143,-2.5670862,-12.565815,4009
1432165702,0.20088753,-0.0708886,0.034218784,4000,0,4.1057935,-0.6137822,-13.472875,4000
1432209708,-0.24190722,-0.03277884,0.09211862,4006,0,-0.7012419,-0.2506272,-15.464623,4006
1432249703,-0.088735946,-0.056821197,0.08054335,4001,0,-1.8337464,-0.35853246,-13.892346,4001
1432293702,0.050392978,-0.41365984,0.104177944,4000,0,0.8547783,-0.31227776,-11.37059,4000
1432334502,0.12636563,-0.2091656,0.14793761,4000,0,1.1312455,-0.5711574,-12.457537,4000
1432378529,0.04392569,-0.17758359,0.12715805,4020,0,-1.8504941,1.6676686,-12.942563,4020
1432422509,0.3309574,0.04600767,0.19944434,4006,0,-0.41800398,-0.25738615,-12.510723,4006
1432462503,0.18222833,-0.067996256,0.1607857,4000,0,-0.24539696,1.5037663,-12.051912,4000
1432502502,-0.38979167,-0.3320312,-0.07506654,3999,0,-0.99575114,1.922503,-6.1827693,3999
1432543320,-0.553612,-0.12028926,-0.05767129,4042,0,0.8959989,1.044886,-7.199625,4042
1432587288,0.07832911,-0.062651396,0.22214715,4010,0,0.47299346,0.23347315,-11.6564455,4010
1432627304,0.112830415,-0.1571355,0.066898264,4025,0,-0.11333424,1.4952816,-9.823943,4025
1432667278,-0.06052771,-0.04250594,-0.005996406,4000,0,-0.54789543,-0.02659863,-9.872511,4000
1432708142,-0.01710612,-0.10194092,0.03495452,4040,0,0.65806514,-0.019331632,-10.751983,4040
1432752148,0.25535178,0.044502784,0.18728444,4039,0,0.012252617,0.013178523,-12.052472,4039
1432792148,-0.106056765,-0.056932706,-0.0012442693,4046,0,-1.4322612,0.4762466,-11.500989,4046
1432836122,-0.039995633,-0.16450185,-0.06280716,3973,0,-0.26109934,2.6777606,-9.319683,3973
1432876109,-0.11661378,-0.20627026,-0.1153138,3961,0,-1.5640486,0.8135445,-8.534872,3961
1432920102,0.032032922,-0.20543931,0.023201425,4000,0,0.95316964,1.1892294,-8.700326,4000
1432960910,0.4579848,0.14275026,0.16566178,4000,0,-0.85709774,-0.31717238,-15.274463,4000
1433000910,0.39430732,-0.014575673,0.11866632,4000,0,-0.45226145,-0.47359005,-13.2009325,4000
1433040917,0.38948357,0.22103809,0.02551839,4007,0,-0.80414236,-1.7502464,-12.428995,4007
1433080916,0.5785805,0.13461365,0.19586666,4006,0,-0.45030782,-0.18822473,-11.862027,4006
1433124910,0.10727339,0.0805928,-0.06380987,4000,0,1.7285461,-2.276514,-7.5202065,4000
1433169678,0.07313674,-0.13065872,0.04082755,3973,0,0.0897175,0.91006094,-10.21302,3973
1433209687,0.25102335,-0.005481686,-0.07655811,4002,0,0.7865344,-0.23167628,-8.726762,4002
1433253742,0.4114702,0.18262358,0.07232258,4031,0,-0.1844079,-1.3295176,-11.54035,4031
1433293751,0.148049,0.073363185,0.033467684,4041,0,0.00041197074,0.37398708,-8.859728,4041
1433337716,-0.12792742,-0.05769712,-0.17728241,4000,0,1.1822113,-1.9660367,-6.365563,4000
1433381738,-0.04572051,0.020225413,0.044406317,4020,0,-1.3179443,1.0539407,-9.918355,4020
1433421730,0.034421105,0.1651001,0.026663695,4020,0,-0.32690412,-0.697329,-12.832714,4020
1433466503,0.02268114,0.113732345,-0.06582936,3995,0,-1.3999735,-0.47798064,-11.355902,3995
1433510508,0.35236606,0.17729242,0.1328497,3999,0,0.4738863,-0.92595863,-12.145689,3999
1433554509,-0.048732597,0.14457902,-0.076308884,4007,0,1.0128635,-1.7530228,-7.457393,4007
1433594509,0.08371999,0.006824144,0.014141387,3995,0,0.5781743,-0.8574239,-8.553859,3995
1433634509,0.23273742,0.09553775,0.122151,3947,0,0.8649004,0.5275324,-9.232098,3947
1433679302,-0.14558105,-0.06823222,-0.23134379,4000,0,0.014351802,-0.0207858,-4.5702977,4000
1433719295,0.06662435,-0.0349464,-0.09758867,4017,0,-0.65939295,-0.08355824,-7.867962,4017
1433763278,-0.06069948,-0.06846118,-0.1418189,3994,0,-0.7982623,-1.9084193,-8.568866,3994
1433803312,-0.19995832,-0.1150337,-0.13321158,4026,0,1.665785,-1.3109214,-6.9570813,4026
1433847278,-0.00859896,0.06500557,0.20253769,4000,0,-0.88982445,-0.5836244,-13.093203,4000
1433888102,0.060766723,0.11879833,0.17559241,4000,0,-0.85607785,-0.62973577,-14.013497,4000
1433932116,0.056323856,0.2229557,-0.16765215,4014,0,-0.53081733,-2.5066597,-11.138014,4014
1433972155,-0.0069252113,0.10176175,-0.2041445,4053,0,-2.3982084,-1.8826517,-8.577291,4053
1434016145,0.009045255,0.019208346,0.16487473,3989,0,-0.65280724,1.2288595,-11.52096,3989
1434056111,-0.12878901,0.24735472,0.07809571,4002,0,-1.4211671,-0.43995008,-12.319434,4002
1434096916,-0.1257835,0.035176292,0.032959938,4805,0,-1.375621,0.63498217,-12.312426,4805
1434140903,0.23079443,0.18311524,-0.08332447,3991,0,0.63785493,1.5703431,-11.445267,3991
1434180910,-0.08578473,0.032636147,-0.09460731,4008,0,-3.5379527,1.2994312,-10.845093,4008
1434220911,-0.056855947,-0.06217778,-0.117760204,4008,0,-1.6164726,0.4592905,-11.209847,4008
1434264909,0.18986073,0.4083113,0.015092306,4007,0,-0.08890302,-1.8625792,-10.479367,4007
1434305687,-0.03572678,0.08282559,0.15794955,3995,0,0.68096244,0.23291892,-9.771561,3995
1434345678,0.17349377,0.16709118,0.24688391,4000,0,-0.14139624,0.5405946,-13.574235,4000
1434389702,-0.12707609,0.08662951,-0.22035597,4009,0,-0.79913354,-1.0878539,-6.132194,4009
1434429702,-0.07213936,-0.21581894,-0.11375282,3993,0,-0.08974769,1.2467041,-7.3547745,3993
1434473702,0.044813924,-0.08547206,0.12968715,3992,0,-0.99986,-1.3838335,-11.414624,3992
1434513702,0.15404648,0.057141703,-0.104769796,4000,0,1.837165,-2.7745438,-9.292545,4000
1434557703,-0.17902029,-0.37583375,-0.09378816,3999,0,1.9109843,-2.4021924,-7.680412,3999
1434598509,-0.14246446,-0.21413262,-0.1715591,4006,0,-0.71464777,-1.3281054,-8.379913,4006
1434642507,0.25414476,-0.0999173,0.185287,4005,0,-1.7412734,0.3752442,-16.751392,4005
1434682509,0.05903937,-0.107654795,0.07358476,4007,0,-1.5809264,0.87978816,-12.409065,4007
1434726503,-0.21704437,-0.16115071,-0.08951693,4001,0,-0.43665746,-0.98625916,-9.616693,4001
1434766502,-0.15183815,-0.23699588,-0.09546317,3999,0,0.7816766,-2.3256316,-9.513483,3999
1434811344,-0.021662742,-0.21901673,-0.1301033,4034,0,-1.6649753,1.8823377,-10.099187,4034
1434851312,0.30431092,-0.0121487025,0.034009244,3996,0,-2.4447339,1.0734739,-14.467836,3996
1434891278,-0.045374744,-0.07060809,-0.0040488117,3994,0,-0.30460536,1.2494196,-10.688486,3994
1434935278,0.04490068,0.036079098,0.0776055,4000,0,-0.013808957,-1.692929,-12.16359,4000
1434979301,-0.036613487,-0.20238431,-0.08374288,4023,0,-1.5659454,-0.17227209,-9.933813,4023
1435019324,0.042490944,-0.15601955,-0.0069973907,4045,0,-0.53823787,0.16591856,-9.990563,4045
1435060102,0.009292025,-0.102455005,-0.062275715,4000,0,0.42735776,-1.8325634,-11.280236,4000
1435104147,-0.13156423,-0.2247174,-0.0065209107,4045,0,-0.71883726,-0.09758475,-11.360465,4045
1435144109,0.3190684,0.077947,0.0131523395,4006,0,-1.260535,-1.0217103,-12.796871,4006
1435188102,0.20002584,0.08301705,0.03771189,4000,0,-1.3360863,-2.8246684,-12.874487,4000
1435228103,0.069740884,-0.06947776,0.08610921,4000,0,0.8829271,-1.8854867,-9.934817,4000
1435272940,-0.44004098,-0.15782906,-0.12788488,4030,0,-2.8389018,2.2568114,-7.2784343,4030
1435316917,0.22621907,0.30214396,0.21378067,3953,0,-2.336002,0.80014074,-13.5819435,3953
1435356932,0.041235775,0.15922502,0.047484845,4008,0,-0.919093,-1.4265677,-12.498656,4008
1435400945,-0.20328923,0.022936368,-0.16815025,4036,0,1.6414307,1.4680469,-6.1550465,4036
1435441679,-0.05012926,0.107247576,-0.11404185,3995,0,-0.4298543,1.3632421,-8.461216,3995
1435485678,0.2460405,0.040704895,0.19017152,3993,0,1.7833078,-0.9866896,-10.183792,3993
1435525678,0.3584656,0.23692398,0.15021883,3993,0,1.2259341,-0.7071614,-12.157162,3993
1435569710,-0.20260477,-0.049216334,-0.1730734,4001,0,1.4957126,-1.8239706,-6.120323,4001
1435609710,-0.37062323,-0.18420961,-0.18241978,3994,0,1.9100978,1.0295212,-2.1110728,3994
1435653711,0.15259033,-0.080688834,0.15374197,3987,0,-0.6410487,-0.3631759,-12.037017,3987
1435693710,0.3270239,0.11951391,0.17045826,3957,0,0.01624181,-1.2538224,-12.687295,3957
1435738509,-0.16964099,-0.18220031,-0.042963654,4793,0,-0.561782,-1.6342188,-8.902913,4793
1435782502,-0.11653872,0.064017184,0.06026199,4000,0,-1.9081485,2.4214087,-11.921664,4000
1435822503,-0.2146566,-0.012556603,-0.008070196,4000,0,-2.2026296,1.17872,-13.047881,4000
1435866511,0.09845059,0.28047943,-0.056031533,4002,0,-0.11462097,-1.2758744,-10.836008,4002
1435906503,0.04067368,0.2426711,-0.018486246,3994,0,-0.97509634,-0.772217,-10.97401,3994
1435951302,-0.042254426,-0.055188425,-0.18041989,4000,0,1.2398509,0.66656846,-5.522317,4000
1435991302,-0.26841483,-0.108446404,-0.2153643,3962,0,1.440923,2.039917,-3.3329573,3962
1436035285,0.08436094,-0.068866335,0.11494736,4007,0,1.488622,-0.21763825,-8.862137,4007
1436075278,0.24991861,0.03780819,0.15852109,3983,0,1.2581046,-0.39563876,-11.07284,3983
1436120128,-0.08381049,-0.21127258,-0.0017593686,4849,0,1.0223688,-2.1502864,-9.287341,4849
1436160102,0.12484872,-0.05070145,0.0960695,4000,0,-0.0101877,-0.9250548,-10.796552,4000
1436200121,0.07960837,-0.14877462,0.07615211,4016,0,-0.12309685,-0.36445883,-8.511173,4016
1436244101,-0.21489477,-0.102308765,-0.19960268,3992,0,-0.75958544,-2.4199288,-9.458236,3992
1436288103,-0.06838511,0.02412355,0.06295053,4000,0,-0.40831137,1.630708,-11.7579155,4000
1436332149,0.031865146,0.098437,0.07974318,4047,0,-0.46105286,0.70469844,-11.903658,4047
1436372155,0.010905686,-0.030453812,0.01579336,4033,0,-1.6854112,-0.77501726,-12.398496,4033
1436416911,-0.32416186,0.13500433,-0.17840071,4009,0,-0.7908525,0.7177806,-8.690662,4009
1436456908,-0.41786182,-0.015638227,-0.118070744,4005,0,-1.0375074,0.12080549,-7.3064766,4005
1436500903,0.2239167,0.08269002,0.060479708,3986,0,0.38625237,0.4510737,-9.878481,3986
1436540902,0.20717911,0.16874059,0.06321488,3999,0,1.6557746,0.697063,-10.318305,3999
1436584912,-0.12527369,-0.12210752,0.05169553,4009,0,3.145459,-2.0405374,-7.6449747,4009
1436625686,0.17309691,-0.06339972,0.18521982,4000,0,1.192965,0.15679552,-9.400817,4000
1436665685,0.13434532,0.0044083903,0.09541144,3993,0,-1.3256835,0.28846788,-10.249919,3993
1436705724,0.16909032,0.0041013584,0.10394803,4045,0,-0.52825546,0.0006429338,-10.8296795,4045
1436749678,-0.1201114,0.11225644,-0.13559644,3969,0,1.2883617,-1.4498808,-9.648003,3969
1436789702,-0.095668405,0.12286126,0.012417731,3987,0,2.349138,-1.0365332,-7.2444057,3987
1436833736,-0.17612548,-0.006279592,-0.09731781,4034,0,1.0204532,-0.85948795,-7.8217344,4034
1436874503,-0.05887393,0.026048368,0.006756477,4801,0,-0.5498689,0.1319591,-9.776466,4801
1436914528,0.13821673,0.09102299,-0.012779003,4026,0,-0.0890596,-1.567368,-10.340422,4026
1436958502,-0.11498892,-0.05634096,-0.023326937,3985,0,0.27555045,0.54646814,-10.241808,3985
1436998503,-0.21726227,-0.042475667,-0.14327495,4000,0,1.8106425,-1.3557143,-9.225483,4000
1437038510,-0.16007781,-0.2020555,-0.07305704,4007,0,0.66819423,-0.8996231,-9.037982,4007
1437079319,-0.20338203,-0.21808635,-0.0995125,4009,0,0.9721805,-1.3679199,-8.596178,4009
1437119319,-0.18613893,-0.25314224,-0.066651754,4009,0,2.3755836,-1.3186069,-6.726501,4009
1437163357,-0.0076868236,-0.1632947,-0.10719807,4047,0,-0.20807782,-0.9361891,-11.736761,4047
1437207279,-0.22914895,-0.07605178,-0.12809293,4001,0,-0.77183986,-0.55585337,-10.353251,4001
1437247310,-0.28716415,-0.088011935,-0.1449487,4032,0,0.21908312,-2.3172698,-9.301536,4032
1437291328,-0.032190345,-0.13827382,0.10137972,4050,0,-0.37873164,1.2381104,-11.844011,4050
1437332111,0.01825581,-0.102861986,0.025679646,4009,0,0.28114197,0.35529882,-12.641007,4009
1437376109,-0.15963535,-0.021962857,-0.08336501,3979,0,-0.52036405,-0.73875016,-10.848286,3979
1437416102,-0.19770704,-0.13345943,-0.21493639,3960,0,0.7864902,-2.522654,-8.520539,3960
1437460124,-0.14082472,-0.114663646,0.012961214,4022,0,-0.9959941,0.32064435,-10.896754,4022
1437500125,-0.08932144,-0.0081630545,-0.009135199,4023,0,-1.7342317,0.043500192,-12.190648,4023
1437540917,0.099545814,0.10900553,0.050938606,4007,0,-0.8280625,-0.3100468,-13.573767,4007
1437584936,-0.035756983,0.10757556,-0.17005356,4022,0,0.9736348,-2.5422015,-9.415704,4022
1437624963,0.177662,0.20687994,-0.0019583812,4047,0,0.70742965,-1.7137883,-9.472326,4047
1437668910,-0.059755005,0.0024931019,0.023445306,4000,0,1.7464924,-0.1816414,-9.625325,4000
1437708957,-0.15320958,0.04977396,-0.088582724,4047,0,1.3267318,-1.5104601,-8.162535,4047
1437748958,-0.11503766,-0.16214536,0.09864021,4048,0,2.4347274,-0.05532251,-6.056597,4048
1437789682,-0.021055646,0.11106043,0.07158007,4004,0,1.3641156,0.68664634,-8.366525,4004
1437829727,-0.0061817393,-0.044944227,-0.015852276,4049,0,1.7282029,1.34507,-6.5276594,4049
1437873696,0.36463046,0.0723429,0.12031967,3991,0,1.0571911,-1.6817536,-11.501888,3991
1437917702,0.009799752,0.032795615,-0.09113148,3986,0,-0.23591633,-2.1212335,-10.070364,3986
1437957728,-0.15894486,-0.15684158,-0.18175013,4026,0,-0.53147334,-2.9323184,-7.8304305,4026
1438001702,-0.08933501,0.067715615,0.019486038,3965,0,-2.7812626,1.2678256,-12.022702,3965
1438042510,-0.3080632,-0.02555761,-0.17498039,3982,0,-2.1111166,1.0947071,-9.839899,3982
1438082510,-0.1391472,0.05867744,-0.1097505,3946,0,-2.4036152,0.19292544,-10.140795,3946
1438126525,0.13071689,0.08087599,0.20127952,4012,0,1.4909039,0.6067927,-11.562832,4012
1438170516,-0.1103194,-0.0108582,-0.10439168,4003,0,2.3635979,0.407917,-5.4626794,4003
1438210516,-0.10961984,0.12669428,-0.07392062,3975,0,0.8973893,0.7674891,-6.010968,3975
1438251304,0.26819983,0.23195957,0.056092985,3990,0,0.3067867,-0.03793719,-10.009688,3990
1438295302,0.040135033,-0.112991825,0.06458224,4000,0,-0.371751,-1.0928509,-11.099069,4000
1438339320,-0.119986735,0.022835849,0.026198093,4011,0,-2.8744242,0.24359186,-11.663254,4011
1438383279,0.22749689,0.16508888,0.0293833,3940,0,0.34565914,0.1788626,-11.460566,3940
1438424102,0.17165947,0.20532288,0.050898932,4000,0,1.7278385,0.67100567,-9.963225,4000
1438468121,-0.10322396,-0.23960675,-0.055622112,4018,0,1.8069198,-0.91601676,-6.9957657,4018
1438508102,0.02964912,-0.20397754,-0.03544938,4000,0,0.52945596,0.2804184,-6.8679066,4000
1438548102,-0.05140796,-0.13200016,-0.22873814,4000,0,0.8869019,-1.8498398,-5.8157234,4000
1438588103,0.00018906251,-0.06683712,-0.09840189,4001,0,0.08528886,-1.1573066,-8.578536,4001
1438632110,0.046340093,-0.19766557,0.09109087,4004,0,1.3481838,-1.1854122,-12.447127,4004
1438672909,-0.11245544,-0.19121614,-0.12768203,4006,0,0.41652825,-1.0113578,-8.226314,4006
1438716910,0.093421265,-0.03065552,0.17879549,4008,0,-1.870711,2.0517335,-12.464452,4008
1438760903,-0.09246238,-0.17101353,-0.19206834,4001,0,0.34462813,0.86264753,-6.6454644,4001
1438800910,0.16242301,0.051539127,-0.18522844,4001,0,0.60674465,-0.9675781,-7.1227937,4001
1438840902,-0.25551444,-0.15719911,-0.24810836,3993,0,2.729863,-0.047240492,-4.8635736,3993
1438881679,0.057497922,0.12950712,-0.03514232,3994,0,2.4468749,-0.86672586,-8.22189,3994
1438921687,-0.026848905,-0.044538576,-0.113100976,4009,0,0.8057917,0.14950648,-8.788975,4009
1438965678,0.15157212,-0.14782403,-0.05077129,3997,0,-1.0941098,1.2993206,-9.178512,3997
1439005686,0.08027575,-0.18736783,-0.14638487,4001,0,0.675398,-0.5593481,-6.046748,4001
1439049678,0.097636916,-0.19175953,0.058452465,3999,0,0.13608065,-2.8954725,-10.721741,3999
1439089710,0.14164856,-0.20503193,0.15808618,4006,0,1.6648358,-1.270439,-9.787095,4006
1439133712,-0.075461715,-0.15517333,-0.16825956,4003,0,-1.0142772,-0.8703953,-8.134582,4003
1439174502,0.3270519,0.083766736,0.015418783,3989,0,-1.4961402,-1.494562,-14.414858,3989
1439214508,0.3337903,0.100768045,-0.02214562,4006,0,-0.88866484,-1.9952357,-11.016454,4006
1439258509,-0.09633342,-0.20753804,-0.15153152,3979,0,1.2434639,-1.1113272,-7.8435235,3979
1439298509,-0.2925489,-0.29179597,-0.14064555,4007,0,1.9513868,0.023832861,-5.291608,4007
1439343336,0.057777397,-0.107422315,0.015964337,4020,0,-1.7588927,1.8994352,-11.280333,4020
1439383310,0.30811125,-0.036389045,0.011716026,4000,0,-2.3970034,-0.8857506,-12.829374,4000
1439427319,-0.031639427,-0.025533363,0.048840456,4009,0,-2.4218464,-0.14775425,-11.718521,4009
1439467310,-0.27227566,-0.1755891,-0.12894188,3994,0,-0.26923543,-0.71175075,-9.025224,3994
1439511310,-0.021723242,0.17348637,0.026999427,4000,0,-1.7992781,1.4138184,-13.484329,4000
1439551278,0.06696388,0.09661551,0.18669586,4000,0,-2.1437519,1.7514614,-13.013563,4000
1439592148,-0.20738435,0.16693425,-0.17837854,4046,0,-1.9576119,0.7200737,-9.81079,4046
1439632149,-0.13496868,-0.06545679,-0.1574809,4041,0,-2.7514863,-0.09607667,-9.581761,4041
1439676102,-0.19051477,0.08132718,-0.11642688,3954,0,-1.8490845,-0.07408917,-10.146527,3954
1439716102,-0.15904082,0.095801055,-0.15127695,3954,0,-1.7624302,-0.9860418,-10.551483,3954
1439760108,-0.045433402,0.19221675,0.045178685,4006,0,-1.5883714,2.266049,-12.167997,4006
1439800103,-0.45725974,-0.14800341,-0.18318768,4001,0,-1.7971183,0.72062486,-8.18196,4001
1439840910,0.0044700108,-0.010107989,0.0800329,4000,0,-2.0153832,1.2361367,-12.273304,4000
1439880910,0.0020943838,-0.103471614,0.0837307,3999,0,-1.1129538,1.189523,-12.174225,3999
1439920911,-0.10751159,-0.14426015,0.008615902,4001,0,-1.5755827,0.63165325,-9.986585,4001
1439964944,0.12346523,0.07133669,0.14546561,4035,0,-1.1277771,-0.040189166,-12.998084,4035
1440004910,-0.048284017,0.034169637,-0.17405483,3998,0,-0.81559587,-2.3526206,-10.550493,3998
1440049679,-0.10625336,0.011023625,-0.056123342,4001,0,1.1931524,-0.46168053,-10.905289,4001
1440089685,-0.14158575,-0.00508772,-0.04576295,4006,0,0.63946587,-1.0811466,-11.254064,4006
1440133690,-0.2139831,-0.17902315,0.009740911,4002,0,0.91999197,0.89386916,-10.034115,4002
1440173678,0.14562592,0.047182743,0.052006334,4000,0,-0.59164536,-0.34045818,-12.4232,4000
1440217710,0.2628099,0.08467031,0.1580237,4000,0,-0.2036624,-1.715841,-14.457654,4000
1440257717,0.025112946,-0.11942978,-0.017317152,4015,0,1.0612077,-0.34894642,-10.2973175,4015
1440302510,-0.107380986,-0.13826138,0.06546678,4801,0,0.37569436,0.05872012,-11.970125,4801
1440342510,-0.1413986,-0.13414079,0.046392966,4000,0,-0.488089,-0.16607861,-10.216454,4000
1440386531,0.0034960718,0.092540845,0.093162455,4021,0,-2.3169713,1.3990202,-12.528281,4021
1440426509,0.014431063,0.11474711,0.009069074,3997,0,-1.1932006,-0.5557885,-12.759072,3997
1440470510,0.020367874,0.27825826,-0.03573841,3999,0,1.3298668,-1.5391321,-10.884154,3999
1440511302,0.035026845,0.19316652,0.073581606,4792,0,0.5256644,-1.1337445,-12.340372,4792
1440551312,0.036318928,0.18230382,0.120715916,4010,0,-1.0510685,-1.1438662,-12.868555,4010
1440595351,-0.14295967,0.02172015,0.17343418,4042,0,-0.6053843,1.4718226,-11.195193,4042
1440635311,-0.00016936095,0.029306602,0.18848352,4009,0,-1.5490984,2.1883883,-12.500495,4009
1440679314,0.03329743,0.18029875,0.005965019,4000,0,-0.3498053,0.0088275755,-10.529273,4000
1440719349,-0.041888837,0.06768039,-0.0011021137,4064,0,1.4388338,-0.5347288,-9.979235,4064
1440764102,-0.1350229,-0.14797804,-0.10356843,4000,0,0.80970985,-0.3971347,-6.694573,4000
1440804133,-0.2235568,-0.10388795,-0.037355475,4024,0,1.3128889,0.70971525,-6.6702447,4024
1440848109,-0.19523475,-0.15384872,-0.036928788,3985,0,0.15698345,-0.11320819,-8.130434,3985
1440888106,0.04597261,0.07123721,-0.045476142,3990,0,0.52417433,-1.5841678,-9.1831455,3990
1440932142,0.1696479,0.1920188,0.23416221,4031,0,-0.42759967,-1.5756501,-14.728081,4031
1440972902,-0.050059088,0.019000754,0.08719205,3999,0,-1.5780073,-0.06361424,-13.485545,3999
1441012914,-0.054480746,-0.11805348,0.13397427,4012,0,-2.1103878,1.7077676,-10.543754,4012
1441056937,0.13930732,-0.00042906622,0.07192951,4029,0,-1.4470264,-1.1643101,-11.704485,4029
1441100903,-0.39429104,-0.24574673,-0.015955137,4000,0,0.060489718,1.4525814,-6.9179716,4000
1441140907,-0.41255507,-0.18045343,-0.12931551,3999,0,0.4793989,1.5197576,-7.838659,3999
1441181679,-0.57421905,-0.38848174,-0.13539365,3988,0,1.0416516,0.7589027,-4.1810174,3988
1441225678,0.21933813,0.034939747,0.1392241,3999,0,0.6848138,0.121736,-12.653105,3999
1441265678,0.4340933,0.3470877,0.24949013,3974,0,-1.3757211,-0.39362246,-18.193378,3974
1441309685,-0.25672722,0.048565853,-0.0925839,4007,0,0.6013827,0.25804156,-8.229661,4007
1441349678,-0.34328318,-0.21433777,-0.17134069,4000,0,-0.63762134,1.2638294,-6.1507344,4000
1441393680,0.3415876,0.1587759,0.14264818,3954,0,-2.421226,1.1529657,-12.343468,3954
1441433702,0.31446892,0.25000632,0.18017183,3988,0,-1.0876635,0.009046684,-11.752853,3988
1441478503,-0.37755167,-0.20785752,-0.15229122,3990,0,2.6208704,-0.89603096,-3.5711846,3990
1441518502,-0.1374976,0.10111214,-0.12145303,3993,0,1.4110736,-1.4440988,-7.8278713,3993
1441562502,0.3971678,0.24848045,0.22701572,3999,0,-0.8177838,-1.3432094,-14.772525,3999
1441606548,-0.14293186,0.1268151,0.06081427,4039,0,0.015865372,1.8223283,-12.869889,4039
1441646503,-0.06867777,-0.08470968,0.20712407,3994,0,-1.247806,2.0351129,-12.919423,3994
1441687302,-0.05333551,0.04502069,0.2419664,3986,0,-0.6753963,2.9519734,-13.143475,3986
1441727344,0.24262986,0.16740069,0.231669,4042,0,-0.3570837,1.0555103,-13.76982,4042
1441771308,0.2628591,0.26704684,0.020184265,4006,0,1.0581145,-0.96052325,-9.441045,4006
1441811319,-0.09920025,-0.08994703,0.076164834,4006,0,1.9269335,-0.010305005,-6.7988844,4006
1441855278,0.057389084,-0.37686548,-0.03628547,4000,0,1.5793005,-0.2661613,-9.881823,4000
1441896109,0.28392988,-0.15533397,-0.04499246,3964,0,-0.61452013,-1.334353,-10.8626585,3964
1441940102,0.037443023,-0.19378978,-0.03617505,3993,0,-0.7110153,-1.5744928,-9.579887,3993
1441984102,0.26088074,0.021772468,0.14732946,4000,0,-2.0645611,2.671051,-14.83213,4000
1442028126,0.21209866,0.13115531,-0.15557283,4021,0,0.7965774,-1.3259493,-6.5646257,4021
1442072148,0.3546989,-0.059780378,0.09967136,4039,0,1.3098648,0.15892306,-8.847979,4039
1442112910,0.002855044,-0.24571085,-0.009680647,3993,0,3.1089416,1.1831702,-7.062395,3993
1442156928,0.29024646,0.041549455,-0.048408244,4018,0,1.527538,-1.818289,-10.367054,4018
1442196955,0.3833095,0.09369709,0.10290657,4039,0,0.24616197,-0.6520315,-10.226546,4039
1442240910,-0.12328873,-0.22183551,-0.05719782,4000,0,1.4871976,-1.1258391,-8.308721,4000
1442280917,-0.24714872,-0.19028059,-0.21921164,4007,0,2.1896467,-2.6637998,-5.407662,4007
1442325679,0.07300372,-0.20878983,-0.07435238,4000,0,-2.1361141,-1.0715079,-11.602563,4000
1442365708,0.16769196,-0.1907502,0.0055546868,4029,0,-2.2218387,-1.3463099,-12.032538,4029
1442409678,0.07084824,0.20395118,0.04416084,3963,0,-1.8612598,-0.37710756,-13.64227,3963
1442449690,-0.27225426,-0.2599702,-0.20249456,3998,0,-1.8784808,-1.3709928,-8.008508,3998
1442489687,0.009479916,-0.19672684,-0.032325502,4009,0,-1.1844434,-0.9157576,-9.109263,4009
1442529679,-0.27898374,-0.23223998,-0.1273563,4001,0,0.84356695,-1.3642813,-5.8438764,4001
1442573708,-0.18126003,-0.08404624,-0.12222016,3998,0,-0.9351422,-0.68886626,-9.054938,3998
1442614564,-0.01994832,0.14561777,-0.2002377,4054,0,0.8559768,-3.2750838,-8.631688,4054
1442658509,-0.017514326,-0.056930505,0.22305241,3941,0,-0.3542157,1.7508667,-11.672664,3941
1442698519,-0.05939651,-0.15027377,0.011057372,4003,0,0.80375606,0.1647946,-10.459165,4003
1442738510,0.14329913,-0.00639423,0.112631105,4000,0,0.03567573,0.78755105,-12.435586,4000
1442782554,0.08522608,0.23563492,0.16756335,4044,0,-0.08784514,-1.0054281,-13.685349,4044
1442823303,0.0658008,0.092685044,0.1474595,3985,0,0.076265976,0.121329084,-13.22786,3985
1442867309,-0.07681973,0.01453511,-0.16077562,3970,0,-0.41893318,-0.29825085,-9.235869,3970
1442907302,0.12537147,0.08977298,0.0041072206,3970,0,-2.0646007,0.72755,-11.494985,3970
1442952124,-0.11308185,0.059323415,-0.020201921,4822,0,1.1328384,-0.43757302,-7.5885143,4822
1442996079,0.32521155,-0.04036243,0.1743723,3946,0,0.5489687,-0.72165835,-11.852889,3946
1443036102,0.53311956,0.31921616,0.13269226,3978,0,-1.6298089,-0.24257882,-15.086307,3978
1443080109,-0.014417727,0.06488806,-0.022974428,4007,0,0.6700878,-1.9433625,-10.144015,4007
1443124102,0.037034467,0.05515683,0.0267771,4000,0,-1.43062,1.2645601,-13.254492,4000
1443168102,0.17837018,0.1756893,0.0027489853,4000,0,0.09912078,-1.4250121,-12.243645,4000
1443208108,0.23698851,0.25011647,0.13346758,3996,0,-1.367569,0.48595974,-13.15039,3996
1443252156,-0.13861047,-0.12018752,-0.018316995,4047,0,-0.40209067,1.6179456,-8.085322,4047
1443292909,-0.11208327,-0.051291585,-0.21179315,4000,0,-1.008667,0.2700498,-6.991658,4000
1443336910,0.28844202,0.1886591,0.09667843,4001,0,0.6065038,-1.3974161,-12.310665,4001
1443376903,0.15998136,0.098129354,0.16921842,4000,0,-0.62537694,0.22206713,-9.737159,4000
1443420910,0.16862157,0.11719116,-0.0663466,4008,0,-0.7710721,-0.91541094,-9.075623,4008
1443461741,-0.039413907,0.019478185,-0.1431113,4030,0,0.2573178,-1.5498106,-7.6499343,4030
1443501678,0.37497038,0.36001265,0.12646666,4000,0,-0.27363622,-1.8948002,-11.591577,4000
1443541688,0.10144413,0.27318066,-0.0065220455,4010,0,0.4906575,-2.0630546,-11.236989,4010
1443585678,-0.23993206,-0.20992304,-0.17336987,3996,0,2.2474449,-1.9557874,-6.6365023,3996
1443629678,0.108497255,0.07380913,0.066138655,3992,0,-0.40568402,-1.1397654,-13.40153,3992
1443669699,0.29145136,0.06654389,0.16786234,4021,0,-0.669993,-0.30483645,-14.658663,4021
1443714502,-0.09279019,-0.0005720846,0.013875808,3999,0,0.55829746,0.18412605,-10.098279,3999
1443758527,-0.17122085,-0.3122643,-0.055170078,4025,0,0.6885534,0.0030824582,-7.4206247,4025
1443802509,0.051587675,0.017477788,0.09756612,3993,0,1.0580755,-3.3970833,-11.433018,3993
1443846502,-0.29679483,-0.21168645,-0.24319294,3999,0,0.42597023,-0.30809096,-6.8512263,3999
1443886520,-0.06529143,0.028108936,-0.17383528,4018,0,-1.1597123,-1.6575229,-11.46713,4018
1443930530,0.046301886,0.024759222,0.09197931,3991,0,1.0456843,-1.1972007,-13.029542,3991
1443971302,-0.29818523,-0.25708959,0.031599943,3985,0,0.48824906,-0.3934167,-8.306518,3985
1444015311,-0.038737856,0.1313896,0.20165963,4002,0,0.076480836,2.1790595,-13.182382,4002
1444055302,0.17781995,0.09565293,0.15778054,3960,0,-1.1622858,1.3367128,-13.328794,3960
1444099308,-0.02389567,0.17867865,-0.22238359,4006,0,0.070903346,-0.6609882,-7.282859,4006
1444140084,-0.06440458,-0.0038841842,-0.040070828,4006,0,1.5748276,-0.4233686,-5.3041368,4006
1444184109,0.035287164,-0.14049211,0.07816114,3970,0,-0.91752315,1.0784782,-7.6617565,3970
1444224115,-0.027304666,0.041985653,-0.024327049,4013,0,1.2979366,0.34865293,-8.1307335,4013
1444268102,0.030192731,-0.07600046,-0.14268099,3986,0,1.5284321,-3.0019016,-8.7290945,3986
1444308102,-0.17381108,-0.101000205,-0.09478647,4000,0,2.766074,-2.052692,-5.813287,4000
1444352148,0.21240407,0.066461645,0.18714795,4037,0,1.0710925,-0.07087441,-13.126189,4037
1444396108,-0.3659014,-0.18180096,-0.17412516,3960,0,-1.2907375,0.6017212,-7.469054,3960
1444436903,-0.20066433,-0.11674564,-0.22770293,3993,0,-1.1830258,-1.4747745,-8.983907,3993
1444480902,-0.15169838,-0.06414244,0.098597094,3993,0,0.81584173,1.2742676,-10.521375,3993
1444524903,-0.113782294,0.0071422867,-0.16330145,3994,0,1.8104796,-0.7437082,-6.154418,3994
1444568903,-0.0033182583,-0.17846152,0.05117708,4001,0,2.6858044,-1.6005015,-6.830043,4001
1444609710,0.02039309,0.025542445,-0.016024038,3974,0,1.7500794,-0.80535233,-8.165529,3974
1444649679,-0.3020954,-0.21644886,-0.14215787,4001,0,1.2545831,-0.8082693,-4.0628486,4001
1444693703,0.21230873,-0.11610571,0.09389602,4025,0,-0.3288655,-0.96568745,-10.681252,4025
1444733692,0.3281409,-0.033001665,0.15304384,4013,0,0.66479874,-0.8132674,-10.774019,4013
1444773691,0.37815145,0.08367668,0.19020438,4013,0,1.086218,-0.9460487,-10.166416,4013
1444817685,-0.33688095,-0.18931313,-0.102121666,4006,0,3.997287,-1.1766843,-4.5898423,4006
1444858516,-0.46738026,-0.08606895,-0.1741488,4006,0,3.2942834,-2.1256669,-2.0940843,4006
1444898510,-0.26249248,-0.14835453,-0.13480121,3981,0,2.7169917,-0.52440727,-4.707188,3981
1444942568,0.36126497,0.019897608,0.2462255,4058,0,0.12854625,-1.267299,-14.066465,4058
1444982522,0.3491805,0.17975658,0.16169271,4012,0,-1.0623299,-1.5845044,-14.668535,4012
1445026510,-0.39825988,-0.12962943,-0.11968474,3994,0,-2.9806428,0.8406171,-10.709676,3994
1445066510,-0.49514106,-0.5430741,-0.17321025,4000,0,-1.3107148,-0.29376453,-7.2970414,4000
1445111333,0.19456641,0.15449047,0.08912634,4031,0,-0.31497878,0.7205572,-10.484561,4031
1445155302,-0.19822149,-0.03396415,-0.18380103,3963,0,0.85853785,-0.7634573,-7.2679577,3963
1445195317,-0.09578943,-0.19237499,-0.15115492,3984,0,2.5482426,-1.9908065,-4.1195126,3984
1445235309,-0.07251849,0.13634926,-0.090839505,4007,0,3.0604615,-1.5501518,-5.1713133,4007
1445279352,0.2812354,-0.014389846,0.1627128,4048,0,0.6003333,-0.3438344,-12.788856,4048
1445324078,0.013649569,0.11798678,0.09389345,3993,0,-1.45422,1.1158869,-11.140006,3993
1445364102,0.0028179302,0.28217095,0.02863825,3981,0,-1.7620316,0.043068085,-13.0118065,3981
1445408108,0.05073578,-3.149454e-05,0.032272242,4006,0,1.9759612,0.7308142,-8.172954,4006
1445448102,-0.08805111,0.068037435,-0.09767975,3992,0,2.225892,-0.6170563,-7.7676234,3992
1445492147,-0.1139207,-0.22048222,-0.14356682,4041,0,1.5347842,-1.6325701,-5.9089704,4041
1445532149,0.09021384,0.019303735,-0.06290782,3999,0,1.6465733,-1.1349654,-7.2432346,3999
1445576909,-0.23791717,0.0071923784,-0.08750968,4007,0,-0.05342383,-0.52188456,-8.7810545,4007
1445616903,-0.08847969,0.17791775,-0.12174584,4001,0,-1.0942582,-1.9501991,-10.741106,4001
1445660909,0.18581395,0.11843659,0.21624473,4006,0,-0.6090839,0.48424816,-13.747773,4006
1445700915,0.051407143,0.027264755,0.089117445,4012,0,0.49175254,-0.3892474,-13.03881,4012
1445741703,-0.03148121,-0.13449267,0.14664435,4000,0,0.31367904,0.30728945,-9.6668215,4000
1445781710,-0.23484495,0.0311176,-0.15578546,4006,0,0.8021718,0.39561063,-7.777279,4006
1445825678,0.45427266,0.3801068,0.17583911,4000,0,-1.584171,0.7938839,-16.063028,4000
1445869687,-0.047179405,0.15013044,-0.049169693,4008,0,1.0121592,-1.1894848,-6.6839824,4008
1445909678,-0.25213763,0.10356052,-0.17108561,3993,0,0.15410106,-0.7413741,-5.961151,3993
1445953678,0.22723222,0.14325322,-0.047929633,4000,0,0.61748725,-0.88427925,-11.455851,4000
1445993678,-0.104979694,0.00025962037,-0.18709874,4000,0,0.8668518,-1.3388788,-6.0348105,4000
1446038513,-0.15095939,-0.00038986432,0.034081206,4011,0,-0.3586903,0.67795175,-11.102851,4011
1446078502,-0.08757655,-0.130102,0.06867804,3999,0,-1.629962,2.1047266,-9.942049,3999
1446122503,0.04937374,0.12199337,0.057300333,4001,0,-1.1721487,1.0795168,-11.653196,4001
1446162521,0.10510624,0.034275237,0.09813517,4019,0,-1.9253361,-0.032326136,-12.384076,4019
1446206503,0.09511077,0.24713375,-0.049699098,3993,0,-1.6046054,0.16459024,-9.445216,3993
1446247310,0.23292975,0.25213212,-0.05030902,3983,0,-0.7670156,-0.34475031,-11.017809,3983
1446291332,-0.096449114,-0.08081007,-0.04290262,4022,0,2.2529852,-1.6513711,-8.074496,4022
1446331350,-0.12617883,-0.27195185,0.04581254,3994,0,1.1744671,-0.2783839,-6.577119,3994
1446375330,0.14131455,-0.10959503,-0.03879772,4020,0,-1.8868661,-2.5838878,-12.555627,4020
1446419317,-0.31870332,0.04353413,-0.035976946,3961,0,-1.926902,1.6040367,-11.470412,3961
1446459354,-0.2902415,0.14643398,-0.14959954,4044,0,-3.7635994,0.46640497,-10.914373,4044
1446500084,-0.2089021,-0.022960687,-0.21657123,4006,0,-3.208498,-0.061225142,-10.612981,4006
1446540110,-0.0325896,0.1478927,0.010387369,4000,0,-1.704745,-0.736976,-11.297774,4000
1446584102,-0.19790189,-0.17730047,-0.015355671,4000,0,0.49687064,2.7621582,-6.3111725,4000
1446624111,-0.30848804,-0.05607281,-0.14650452,4007,0,1.2529807,2.0125215,-8.616676,4007
1446668102,0.26804498,0.17253417,0.12919173,3987,0,1.5736474,-0.4084521,-10.285038,3987
1446708910,-0.018464537,-0.20742886,0.05009394,3994,0,1.8887821,0.055462066,-7.626648,3994
1446752938,-0.3307374,-0.31505615,-0.15574965,4028,0,0.23679854,-2.110443,-8.679351,4028
1446792924,-0.077386476,0.12183158,-0.0071626483,4015,0,-0.029246643,-3.4342752,-11.121403,4015
1446836910,0.056311533,-0.1230042,-0.045929465,4000,0,-0.7001161,0.254934,-10.017978,4000
1446876910,0.13498043,0.075888194,0.008430281,4001,0,-0.36064628,-0.13270347,-11.576716,4001
1446917703,-0.19499914,-0.058591235,-0.32292014,4000,0,1.2712091,-1.8227913,-6.5338473,4000
1446961714,-0.0064408057,-0.12056613,0.12150281,4012,0,2.085188,-1.9492152,-11.598444,4012
1447001689,0.30785355,0.04621936,0.111330606,4011,0,1.2575843,-1.3390669,-10.676802,4011
1447045686,-0.10641033,-0.164571,-0.18181618,4003,0,1.6116688,-2.2113764,-9.212943,4003
1447085686,0.10378929,0.03098519,-0.086113244,4007,0,2.1103125,-2.012566,-9.159226,4007
1447125684,-0.31318182,-0.09748097,-0.11915809,4006,0,3.4541469,-0.56188637,-3.6497886,4006
1447166509,-0.16669534,-0.040725518,-0.1311185,4007,0,2.2831156,-0.7232784,-3.6243548,4007
1447210542,0.39749646,0.10256477,0.02151722,4039,0,-0.93725586,-1.1047218,-13.238063,4039
1447250544,0.30987614,0.12694527,0.13828091,4034,0,-1.094473,-0.88779366,-11.015415,4034
1447294510,-0.03711072,-0.08159021,-0.08105539,3986,0,-1.0104021,-2.1049569,-9.356801,3986
1447334510,-0.08005564,-0.3361569,-0.008592843,4000,0,2.21571,-0.33616066,-4.152452,4000
1447379303,0.042394407,-0.0148102995,-0.025322007,4793,0,-2.4834023,-0.6878827,-11.301701,4793
1447419327,-0.05612785,-0.10998214,-0.08774047,4022,0,-0.32322475,-0.81515294,-9.359891,4022
1447463307,-0.00885644,-0.06980134,-0.03691947,3994,0,-0.21610029,-0.66456133,-7.926184,3994
1447503309,-0.040705986,0.21626845,-0.13775985,4007,0,1.1336082,-2.044525,-9.423556,4007
1447547313,0.14002442,-0.046558253,0.02021739,4010,0,-0.49337262,0.16123497,-12.328555,4010
1447587337,0.13488562,0.23484634,-0.010877703,4033,0,-0.37455618,-2.019764,-12.519549,4033
1447628085,-0.23878068,-0.13224079,-0.17648491,3999,0,1.5145185,-1.2657183,-7.358157,3999
1447668121,-0.12691887,0.025944823,-0.17722437,4043,0,-0.38406575,-3.1254451,-9.129669,4043
1447712148,0.4627292,0.22975764,0.07833437,3999,0,-1.6562504,-1.7694508,-16.752615,3999
1447756109,-0.21707852,-0.2006331,-0.11608682,3954,0,1.0478778,-1.2263764,-8.698862,3954
1447796113,-0.037428696,0.0093181245,-0.15316315,3997,0,0.2003647,-1.6018384,-9.138268,3997
1447836102,-0.18533401,-0.29565188,-0.17735004,3952,0,0.9969461,-0.13906795,-5.693658,3952
1447876921,-0.2087336,-0.093884744,-0.1466566,4007,0,0.95508075,-2.3556044,-6.1752076,4007
1447920902,0.3472294,-0.20273419,0.085092455,3948,0,-1.3673468,-0.60933024,-11.811042,3948
1447960902,0.33656046,-0.0059452853,0.10164013,3986,0,0.60931057,-0.4020227,-11.326555,3986
1448004902,-0.11920863,-0.18946409,0.12930182,3999,0,1.3552647,-1.2871889,-8.907258,3999
1448045703,-0.10650649,-0.20211466,-0.029613415,4000,0,1.1665437,-1.6931498,-9.580708,4000
1448089709,-0.009863126,-0.35850352,-0.004288521,4002,0,-0.741316,-1.5715213,-10.558117,4002
1448133729,-0.45093074,-0.25805333,-0.025470853,4026,0,-1.3934408,0.45927954,-6.7309794,4026
1448177678,0.11402943,0.08924968,0.06142017,4000,0,0.22028407,1.7128356,-9.921646,4000
1448221679,-0.43291914,-0.09508995,-0.20262687,4000,0,2.8511696,-0.2242819,-2.3765576,4000
1448261678,-0.2992412,-0.15240806,-0.16208415,4000,0,2.4039004,-0.083657146,-1.7089878,4000
1448306509,0.28625438,-0.038714428,0.09667311,4001,0,-1.1188903,-0.60188377,-14.409372,4001
1448346517,0.219825,-0.17447256,0.06318659,4015,0,0.10262764,-1.3953694,-9.308,4015
1448390504,-0.09717881,-0.030813621,0.034152515,4002,0,-1.9678488,-1.0732733,-10.199456,4002
1448434511,-0.06462054,-0.0845327,0.041943632,3998,0,-1.517203,0.36664736,-11.595425,3998
1448478503,-0.027019514,0.10051719,0.13521303,3995,0,1.8518841,1.6127126,-9.761296,3995
1448522519,0.09656702,-0.046305064,0.04836164,4017,0,1.2389756,-0.32384244,-9.199402,4017
1448563338,0.14186734,-0.009710458,-0.029982913,4015,0,1.9050564,-2.0324392,-8.594278,4015
1448607303,-0.2815944,-0.0907278,-0.20593846,3950,0,1.0039438,-1.131256,-6.245823,3950
1448647302,0.0023154686,-0.018139564,0.07095917,3975,0,0.5682989,-0.07001151,-7.9771967,3975
1448687309,0.17383786,-0.0034836426,0.07230101,4007,0,-0.91293067,-0.7128574,-12.194562,4007
1448727329,0.25914505,0.16346559,0.14243111,4027,0,-2.300987,-0.046219185,-15.101699,4027
1448772121,-0.059604745,0.09204049,-0.06276939,4037,0,2.4246423,-1.9899999,-6.0682077,4037
1448812107,-0.11751321,0.028572973,-0.19347456,4022,0,0.6005141,0.27112672,-6.1071014,4022
1448856103,0.024041882,-0.12297567,0.021053644,3964,0,2.4287465,-0.12655841,-10.146693,3964
1448896102,0.19711734,0.0659311,-0.027088104,3953,0,1.1022962,-1.2544951,-8.070629,3953
1448940132,0.3288859,0.17769255,0.05045113,4030,0,-0.019376466,-0.9592029,-12.66553,4030
1448980114,0.08104536,-0.011486433,0.04909564,4012,0,-0.09565907,0.10000218,-9.064807,4012
1449020914,0.17224868,-0.025204657,-0.0540038,4011,0,-1.290276,-1.5869615,-9.890018,4011
1449060909,0.052394122,-0.09517753,-0.026940815,4007,0,2.0036578,-0.8572711,-7.216752,4007
1449104903,-0.13104284,-0.36908296,0.109217726,3996,0,0.34171048,-0.18043281,-7.908359,3996
1449144903,0.10736074,-0.20966378,0.047597215,4001,0,0.45106614,-1.8551065,-11.158308,4001
1449185710,0.0021592411,-0.10312207,0.008468172,3961,0,0.49226353,-0.78241146,-10.491499,3961
1449229719,-0.05429181,0.008972333,0.18020901,4009,0,-0.9272893,-2.0331485,-13.101754,4009
1449269773,-0.15280849,-0.19316086,0.005712821,4063,0,1.2241833,-2.8491018,-9.89806,4063
1449313678,-0.24020585,-0.070356205,-0.24284393,3948,0,-0.6767252,-1.3902447,-10.129845,3948
1449353678,0.08295241,0.13336706,-0.17625934,4000,0,-2.2537038,-2.6305764,-12.198706,4000
1449397688,-0.120368354,-0.08384133,0.007763244,4003,0,0.7091725,-0.44516048,-11.555116,4003
1449438517,-0.2776225,-0.23414157,-0.13544916,4015,0,1.1117674,0.89329314,-5.889389,4015
1449478520,-0.082885765,-0.0911895,-0.19998841,4018,0,0.26186782,-0.86786914,-8.492556,4018
1449518515,-0.014291583,0.094699465,-0.1265889,4013,0,-0.50408703,-0.940168,-9.464953,4013
1449562502,0.2318863,0.060920652,0.25061867,3993,0,0.7522981,-0.11424769,-13.206806,3993
1449602504,0.170854,-0.08733832,0.13901798,3988,0,1.3147321,-0.6998351,-10.95655,3988
1449646532,-0.31347358,-0.09696745,-0.03215886,4023,0,0.18942945,0.26261476,-8.006899,4023
1449687341,0.21552902,0.26591796,0.034732077,4031,0,-1.8439085,-1.7698336,-15.487634,4031
1449731316,-0.1639511,-0.14951201,-0.08279012,3977,0,1.2258614,-0.31962115,-9.38162,3977
1449771317,-0.04603167,-0.03843932,-0.010258516,3993,0,-2.2652092,1.0301697,-12.770434,3993
1449815310,0.22896248,0.40571347,0.14118496,4000,0,-2.8708208,-0.20070818,-17.134975,4000
1449859310,0.2647942,0.18791477,0.06943527,3978,0,1.5289279,-0.6514448,-8.513262,3978
1449899310,-0.0019436837,0.16178085,-0.100872576,3974,0,-0.45840734,1.8561445,-8.6069565,3974
1449944078,0.011042581,0.016239135,0.20594896,4000,0,3.0336726,-1.6204244,-10.817861,4000
1449984078,0.10450188,0.05214702,0.13136686,4000,0,1.2558674,-0.83651173,-9.044322,4000
1450028102,0.027135482,-0.21960633,-0.13644867,4022,0,0.7096732,-1.1093715,-10.272021,4022
1450068102,0.15667911,-0.16207416,-0.014350421,3993,0,-0.42792693,-1.110885,-9.029657,3993
1450112910,0.11622029,0.17459223,-0.02794461,4808,0,-1.357709,-0.7884358,-11.03482,4808
1450156910,0.35734543,0.23099169,0.14346823,3994,0,-1.7928187,1.2910756,-15.770646,3994
1450196910,-0.052276887,-0.25616607,-0.05549116,4001,0,-0.3453762,0.28245145,-8.488716,4001
1450236910,0.4167562,0.25765136,0.1417759,4000,0,-0.08120334,-1.2506406,-13.76541,4000
1450280910,0.04450178,-0.012771328,-0.028185004,3994,0,-1.0722376,-0.90138644,-11.798503,3994
1450321703,0.058820765,0.028927425,-0.04507268,4000,0,0.6075267,-2.422403,-10.9648695,4000
1450361703,0.31358576,0.3331374,-0.08470544,3994,0,1.5989672,-3.0924456,-11.857948,3994
1450405703,-0.17506911,-0.2471182,-0.093362905,4000,0,0.26369944,-1.7353104,-9.468988,4000
1450445703,-0.106948264,-0.12606986,-0.08425302,4000,0,-0.050884146,-1.009878,-9.359937,4000
1450489681,0.13733709,0.41838348,-0.080469534,3994,0,-1.412505,-1.8786207,-13.7517,3994
1450533685,-0.03162638,0.004106435,0.1705146,4007,0,1.314993,0.21367002,-11.235256,4007
1450578515,-0.12651204,0.19192255,-0.17894456,4831,0,-0.85071594,-0.579972,-9.237586,4831
1450618502,-0.2006602,0.018404707,-0.06314778,3985,0,-0.31596562,-1.2608538,-9.173804,3985
1450658502,0.09256547,0.31552547,0.0031948297,4000,0,0.4986156,-3.3363988,-13.456502,4000
1450702502,-0.45498177,-0.19419819,-0.13295756,3992,0,-1.1119224,-0.3163592,-8.995469,3992
1450746510,0.026420014,0.46642557,-0.114205524,4000,0,-2.347803,-0.7667314,-11.723154,4000
1450790559,-0.31523156,0.051789526,-0.108504765,4049,0,2.7680366,0.03742659,-5.0892353,4049
1450831313,-0.04062473,0.12980388,0.0589109,3987,0,1.1547103,-0.08280895,-6.8861823,3987
1450875303,0.012329818,0.19084822,0.035084106,3988,0,0.07088229,-1.0861744,-10.238943,3988
1450915302,-0.016880887,-0.11512808,0.005895998,3944,0,2.1137528,-0.5610796,-7.0479956,3944
1450959302,-0.20595591,-0.22798263,-0.10168517,4000,0,-1.4167279,-0.9861181,-8.477994,4000
1450999302,0.16054848,-0.08446999,-0.041342005,3963,0,0.5275473,-2.694195,-12.923094,3963
1451044078,0.0900118,0.23599868,0.02616686,3999,0,-3.1120298,1.3515725,-13.343269,3999
1451084078,-0.20464303,-0.09354926,0.06308959,3978,0,-3.5972736,0.677683,-13.5920925,3978
1451128085,0.007108205,0.13997988,0.056858584,4007,0,1.4508798,0.17488588,-9.470756,4007
1451168078,-0.21072417,0.21797,-0.17149778,4000,0,-0.035973202,-1.2044528,-9.472158,4000
1451212148,0.07636332,-0.010111769,-0.036767673,4035,0,1.3955742,0.007875365,-8.594218,4035
1451256110,-0.30188537,-0.1573547,-0.1164091,3955,0,3.9347684,-2.6167307,-5.0577826,3955
1451296902,-0.090123594,0.092942126,0.0053199874,3992,0,1.9831332,-1.7043618,-7.328319,3992
1451340902,0.30166805,0.21489735,0.067002855,3991,0,-1.4424851,-1.547704,-16.071451,3991
1451380902,0.09613512,0.0040268465,0.05878609,3999,0,1.3243397,-2.0386815,-11.874014,3999
1451424902,-0.39843354,-0.25978756,-0.22061853,4000,0,0.48334885,-0.66108334,-5.89119,4000
1451465703,0.12448122,-0.023755586,-0.11349077,3988,0,-1.6100603,1.0862558,-10.348461,3988
1451509702,0.13442542,-0.005500172,0.21715151,3999,0,1.9165539,-0.40038118,-9.942202,3999
1451549709,0.1236953,-0.1836178,0.06119223,4007,0,1.1163487,-1.0255972,-7.859535,4007
1451593703,0.15396205,0.01190639,-0.06293123,4000,0,-0.8823663,-2.1944466,-12.458957,4000
1451633710,0.21812302,0.12368806,0.07472179,4031,0,-1.6446339,-1.5684528,-12.461176,4031
1451677679,-0.017744806,-0.103373334,0.010247207,3994,0,-0.19016418,0.5204995,-10.784106,3994
1451722502,0.17438649,0.03592574,-0.00090890646,4824,0,0.36518073,-0.6777182,-10.847635,4824
1451762502,0.032647558,-0.02741763,-0.17913823,3997,0,0.668558,-0.62097174,-11.179181,3997
1451802506,-0.021153772,-0.056350417,0.03032395,4004,0,1.0383,-0.4724321,-10.333129,4004
1451842511,0.03456427,-0.19468763,0.11129294,4009,0,0.8280098,0.31738102,-10.666354,4009
1451886503,-0.005665644,-0.20763716,-0.18732686,4000,0,-0.70734936,-0.78278214,-9.874187,4000
1451926502,0.49983665,0.030286012,0.11943881,4000,0,-0.7092833,-1.028664,-14.966825,4000
1451971309,-0.07312822,0.21315384,-0.012010224,4007,0,-0.49183914,0.48548886,-12.421437,4007
1452011309,-0.27999347,0.0064440477,-0.08088832,4006,0,-2.442433,0.49980667,-10.21131,4006
1452055316,-0.09058743,-0.05208233,-0.14270596,4013,0,-0.45470437,0.34592706,-8.0623455,4013
1452095302,-0.04600836,0.04854379,-0.14294255,4000,0,1.4216819,-0.40440714,-8.883148,4000
1452139302,0.10240525,0.21538642,-0.10867294,3994,0,-0.62436736,0.32698932,-8.941078,3994
1452179302,-0.15647201,-0.020516042,-0.15633239,3993,0,-1.1677917,1.1435019,-7.493233,3993
1452220079,0.50293887,0.13483669,0.14938663,4001,0,-0.7081807,-0.39889345,-13.307931,4001
1452264094,-0.07657881,0.052532442,-0.04986219,4016,0,-0.4020039,-1.1593889,-9.809731,4016
1452304078,0.044249095,0.090752214,0.0058116447,3993,0,-1.0385772,1.6466398,-10.924477,3993
1452348102,-0.09774166,-0.13997515,0.05845141,4000,0,4.132064,-1.4412388,-6.020521,4000
1452388102,0.27059427,0.057571903,0.115154505,4000,0,1.9370775,0.104187526,-7.4761477,4000
1452428920,0.029063623,0.028278034,0.07352442,4018,0,3.037727,2.0079288,-7.0090337,4018
1452468905,-0.020034561,0.21975216,-0.057672065,4003,0,0.99133337,-0.7748745,-10.537141,4003
1452512931,-0.13363358,0.04323045,-0.10094001,4028,0,0.6293572,-0.94931304,-6.7237825,4028
1452552909,-0.2043087,0.13734189,-0.0802858,4006,0,0.9005064,-0.024649799,-7.1600895,4006
1452596917,0.061209988,0.118635155,-0.009516716,4015,0,2.0587819,-0.04552986,-7.1134186,4015
1452637716,-0.21154259,0.13691145,-0.19074447,4000,0,4.103877,-1.6050861,-3.4543931,4000
1452681715,0.13172974,-0.090877384,0.09437764,3998,0,0.041456502,-1.3643433,-10.10641,3998
1452721717,-0.061108183,-0.14481948,-0.08380799,4004,0,2.0245142,-3.0507874,-8.551686,4004
1452765710,-0.40503797,-0.15049326,-0.1339195,3948,0,-1.6185509,0.03534371,-8.020381,3948
1452805678,-0.18022741,-0.07677049,0.0014301048,3993,0,-2.043683,-0.23937893,-9.522674,3993
1452849723,-0.17742255,0.15833782,-0.04355366,4038,0,-1.5080293,0.982686,-8.941189,4038
1452890503,-0.37590277,0.040100813,-0.21052396,4001,0,0.08881543,0.58974606,-6.336377,4001
1452930553,-0.27812615,-0.1482077,0.004917981,4044,0,0.23843582,0.6916647,-7.130821,4044
1452974502,-0.09796999,0.15381365,-0.1705527,3972,0,-0.11339197,-0.39130422,-7.5900664,3972
1453014512,-0.101566136,0.12228031,-0.18814492,4010,0,-0.5031587,-0.4461174,-8.683753,4010
1453054503,-0.32653284,-0.09848509,-0.11635419,3993,0,0.86733216,-0.52735454,-6.817234,3993
1453094502,0.07785771,0.18515664,-0.05248879,3993,0,0.1801591,-0.01786135,-12.555497,3993
1453139319,-0.08317858,0.10799956,-0.15903409,4009,0,-0.46921575,-1.7307386,-7.1693015,4009
1453179320,-0.28135407,-0.16879462,-0.09865693,4010,0,0.9791371,-1.7669948,-5.5030336,4010
1453223316,0.01188034,-0.15070799,-0.16142367,4006,0,-0.065323465,-1.989499,-8.923202,4006
1453263336,0.051874306,-0.2187485,-0.042761724,4019,0,1.598771,-1.6103058,-7.1791663,4019
1453307342,0.098042585,-0.028413158,0.025163962,4032,0,-1.2888322,-0.46402848,-11.524728,4032
1453348078,0.20030585,-0.15148081,-0.016021783,4000,0,-1.4750074,-1.6461267,-13.4598875,4000
1453392124,-0.2446988,0.08306048,-0.1956286,3997,0,-2.1951766,-1.7897767,-11.42657,3997
1453432124,-0.26151335,0.03057473,-0.110045955,4025,0,-1.9664831,-0.32446536,-8.390427,4025
1453476079,-0.07166959,-0.21473908,0.0989148,3955,0,-0.8120137,2.028851,-10.619752,3955
1453516088,0.019061191,-0.0024201614,-0.058972362,3934,0,0.7123954,-0.65249544,-10.909864,3934
1453560102,-0.10778985,-0.03635949,-0.13493027,3994,0,0.76643854,-0.82654715,-8.246002,3994
1453600912,0.02164359,-0.10877912,0.05700871,3984,0,-1.0874634,0.7175064,-10.785247,3984
1453640911,0.05489937,0.06823965,0.024591064,3955,0,-0.3105127,-1.228212,-13.52107,3955
1453684916,-0.21328302,0.12782276,-0.11216922,4006,0,0.088337,-0.70057905,-5.8628917,4006
1453724910,-0.238743,0.1618118,-0.14586504,4000,0,-0.300623,1.899757,-8.386678,4000
1453768923,0.14215823,0.077033944,0.08430322,3983,0,3.7631135,0.534606,-6.7792726,3983
1453809703,-0.19361526,0.08778776,-0.0403013,4000,0,3.8311973,-1.2439778,-4.0319247,4000
1453853713,0.23690549,-0.098100424,0.011040616,4004,0,-1.2073406,-1.9275045,-12.62408,4004
1453893703,-0.03801515,-0.16406085,-0.121790245,4000,0,2.7007215,-3.6387455,-9.625179,4000
1453937709,-0.23065129,-0.15406387,-0.14171873,4007,0,-0.64552057,0.021150583,-8.284241,4007
1453977678,-0.1680742,-0.049762774,-0.0932096,3983,0,-1.2327902,-1.1604563,-10.524375,3983
1454022502,-0.4153377,-0.1099842,-0.14998999,4000,0,0.31774828,0.51528436,-5.7347603,4000
1454066502,0.2347487,-0.094442844,0.07651068,3984,0,-0.88469404,0.3922801,-12.048939,3984
1454106509,0.070300974,0.18591051,-0.0069383984,4000,0,-1.4019928,0.46808407,-11.973024,4000
1454146502,-0.11815115,0.2485995,-0.08200128,3950,0,-0.7302496,0.62333906,-11.994686,3950
1454190503,0.1348922,0.0808303,0.046921223,4001,0,2.7299035,-0.24017692,-8.048119,4001
1454231307,0.22975016,0.04563597,0.10556683,4783,0,2.039625,-0.803007,-9.244939,4783
1454271327,0.075124495,0.10337734,0.04673154,4024,0,2.815231,0.35323706,-7.471019,4024
1454315302,-0.0025571787,-0.15394059,0.0748134,3993,0,0.9683508,-0.89177835,-10.217063,3993
1454355320,0.136173,0.04414037,0.02511243,4018,0,-1.0640608,-2.7664695,-12.858492,4018
1454395309,0.10958957,0.06551247,0.045655914,3978,0,0.84542567,-2.669522,-12.596912,3978
1454435316,0.073006324,0.21961065,0.13803788,3997,0,1.2861599,-0.052913327,-9.750027,3997
1454475316,-0.028455298,0.111095205,-0.15543343,4002,0,0.41569126,0.10317208,-6.6147323,4002
1454516078,0.08683392,0.023481743,-0.07076335,3960,0,1.4823186,-0.55230856,-7.3626795,3960
1454560078,-0.16870263,-0.2780853,-0.10306188,3999,0,2.375175,-2.3521612,-6.590205,3999
1454600085,0.042053178,-0.17646082,0.11624603,4006,0,-0.11773439,-0.70895183,-10.58882,4006
1454644080,-0.23346737,0.13509038,-0.043531585,3975,0,-0.7568767,-0.19132231,-11.801778,3975
1454684102,-0.014924108,0.20263042,0.077971235,3946,0,-0.30084917,0.89876115,-10.955348,3946
1454724920,-0.16909218,-0.011448176,-0.1122122,4018,0,0.53300875,2.160253,-8.44938,4018
1454764917,-0.26329783,-0.03463099,-0.1416647,3983,0,0.98722374,0.22438051,-7.9908543,3983
1454808902,-0.1415661,-0.12834173,-0.04164743,3993,0,2.175397,-0.4509998,-5.7324333,3993
1454848904,-0.15415658,-0.026498752,-0.16928703,3990,0,1.0991137,-0.58385015,-7.731291,3990
1454893710,-0.02094483,-0.10874856,0.024263993,4770,0,1.8081158,-0.07043009,-7.8365307,4770
1454933710,-0.1941234,-0.049572267,-0.042335477,4000,0,3.2742395,-1.4878309,-6.158507,4000
1454977710,0.2154385,0.039408453,0.014425043,4000,0,-2.4133751,-1.4983405,-12.834649,4000
1455017710,0.0628975,-0.24556743,0.089622214,3990,0,0.7264178,-1.5524089,-10.758758,3990
1455061716,-0.2008553,0.11274346,-0.14446035,4006,0,-2.784994,0.48547956,-11.878,4006
1455101710,-0.00012615629,0.29751876,-0.020749483,3993,0,-3.2508123,0.111344926,-15.483145,3993
1455145679,-0.1670677,-0.056246378,-0.11940064,4001,0,2.428787,1.9732777,-3.7437694,4001
1455186502,0.32594484,0.3291056,0.08370021,4000,0,0.81001323,0.87546897,-9.846788,4000
1455226515,0.29049423,0.2693325,0.040737517,4010,0,0.76325274,-0.1716496,-13.012662,4010
1455266515,0.18079223,0.16623136,0.07716541,4013,0,0.7958831,-0.148592,-9.201326,4013
1455310502,-0.0956847,-0.014131526,0.030813752,3992,0,-0.15238704,-1.4557054,-9.525277,3992
1455350504,0.092060454,0.3057529,-0.08295498,3985,0,-1.5801762,-1.315175,-12.553986,3985
1455391343,-0.10548915,0.23102148,-0.24224298,4026,0,1.0478096,-3.2404785,-7.649173,4026
1455435310,-0.09011686,-0.1440737,-0.060863685,3993,0,0.56488806,-1.0081522,-9.7195015,3993
1455475359,-0.12261488,-0.017765185,-0.116144866,4043,0,-0.024398668,-0.475911,-10.054274,4043
1455519310,-0.03922424,-0.12982924,0.18260768,4000,0,0.12616757,1.8734798,-11.335022,4000
1455559327,0.15106256,-0.03980094,0.061687287,3987,0,-2.087309,0.30988497,-14.554629,3987
1455603310,0.27100763,0.2967646,0.039240915,3958,0,0.9229817,-0.17255247,-9.598151,3958
1455644093,0.22943696,-0.032850016,0.0154841365,4015,0,3.6742635,0.40170348,-7.046564,4015
1455688092,0.12700798,-0.0769895,-0.12373258,4014,0,2.2582364,-3.502298,-9.041863,4014
1455732124,-0.12634133,-0.23152174,0.090522416,4039,0,-0.78261924,-0.23921657,-12.007959,4039
1455776078,-0.08288814,0.17116342,-0.14313744,3986,0,-1.6557391,-0.1248484,-10.944077,3986
1455816078,-0.03295642,-0.11433323,0.021245621,3954,0,0.8613599,-0.77474105,-7.6221275,3954
1455856910,0.16766016,-0.13487713,0.19230317,3980,0,-0.93944454,1.0926751,-11.167351,3980
1455900910,-0.054110527,0.06785494,0.013564131,4000,0,-2.4275951,0.8307382,-13.993467,4000
1455940910,-0.17336085,0.14911614,-0.18470575,3991,0,-3.4563863,-1.8652116,-12.253158,3991
1455984916,0.3698316,0.19849555,0.19723703,4006,0,0.5265482,0.818316,-14.092609,4006
1456025722,-0.3481197,-0.15752307,-0.07176186,4005,0,1.0639098,1.7398704,-9.610082,4005
1456069703,0.056936447,-0.027002824,-0.008398505,3992,0,3.2868838,-1.5185091,-8.140317,3992
1456109703,-0.0045235693,-0.09593657,0.073188156,4000,0,-0.029455714,1.0865449,-9.131902,4000
1456153748,-0.058393247,0.1395377,-0.039030753,4039,0,1.1252154,-0.6728092,-7.772515,4039
1456193702,0.08449393,0.24237189,-0.093654044,3994,0,2.056589,-0.15629062,-7.347658,3994
1456237709,0.20911075,0.13755062,0.12530668,3999,0,1.411961,-0.35002267,-10.630071,3999
1456278479,0.06312896,-0.06625288,-0.00091952697,3975,0,2.4025671,-2.587126,-9.808303,3975
1456318509,0.120335646,-0.00016439127,0.034889054,4000,0,2.0172186,-2.3244278,-8.7641535,4000
1456358508,0.045561682,-0.063482255,-0.06957868,4000,0,2.263304,-3.5382597,-7.9419026,4000
1456402530,0.12470594,0.057380285,0.052530304,4028,0,-1.3341163,-1.7201824,-14.445281,4028
1456442502,-0.017853387,0.117004566,-0.0577004,4000,0,-0.12583436,-0.92605513,-12.586698,4000
1456486502,0.102166496,-0.049554814,0.18831827,4000,0,0.64784795,-0.05878928,-11.352354,4000
1456530534,-0.30834258,-0.03281018,-0.14970523,4024,0,0.59490675,-1.9930224,-10.658303,4024
1456571345,-0.27528447,0.11405896,0.06719381,4016,0,-0.10468848,0.26431304,-11.742369,4016
1456615303,0.011853786,0.11588991,-0.10731504,3980,0,1.8997368,-0.3751913,-7.899742,3980
1456655303,-0.27450547,0.04961871,-0.16225566,3970,0,1.6327152,-0.5323617,-5.0402727,3970
1456700102,0.121360764,-0.100457035,0.07753642,4800,0,0.9383769,-1.2664324,-10.644068,4800
1456740103,0.065922715,0.018544149,0.042071566,4000,0,-0.21344723,-0.57412404,-10.801279,4000
1456784078,0.03670881,-0.07562634,0.13854377,3936,0,1.2320901,-0.607409,-9.694928,3936
1456824078,0.13022672,0.15063375,-0.061321594,3962,0,1.29243,-2.573558,-10.994913,3962
1456868085,-0.30812323,0.028092874,-0.109224096,3993,0,1.3360832,-0.58984286,-8.580659,3993
1456908078,-0.09231695,-0.13616623,-0.046045754,4000,0,1.914778,-1.0620068,-6.0793977,4000
1456952125,0.01322462,0.021349238,-0.027310181,4000,0,-1.6589149,-1.3860534,-12.64974,4000
1456992902,0.076837115,0.30900496,0.1482915,4000,0,-1.2944562,-0.64855576,-15.12161,4000
1457032913,-0.080220856,-0.18226193,0.07483171,3941,0,-2.137287,-0.0081311315,-10.830182,3941
1457076909,-0.12041085,-0.113957845,-0.11296025,4007,0,1.0550423,0.8523663,-9.093782,4007
1457116909,0.3308187,0.25137395,0.11404756,4000,0,0.46653846,-0.38889092,-13.577194,4000
1457160903,0.035622284,0.095273025,-0.14193207,3991,0,1.1362619,-0.45174125,-7.4646378,3991
1457201703,-0.24556427,-0.08976642,-0.22446378,3994,0,1.1831673,-0.23437363,-6.903834,3994
1457241702,0.1870857,0.1160467,0.043839358,3992,0,-1.7034345,-0.45417038,-14.423853,3992
1457285702,-0.112825274,0.18775868,-0.07402581,3999,0,1.3566347,-0.27518904,-9.403335,3999
1457329710,0.05469835,0.09010033,-0.08583229,4008,0,1.702717,-0.0056051463,-6.978028,4008
1457369703,-0.14241174,-0.028871845,-0.12325887,4000,0,1.9280508,0.2605299,-7.5758715,4000
1457413711,0.21241128,0.08741252,0.14555328,4008,0,2.8717804,-0.58771735,-9.197338,4008
1457454509,0.12418786,0.010068436,0.015354662,4831,0,0.37767172,-0.76275164,-10.664941,4831
1457494509,0.071000375,-0.11838414,-0.098107226,4007,0,0.7413771,-0.100082494,-8.993839,4007
1457534502,0.24713261,0.17455436,0.026054591,4000,0,-0.8993758,-1.5259845,-14.286656,4000
1457578502,-0.17238103,0.18753295,-0.1344328,4000,0,0.8271373,0.15851611,-7.5624537,4000
1457618509,-0.46599355,0.012113744,-0.12302341,4000,0,0.3997207,1.2859821,-6.7161427,4000
1457662504,0.21610181,0.16214861,0.07319311,3995,0,2.6183774,0.2837343,-9.365113,3995
1457703302,-0.039004564,0.1293684,-0.088898994,3993,0,3.8334718,-1.5695474,-6.0395455,3993
1457743320,-0.07507647,0.016954903,0.028114956,4018,0,2.5454547,0.41081402,-7.897727,4018
1457787315,0.008018645,-0.095197864,-0.05788276,4006,0,0.6303718,-0.019972129,-8.788426,4006
1457827329,-0.114298694,0.0334446,-0.22240835,4020,0,1.0017447,-1.9825699,-8.72732,4020
1457871302,0.110248804,0.1073639,0.07618528,3999,0,-0.24580288,-0.8549332,-11.942555,3999
1457912113,0.10884292,0.11436738,0.031244347,4811,0,0.4882869,0.8612938,-10.293642,4811
1457952148,0.26226962,0.27832532,-0.1710866,4067,0,0.71014065,-1.2245809,-10.32338,4067
1457992124,0.1613015,0.33300525,-0.0057637393,4039,0,1.2944748,-0.21725999,-10.675987,4039
1458036078,-0.066417255,0.03988962,-0.028147405,3993,0,2.3347945,1.6097608,-5.430631,3993
1458076078,-0.3664884,-0.18102962,-0.14073448,3953,0,2.601167,0.24030949,-5.2267814,3953
1458120915,-0.08919065,-0.17249283,-0.00885499,4837,0,1.8866951,-1.7340243,-6.93348,4837
1458164902,-0.069713116,-0.12828468,-0.014354845,3994,0,-0.32709783,-0.37217537,-9.421049,3994
1458204910,0.29166782,0.16421859,0.18052614,4001,0,0.19654208,-0.91951895,-12.217045,4001
1458244912,0.38070625,0.38625327,0.2095723,3992,0,-0.9491371,-0.5583671,-16.00523,3992
1458288913,-0.07793544,0.0660353,-0.1058189,4004,0,3.460208,-0.06308856,-7.5566387,4004
1458332902,-0.02637778,-0.027493823,0.007812671,4000,0,2.011021,-0.18643817,-6.3190084,4000
1458373711,0.24546523,0.15291215,0.10824889,4001,0,1.0975316,-0.12530537,-10.858557,4001
1458417710,-0.27506015,-0.0321396,-0.05776138,4000,0,2.5092723,-0.30170485,-5.3455105,4000
1458457710,0.44501132,0.09594131,0.21586546,4001,0,0.703482,-1.5107567,-13.476225,4001
1458501716,-0.20767239,-0.22634602,0.02275803,4006,0,1.405647,0.4040979,-8.26063,4006
1458541716,0.0069808154,-0.16475376,0.006089989,4006,0,2.0358608,0.18816352,-6.4112406,4006
1458586478,0.23942374,0.0015458899,0.22541405,4768,0,0.18564324,1.5232425,-7.044361,4768
1458626510,0.5698181,0.14796473,0.35980454,4000,0,-2.5285213,1.5438968,-16.987194,4000
