timestamp,timestamp_sample,control[0],control[1],control[2],control[3],control[4],control[5],control[6],control[7]
1430857864,1430857713,0.0011889326,0.01061759,-0.00010189247,0.48512834,0.0,0.0,0.0,-1.0
1430985947,1430985755,0.0005707512,0.010308207,-0.00023562023,0.5114181,0.0,0.0,0.0,-1.0
1431025880,1431025712,0.00067430316,0.010112584,-2.8470698e-05,0.5193548,0.0,0.0,0.0,-1.0
1431069899,1431069702,0.0007885423,0.010153738,0.0007457421,0.5284216,0.0,0.0,0.0,-1.0
1431109853,1431109710,0.00083716924,0.010807536,0.0009296076,0.53661716,0.0,0.0,0.0,-1.0
1431150690,1431150503,-0.00074723933,0.010821844,0.0016831183,0.54474956,0.0,0.0,0.0,-1.0
1431194735,1431194535,0.00017096332,0.010148499,-0.00042041013,0.55446,0.0,0.0,0.0,-1.0
1431234705,1431234523,-0.0030078082,0.011063576,-0.0014354434,0.561436,0.0,0.0,0.0,-1.0
1431278684,1431278502,0.0006310358,0.0076225763,0.003571351,0.57057774,0.0,0.0,0.0,-1.0
1431318688,1431318505,-0.010102908,0.009467318,-0.00043102953,0.5809777,0.0,0.0,0.0,-1.0
1431363413,1431363278,0.007502813,0.011152362,0.014570301,0.58971494,0.0,0.0,0.0,-1.0
1431403431,1431403280,-0.006438586,0.013428867,0.003813905,0.59763056,0.0,0.0,0.0,-1.0
1431447423,1431447278,-0.0040703374,0.022313619,0.004398119,0.60641456,0.0,0.0,0.0,-1.0
1431487431,1431487279,-0.0009815309,0.011407191,0.0002634065,0.61657387,0.0,0.0,0.0,-1.0
1431531467,1431531325,0.0024775367,0.012272681,-0.003778946,0.62446755,0.0,0.0,0.0,-1.0
1431571478,1431571326,-0.0017124348,0.0066303583,-0.00081307127,0.63480556,0.0,0.0,0.0,-1.0
1431612313,1431612145,-0.0038105715,0.0103205815,-0.0041306084,0.6426328,0.0,0.0,0.0,-1.0
1431652271,1431652125,-0.005771567,0.0076936292,-0.0041978755,0.6521013,0.0,0.0,0.0,-1.0
1431696254,1431696109,-0.0054831514,0.009200071,-0.002410507,0.6608468,0.0,0.0,0.0,-1.0
1431736243,1431736104,-0.0037228845,0.011651578,-0.0039132154,0.67173976,0.0,0.0,0.0,-1.0
1431780273,1431780126,-0.002909887,0.012096861,-0.00014969021,0.6801548,0.0,0.0,0.0,-1.0
1431820273,1431820122,-0.0015484436,0.0141563285,-0.00026010175,0.690143,0.0,0.0,0.0,-1.0
1431869045,1431868903,-0.0012248252,0.0045243213,-0.003714753,0.69741774,0.0,0.0,0.0,-1.0
1431913104,1431912916,0.0007971361,-0.027261248,-0.012421725,0.70127434,0.0,0.0,0.0,-1.0
1431953097,1431952909,0.0075136367,-0.046788715,-0.014145153,0.6987259,0.0,0.0,0.0,-1.0
1431997100,1431996910,0.010183628,-0.060694955,-0.015678583,0.6970971,0.0,0.0,0.0,-1.0
1432037856,1432037682,0.013784095,-0.049190473,-0.026673388,0.6945728,0.0,0.0,0.0,-1.0
1432077882,1432077702,0.013619887,-0.024042703,-0.0332505,0.6809846,0.0,0.0,0.0,-1.0
1432121908,1432121702,0.009802954,-0.00691739,-0.022284431,0.6558768,0.0,0.0,0.0,-1.0
1432162001,1432161702,0.019036032,-0.013964255,-0.02855055,0.62400675,0.0,0.0,0.0,-1.0
1432205892,1432205702,0.005155,-0.009293759,-0.040203925,0.59012806,0.0,0.0,0.0,-1.0
1432245903,1432245702,0.015686972,0.0024029366,-0.044254877,0.5614419,0.0,0.0,0.0,-1.0
1432289912,1432289702,-0.00950986,-0.0014824136,-0.039609034,0.53463376,0.0,0.0,0.0,-1.0
1432330728,1432330502,-0.015642203,-0.020230396,-0.043091428,0.52307665,0.0,0.0,0.0,-1.0
1432370706,1432370502,-0.00011852756,-0.021705342,-0.049577568,0.509774,0.0,0.0,0.0,-1.0
1432410715,1432410502,0.0045639905,-0.0035736933,-0.051571865,0.50050557,0.0,0.0,0.0,-1.0
1432454689,1432454502,0.014260057,-0.003491505,-0.05101546,0.50017303,0.0,0.0,0.0,-1.0
1432494684,1432494503,0.033984896,-0.0042914953,-0.054243073,0.49957275,0.0,0.0,0.0,-1.0
1432539454,1432539278,0.048371248,0.0035245123,-0.041427497,0.49997398,0.0,0.0,0.0,-1.0
1432579449,1432579285,0.053100895,0.005348315,-0.043808293,0.50105035,0.0,0.0,0.0,-1.0
1432623422,1432623279,0.05217771,0.011088876,-0.042198684,0.50035673,0.0,0.0,0.0,-1.0
1432663415,1432663278,0.05392566,0.015865054,-0.045295026,0.5031904,0.0,0.0,0.0,-1.0
1432704254,1432704102,0.059074186,0.020923877,-0.04098485,0.50440025,0.0,0.0,0.0,-1.0
1432744250,1432744108,0.04248784,0.026478346,-0.04759105,0.50410306,0.0,0.0,0.0,-1.0
1432788279,1432788102,0.043347437,0.030311877,-0.041231412,0.5072422,0.0,0.0,0.0,-1.0
1432828292,1432828109,0.045020904,0.030115407,-0.0474319,0.50746953,0.0,0.0,0.0,-1.0
1432872301,1432872148,0.038219552,0.029082743,-0.04074984,0.50962275,0.0,0.0,0.0,-1.0
1432912289,1432912148,0.03367209,0.026364515,-0.04362928,0.5104695,0.0,0.0,0.0,-1.0
1432953047,1432952910,0.033357035,0.026075853,-0.04219366,0.50843686,0.0,0.0,0.0,-1.0
1432997135,1432996910,0.042077143,0.024390146,-0.04700407,0.5095634,0.0,0.0,0.0,-1.0
1433037122,1433036910,0.032892298,0.026880458,-0.045642547,0.5089922,0.0,0.0,0.0,-1.0
1433081059,1433080916,0.02487925,0.02225378,-0.048457347,0.5107498,0.0,0.0,0.0,-1.0
1433125102,1433124910,0.032768056,0.015550551,-0.041959904,0.5119448,0.0,0.0,0.0,-1.0
1433169873,1433169678,0.034094043,0.013504678,-0.04631839,0.5157179,0.0,0.0,0.0,-1.0
1433213870,1433213680,0.032890785,0.013410831,-0.04290357,0.5126581,0.0,0.0,0.0,-1.0
1433253949,1433253742,0.035951234,0.011950874,-0.04197056,0.5149599,0.0,0.0,0.0,-1.0
1433293890,1433293751,0.039605893,0.010238441,-0.04458872,0.5164471,0.0,0.0,0.0,-1.0
1433337894,1433337716,0.039773714,0.009953265,-0.044844408,0.5183455,0.0,0.0,0.0,-1.0
1433381905,1433381738,0.037432022,0.009567807,-0.043019146,0.51629514,0.0,0.0,0.0,-1.0
1433421996,1433421730,0.04262605,0.005812124,-0.04215329,0.51863086,0.0,0.0,0.0,-1.0
1433466699,1433466503,0.042892173,0.007133891,-0.037199814,0.5181638,0.0,0.0,0.0,-1.0
1433510669,1433510508,0.031236798,0.0070045567,-0.042210154,0.5217713,0.0,0.0,0.0,-1.0
1433554707,1433554509,0.03860169,0.0073837866,-0.042385846,0.5221797,0.0,0.0,0.0,-1.0
1433594711,1433594509,0.035371054,0.008442678,-0.036929823,0.5250802,0.0,0.0,0.0,-1.0
1433634705,1433634509,0.033865504,0.008847067,-0.035280973,0.5224911,0.0,0.0,0.0,-1.0
1433679450,1433679302,0.045183726,0.014090956,-0.03872373,0.52373487,0.0,0.0,0.0,-1.0
1433719443,1433719295,0.048484527,0.01952166,-0.03711365,0.5226746,0.0,0.0,0.0,-1.0
1433763458,1433763278,0.05080148,0.023246795,-0.045563824,0.525097,0.0,0.0,0.0,-1.0
1433803504,1433803312,0.051542982,0.014982529,-0.049520437,0.5272582,0.0,0.0,0.0,-1.0
1433847437,1433847278,0.047137145,0.012256353,-0.044870466,0.5252093,0.0,0.0,0.0,-1.0
1433888248,1433888102,0.049968917,0.009962262,-0.051008373,0.5248861,0.0,0.0,0.0,-1.0
1433932301,1433932116,0.054725196,0.005084348,-0.0518602,0.5219405,0.0,0.0,0.0,-1.0
1433972340,1433972155,0.051292006,0.006256666,-0.0523839,0.52122927,0.0,0.0,0.0,-1.0
1434016299,1434016145,0.041429635,0.001678204,-0.05158387,0.522087,0.0,0.0,0.0,-1.0
1434056261,1434056111,0.04578641,0.005842316,-0.046240516,0.5195252,0.0,0.0,0.0,-1.0
1434097101,1434096916,0.042212233,0.00816666,-0.0490481,0.5232206,0.0,0.0,0.0,-1.0
1434141129,1434140903,0.043113336,0.004494455,-0.04926665,0.521968,0.0,0.0,0.0,-1.0
1434181103,1434180910,0.042328317,0.013183946,-0.047757596,0.5194683,0.0,0.0,0.0,-1.0
1434221138,1434220911,0.048234336,0.009665974,-0.050857596,0.52409095,0.0,0.0,0.0,-1.0
1434265054,1434264909,0.0439795,-0.0005700544,-0.042167187,0.5215922,0.0,0.0,0.0,-1.0
1434305871,1434305687,0.04266783,-0.00140248,-0.036433175,0.5255061,0.0,0.0,0.0,-1.0
1434345863,1434345678,0.054342914,0.0018158217,-0.037574135,0.52509046,0.0,0.0,0.0,-1.0
1434389924,1434389702,0.06807626,0.0030819885,-0.035272628,0.52351946,0.0,0.0,0.0,-1.0
1434429931,1434429702,0.06166427,0.0027179008,-0.03576326,0.5249248,0.0,0.0,0.0,-1.0
1434473891,1434473702,0.050365273,0.001254034,-0.036544684,0.52509046,0.0,0.0,0.0,-1.0
1434513891,1434513702,0.054040942,0.0035120258,-0.033714406,0.52488965,0.0,0.0,0.0,-1.0
1434557916,1434557703,0.04576501,0.006604421,-0.042849828,0.53024054,0.0,0.0,0.0,-1.0
1434598723,1434598509,0.050479442,0.010794171,-0.03436113,0.5266027,0.0,0.0,0.0,-1.0
1434642648,1434642507,0.050319128,0.013484384,-0.034107972,0.5265529,0.0,0.0,0.0,-1.0
1434682647,1434682509,0.057520583,0.016087571,-0.03849095,0.525796,0.0,0.0,0.0,-1.0
1434726683,1434726503,0.06213486,0.01633157,-0.03389475,0.5247816,0.0,0.0,0.0,-1.0
1434766710,1434766502,0.06593038,0.02026245,-0.03162073,0.52470714,0.0,0.0,0.0,-1.0
1434807537,1434807310,0.060509082,0.025821373,-0.030231982,0.5229716,0.0,0.0,0.0,-1.0
1434851471,1434851312,0.05581658,0.025655594,-0.03224014,0.5184146,0.0,0.0,0.0,-1.0
1434891421,1434891278,0.046837177,0.02532814,-0.031772893,0.5214952,0.0,0.0,0.0,-1.0
1434935452,1434935278,0.046348162,0.03327405,-0.031363286,0.5166397,0.0,0.0,0.0,-1.0
1434975451,1434975278,0.04248482,0.02554674,-0.037472546,0.5205491,0.0,0.0,0.0,-1.0
1435015459,1435015279,0.046445426,0.02185196,-0.035594884,0.52172923,0.0,0.0,0.0,-1.0
1435056280,1435056102,0.038667206,0.021079224,-0.041367,0.5203219,0.0,0.0,0.0,-1.0
1435096287,1435096108,0.04760518,0.017980853,-0.04410863,0.52052385,0.0,0.0,0.0,-1.0
1435140252,1435140103,0.047078624,0.016109293,-0.037517965,0.52208596,0.0,0.0,0.0,-1.0
1435180256,1435180102,0.051598016,0.017070668,-0.042317297,0.5201835,0.0,0.0,0.0,-1.0
1435220312,1435220102,0.050661463,0.021840086,-0.037048496,0.51877624,0.0,0.0,0.0,-1.0
1435265070,1435264909,0.058336124,0.014513895,-0.048394848,0.52650625,0.0,0.0,0.0,-1.0
1435305092,1435304910,0.060030803,0.018103544,-0.047197998,0.5242532,0.0,0.0,0.0,-1.0
1435349050,1435348916,0.046245676,0.019693796,-0.04605426,0.5284895,0.0,0.0,0.0,-1.0
1435389051,1435388911,0.048467256,0.018770376,-0.043497976,0.52505225,0.0,0.0,0.0,-1.0
1435433827,1435433687,0.04706477,0.021072645,-0.049553912,0.52683306,0.0,0.0,0.0,-1.0
1435473850,1435473678,0.044744,0.020583602,-0.051962897,0.52915967,0.0,0.0,0.0,-1.0
1435517820,1435517681,0.04083275,0.01843043,-0.048847906,0.5284977,0.0,0.0,0.0,-1.0
1435557841,1435557710,0.037460156,0.012797307,-0.04598496,0.5296983,0.0,0.0,0.0,-1.0
1435601905,1435601717,0.0452556,0.0185333,-0.052432448,0.52830964,0.0,0.0,0.0,-1.0
1435641908,1435641716,0.047843363,0.0181097,-0.047876175,0.52820474,0.0,0.0,0.0,-1.0
1435681903,1435681716,0.045820717,0.016490582,-0.05140958,0.5274339,0.0,0.0,0.0,-1.0
1435725851,1435725710,0.038645025,0.01578448,-0.04887473,0.52951723,0.0,0.0,0.0,-1.0
1435766660,1435766502,0.03840666,0.019252762,-0.0529525,0.5276273,0.0,0.0,0.0,-1.0
1435810707,1435810557,0.0457313,0.019755717,-0.048408147,0.52384126,0.0,0.0,0.0,-1.0
1435850715,1435850503,0.040700432,0.019653358,-0.046292454,0.5272566,0.0,0.0,0.0,-1.0
1435894659,1435894508,0.034088667,0.013132008,-0.052111074,0.5294004,0.0,0.0,0.0,-1.0
1435935478,1435935302,0.037038174,0.014494612,-0.04869336,0.5278768,0.0,0.0,0.0,-1.0
1435979537,1435979348,0.030849181,0.015334713,-0.049684025,0.53165174,0.0,0.0,0.0,-1.0
1436019502,1436019310,0.034627795,0.017173585,-0.050931703,0.5303444,0.0,0.0,0.0,-1.0
1436063476,1436063278,0.040160708,0.021590466,-0.05285544,0.5333935,0.0,0.0,0.0,-1.0
1436103463,1436103282,0.040074576,0.024477575,-0.052774586,0.53311366,0.0,0.0,0.0,-1.0
1436148270,1436148109,0.035499636,0.0254291,-0.05540221,0.5341646,0.0,0.0,0.0,-1.0
1436188265,1436188109,0.03727619,0.03085068,-0.055762764,0.5343438,0.0,0.0,0.0,-1.0
1436228341,1436228145,0.040187895,0.03477254,-0.059287265,0.53539884,0.0,0.0,0.0,-1.0
1436268327,1436268130,0.034842633,0.03440546,-0.055168416,0.53344256,0.0,0.0,0.0,-1.0
1436312342,1436312149,0.031970598,0.03609241,-0.05762928,0.5329638,0.0,0.0,0.0,-1.0
1436356264,1436356114,0.03404563,0.034452427,-0.0578154,0.53459567,0.0,0.0,0.0,-1.0
1436397051,1436396909,0.029443523,0.031572696,-0.058881108,0.5331145,0.0,0.0,0.0,-1.0
1436441095,1436440909,0.03402873,0.030880075,-0.061042257,0.5302596,0.0,0.0,0.0,-1.0
1436481075,1436480909,0.036345318,0.03060767,-0.0635241,0.5312187,0.0,0.0,0.0,-1.0
1436525045,1436524902,0.037598684,0.033294756,-0.06658571,0.52712566,0.0,0.0,0.0,-1.0
1436565048,1436564906,0.040237237,0.034382444,-0.06724953,0.52650076,0.0,0.0,0.0,-1.0
1436609849,1436609679,0.034065768,0.028832968,-0.0631274,0.5294135,0.0,0.0,0.0,-1.0
1436653836,1436653686,0.038935762,0.029150067,-0.06788604,0.52752227,0.0,0.0,0.0,-1.0
1436697898,1436697679,0.032905266,0.024350053,-0.063378744,0.52633053,0.0,0.0,0.0,-1.0
1436741869,1436741702,0.03577223,0.021095263,-0.06736523,0.5301026,0.0,0.0,0.0,-1.0
1436781876,1436781702,0.033562277,0.016980294,-0.06309229,0.5289872,0.0,0.0,0.0,-1.0
1436825928,1436825710,0.036836833,0.013630341,-0.058247223,0.5278511,0.0,0.0,0.0,-1.0
1436865936,1436865703,0.037796427,0.012011561,-0.05458856,0.5264769,0.0,0.0,0.0,-1.0
1436910640,1436910502,0.03403517,0.01506725,-0.055403933,0.53049016,0.0,0.0,0.0,-1.0
1436950647,1436950509,0.03202846,0.020410184,-0.050741453,0.5280383,0.0,0.0,0.0,-1.0
1436994694,1436994503,0.02418151,0.022382097,-0.04835402,0.52872574,0.0,0.0,0.0,-1.0
1437034743,1437034503,0.02766032,0.026038455,-0.045073647,0.5321748,0.0,0.0,0.0,-1.0
1437079471,1437079319,0.025260393,0.025390953,-0.04410777,0.5326,0.0,0.0,0.0,-1.0
1437119469,1437119319,0.030812608,0.033000115,-0.044292573,0.5379845,0.0,0.0,0.0,-1.0
1437159456,1437159310,0.030852448,0.035113376,-0.043888718,0.5389966,0.0,0.0,0.0,-1.0
1437203477,1437203278,0.03121148,0.03777366,-0.044074427,0.5376793,0.0,0.0,0.0,-1.0
1437243476,1437243278,0.033033356,0.040839072,-0.042089075,0.5367871,0.0,0.0,0.0,-1.0
1437287426,1437287278,0.039678544,0.04192887,-0.042263582,0.5380814,0.0,0.0,0.0,-1.0
1437328254,1437328102,0.038428504,0.044506706,-0.04171399,0.53700733,0.0,0.0,0.0,-1.0
1437372291,1437372130,0.0375913,0.04194538,-0.039774615,0.53822696,0.0,0.0,0.0,-1.0
1437412308,1437412142,0.030523278,0.04138676,-0.039059196,0.5349194,0.0,0.0,0.0,-1.0
1437456248,1437456102,0.03458249,0.04261188,-0.036723755,0.5336342,0.0,0.0,0.0,-1.0
1437496248,1437496102,0.032996267,0.038883105,-0.039743178,0.5348741,0.0,0.0,0.0,-1.0
1437541049,1437540917,0.035718612,0.036596388,-0.041117173,0.5343862,0.0,0.0,0.0,-1.0
1437581049,1437580914,0.030043134,0.03455516,-0.041646536,0.5313541,0.0,0.0,0.0,-1.0
1437625172,1437624963,0.032054946,0.023912143,-0.04386143,0.5322615,0.0,0.0,0.0,-1.0
1437669101,1437668910,0.029192345,0.01675225,-0.0422993,0.5349337,0.0,0.0,0.0,-1.0
1437709112,1437708957,0.034199294,0.018420808,-0.04395529,0.53375745,0.0,0.0,0.0,-1.0
1437749109,1437748958,0.028376067,0.014891318,-0.045740202,0.5349105,0.0,0.0,0.0,-1.0
1437789875,1437789682,0.031929,0.016846722,-0.049079023,0.53418934,0.0,0.0,0.0,-1.0
1437829863,1437829727,0.031990267,0.016750785,-0.05199048,0.5356402,0.0,0.0,0.0,-1.0
1437873910,1437873696,0.026277106,0.016538167,-0.048231266,0.5351504,0.0,0.0,0.0,-1.0
1437917869,1437917702,0.03131217,0.01707426,-0.051191118,0.53432703,0.0,0.0,0.0,-1.0
1437957906,1437957728,0.036686324,0.016319908,-0.052124698,0.5354358,0.0,0.0,0.0,-1.0
1438001922,1438001702,0.03703406,0.01818227,-0.059674464,0.5338187,0.0,0.0,0.0,-1.0
1438042753,1438042510,0.04544866,0.017602291,-0.057005506,0.53383327,0.0,0.0,0.0,-1.0
1438082719,1438082510,0.046499405,0.017258773,-0.05742722,0.5331363,0.0,0.0,0.0,-1.0
1438126719,1438126525,0.036820367,0.011085024,-0.0610628,0.5365079,0.0,0.0,0.0,-1.0
1438170694,1438170516,0.050802976,0.0074248333,-0.056156468,0.5359635,0.0,0.0,0.0,-1.0
1438210739,1438210516,0.05236157,0.005880009,-0.055155013,0.53282595,0.0,0.0,0.0,-1.0
1438251518,1438251304,0.049798016,0.0040341574,-0.059837334,0.5317877,0.0,0.0,0.0,-1.0
1438295447,1438295302,0.04189734,0.0046014753,-0.05770898,0.5341271,0.0,0.0,0.0,-1.0
1438335440,1438335309,0.04201398,0.0019086365,-0.062777415,0.53663087,0.0,0.0,0.0,-1.0
1438379497,1438379339,0.04371185,0.0046268604,-0.05467918,0.53332746,0.0,0.0,0.0,-1.0
1438420297,1438420102,0.039553378,0.0043370337,-0.052908488,0.5324433,0.0,0.0,0.0,-1.0
1438464244,1438464103,0.03628065,0.0027368427,-0.051479716,0.5311788,0.0,0.0,0.0,-1.0
1438504244,1438504102,0.036190048,0.003874952,-0.051221672,0.53383934,0.0,0.0,0.0,-1.0
1438548275,1438548102,0.046024233,0.0058340575,-0.048957366,0.5337945,0.0,0.0,0.0,-1.0
1438588282,1438588103,0.049659748,0.007961804,-0.049120523,0.5332736,0.0,0.0,0.0,-1.0
1438632254,1438632110,0.044031493,0.008961288,-0.055092745,0.53815067,0.0,0.0,0.0,-1.0
1438673054,1438672909,0.045680776,0.011514168,-0.052057274,0.533715,0.0,0.0,0.0,-1.0
1438717120,1438716910,0.045319483,0.014145298,-0.049979277,0.5319086,0.0,0.0,0.0,-1.0
1438761063,1438760903,0.054234277,0.011972277,-0.050378554,0.53375924,0.0,0.0,0.0,-1.0
1438801052,1438800910,0.04579079,0.009786666,-0.052900456,0.53171366,0.0,0.0,0.0,-1.0
1438841045,1438840902,0.04521705,0.00979231,-0.05579451,0.53518885,0.0,0.0,0.0,-1.0
1438881864,1438881679,0.038977016,0.012547439,-0.047273435,0.5338929,0.0,0.0,0.0,-1.0
1438921826,1438921687,0.043405406,0.016098753,-0.04984797,0.53588206,0.0,0.0,0.0,-1.0
1438965891,1438965678,0.04265919,0.016748382,-0.05633737,0.53505355,0.0,0.0,0.0,-1.0
1439005850,1439005686,0.044508565,0.018970879,-0.053229023,0.5335811,0.0,0.0,0.0,-1.0
1439049872,1439049678,0.038650084,0.02280979,-0.049158756,0.5346595,0.0,0.0,0.0,-1.0
1439089851,1439089710,0.034312706,0.021724593,-0.047633752,0.5363816,0.0,0.0,0.0,-1.0
1439129845,1439129709,0.03679016,0.029160287,-0.050885253,0.5356331,0.0,0.0,0.0,-1.0
1439170662,1439170513,0.03799084,0.03162272,-0.055954058,0.5362762,0.0,0.0,0.0,-1.0
1439210658,1439210502,0.040053938,0.029500209,-0.050980844,0.53298265,0.0,0.0,0.0,-1.0
1439254728,1439254530,0.035775743,0.027369231,-0.04484548,0.53156394,0.0,0.0,0.0,-1.0
1439294694,1439294502,0.035426304,0.025957137,-0.044290885,0.53394705,0.0,0.0,0.0,-1.0
1439339507,1439339316,0.038653027,0.024479285,-0.043482922,0.5368242,0.0,0.0,0.0,-1.0
1439379475,1439379310,0.032867245,0.023714049,-0.04434488,0.537224,0.0,0.0,0.0,-1.0
1439423542,1439423310,0.03513047,0.022838196,-0.042065732,0.5360126,0.0,0.0,0.0,-1.0
1439463538,1439463316,0.030887783,0.017096119,-0.040877476,0.53538084,0.0,0.0,0.0,-1.0
1439507496,1439507310,0.03532111,0.014097612,-0.0395421,0.53653765,0.0,0.0,0.0,-1.0
1439547463,1439547278,0.041740295,0.011236471,-0.037624698,0.5375397,0.0,0.0,0.0,-1.0
1439588251,1439588102,0.0368762,0.012706931,-0.03755911,0.53741854,0.0,0.0,0.0,-1.0
1439632348,1439632149,0.044393882,0.01686503,-0.034537874,0.53700113,0.0,0.0,0.0,-1.0
1439676256,1439676102,0.038161248,0.015711844,-0.03330431,0.537587,0.0,0.0,0.0,-1.0
1439716247,1439716102,0.042259548,0.017170707,-0.03224143,0.5385836,0.0,0.0,0.0,-1.0
1439760294,1439760108,0.037646305,0.018945439,-0.03110477,0.53904957,0.0,0.0,0.0,-1.0
1439800300,1439800103,0.03805334,0.02244998,-0.030780638,0.5416619,0.0,0.0,0.0,-1.0
1439841108,1439840910,0.032317482,0.025613507,-0.028397078,0.54093605,0.0,0.0,0.0,-1.0
1439881100,1439880910,0.03127954,0.025238087,-0.028722761,0.54398674,0.0,0.0,0.0,-1.0
1439921111,1439920911,0.03095137,0.025265146,-0.029736906,0.5432055,0.0,0.0,0.0,-1.0
1439965089,1439964944,0.028755853,0.024215393,-0.028303413,0.5426593,0.0,0.0,0.0,-1.0
1440005049,1440004910,0.036575027,0.024501665,-0.030553646,0.54337263,0.0,0.0,0.0,-1.0
1440049860,1440049679,0.031455968,0.025065022,-0.029445194,0.5442227,0.0,0.0,0.0,-1.0
1440089875,1440089685,0.032251418,0.027432086,-0.027407153,0.5439324,0.0,0.0,0.0,-1.0
1440133848,1440133690,0.031097265,0.028799761,-0.030903928,0.54601365,0.0,0.0,0.0,-1.0
1440173824,1440173678,0.03243285,0.03281627,-0.02894115,0.54260576,0.0,0.0,0.0,-1.0
1440217889,1440217710,0.02769632,0.031557653,-0.028831635,0.5425959,0.0,0.0,0.0,-1.0
1440257887,1440257717,0.030184204,0.031051148,-0.033280708,0.54552275,0.0,0.0,0.0,-1.0
1440302678,1440302510,0.027571725,0.033501383,-0.03490161,0.5451521,0.0,0.0,0.0,-1.0
1440342646,1440342510,0.028957346,0.02951309,-0.03426449,0.5428304,0.0,0.0,0.0,-1.0
1440386697,1440386531,0.027143743,0.027433896,-0.035943057,0.53973883,0.0,0.0,0.0,-1.0
1440426690,1440426509,0.03258658,0.021262893,-0.03658949,0.54047513,0.0,0.0,0.0,-1.0
1440470679,1440470510,0.03237321,0.0139140785,-0.03808059,0.5403167,0.0,0.0,0.0,-1.0
1440511486,1440511302,0.027612109,0.011779673,-0.043443777,0.5403108,0.0,0.0,0.0,-1.0
1440551465,1440551312,0.032878224,0.012433249,-0.04357329,0.5390697,0.0,0.0,0.0,-1.0
1440595539,1440595351,0.039188847,0.013776179,-0.04384245,0.5403735,0.0,0.0,0.0,-1.0
1440635498,1440635311,0.039914478,0.01781088,-0.046054635,0.5392368,0.0,0.0,0.0,-1.0
1440679506,1440679314,0.04627403,0.020382402,-0.043505974,0.5369346,0.0,0.0,0.0,-1.0
1440723535,1440723353,0.044915684,0.018578656,-0.046944477,0.538833,0.0,0.0,0.0,-1.0
1440768280,1440768102,0.043075524,0.02212834,-0.047777273,0.5370495,0.0,0.0,0.0,-1.0
1440812296,1440812148,0.047566097,0.018779613,-0.044370882,0.53735614,0.0,0.0,0.0,-1.0
1440852280,1440852109,0.043721255,0.017215187,-0.04408127,0.5349836,0.0,0.0,0.0,-1.0
1440892273,1440892130,0.04282095,0.017184958,-0.044195242,0.5368496,0.0,0.0,0.0,-1.0
1440936305,1440936111,0.053979605,0.018572751,-0.050855648,0.5355505,0.0,0.0,0.0,-1.0
1440977072,1440976903,0.04959509,0.021019155,-0.04644815,0.53295153,0.0,0.0,0.0,-1.0
1441017093,1441016905,0.050155107,0.022593288,-0.04685976,0.5314718,0.0,0.0,0.0,-1.0
1441061107,1441060903,0.04829783,0.021735106,-0.04896296,0.5316501,0.0,0.0,0.0,-1.0
1441101055,1441100903,0.045017797,0.022370009,-0.05199085,0.5322333,0.0,0.0,0.0,-1.0
1441145108,1441144902,0.044140637,0.026902901,-0.047980964,0.52807075,0.0,0.0,0.0,-1.0
1441185853,1441185679,0.04468551,0.02796177,-0.05036365,0.52609205,0.0,0.0,0.0,-1.0
1441229836,1441229678,0.047638077,0.023348447,-0.05072917,0.52764267,0.0,0.0,0.0,-1.0
1441269828,1441269685,0.04950087,0.020399159,-0.056112736,0.5299076,0.0,0.0,0.0,-1.0
1441313865,1441313678,0.04217179,0.01677209,-0.055307068,0.52893656,0.0,0.0,0.0,-1.0
1441353854,1441353678,0.043594584,0.015698781,-0.05434785,0.5253685,0.0,0.0,0.0,-1.0
1441393868,1441393680,0.046502743,0.01624658,-0.055500448,0.52653974,0.0,0.0,0.0,-1.0
1441433901,1441433702,0.04541916,0.013021279,-0.056881726,0.5250631,0.0,0.0,0.0,-1.0
1441478659,1441478503,0.05401298,0.010835895,-0.05955456,0.5289077,0.0,0.0,0.0,-1.0
1441518660,1441518502,0.057487592,0.0075823413,-0.06208834,0.5284169,0.0,0.0,0.0,-1.0
1441562688,1441562502,0.051568486,0.008768962,-0.05893168,0.52716035,0.0,0.0,0.0,-1.0
1441606694,1441606548,0.057989262,0.005297415,-0.065035105,0.52819914,0.0,0.0,0.0,-1.0
1441646664,1441646503,0.055082522,0.006231552,-0.06604387,0.52956134,0.0,0.0,0.0,-1.0
1441687502,1441687302,0.058483932,0.006553039,-0.06348275,0.52908885,0.0,0.0,0.0,-1.0
1441727502,1441727344,0.055644896,0.010244003,-0.055658657,0.52637666,0.0,0.0,0.0,-1.0
1441771539,1441771308,0.054818694,0.008061787,-0.05677811,0.5240105,0.0,0.0,0.0,-1.0
1441811507,1441811319,0.04864796,0.0073928935,-0.05553851,0.526544,0.0,0.0,0.0,-1.0
1441851466,1441851278,0.05142889,0.010532297,-0.05160667,0.52494377,0.0,0.0,0.0,-1.0
1441892419,1441892145,0.053586766,0.012114707,-0.04709549,0.5256198,0.0,0.0,0.0,-1.0
1441936286,1441936109,0.05003524,0.011701991,-0.044241022,0.5311829,0.0,0.0,0.0,-1.0
1441976307,1441976155,0.04308198,0.018743325,-0.05436795,0.5277541,0.0,0.0,0.0,-1.0
1442020319,1442020102,0.052853733,0.02475211,-0.04406759,0.5264945,0.0,0.0,0.0,-1.0
1442060295,1442060113,0.054359,0.021251027,-0.04484392,0.5312222,0.0,0.0,0.0,-1.0
1442105077,1442104932,0.04428869,0.026971055,-0.047590103,0.532056,0.0,0.0,0.0,-1.0
1442145095,1442144910,0.047897477,0.019806083,-0.04166913,0.533279,0.0,0.0,0.0,-1.0
1442189093,1442188910,0.04193189,0.021569885,-0.034960415,0.5327082,0.0,0.0,0.0,-1.0
1442233067,1442232916,0.051551882,0.029115276,-0.03948236,0.53167534,0.0,0.0,0.0,-1.0
1442273056,1442272911,0.05406864,0.03300453,-0.04230127,0.53782094,0.0,0.0,0.0,-1.0
1442317865,1442317717,0.049192853,0.025218185,-0.03847488,0.5380604,0.0,0.0,0.0,-1.0
1442357859,1442357678,0.047758665,0.025145309,-0.038180523,0.5367464,0.0,0.0,0.0,-1.0
1442401831,1442401679,0.052922018,0.02816305,-0.037983097,0.5376769,0.0,0.0,0.0,-1.0
1442441830,1442441678,0.055644352,0.02778062,-0.04469028,0.540787,0.0,0.0,0.0,-1.0
1442485847,1442485678,0.044070944,0.027867166,-0.044449773,0.54158366,0.0,0.0,0.0,-1.0
1442529821,1442529679,0.05241625,0.029013826,-0.04137861,0.5415523,0.0,0.0,0.0,-1.0
1442573841,1442573708,0.05416925,0.027729824,-0.049384117,0.5401364,0.0,0.0,0.0,-1.0
1442614706,1442614564,0.05545282,0.025111618,-0.045958366,0.53928554,0.0,0.0,0.0,-1.0
1442658710,1442658509,0.047197454,0.023599865,-0.044835784,0.5427778,0.0,0.0,0.0,-1.0
1442698665,1442698519,0.052625906,0.022432743,-0.048909172,0.5450877,0.0,0.0,0.0,-1.0
1442738651,1442738510,0.051937405,0.022013461,-0.04808502,0.5428332,0.0,0.0,0.0,-1.0
1442782703,1442782554,0.049899615,0.021343889,-0.04293643,0.5395025,0.0,0.0,0.0,-1.0
1442823533,1442823303,0.047985412,0.021686316,-0.042976826,0.5409176,0.0,0.0,0.0,-1.0
1442867555,1442867309,0.056982137,0.021780962,-0.0437009,0.5392391,0.0,0.0,0.0,-1.0
1442907516,1442907302,0.05389986,0.020828359,-0.039354082,0.5366073,0.0,0.0,0.0,-1.0
1442952271,1442952124,0.049196925,0.01697874,-0.044100467,0.539206,0.0,0.0,0.0,-1.0
1442996282,1442996079,0.04916243,0.018437682,-0.043521132,0.5406754,0.0,0.0,0.0,-1.0
1443036299,1443036102,0.05636289,0.019168906,-0.039399445,0.5363009,0.0,0.0,0.0,-1.0
1443080257,1443080109,0.0611988,0.018652894,-0.035314698,0.5381769,0.0,0.0,0.0,-1.0
1443124304,1443124102,0.061190404,0.02287394,-0.041798964,0.53591186,0.0,0.0,0.0,-1.0
1443164296,1443164102,0.062802725,0.023844587,-0.04566332,0.53660214,0.0,0.0,0.0,-1.0
1443204338,1443204112,0.0641317,0.022835964,-0.047233175,0.5399664,0.0,0.0,0.0,-1.0
1443244311,1443244103,0.058073416,0.024206195,-0.043996546,0.53622586,0.0,0.0,0.0,-1.0
1443285224,1443284903,0.060533315,0.022621743,-0.04220794,0.53667086,0.0,0.0,0.0,-1.0
1443329038,1443328902,0.054465443,0.026148887,-0.043655947,0.5358315,0.0,0.0,0.0,-1.0
1443369040,1443368904,0.05059687,0.026935747,-0.044170715,0.53688276,0.0,0.0,0.0,-1.0
1443413103,1443412913,0.054887734,0.020138707,-0.042648546,0.5339527,0.0,0.0,0.0,-1.0
1443453905,1443453709,0.054756045,0.01671515,-0.042741533,0.53619444,0.0,0.0,0.0,-1.0
1443497818,1443497678,0.05711958,0.014702579,-0.05067992,0.5395252,0.0,0.0,0.0,-1.0
1443537815,1443537678,0.05318117,0.015132363,-0.04606183,0.5357537,0.0,0.0,0.0,-1.0
1443581850,1443581682,0.044647608,0.011027513,-0.046030566,0.5346023,0.0,0.0,0.0,-1.0
1443621870,1443621679,0.047782056,0.012765273,-0.044370163,0.5373329,0.0,0.0,0.0,-1.0
1443665818,1443665678,0.058464997,0.01882708,-0.046825763,0.537271,0.0,0.0,0.0,-1.0
1443706660,1443706514,0.05089641,0.01854275,-0.039689574,0.53368837,0.0,0.0,0.0,-1.0
1443746671,1443746503,0.057529278,0.022922467,-0.038503174,0.5364378,0.0,0.0,0.0,-1.0
1443790696,1443790509,0.05744668,0.019646976,-0.042450048,0.53626007,0.0,0.0,0.0,-1.0
1443830743,1443830541,0.05677597,0.019716453,-0.04187991,0.5369075,0.0,0.0,0.0,-1.0
1443870682,1443870502,0.060849164,0.021236658,-0.039942354,0.53681606,0.0,0.0,0.0,-1.0
1443914657,1443914502,0.05054303,0.017113892,-0.042745434,0.53608364,0.0,0.0,0.0,-1.0
1443955478,1443955302,0.05317722,0.012532766,-0.041314825,0.5319368,0.0,0.0,0.0,-1.0
1443995477,1443995325,0.055768605,0.010013178,-0.04267621,0.53284925,0.0,0.0,0.0,-1.0
1444035457,1444035308,0.056577,0.0075300382,-0.042467542,0.53004336,0.0,0.0,0.0,-1.0
1444079493,1444079311,0.049163196,0.010349901,-0.03881821,0.5280493,0.0,0.0,0.0,-1.0
1444123494,1444123303,0.05715275,0.010562756,-0.04164855,0.52736413,0.0,0.0,0.0,-1.0
1444164255,1444164079,0.059963163,0.0072825938,-0.0431583,0.52957994,0.0,0.0,0.0,-1.0
1444208341,1444208102,0.058476698,0.008411245,-0.04618081,0.53307694,0.0,0.0,0.0,-1.0
1444248335,1444248109,0.053325832,0.012714418,-0.043317046,0.5270643,0.0,0.0,0.0,-1.0
1444288336,1444288103,0.059130073,0.012399693,-0.044301305,0.5278576,0.0,0.0,0.0,-1.0
1444328279,1444328109,0.056018416,0.016251259,-0.042918675,0.52799654,0.0,0.0,0.0,-1.0
1444372332,1444372148,0.06449409,0.0163932,-0.043213885,0.5262188,0.0,0.0,0.0,-1.0
1444413066,1444412903,0.057970207,0.016252706,-0.038025413,0.5275116,0.0,0.0,0.0,-1.0
1444457130,1444456909,0.048742533,0.013204472,-0.04820642,0.5307998,0.0,0.0,0.0,-1.0
1444497149,1444496909,0.053639762,0.020070918,-0.043095052,0.5316114,0.0,0.0,0.0,-1.0
1444541048,1444540909,0.057090186,0.023422772,-0.039874196,0.5321835,0.0,0.0,0.0,-1.0
1444581849,1444581716,0.04877247,0.019842815,-0.044912897,0.5295976,0.0,0.0,0.0,-1.0
1444621879,1444621710,0.057323493,0.02616894,-0.040805705,0.52910954,0.0,0.0,0.0,-1.0
1444661812,1444661680,0.05133138,0.025639964,-0.04583646,0.5284037,0.0,0.0,0.0,-1.0
1444705853,1444705685,0.053480804,0.025216285,-0.04939932,0.5341741,0.0,0.0,0.0,-1.0
1444749813,1444749678,0.046193182,0.0271263,-0.04168699,0.5339175,0.0,0.0,0.0,-1.0
1444789824,1444789679,0.049149986,0.02091101,-0.047868866,0.53689814,0.0,0.0,0.0,-1.0
1444829821,1444829679,0.04898264,0.017078433,-0.044076674,0.5366967,0.0,0.0,0.0,-1.0
1444870660,1444870510,0.051158674,0.0145328,-0.051627096,0.53914607,0.0,0.0,0.0,-1.0
1444914701,1444914510,0.06668267,0.018399363,-0.054713205,0.5407756,0.0,0.0,0.0,-1.0
1444954699,1444954510,0.062119823,0.021785913,-0.053805012,0.53789634,0.0,0.0,0.0,-1.0
1444998673,1444998510,0.0505163,0.02406185,-0.05431995,0.5388367,0.0,0.0,0.0,-1.0
1445038660,1445038510,0.056261573,0.02738908,-0.056440786,0.54417187,0.0,0.0,0.0,-1.0
1445082703,1445082510,0.06021499,0.029703343,-0.05474907,0.5438248,0.0,0.0,0.0,-1.0
1445127449,1445127302,0.05230068,0.026361149,-0.053600647,0.5451491,0.0,0.0,0.0,-1.0
1445171503,1445171350,0.056053184,0.02568748,-0.052411396,0.5442024,0.0,0.0,0.0,-1.0
1445211512,1445211311,0.054037306,0.026062222,-0.050081875,0.5476595,0.0,0.0,0.0,-1.0
1445255474,1445255326,0.052489232,0.03206294,-0.057086624,0.5472814,0.0,0.0,0.0,-1.0
1445295466,1445295309,0.05163495,0.03043251,-0.05207273,0.5495337,0.0,0.0,0.0,-1.0
1445336229,1445336090,0.055553995,0.034605686,-0.052913014,0.54531044,0.0,0.0,0.0,-1.0
1445380322,1445380144,0.057825074,0.028589139,-0.05099105,0.5464416,0.0,0.0,0.0,-1.0
1445420311,1445420148,0.061701678,0.025137275,-0.051672846,0.5485127,0.0,0.0,0.0,-1.0
1445464294,1445464119,0.05129608,0.024819339,-0.046357457,0.5489511,0.0,0.0,0.0,-1.0
1445504297,1445504148,0.047379263,0.023356402,-0.048361342,0.5487483,0.0,0.0,0.0,-1.0
1445548287,1445548101,0.054095276,0.02290075,-0.048526254,0.5490496,0.0,0.0,0.0,-1.0
1445589097,1445588920,0.046544027,0.026261022,-0.04593781,0.5457556,0.0,0.0,0.0,-1.0
1445633091,1445632903,0.054420825,0.025291048,-0.051899992,0.54546905,0.0,0.0,0.0,-1.0
1445673135,1445672902,0.059067734,0.02603089,-0.050663017,0.54684746,0.0,0.0,0.0,-1.0
1445717094,1445716905,0.04778338,0.028135635,-0.04849815,0.547105,0.0,0.0,0.0,-1.0
1445757842,1445757703,0.05214683,0.025062768,-0.053918388,0.5510269,0.0,0.0,0.0,-1.0
1445797853,1445797703,0.054928917,0.025642253,-0.05034541,0.5470255,0.0,0.0,0.0,-1.0
1445837935,1445837741,0.05646731,0.024839504,-0.050054163,0.5486103,0.0,0.0,0.0,-1.0
1445881826,1445881679,0.048268024,0.02265506,-0.048183143,0.547259,0.0,0.0,0.0,-1.0
1445925824,1445925685,0.052623075,0.02108877,-0.0466895,0.5459101,0.0,0.0,0.0,-1.0
1445965829,1445965689,0.055042136,0.022434698,-0.046572607,0.5465742,0.0,0.0,0.0,-1.0
1446009825,1446009678,0.055525623,0.019567924,-0.04764606,0.5519106,0.0,0.0,0.0,-1.0
1446050678,1446050502,0.054790623,0.023575367,-0.046222433,0.55116713,0.0,0.0,0.0,-1.0
1446094660,1446094503,0.05344577,0.029236462,-0.051126022,0.54918987,0.0,0.0,0.0,-1.0
1446138666,1446138502,0.0509206,0.02783699,-0.044641305,0.54999477,0.0,0.0,0.0,-1.0
1446182661,1446182509,0.05536611,0.027677128,-0.043453455,0.5539125,0.0,0.0,0.0,-1.0
1446226708,1446226514,0.050600406,0.025649095,-0.0443837,0.5538228,0.0,0.0,0.0,-1.0
1446267526,1446267310,0.053158384,0.027103301,-0.04415846,0.55308384,0.0,0.0,0.0,-1.0
1446311523,1446311310,0.056310307,0.039529778,-0.048083335,0.54999167,0.0,0.0,0.0,-1.0
1446351485,1446351310,0.050222706,0.038176544,-0.04675786,0.5488369,0.0,0.0,0.0,-1.0
1446395545,1446395310,0.05310056,0.030309355,-0.051404145,0.54777825,0.0,0.0,0.0,-1.0
1446435538,1446435309,0.060537342,0.028104967,-0.055360664,0.5491996,0.0,0.0,0.0,-1.0
1446480239,1446480085,0.049815763,0.02479817,-0.047273695,0.5500933,0.0,0.0,0.0,-1.0
1446524291,1446524140,0.059250128,0.028878203,-0.05081689,0.5482447,0.0,0.0,0.0,-1.0
1446564262,1446564116,0.059298072,0.030407654,-0.049160533,0.54891294,0.0,0.0,0.0,-1.0
1446608264,1446608102,0.0634734,0.027285034,-0.050576158,0.54699045,0.0,0.0,0.0,-1.0
1446648263,1446648102,0.06362191,0.032022975,-0.052083936,0.54323715,0.0,0.0,0.0,-1.0
1446692290,1446692140,0.059329562,0.033364013,-0.0469212,0.5401952,0.0,0.0,0.0,-1.0
1446733050,1446732915,0.06459672,0.03545493,-0.045665402,0.54041576,0.0,0.0,0.0,-1.0
1446777121,1446776916,0.07017296,0.038382974,-0.044192683,0.53731704,0.0,0.0,0.0,-1.0
1446817049,1446816910,0.064810775,0.03780221,-0.04573672,0.53506374,0.0,0.0,0.0,-1.0
1446861063,1446860921,0.065767325,0.035002124,-0.04608704,0.53046805,0.0,0.0,0.0,-1.0
1446901876,1446901725,0.066353604,0.03207107,-0.049374573,0.5304704,0.0,0.0,0.0,-1.0
1446945932,1446945703,0.05483479,0.029071325,-0.041914754,0.53199756,0.0,0.0,0.0,-1.0
1446989856,1446989679,0.06299686,0.0298894,-0.04333421,0.53010553,0.0,0.0,0.0,-1.0
1447029866,1447029689,0.06370108,0.02807598,-0.05148279,0.53681713,0.0,0.0,0.0,-1.0
1447073893,1447073680,0.059114184,0.03316884,-0.042368166,0.5285316,0.0,0.0,0.0,-1.0
1447113906,1447113678,0.060072333,0.034974393,-0.042040665,0.5281573,0.0,0.0,0.0,-1.0
1447154727,1447154502,0.052855812,0.029836092,-0.042372856,0.5269386,0.0,0.0,0.0,-1.0
1447194757,1447194512,0.057165526,0.03352849,-0.04422075,0.5300475,0.0,0.0,0.0,-1.0
1447234748,1447234561,0.05867366,0.031439263,-0.042737316,0.5287123,0.0,0.0,0.0,-1.0
1447274671,1447274516,0.060464047,0.028544271,-0.045084417,0.5296973,0.0,0.0,0.0,-1.0
1447318708,1447318550,0.05978244,0.029147547,-0.038190924,0.528261,0.0,0.0,0.0,-1.0
1447358662,1447358511,0.07023406,0.03054421,-0.044009127,0.5312829,0.0,0.0,0.0,-1.0
1447403538,1447403309,0.06616793,0.023103721,-0.042894505,0.53217715,0.0,0.0,0.0,-1.0
1447443557,1447443308,0.06251345,0.020863077,-0.043120425,0.5295133,0.0,0.0,0.0,-1.0
1447487490,1447487302,0.0678874,0.022032553,-0.03918759,0.5309959,0.0,0.0,0.0,-1.0
1447527474,1447527309,0.059819065,0.017495673,-0.030038422,0.52916,0.0,0.0,0.0,-1.0
1447571517,1447571302,0.061633293,0.023977367,-0.048885312,0.5309212,0.0,0.0,0.0,-1.0
1447612329,1447612124,0.057571396,0.02577384,-0.04821851,0.53165287,0.0,0.0,0.0,-1.0
1447656236,1447656078,0.046004992,0.024490766,-0.038492836,0.5301004,0.0,0.0,0.0,-1.0
1447696244,1447696078,0.05692256,0.030379457,-0.034557264,0.52930915,0.0,0.0,0.0,-1.0
1447740272,1447740102,0.060726598,0.029795373,-0.041699316,0.5298965,0.0,0.0,0.0,-1.0
1447780268,1447780102,0.06026604,0.03127053,-0.043872226,0.52837163,0.0,0.0,0.0,-1.0
1447824279,1447824111,0.0542162,0.032390825,-0.03569032,0.5309954,0.0,0.0,0.0,-1.0
1447865059,1447864913,0.05219788,0.028089408,-0.04469625,0.5320619,0.0,0.0,0.0,-1.0
1447905050,1447904903,0.050796635,0.03142269,-0.041869096,0.5324944,0.0,0.0,0.0,-1.0
1447949074,1447948902,0.05339179,0.03177089,-0.04123727,0.53690475,0.0,0.0,0.0,-1.0
1447989104,1447988918,0.053537488,0.030331764,-0.037530117,0.5363439,0.0,0.0,0.0,-1.0
1448033848,1448033703,0.059284452,0.036299445,-0.04201365,0.5375924,0.0,0.0,0.0,-1.0
1448077878,1448077710,0.058630787,0.037524596,-0.046053596,0.5374724,0.0,0.0,0.0,-1.0
1448121898,1448121709,0.06523562,0.030757707,-0.041450363,0.53608996,0.0,0.0,0.0,-1.0
1448161837,1448161692,0.060551964,0.030395778,-0.04255439,0.5376074,0.0,0.0,0.0,-1.0
1448205904,1448205678,0.06451258,0.029571822,-0.046557337,0.5396262,0.0,0.0,0.0,-1.0
1448249864,1448249678,0.05633852,0.026294421,-0.04067071,0.5397468,0.0,0.0,0.0,-1.0
1448289868,1448289678,0.056676473,0.030591711,-0.041189235,0.543513,0.0,0.0,0.0,-1.0
1448334657,1448334507,0.063301034,0.03357623,-0.0377705,0.5410226,0.0,0.0,0.0,-1.0
1448378682,1448378508,0.056826998,0.032132886,-0.043395583,0.54182035,0.0,0.0,0.0,-1.0
1448422658,1448422503,0.05827732,0.03199577,-0.03847987,0.54272044,0.0,0.0,0.0,-1.0
1448462641,1448462503,0.054784525,0.0326851,-0.041501753,0.53612274,0.0,0.0,0.0,-1.0
1448506661,1448506503,0.06043179,0.030780695,-0.040816106,0.5436465,0.0,0.0,0.0,-1.0
1448547472,1448547303,0.060415782,0.030977892,-0.043069195,0.5420767,0.0,0.0,0.0,-1.0
1448587517,1448587327,0.056913678,0.03556647,-0.04150217,0.54042894,0.0,0.0,0.0,-1.0
1448631465,1448631303,0.056394033,0.032271802,-0.039061386,0.5405824,0.0,0.0,0.0,-1.0
1448671458,1448671305,0.059167434,0.033139765,-0.04140428,0.5404556,0.0,0.0,0.0,-1.0
1448715487,1448715302,0.05858669,0.034066737,-0.046281394,0.5409609,0.0,0.0,0.0,-1.0
1448756251,1448756078,0.06244312,0.033507068,-0.040080845,0.53608733,0.0,0.0,0.0,-1.0
1448800261,1448800090,0.053446922,0.02978222,-0.041150227,0.54222566,0.0,0.0,0.0,-1.0
1448840243,1448840087,0.058680654,0.029951494,-0.04247214,0.541613,0.0,0.0,0.0,-1.0
1448884296,1448884114,0.057621587,0.029004391,-0.039525755,0.5419088,0.0,0.0,0.0,-1.0
1448924302,1448924102,0.059900735,0.02853138,-0.04088708,0.54033214,0.0,0.0,0.0,-1.0
1448968247,1448968111,0.061019298,0.027793786,-0.04052019,0.5420948,0.0,0.0,0.0,-1.0
1449009109,1449008903,0.057888582,0.030155748,-0.041380882,0.5395737,0.0,0.0,0.0,-1.0
1449049061,1449048909,0.06054068,0.027503941,-0.04044973,0.5415305,0.0,0.0,0.0,-1.0
1449093136,1449092903,0.06272514,0.029655814,-0.041763514,0.54238343,0.0,0.0,0.0,-1.0
1449133093,1449132910,0.0585724,0.030194605,-0.04270722,0.54024655,0.0,0.0,0.0,-1.0
1449177854,1449177717,0.05789102,0.031046525,-0.040453516,0.535764,0.0,0.0,0.0,-1.0
1449217899,1449217710,0.06092623,0.02715999,-0.040817045,0.53833073,0.0,0.0,0.0,-1.0
1449261899,1449261710,0.059929784,0.027808048,-0.037664622,0.5398234,0.0,0.0,0.0,-1.0
1449301985,1449301721,0.055194102,0.029580804,-0.035151172,0.5379169,0.0,0.0,0.0,-1.0
1449345824,1449345678,0.065213636,0.028288107,-0.036348637,0.53828144,0.0,0.0,0.0,-1.0
1449385858,1449385679,0.05787821,0.0308657,-0.034946095,0.5397349,0.0,0.0,0.0,-1.0
1449430708,1449430503,0.062391903,0.033124678,-0.045007475,0.5361924,0.0,0.0,0.0,-1.0
1449474646,1449474502,0.052002773,0.028680388,-0.03994759,0.5374399,0.0,0.0,0.0,-1.0
1449514658,1449514502,0.05500144,0.029272735,-0.044068344,0.5399518,0.0,0.0,0.0,-1.0
1449558685,1449558509,0.070222594,0.0333369,-0.04398294,0.5368602,0.0,0.0,0.0,-1.0
1449598700,1449598516,0.06748861,0.03373292,-0.042973123,0.5370404,0.0,0.0,0.0,-1.0
1449638690,1449638508,0.06267847,0.032037735,-0.041914795,0.536157,0.0,0.0,0.0,-1.0
1449679539,1449679334,0.06445241,0.033306487,-0.045692783,0.5329836,0.0,0.0,0.0,-1.0
1449723447,1449723310,0.06656503,0.031870298,-0.047309674,0.53595227,0.0,0.0,0.0,-1.0
1449763475,1449763334,0.06652842,0.031567793,-0.048891082,0.53310347,0.0,0.0,0.0,-1.0
1449807505,1449807310,0.061995085,0.030613868,-0.047468938,0.5343208,0.0,0.0,0.0,-1.0
1449847514,1449847333,0.063251376,0.030995067,-0.049392764,0.53852636,0.0,0.0,0.0,-1.0
1449891534,1449891310,0.07036235,0.033866342,-0.055020526,0.5339859,0.0,0.0,0.0,-1.0
1449932267,1449932124,0.06905321,0.034248445,-0.052243818,0.53321356,0.0,0.0,0.0,-1.0
1449976254,1449976116,0.06248154,0.03947959,-0.058180153,0.53316367,0.0,0.0,0.0,-1.0
1450016266,1450016078,0.061150305,0.03804169,-0.053508554,0.5306735,0.0,0.0,0.0,-1.0
1450060261,1450060117,0.0637687,0.035568897,-0.059777904,0.52872604,0.0,0.0,0.0,-1.0
1450100250,1450100102,0.057276566,0.036045935,-0.05625636,0.52786356,0.0,0.0,0.0,-1.0
1450141067,1450140917,0.058665782,0.040062353,-0.05383804,0.5255591,0.0,0.0,0.0,-1.0
1450185129,1450184941,0.06269724,0.042922966,-0.050365068,0.526478,0.0,0.0,0.0,-1.0
1450225107,1450224950,0.051565174,0.041379508,-0.050676033,0.5330026,0.0,0.0,0.0,-1.0
1450265095,1450264910,0.053003293,0.043545786,-0.04355924,0.5332822,0.0,0.0,0.0,-1.0
1450305921,1450305718,0.050875902,0.04279636,-0.04164481,0.5356058,0.0,0.0,0.0,-1.0
1450349876,1450349703,0.046414338,0.042721126,-0.04178284,0.53365713,0.0,0.0,0.0,-1.0
1450389886,1450389709,0.048438277,0.034930903,-0.03950222,0.5392638,0.0,0.0,0.0,-1.0
1450429868,1450429725,0.05246184,0.039281994,-0.04252296,0.53945833,0.0,0.0,0.0,-1.0
1450473910,1450473679,0.053551205,0.041206725,-0.0403733,0.53847134,0.0,0.0,0.0,-1.0
1450517858,1450517679,0.0468712,0.035376478,-0.03357128,0.53822947,0.0,0.0,0.0,-1.0
1450557958,1450557678,0.046108145,0.03579395,-0.035012193,0.54007095,0.0,0.0,0.0,-1.0
1450598701,1450598502,0.05720035,0.032223787,-0.039238337,0.54463875,0.0,0.0,0.0,-1.0
1450638699,1450638502,0.057313144,0.034326345,-0.03794038,0.54122615,0.0,0.0,0.0,-1.0
1450682714,1450682534,0.06029529,0.02997533,-0.04201066,0.54373294,0.0,0.0,0.0,-1.0
1450722735,1450722502,0.067505956,0.022450393,-0.048467603,0.54302955,0.0,0.0,0.0,-1.0
1450766693,1450766510,0.07513508,0.02203645,-0.047327094,0.5443341,0.0,0.0,0.0,-1.0
1450806697,1450806510,0.07420364,0.027486086,-0.050911546,0.5418423,0.0,0.0,0.0,-1.0
1450851515,1450851351,0.07035862,0.031237299,-0.052382212,0.5394351,0.0,0.0,0.0,-1.0
1450891461,1450891314,0.06616096,0.02984585,-0.05474157,0.5351825,0.0,0.0,0.0,-1.0
1450935445,1450935302,0.06570033,0.030204838,-0.048713308,0.5330965,0.0,0.0,0.0,-1.0
1450975449,1450975309,0.06906291,0.031306285,-0.050791506,0.5327153,0.0,0.0,0.0,-1.0
1451019466,1451019308,0.06578357,0.028625816,-0.047805753,0.52935266,0.0,0.0,0.0,-1.0
1451060232,1451060084,0.06486644,0.029602133,-0.050062865,0.5289083,0.0,0.0,0.0,-1.0
1451100286,1451100117,0.060884736,0.02922372,-0.047962785,0.5318244,0.0,0.0,0.0,-1.0
1451144231,1451144092,0.06199174,0.02284187,-0.04514195,0.539831,0.0,0.0,0.0,-1.0
1451184260,1451184102,0.06806641,0.017201656,-0.040596835,0.5357787,0.0,0.0,0.0,-1.0
1451228291,1451228132,0.06754421,0.0164596,-0.044922404,0.53967613,0.0,0.0,0.0,-1.0
1451268261,1451268108,0.061714992,0.009871648,-0.046052307,0.5403726,0.0,0.0,0.0,-1.0
1451309064,1451308920,0.06834459,0.0068966257,-0.04984845,0.5447614,0.0,0.0,0.0,-1.0
1451349087,1451348915,0.071804844,0.004596565,-0.050898854,0.53865767,0.0,0.0,0.0,-1.0
1451393061,1451392903,0.066109486,0.007546451,-0.046729352,0.5438814,0.0,0.0,0.0,-1.0
1451433061,1451432911,0.068858944,0.0072685103,-0.050044816,0.5460698,0.0,0.0,0.0,-1.0
1451477847,1451477710,0.060282417,0.016023923,-0.04131963,0.5424457,0.0,0.0,0.0,-1.0
1451521900,1451521716,0.061252713,0.01681477,-0.03923132,0.5456596,0.0,0.0,0.0,-1.0
1451565881,1451565703,0.055956278,0.019477537,-0.04237731,0.5488334,0.0,0.0,0.0,-1.0
1451609908,1451609702,0.05883899,0.018061407,-0.036069714,0.5506869,0.0,0.0,0.0,-1.0
1451649904,1451649679,0.05579835,0.025204726,-0.037238456,0.55128217,0.0,0.0,0.0,-1.0
1451689865,1451689686,0.059253838,0.035029195,-0.0329417,0.5506911,0.0,0.0,0.0,-1.0
1451730721,1451730503,0.05951536,0.04067433,-0.033346586,0.5516355,0.0,0.0,0.0,-1.0
1451774678,1451774509,0.053539306,0.043235917,-0.02952518,0.55517846,0.0,0.0,0.0,-1.0
1451814702,1451814509,0.054102395,0.042866863,-0.028449839,0.5539269,0.0,0.0,0.0,-1.0
1451858737,1451858508,0.050126202,0.04119771,-0.026426682,0.55569,0.0,0.0,0.0,-1.0
1451898717,1451898509,0.04542531,0.040106826,-0.025076903,0.5559439,0.0,0.0,0.0,-1.0
1451943443,1451943302,0.048082035,0.041091736,-0.026513295,0.5561446,0.0,0.0,0.0,-1.0
1451983436,1451983302,0.058157295,0.035424106,-0.027787011,0.55861366,0.0,0.0,0.0,-1.0
1452027489,1452027303,0.059754483,0.02810128,-0.032266706,0.5581128,0.0,0.0,0.0,-1.0
1452071456,1452071304,0.06225971,0.029321767,-0.0333974,0.55845314,0.0,0.0,0.0,-1.0
1452111455,1452111307,0.060642824,0.033986185,-0.03242703,0.5600898,0.0,0.0,0.0,-1.0
1452155531,1452155347,0.058253087,0.03878029,-0.039618835,0.5586916,0.0,0.0,0.0,-1.0
1452196271,1452196085,0.055695027,0.04812959,-0.03534083,0.55936134,0.0,0.0,0.0,-1.0
1452240227,1452240078,0.06688961,0.05460462,-0.03971691,0.5585701,0.0,0.0,0.0,-1.0
1452280230,1452280078,0.05964072,0.05485021,-0.03720234,0.55502236,0.0,0.0,0.0,-1.0
1452324270,1452324078,0.053997602,0.05380659,-0.03047759,0.55415636,0.0,0.0,0.0,-1.0
1452364298,1452364102,0.059676513,0.05016432,-0.035920434,0.556135,0.0,0.0,0.0,-1.0
1452408273,1452408102,0.06404955,0.0525721,-0.038599912,0.5533597,0.0,0.0,0.0,-1.0
1452449059,1452448903,0.05533336,0.043978833,-0.041103624,0.54858196,0.0,0.0,0.0,-1.0
1452493094,1452492934,0.050980628,0.037202902,-0.040706005,0.5503115,0.0,0.0,0.0,-1.0
1452533098,1452532909,0.050677408,0.036145795,-0.046520293,0.55322105,0.0,0.0,0.0,-1.0
1452577124,1452576955,0.051551722,0.035789624,-0.0415957,0.5537641,0.0,0.0,0.0,-1.0
1452617939,1452617710,0.047263693,0.039941955,-0.044043224,0.55330104,0.0,0.0,0.0,-1.0
1452657915,1452657716,0.051686633,0.042920314,-0.047145512,0.5549542,0.0,0.0,0.0,-1.0
1452701920,1452701735,0.061995864,0.036627416,-0.039082844,0.5540432,0.0,0.0,0.0,-1.0
1452741990,1452741738,0.060803693,0.03501229,-0.04109135,0.5521821,0.0,0.0,0.0,-1.0
1452785890,1452785710,0.055833083,0.030594174,-0.04317576,0.5598241,0.0,0.0,0.0,-1.0
1452825854,1452825679,0.05891972,0.031326942,-0.041780923,0.5583534,0.0,0.0,0.0,-1.0
1452869862,1452869690,0.057161678,0.030070905,-0.042247113,0.5600286,0.0,0.0,0.0,-1.0
1452910712,1452910524,0.054416146,0.030343315,-0.050331257,0.5613091,0.0,0.0,0.0,-1.0
1452954694,1452954502,0.06546396,0.027441068,-0.0394587,0.55745035,0.0,0.0,0.0,-1.0
1452994651,1452994502,0.061016057,0.024828266,-0.0417308,0.55646646,0.0,0.0,0.0,-1.0
1453038664,1453038520,0.067260765,0.024519753,-0.0419039,0.55609787,0.0,0.0,0.0,-1.0
1453078724,1453078533,0.066719435,0.027674329,-0.039987367,0.5563107,0.0,0.0,0.0,-1.0
1453119523,1453119372,0.056074478,0.03315612,-0.04214293,0.55685216,0.0,0.0,0.0,-1.0
1453163518,1453163319,0.059185695,0.035496414,-0.04295794,0.5520129,0.0,0.0,0.0,-1.0
1453203509,1453203316,0.057302468,0.036009405,-0.041349012,0.5500194,0.0,0.0,0.0,-1.0
1453247515,1453247358,0.055232406,0.038306333,-0.0418518,0.5501521,0.0,0.0,0.0,-1.0
1453287498,1453287342,0.055627316,0.034785904,-0.042174652,0.54881763,0.0,0.0,0.0,-1.0
1453331484,1453331310,0.053189144,0.037716325,-0.03660554,0.55426586,0.0,0.0,0.0,-1.0
1453372313,1453372137,0.052496824,0.04267018,-0.040488917,0.55236006,0.0,0.0,0.0,-1.0
1453416242,1453416078,0.056166735,0.046621084,-0.03617855,0.54973245,0.0,0.0,0.0,-1.0
1453456221,1453456078,0.059006944,0.04237395,-0.039347704,0.55187005,0.0,0.0,0.0,-1.0
1453500302,1453500108,0.06117296,0.0414962,-0.041011844,0.55010754,0.0,0.0,0.0,-1.0
1453540284,1453540102,0.06499745,0.038240768,-0.043613274,0.54974437,0.0,0.0,0.0,-1.0
1453585119,1453584956,0.06811895,0.038302235,-0.039644312,0.55412227,0.0,0.0,0.0,-1.0
1453625069,1453624924,0.06417605,0.041543312,-0.039776105,0.5540456,0.0,0.0,0.0,-1.0
1453665058,1453664916,0.058674995,0.039146136,-0.041456323,0.5519404,0.0,0.0,0.0,-1.0
1453705056,1453704910,0.052307818,0.03556708,-0.041228183,0.5570645,0.0,0.0,0.0,-1.0
1453749076,1453748909,0.053769607,0.03724165,-0.041413255,0.55443925,0.0,0.0,0.0,-1.0
1453789876,1453789703,0.053360194,0.036790594,-0.04163228,0.5530024,0.0,0.0,0.0,-1.0
1453833895,1453833703,0.05264285,0.030242093,-0.040858865,0.55603373,0.0,0.0,0.0,-1.0
1453873865,1453873714,0.055631384,0.035410777,-0.041079838,0.55747616,0.0,0.0,0.0,-1.0
1453917922,1453917703,0.051820237,0.03491196,-0.044136122,0.5615782,0.0,0.0,0.0,-1.0
1453957892,1453957710,0.049911655,0.03679639,-0.043368276,0.5620503,0.0,0.0,0.0,-1.0
1454001860,1454001680,0.055167668,0.04019574,-0.04045085,0.5649482,0.0,0.0,0.0,-1.0
1454046683,1454046502,0.052633364,0.037233092,-0.041225243,0.563883,0.0,0.0,0.0,-1.0
1454086726,1454086508,0.0485442,0.038973678,-0.040054005,0.5657635,0.0,0.0,0.0,-1.0
1454130659,1454130503,0.049712073,0.04526557,-0.044074763,0.56504434,0.0,0.0,0.0,-1.0
1454170706,1454170502,0.045537982,0.04058306,-0.04608801,0.56291145,0.0,0.0,0.0,-1.0
1454214698,1454214503,0.05037819,0.039100945,-0.04229813,0.5591386,0.0,0.0,0.0,-1.0
1454255501,1454255302,0.053270504,0.038219806,-0.044932745,0.5638599,0.0,0.0,0.0,-1.0
1454295481,1454295305,0.05409005,0.039605267,-0.041209705,0.56725115,0.0,0.0,0.0,-1.0
1454339451,1454339304,0.0516106,0.039605014,-0.04308178,0.56630903,0.0,0.0,0.0,-1.0
1454379443,1454379302,0.051975105,0.039650686,-0.045336235,0.5656587,0.0,0.0,0.0,-1.0
1454419450,1454419302,0.05193508,0.039452363,-0.045818567,0.5654718,0.0,0.0,0.0,-1.0
1454463496,1454463302,0.05285617,0.03446667,-0.041013267,0.56755203,0.0,0.0,0.0,-1.0
1454504283,1454504078,0.05057608,0.034330767,-0.045488324,0.5720129,0.0,0.0,0.0,-1.0
1454544276,1454544078,0.05820587,0.034758065,-0.0438856,0.57011217,0.0,0.0,0.0,-1.0
1454588228,1454588078,0.054695874,0.036045276,-0.046052113,0.57182574,0.0,0.0,0.0,-1.0
1454628268,1454628093,0.053734276,0.039848953,-0.0445122,0.56898445,0.0,0.0,0.0,-1.0
1454672341,1454672155,0.058772895,0.035384957,-0.046483893,0.56341106,0.0,0.0,0.0,-1.0
1454713092,1454712903,0.06093631,0.036253937,-0.04325665,0.5657829,0.0,0.0,0.0,-1.0
1454757046,1454756903,0.05643178,0.03695388,-0.044073977,0.5668221,0.0,0.0,0.0,-1.0
1454797051,1454796903,0.05765253,0.035261862,-0.04193124,0.5682505,0.0,0.0,0.0,-1.0
1454841094,1454840902,0.060979813,0.03938379,-0.04823995,0.5645795,0.0,0.0,0.0,-1.0
1454881099,1454880909,0.05923867,0.03615807,-0.04181383,0.56484634,0.0,0.0,0.0,-1.0
1454921910,1454921720,0.05527103,0.0337078,-0.04039019,0.56719106,0.0,0.0,0.0,-1.0
1454961905,1454961716,0.059186183,0.0342017,-0.04320761,0.568985,0.0,0.0,0.0,-1.0
1455005865,1455005711,0.05674947,0.037179254,-0.04454019,0.56216806,0.0,0.0,0.0,-1.0
1455045857,1455045714,0.060098436,0.035327297,-0.044403892,0.5648814,0.0,0.0,0.0,-1.0
1455089898,1455089710,0.059106316,0.03643853,-0.050266594,0.56130123,0.0,0.0,0.0,-1.0
1455133833,1455133693,0.05428706,0.03403521,-0.0465165,0.56829435,0.0,0.0,0.0,-1.0
1455174683,1455174515,0.05523736,0.033742882,-0.051753785,0.5638613,0.0,0.0,0.0,-1.0
1455218730,1455218541,0.05449248,0.036457434,-0.04751631,0.565009,0.0,0.0,0.0,-1.0
1455258718,1455258533,0.05435382,0.036571898,-0.0495258,0.5640656,0.0,0.0,0.0,-1.0
1455302675,1455302502,0.060121972,0.033349976,-0.048812535,0.56228536,0.0,0.0,0.0,-1.0
1455342684,1455342503,0.06445439,0.03243055,-0.04779739,0.5619525,0.0,0.0,0.0,-1.0
1455387470,1455387317,0.059049416,0.034639273,-0.048378382,0.55967987,0.0,0.0,0.0,-1.0
1455427552,1455427362,0.060252205,0.03415064,-0.048316207,0.5598831,0.0,0.0,0.0,-1.0
1455471516,1455471316,0.06082994,0.03457849,-0.04380051,0.55921966,0.0,0.0,0.0,-1.0
1455515451,1455515310,0.060257863,0.033433918,-0.045260135,0.5559705,0.0,0.0,0.0,-1.0
1455555478,1455555340,0.05498189,0.038978793,-0.040031713,0.55707383,0.0,0.0,0.0,-1.0
1455599550,1455599352,0.05092329,0.043270197,-0.0468957,0.5583034,0.0,0.0,0.0,-1.0
1455640281,1455640078,0.051766228,0.043814894,-0.04297525,0.55256975,0.0,0.0,0.0,-1.0
1455684218,1455684078,0.046886995,0.043058924,-0.043487884,0.5586851,0.0,0.0,0.0,-1.0
1455724221,1455724078,0.053824104,0.04494297,-0.043864466,0.5603288,0.0,0.0,0.0,-1.0
1455768252,1455768078,0.05957569,0.041050866,-0.043914713,0.55913156,0.0,0.0,0.0,-1.0
1455808286,1455808078,0.051945906,0.04401176,-0.042916827,0.55945855,0.0,0.0,0.0,-1.0
1455853096,1455852930,0.048057243,0.044389434,-0.043556318,0.5570621,0.0,0.0,0.0,-1.0
1455893075,1455892923,0.039866954,0.041431524,-0.04393451,0.5531236,0.0,0.0,0.0,-1.0
1455937117,1455936919,0.042025886,0.04063495,-0.04466873,0.5552212,0.0,0.0,0.0,-1.0
1455977108,1455976910,0.046087444,0.04036272,-0.043470092,0.5550161,0.0,0.0,0.0,-1.0
1456017912,1456017713,0.04487544,0.037914008,-0.04827574,0.5523767,0.0,0.0,0.0,-1.0
1456057889,1456057723,0.04561846,0.03672866,-0.046833012,0.55342907,0.0,0.0,0.0,-1.0
1456101908,1456101710,0.049908083,0.040207375,-0.04495142,0.55040634,0.0,0.0,0.0,-1.0
1456145914,1456145708,0.05118457,0.0378563,-0.047391146,0.5531757,0.0,0.0,0.0,-1.0
1456185945,1456185704,0.05446277,0.036804546,-0.05417683,0.5553768,0.0,0.0,0.0,-1.0
1456229891,1456229703,0.05669446,0.041527845,-0.05637527,0.5515952,0.0,0.0,0.0,-1.0
1456269907,1456269703,0.056550562,0.039929178,-0.057177573,0.5529208,0.0,0.0,0.0,-1.0
1456310674,1456310502,0.05584481,0.03649829,-0.055653296,0.55143297,0.0,0.0,0.0,-1.0
1456350689,1456350502,0.06094449,0.044914816,-0.05205302,0.5508078,0.0,0.0,0.0,-1.0
1456394732,1456394502,0.057778988,0.046538394,-0.050547466,0.55253375,0.0,0.0,0.0,-1.0
1456434720,1456434502,0.054962527,0.044393588,-0.053896785,0.55031204,0.0,0.0,0.0,-1.0
1456478698,1456478509,0.050921407,0.048126932,-0.050823912,0.549817,0.0,0.0,0.0,-1.0
1456518692,1456518502,0.054359045,0.047944505,-0.047658574,0.54818326,0.0,0.0,0.0,-1.0
1456559483,1456559302,0.06291013,0.047786,-0.05655363,0.54692304,0.0,0.0,0.0,-1.0
1456599489,1456599303,0.0731554,0.048813477,-0.05805177,0.54499924,0.0,0.0,0.0,-1.0
1456643541,1456643309,0.05667609,0.041221634,-0.052940324,0.5466972,0.0,0.0,0.0,-1.0
1456683530,1456683316,0.058523983,0.036387697,-0.06062192,0.54636675,0.0,0.0,0.0,-1.0
1456728252,1456728103,0.06942652,0.03404254,-0.05516525,0.546905,0.0,0.0,0.0,-1.0
1456772331,1456772148,0.06367473,0.038399044,-0.05943168,0.544978,0.0,0.0,0.0,-1.0
1456812327,1456812126,0.058965947,0.039087705,-0.053651366,0.54075027,0.0,0.0,0.0,-1.0
1456852316,1456852124,0.06728216,0.035524197,-0.06077094,0.545024,0.0,0.0,0.0,-1.0
1456896225,1456896078,0.057945486,0.04050058,-0.04759569,0.5413127,0.0,0.0,0.0,-1.0
1456936215,1456936078,0.04954554,0.03910621,-0.051098518,0.54112643,0.0,0.0,0.0,-1.0
1456977045,1456976909,0.054347634,0.04110792,-0.047767483,0.5427841,0.0,0.0,0.0,-1.0
1457021113,1457020903,0.05647965,0.044519525,-0.045548014,0.5439608,0.0,0.0,0.0,-1.0
1457061088,1457060902,0.053127248,0.045422938,-0.04624783,0.54326814,0.0,0.0,0.0,-1.0
1457105056,1457104909,0.053943872,0.043490555,-0.047939666,0.54414535,0.0,0.0,0.0,-1.0
1457145035,1457144902,0.055680912,0.042835776,-0.04456238,0.5449232,0.0,0.0,0.0,-1.0
1457185848,1457185703,0.053301845,0.043327916,-0.04091424,0.5440839,0.0,0.0,0.0,-1.0
1457225853,1457225703,0.05326747,0.04764378,-0.03987288,0.54445696,0.0,0.0,0.0,-1.0
1457269901,1457269714,0.049114376,0.0463773,-0.044628136,0.5450162,0.0,0.0,0.0,-1.0
1457309885,1457309715,0.048711795,0.044378866,-0.04039369,0.5444467,0.0,0.0,0.0,-1.0
1457353842,1457353702,0.057350043,0.0435689,-0.048662577,0.54408544,0.0,0.0,0.0,-1.0
1457393839,1457393703,0.059935447,0.046666037,-0.045833755,0.54338306,0.0,0.0,0.0,-1.0
1457437875,1457437703,0.05536821,0.041764192,-0.042907592,0.5468036,0.0,0.0,0.0,-1.0
1457478670,1457478502,0.055169974,0.04164785,-0.042726357,0.5477845,0.0,0.0,0.0,-1.0
1457522665,1457522509,0.053715967,0.04329753,-0.04542017,0.5454451,0.0,0.0,0.0,-1.0
1457562660,1457562509,0.05717035,0.041891176,-0.044096008,0.54621786,0.0,0.0,0.0,-1.0
1457606682,1457606502,0.05758872,0.042239845,-0.04452708,0.5431136,0.0,0.0,0.0,-1.0
1457650656,1457650509,0.056264833,0.03978988,-0.04279327,0.54844797,0.0,0.0,0.0,-1.0
1457690668,1457690509,0.0521432,0.037171103,-0.039399367,0.54681,0.0,0.0,0.0,-1.0
1457735505,1457735332,0.056049235,0.041546606,-0.045115758,0.54781926,0.0,0.0,0.0,-1.0
1457775497,1457775323,0.05933967,0.043285333,-0.043748874,0.54786247,0.0,0.0,0.0,-1.0
1457819495,1457819303,0.061061047,0.04132277,-0.04604836,0.54917634,0.0,0.0,0.0,-1.0
1457859502,1457859302,0.059142392,0.04284644,-0.047217388,0.5457044,0.0,0.0,0.0,-1.0
1457903510,1457903318,0.051647272,0.043719105,-0.044864178,0.54636115,0.0,0.0,0.0,-1.0
1457944230,1457944083,0.059535008,0.04328316,-0.043439973,0.5501132,0.0,0.0,0.0,-1.0
1457988238,1457988085,0.058605023,0.04928886,-0.049071595,0.54569066,0.0,0.0,0.0,-1.0
1458028238,1458028085,0.057570394,0.049817935,-0.047702383,0.5458854,0.0,0.0,0.0,-1.0
1458072292,1458072125,0.055475987,0.047320973,-0.04292147,0.53993076,0.0,0.0,0.0,-1.0
1458112264,1458112119,0.05786336,0.048488572,-0.04066286,0.5317244,0.0,0.0,0.0,-1.0
1458153038,1458152903,0.056765474,0.04693632,-0.04051853,0.520239,0.0,0.0,0.0,-1.0
1458197142,1458196903,0.052186605,0.045191716,-0.040241953,0.5124738,0.0,0.0,0.0,-1.0
1458237049,1458236902,0.051772647,0.045401927,-0.03940367,0.5080151,0.0,0.0,0.0,-1.0
1458281068,1458280909,0.058729004,0.04379185,-0.038057536,0.49831864,0.0,0.0,0.0,-1.0
1458321060,1458320926,0.053871598,0.0391719,-0.041940697,0.49621966,0.0,0.0,0.0,-1.0
1458365892,1458365710,0.04789042,0.039422236,-0.03651588,0.49243206,0.0,0.0,0.0,-1.0
1458405897,1458405710,0.05054741,0.037256967,-0.038880147,0.48925385,0.0,0.0,0.0,-1.0
1458449864,1458449717,0.048273694,0.039310727,-0.041025523,0.49290797,0.0,0.0,0.0,-1.0
1458489858,1458489710,0.04817597,0.0424696,-0.040616628,0.49378514,0.0,0.0,0.0,-1.0
1458529853,1458529713,0.17256723,0.14447829,0.27769303,0.48758236,0.0,0.0,0.0,1.0
1458573888,1458573710,0.17312117,0.14146918,0.23421606,0.49471316,0.0,0.0,0.0,1.0
1458614675,1458614485,0.15416391,0.13024811,0.17504863,0.5028264,0.0,0.0,0.0,1.0
1458654696,1458654510,0.1086867,0.09181515,0.12735352,0.5000102,0.0,0.0,0.0,1.0
1458694715,1458694514,0.08555478,0.07229047,0.1019177,0.5060623,0.0,0.0,0.0,1.0
1458734639,1458734502,0.070866555,0.06060658,0.0857704,0.51182234,0.0,0.0,0.0,1.0
1458778685,1458778538,0.0363752,0.04488194,0.06550084,0.5212153,0.0,0.0,0.0,1.0
1458818647,1458818509,0.021048937,0.03770478,0.057547737,0.52377623,0.0,0.0,0.0,1.0
1458859502,1458859355,0.026577838,0.041757777,0.04489834,0.5351606,0.0,0.0,0.0,1.0
1458899510,1458899355,0.032937087,0.044785354,0.041776508,0.54089385,0.0,0.0,0.0,1.0
1458943453,1458943316,0.03817357,0.034907863,0.02634609,0.54885685,0.0,0.0,0.0,1.0
1458987490,1458987345,0.043519437,0.031700715,0.019082384,0.553274,0.0,0.0,0.0,1.0
1459027494,1459027348,0.04881139,0.029481202,0.009447273,0.565147,0.0,0.0,0.0,1.0
1459072391,1459072151,0.051156614,0.027996978,0.005914729,0.56685793,0.0,0.0,0.0,1.0
1459112318,1459112134,0.050516903,0.022622474,-0.000102200545,0.5756638,0.0,0.0,0.0,1.0
1459156269,1459156082,0.05064394,0.01819288,-0.0052144444,0.58048433,0.0,0.0,0.0,1.0
1459196290,1459196109,0.057309903,0.014413997,-0.0029671313,0.5856943,0.0,0.0,0.0,1.0
1459240327,1459240085,0.058529966,0.013407753,-0.012985326,0.5882103,0.0,0.0,0.0,1.0
1459281141,1459280908,0.060137767,0.01216911,-0.015537571,0.5908384,0.0,0.0,0.0,1.0
1459325049,1459324903,0.06354142,0.0029566402,-0.019264538,0.6010821,0.0,0.0,0.0,1.0
1459365090,1459364910,0.06624493,0.0017106286,-0.020413635,0.6020306,0.0,0.0,0.0,1.0
1459413054,1459412910,0.0717629,0.0023263663,-0.023504663,0.6024647,0.0,0.0,0.0,1.0
1459457126,1459456923,0.06985607,-0.0013970612,-0.028102,0.60660094,0.0,0.0,0.0,1.0
1459497150,1459496925,0.07002328,-0.0027413704,-0.026305854,0.6078658,0.0,0.0,0.0,1.0
1459537871,1459537709,0.07476274,-0.00330721,-0.026812386,0.6016064,0.0,0.0,0.0,1.0
1459581863,1459581720,0.0739133,-0.0080295885,-0.029198974,0.6029833,0.0,0.0,0.0,1.0
1459629907,1459629709,0.07306272,-0.0076895766,-0.03020347,0.6010762,0.0,0.0,0.0,1.0
1459677889,1459677703,0.07295973,-0.0056558717,-0.032575596,0.5994857,0.0,0.0,0.0,1.0
1459717946,1459717702,0.07857199,-0.009796465,-0.025984656,0.59363925,0.0,0.0,0.0,1.0
1459766645,1459766479,0.07562618,-0.017682882,-0.030252418,0.59490013,0.0,0.0,0.0,1.0
1459806677,1459806502,0.07554396,-0.02124344,-0.02796597,0.58581495,0.0,0.0,0.0,1.0
1459846711,1459846508,0.07408021,-0.025059534,-0.026890926,0.5897163,0.0,0.0,0.0,1.0
1459890688,1459890543,0.07037564,-0.025203437,-0.0332027,0.58274484,0.0,0.0,0.0,1.0
1459930675,1459930510,0.072197475,-0.026689647,-0.026816452,0.5829526,0.0,0.0,0.0,1.0
1459974689,1459974502,0.06993939,-0.024862416,-0.023996377,0.5801992,0.0,0.0,0.0,1.0
1460015488,1460015302,0.06465145,-0.019595023,-0.024453234,0.5780398,0.0,0.0,0.0,1.0
1460059462,1460059318,0.05931672,-0.014254799,-0.027061962,0.5668429,0.0,0.0,0.0,1.0
1460099462,1460099302,0.050183006,-0.009801869,-0.0215969,0.5626462,0.0,0.0,0.0,1.0
1460143518,1460143315,0.048282295,-0.00508548,-0.019538648,0.5550375,0.0,0.0,0.0,1.0
1460183493,1460183309,0.045430355,-0.009728303,-0.027320866,0.54849863,0.0,0.0,0.0,1.0
1460224306,1460224114,0.052911956,-0.013752572,-0.017961288,0.5482645,0.0,0.0,0.0,1.0
1460268290,1460268088,0.053155474,-0.015232629,-0.020935854,0.5410416,0.0,0.0,0.0,1.0
1460312380,1460312125,0.052166,-0.021796828,-0.017801974,0.53716236,0.0,0.0,0.0,1.0
1460352349,1460352124,0.04942797,-0.022448363,-0.022833686,0.53868556,0.0,0.0,0.0,1.0
