timestamp,states[0],states[1],states[2],states[3],states[4],states[5],states[6],states[7],states[8],states[9],states[10],states[11],states[12],states[13],states[14],states[15],states[16],states[17],states[18],states[19],states[20],states[21],states[22],states[23],n_states,vibe[0],vibe[1],vibe[2],covariances[0],covariances[1],covariances[2],covariances[3],covariances[4],covariances[5],covariances[6],covariances[7],covariances[8],covariances[9],covariances[10],covariances[11],covariances[12],covariances[13],covariances[14],covariances[15],covariances[16],covariances[17],covariances[18],covariances[19],covariances[20],covariances[21],covariances[22],covariances[23],control_mode_flags,pos_horiz_accuracy,pos_vert_accuracy,mag_test_ratio,vel_test_ratio,pos_test_ratio,hgt_test_ratio,tas_test_ratio,hagl_test_ratio,beta_test_ratio,time_slip,gps_check_fail_flags,filter_fault_flags,innovation_check_flags,solution_status_flags,nan_flags,health_flags,timeout_flags,pre_flt_fail
1430858361,-0.9996926,0.001622677,-0.001941794,0.024663163,0.04367565,-0.0070199235,0.013245962,8.843461,-10.283248,-0.26282567,1.2739175e-05,-1.858241e-05,-2.1037295e-05,0.0002083503,-0.00038729847,-0.0007304348,0.1840634,0.04931962,0.436957,0.0,0.0,0.0,0.0,0.0,0.0,1.1897333e-10,8.770726e-06,0.00061421335,6.8279775e-07,5.5819396e-06,5.5827677e-06,3.692814e-05,0.011902305,0.011902149,0.009602083,0.046490032,0.04649003,0.05692975,1.0447993e-11,1.0448124e-11,1.829949e-11,5.2925e-08,5.2925063e-08,5.000007e-08,0.0,0.0,0.0,0.0,0.0,0.0,0.0,0.0,663,0.3049263,0.23859955,0.040115483,0.022886146,0.01525759,0.018068595,0.0,0.0,0.0,0.004058,0,0,0,831,0,0,0,0
1431062656,-0.9996918,0.0015379536,-0.002034539,0.024694137,0.04068265,-0.0008974779,0.0030744257,8.850563,-10.277575,-0.29360053,1.2721523e-05,-1.8594068e-05,-2.1017597e-05,0.00020833961,-0.00038727923,-0.0007192832,0.1840634,0.04931962,0.436957,0.0,0.0,0.0,0.0,0.0,0.0,1.1969888e-10,8.866841e-06,0.00048146307,6.827818e-07,5.5743512e-06,5.5751684e-06,3.6949772e-05,0.011847959,0.011847806,0.00953355,0.046318352,0.046318352,0.056284785,1.0443601e-11,1.0443738e-11,1.8304969e-11,5.2925913e-08,5.2925976e-08,5e-08,0.0,0.0,0.0,0.0,0.0,0.0,0.0,0.0,663,0.30436277,0.23724414,0.049703438,0.023720413,0.016781915,0.0066081323,0.0,0.0,0.0,0.004357,0,0,0,831,0,0,0,0
1431263180,-0.9996858,0.0016226658,-0.0020892683,0.024925228,0.035592664,0.00763879,0.0078611355,8.853946,-10.267185,-0.28090045,1.2684965e-05,-1.8623365e-05,-2.0939653e-05,0.0002083508,-0.00038728007,-0.00072287745,0.1840634,0.04931962,0.436957,0.0,0.0,0.0,0.0,0.0,0.0,1.9063744e-08,0.00013131951,0.0026279048,6.8290814e-07,5.5771584e-06,5.57802e-06,3.697026e-05,0.011863799,0.011863644,0.009549218,0.046369884,0.046369873,0.05643494,1.0444763e-11,1.0444906e-11,1.8308575e-11,5.2926815e-08,5.292688e-08,5.0000036e-08,0.0,0.0,0.0,0.0,0.0,0.0,0.0,0.0,663,0.30453202,0.23756039,0.13063264,0.021734634,0.017711475,0.0006348399,0.0,0.0,0.0,0.004084,0,0,0,831,0,0,0,0
1431464236,-0.9996814,0.0012018783,-0.002201638,0.02511898,0.043567345,0.026825525,0.008308295,8.854167,-10.258166,-0.25860587,1.2671797e-05,-1.8659422e-05,-2.0903566e-05,0.00020836125,-0.00038728677,-0.00072878407,0.1840634,0.04931962,0.436957,0.0,0.0,0.0,0.0,0.0,0.0,3.5067856e-08,0.00025330656,0.005139924,6.8310425e-07,5.5853566e-06,5.586123e-06,3.7011643e-05,0.011932369,0.011932166,0.009520991,0.0466922,0.046692178,0.056109156,1.0450519e-11,1.0450667e-11,1.8318081e-11,5.2927764e-08,5.2927827e-08,5e-08,0.0,0.0,0.0,0.0,0.0,0.0,0.0,0.0,663,0.30558857,0.23687372,0.020963738,0.024272325,0.020015808,0.0064995685,0.0,0.0,0.0,0.0043409998,0,0,0,831,0,0,0,0
1431665039,-0.99966735,0.0018356185,-0.0011337465,0.02569961,0.048362847,0.027955955,0.026914947,8.858886,-10.245588,-0.23160464,1.26471605e-05,-1.865595e-05,-2.0934998e-05,0.0002083674,-0.00038730184,-0.00073552725,0.1840634,0.04931962,0.436957,0.0,0.0,0.0,0.0,0.0,0.0,2.5038e-08,0.00019500878,0.0045203413,6.84299e-07,5.5847845e-06,5.5857977e-06,3.6967253e-05,0.011911669,0.011911561,0.009532724,0.046596944,0.046596926,0.056153987,1.0447414e-11,1.0447572e-11,1.8305432e-11,5.2928634e-08,5.2928698e-08,5e-08,0.0,0.0,0.0,0.0,0.0,0.0,0.0,0.0,663,0.30527672,0.23696832,0.008980884,0.012088551,0.022823235,0.037575617,0.0,0.0,0.0,0.004331,0,0,0,831,0,0,0,0
1431869774,-0.99968773,0.0021435758,-0.0020313158,0.024816407,0.010198933,0.02921231,0.019670459,8.853646,-10.234376,-0.22722197,1.2646844e-05,-1.8709354e-05,-2.088786e-05,0.00020837331,-0.00038729527,-0.00073496957,0.1840634,0.04931962,0.436957,0.0,0.0,0.0,0.0,0.0,0.0,1.9600241e-08,0.00017742054,0.004509297,6.8258043e-07,5.5864066e-06,5.5874893e-06,3.698962e-05,0.011925809,0.011925713,0.009552103,0.046623155,0.046623133,0.05634969,1.0449069e-11,1.0449231e-11,1.8310697e-11,5.2929543e-08,5.2929607e-08,5.0000036e-08,0.0,0.0,0.0,0.0,0.0,0.0,0.0,0.0,663,0.30536255,0.23738089,0.0155003145,0.037685588,0.024500877,0.029908251,0.0,0.0,0.0,0.004281,0,0,0,831,0,0,0,0
1432074690,-0.9997022,0.0028413418,-0.0031397427,0.024033392,0.012940107,0.034569655,0.011965386,8.852608,-10.220274,-0.18546282,1.2634016e-05,-1.8724211e-05,-2.0922515e-05,0.0002083829,-0.00038731485,-0.0007455486,0.1840634,0.04931962,0.436957,0.0,0.0,0.0,0.0,0.0,0.0,5.8504685e-07,0.0006953183,0.013706817,6.814776e-07,5.594394e-06,5.5956143e-06,3.7031063e-05,0.012001543,0.012001447,0.0095260935,0.046934642,0.0469346,0.05604204,1.0454575e-11,1.04547464e-11,1.8319806e-11,5.29305e-08,5.2930563e-08,5e-08,0.0,0.0,0.0,0.0,0.0,0.0,0.0,0.0,663,0.30638087,0.236732,0.079881884,0.023876974,0.023655716,0.083221994,0.0,0.0,0.0,0.004398,0,0,0,831,0,0,0,0
1432274551,-0.99948126,0.008542222,-0.024378741,0.01923429,-0.14054966,0.0022103176,-0.15797867,8.843826,-10.199968,-0.16599897,1.2604801e-05,-1.8729048e-05,-2.117455e-05,0.00020834012,-0.00038734628,-0.0007552304,0.1840634,0.04931962,0.436957,0.0,0.0,0.0,0.0,0.0,0.0,5.408403e-07,0.0008660758,0.014217349,6.783693e-07,5.446473e-06,5.4318334e-06,3.7039204e-05,0.010775329,0.01077829,0.009388663,0.040308967,0.040308926,0.055705484,1.035258e-11,1.0352761e-11,1.832476e-11,5.2931334e-08,5.2931405e-08,5e-08,0.0,0.0,0.0,0.0,0.0,0.0,0.0,0.0,663,0.2839329,0.23602009,0.08316499,0.023231793,0.021212853,0.009964108,0.0,0.0,0.0,0.004259,0,0,0,831,0,0,0,0
1432475400,-0.9998095,0.008751609,-0.011252454,0.013338544,-0.2033642,-0.09161143,-0.86143047,8.813757,-10.207564,-0.30539083,1.26049335e-05,-1.872854e-05,-2.1309865e-05,0.00020828267,-0.00038733918,-0.0007460282,0.1840634,0.04931962,0.436957,0.0,0.0,0.0,0.0,0.0,0.0,7.3908865e-07,0.001231522,0.017385026,6.695296e-07,5.5973564e-06,5.5988307e-06,3.70799e-05,0.012573322,0.012577211,0.009568368,0.04710885,0.047108985,0.056442264,1.045689e-11,1.0457071e-11,1.832975e-11,5.2932222e-08,5.2932318e-08,5e-08,0.0,0.0,0.0,0.0,0.0,0.0,0.0,0.0,663,0.30694923,0.23757581,0.04290569,0.023231793,0.021212853,0.019727036,0.0,0.0,0.0,0.004308,0,0,0,831,0,0,0,0
1432675918,-0.99994636,0.006829305,-0.00067667593,0.0077688424,-0.23703192,-0.116816685,-1.0304844,8.776919,-10.222805,-0.5284386,1.26423265e-05,-1.8652125e-05,-2.1344029e-05,0.00020877688,-0.00038759847,-0.00073737325,0.1840634,0.04931962,0.436957,0.0,0.0,0.0,0.0,0.0,0.0,9.137616e-07,0.0013995111,0.01814349,6.642602e-07,5.406238e-06,5.4095176e-06,3.704417e-05,0.011220989,0.011225115,0.009421237,0.040465146,0.040465325,0.056027737,1.0343121e-11,1.03432705e-11,1.831989e-11,5.292983e-08,5.2929934e-08,5e-08,0.0,0.0,0.0,0.0,0.0,0.0,0.0,0.0,663,0.2844828,0.23670179,0.06147049,0.09945931,0.014290269,0.026106361,0.0,0.0,0.0,0.00405,0,0,0,831,0,0,0,0
1432877015,-0.9995679,0.023626348,0.016551388,0.0056549804,-0.2210599,-0.1915818,-0.9921227,8.731449,-10.25286,-0.72199816,1.26429495e-05,-1.8651383e-05,-2.149413e-05,0.00020877879,-0.0003876623,-0.0007389236,0.1840634,0.04931962,0.436957,0.0,0.0,0.0,0.0,0.0,0.0,8.828059e-07,0.0013940736,0.018597677,6.6846627e-07,5.5754867e-06,5.587094e-06,3.703538e-05,0.012566974,0.012566262,0.00959013,0.04722602,0.047226623,0.05663428,1.0443835e-11,1.0443986e-11,1.8321194e-11,5.2930726e-08,5.293081e-08,5.0000054e-08,0.0,0.0,0.0,0.0,0.0,0.0,0.0,0.0,663,0.30733147,0.23797958,0.079905145,0.09945931,0.014290269,0.048567984,0.0,0.0,0.0,0.004316,0,0,0,831,0,0,0,0
1433081780,-0.9992762,0.018926037,0.032733332,0.0041894163,-0.13472739,-0.33771217,-0.9599213,8.700454,-10.324869,-0.90735537,1.27840685e-05,-1.8615541e-05,-2.161861e-05,0.00020898359,-0.0003883175,-0.0007432117,0.1840634,0.04931962,0.436957,0.0,0.0,0.0,0.0,0.0,0.0,9.331591e-07,0.0016617362,0.020231206,6.702915e-07,5.423561e-06,5.394055e-06,3.705024e-05,0.0111540025,0.011141038,0.009396122,0.04078351,0.04078389,0.055719543,1.0335358e-11,1.0335432e-11,1.8327565e-11,5.292879e-08,5.2928897e-08,5e-08,0.0,0.0,0.0,0.0,0.0,0.0,0.0,0.0,663,0.28560007,0.23604988,0.05572694,0.07728152,0.00867085,0.012483738,0.0,0.0,0.0,0.004274,0,0,0,831,0,0,0,0
1433282613,-0.9994354,0.0018086337,0.03331405,0.003987093,-0.015519306,-0.40941292,-0.94810206,8.698101,-10.39895,-1.0641153,1.2782391e-05,-1.8534325e-05,-2.1694863e-05,0.00020923885,-0.00038824885,-0.0007536515,0.1840634,0.04931962,0.436957,0.0,0.0,0.0,0.0,0.0,0.0,8.6133514e-07,0.0015724646,0.018526109,6.6752415e-07,5.4176776e-06,5.3740077e-06,3.7015543e-05,0.011134557,0.011115636,0.009412569,0.040892877,0.040892668,0.055902768,1.033386e-11,1.0333893e-11,1.8319266e-11,5.2928332e-08,5.2928474e-08,5.0000036e-08,0.0,0.0,0.0,0.0,0.0,0.0,0.0,0.0,663,0.2859817,0.23643766,0.029085465,0.055640407,0.011489814,0.078345545,0.0,0.0,0.0,0.004313,0,0,0,831,0,0,0,0
1433483449,-0.9996606,-0.011444017,0.022936193,0.0046545616,0.064390786,-0.41389486,-0.94125664,8.712581,-10.473747,-1.2144637,1.2735052e-05,-1.8488001e-05,-2.1794005e-05,0.0002093232,-0.00038807385,-0.0007651107,0.1840634,0.04931962,0.436957,0.0,0.0,0.0,0.0,0.0,0.0,7.494412e-07,0.0015579093,0.018113734,6.6474655e-07,5.3871645e-06,5.3717326e-06,3.704673e-05,0.011095931,0.011079956,0.009429978,0.040935315,0.040934,0.056094732,1.03315785e-11,1.033158e-11,1.8323582e-11,5.2927916e-08,5.2928065e-08,5e-08,0.0,0.0,0.0,0.0,0.0,0.0,0.0,0.0,663,0.28612816,0.23684326,0.08774908,0.027716806,0.013245623,0.10923034,0.0,0.0,0.0,0.004325,0,0,0,831,0,0,0,0
1433688222,-0.99969536,-0.021128027,0.01107004,0.006346111,0.106653586,-0.3942644,-0.92589694,8.737353,-10.566106,-1.4106512,1.279506e-05,-1.8459326e-05,-2.18792e-05,0.00020958864,-0.00038822915,-0.00076408504,0.1840634,0.04931962,0.436957,0.0,0.0,0.0,0.0,0.0,0.0,6.8077753e-07,0.0015864047,0.0182663,6.6456533e-07,5.369842e-06,5.382853e-06,3.702458e-05,0.011097713,0.011087636,0.009402373,0.041235972,0.04123339,0.055782616,1.0334298e-11,1.0334283e-11,1.8319707e-11,5.292761e-08,5.2927728e-08,5e-08,0.0,0.0,0.0,0.0,0.0,0.0,0.0,0.0,663,0.2871748,0.23618343,0.02051042,0.055834014,0.012446688,0.02179883,0.0,0.0,0.0,0.004323,0,0,0,831,0,0,0,0
1433888757,-0.9995347,-0.02876049,0.0060442095,0.008170127,0.1103738,-0.32904485,-0.9161342,8.762779,-10.638352,-1.6019788,1.28085185e-05,-1.8446395e-05,-2.1959182e-05,0.00020967556,-0.0003882631,-0.0007610446,0.1840634,0.04931962,0.436957,0.0,0.0,0.0,0.0,0.0,0.0,5.6393844e-07,0.0016428841,0.018861119,6.6666547e-07,5.3554168e-06,5.3865415e-06,3.7027712e-05,0.011024077,0.011020219,0.009409199,0.041158225,0.041154902,0.055815246,1.03284725e-11,1.0328456e-11,1.8318872e-11,5.2927334e-08,5.2927405e-08,5e-08,0.0,0.0,0.0,0.0,0.0,0.0,0.0,0.0,663,0.28690264,0.2362525,0.014767894,0.017693937,0.011411792,0.0032811558,0.0,0.0,0.0,0.004065,0,0,0,831,0,0,0,0
1434092939,-0.9995847,-0.027349418,0.0035279486,0.008371312,0.10680956,-0.25150353,-0.950088,8.796105,-10.684988,-1.8011202,1.2737463e-05,-1.8390989e-05,-2.2046612e-05,0.0002096538,-0.00038800112,-0.0007585172,0.1840634,0.04931962,0.436957,0.0,0.0,0.0,0.0,0.0,0.0,6.1465886e-07,0.0017417636,0.020348534,6.6652404e-07,5.349928e-06,5.378849e-06,3.704956e-05,0.011017678,0.011017338,0.009424353,0.041228924,0.041225396,0.05599496,1.0329554e-11,1.0329536e-11,1.8323728e-11,5.292709e-08,5.292711e-08,5.0000036e-08,0.0,0.0,0.0,0.0,0.0,0.0,0.0,0.0,663,0.2871486,0.23663254,0.0098956125,0.04516677,0.01421663,0.08279435,0.0,0.0,0.0,0.004238,0,0,0,831,0,0,0,0
1434294619,-0.99946874,-0.031241467,-0.0038484405,0.008457793,0.08807986,-0.19230631,-0.9454778,8.824813,-10.727546,-2.0041394,1.274786e-05,-1.834548e-05,-2.2117343e-05,0.00020980093,-0.00038792644,-0.00075586006,0.1840634,0.04931962,0.436957,0.0,0.0,0.0,0.0,0.0,0.0,5.363134e-07,0.001719457,0.019893793,6.674739e-07,5.344792e-06,5.3820004e-06,3.699997e-05,0.010990231,0.010990823,0.009440987,0.04128578,0.041282605,0.056182496,1.0330743e-11,1.0330718e-11,1.831619e-11,5.2926893e-08,5.2926826e-08,5.000007e-08,0.0,0.0,0.0,0.0,0.0,0.0,0.0,0.0,663,0.28734714,0.23702846,0.07778786,0.029215809,0.013674512,0.058514602,0.0,0.0,0.0,0.004349,0,0,0,831,0,0,0,0
1434498643,-0.99933213,-0.034474477,-0.0069770594,0.009902052,0.029972255,-0.10434648,-0.9415061,8.837169,-10.753784,-2.2222865,1.2754682e-05,-1.8352473e-05,-2.2275306e-05,0.00020984578,-0.00038789757,-0.00075086043,0.1840634,0.04931962,0.436957,0.0,0.0,0.0,0.0,0.0,0.0,5.3517795e-07,0.0018504254,0.020677468,6.698367e-07,5.347824e-06,5.3908225e-06,3.696966e-05,0.011013264,0.011012825,0.009411906,0.041566685,0.04156413,0.055861898,1.033621e-11,1.03361686e-11,1.8312936e-11,5.292676e-08,5.292656e-08,5e-08,0.0,0.0,0.0,0.0,0.0,0.0,0.0,0.0,663,0.28832415,0.23635122,0.049072858,0.03819529,0.022948226,0.048006415,0.0,0.0,0.0,0.004338,0,0,0,831,0,0,0,0
1434699453,-0.9994812,-0.028527262,-0.007587884,0.012883813,-0.007308541,-0.052129887,-0.930857,8.84618,-10.767658,-2.4209623,1.2775326e-05,-1.8304572e-05,-2.2382263e-05,0.00021001227,-0.00038773174,-0.00074798585,0.1840634,0.04931962,0.436957,0.0,0.0,0.0,0.0,0.0,0.0,5.7718125e-07,0.0019347126,0.02248311,6.7175125e-07,5.34289e-06,5.3708177e-06,3.693756e-05,0.010958587,0.010957146,0.009423835,0.041497488,0.041495673,0.056008328,1.0334165e-11,1.03341025e-11,1.8303909e-11,5.2926598e-08,5.292624e-08,5.0000036e-08,0.0,0.0,0.0,0.0,0.0,0.0,0.0,0.0,663,0.28808534,0.2366608,0.02466461,0.037368186,0.022164363,0.030513115,0.0,0.0,0.0,0.004361,0,0,0,831,0,0,0,0
1434899916,-0.9995104,-0.027329622,-0.0013461208,0.015180344,-0.05595746,0.00035547,-0.9384074,8.843272,-10.772915,-2.630989,1.2816766e-05,-1.827001e-05,-2.2463688e-05,0.0002102346,-0.00038757114,-0.0007414081,0.1840634,0.04931962,0.436957,0.0,0.0,0.0,0.0,0.0,0.0,5.9409564e-07,0.0018297677,0.021297913,6.7420285e-07,5.3386043e-06,5.365181e-06,3.6958943e-05,0.010934445,0.01093181,0.009437572,0.04148458,0.041483432,0.056177437,1.0335676e-11,1.0335593e-11,1.8309078e-11,5.2926534e-08,5.2925945e-08,5.0000036e-08,0.0,0.0,0.0,0.0,0.0,0.0,0.0,0.0,663,0.28804168,0.2370178,0.018304406,0.05466297,0.023251211,0.12548152,0.0,0.0,0.0,0.004048,0,0,0,831,0,0,0,0
1435105063,-0.999469,-0.02562107,0.009390873,0.017811202,-0.06520483,0.05167155,-0.94572526,8.829776,-10.764589,-2.819859,1.2831223e-05,-1.8265357e-05,-2.2548964e-05,0.00021028558,-0.00038754154,-0.0007413272,0.1840634,0.04931962,0.436957,0.0,0.0,0.0,0.0,0.0,0.0,5.413534e-07,0.0016946583,0.019311257,6.781587e-07,5.340007e-06,5.359061e-06,3.6975667e-05,0.010919158,0.010914581,0.009450674,0.04148554,0.04148488,0.05634073,1.03375876e-11,1.0337482e-11,1.831418e-11,5.292653e-08,5.292568e-08,5.000007e-08,0.0,0.0,0.0,0.0,0.0,0.0,0.0,0.0,663,0.28804588,0.23736203,0.0072414945,0.03311445,0.025463866,0.048144855,0.0,0.0,0.0,0.004326,0,0,0,831,0,0,0,0
1435305799,-0.9993167,-0.029532295,0.012442523,0.018421357,-0.043599967,0.10016933,-0.94263494,8.81552,-10.74745,-3.0315275,1.2852632e-05,-1.8266182e-05,-2.2600017e-05,0.00021037752,-0.00038747108,-0.000737528,0.1840634,0.04931962,0.436957,0.0,0.0,0.0,0.0,0.0,0.0,5.3438225e-07,0.0017741204,0.020399984,6.8017516e-07,5.346709e-06,5.3696626e-06,3.694516e-05,0.010949972,0.010943001,0.009420405,0.041738812,0.041738458,0.05600902,1.03438655e-11,1.03437415e-11,1.831101e-11,5.2926634e-08,5.2925405e-08,5.0000036e-08,0.0,0.0,0.0,0.0,0.0,0.0,0.0,0.0,663,0.28892434,0.23666225,0.014223148,0.038585547,0.025595354,0.026345363,0.0,0.0,0.0,0.004299,0,0,0,831,0,0,0,0
1435510372,-0.9994377,-0.026981542,0.00976488,0.017347267,-0.033410493,0.14392757,-0.9266494,8.801706,-10.721484,-3.2395847,1.2879427e-05,-1.828438e-05,-2.2739232e-05,0.00021051665,-0.0003873474,-0.00072989124,0.1840634,0.04931962,0.436957,0.0,0.0,0.0,0.0,0.0,0.0,5.2785646e-07,0.0018912598,0.020725384,6.7818945e-07,5.344808e-06,5.3637855e-06,3.6969333e-05,0.010912491,0.010903626,0.009432482,0.041672222,0.041671947,0.056064975,1.0342553e-11,1.0342415e-11,1.8310495e-11,5.2926737e-08,5.2925092e-08,5.000007e-08,0.0,0.0,0.0,0.0,0.0,0.0,0.0,0.0,663,0.2886939,0.23678043,0.0703759,0.04282388,0.026447725,0.04803736,0.0,0.0,0.0,0.004104,0,0,0,831,0,0,0,0
1435714665,-0.9994771,-0.026301587,0.009282586,0.01635754,-0.022352697,0.19971317,-0.91861635,8.787422,-10.6883135,-3.4613721,1.2942948e-05,-1.8319666e-05,-2.2826433e-05,0.00021075598,-0.0003871656,-0.00072065915,0.1840634,0.04931962,0.436957,0.0,0.0,0.0,0.0,0.0,0.0,5.5879025e-07,0.0020396821,0.023164852,6.767821e-07,5.3524686e-06,5.3693834e-06,3.6950492e-05,0.010949497,0.010937491,0.00940822,0.041941766,0.041941293,0.055772908,1.0349594e-11,1.03494505e-11,1.8306974e-11,5.292695e-08,5.2924815e-08,5.0000036e-08,0.0,0.0,0.0,0.0,0.0,0.0,0.0,0.0,663,0.28962573,0.23616289,0.07447662,0.0695111,0.022982094,0.100649446,0.0,0.0,0.0,0.004359,0,0,0,831,0,0,0,0
1435915170,-0.99955755,-0.024612285,0.0059617627,0.015601704,-0.025528645,0.24926189,-0.9304449,8.772987,-10.639414,-3.7151783,1.2948414e-05,-1.8359664e-05,-2.2874638e-05,0.0002110623,-0.00038669215,-0.0006994447,0.1840634,0.04931962,0.436957,0.0,0.0,0.0,0.0,0.0,0.0,4.7353655e-07,0.0017654689,0.021405157,6.753064e-07,5.351502e-06,5.366283e-06,3.6974456e-05,0.010928427,0.010914493,0.009427294,0.041905683,0.041904774,0.055980217,1.0351663e-11,1.03515295e-11,1.8311791e-11,5.2927177e-08,5.2924516e-08,5.0000036e-08,0.0,0.0,0.0,0.0,0.0,0.0,0.0,0.0,663,0.28950036,0.23660138,0.010192069,0.018554145,0.018296542,0.033325695,0.0,0.0,0.0,0.004057,0,0,0,831,0,0,0,0
1436121057,-0.9996032,-0.022871481,0.0050217863,0.015659649,-0.020814935,0.2942202,-0.91494733,8.760468,-10.593877,-3.9362993,1.3043542e-05,-1.8381495e-05,-2.2892695e-05,0.00021136373,-0.00038633446,-0.0006893491,0.1840634,0.04931962,0.436957,0.0,0.0,0.0,0.0,0.0,0.0,5.4234704e-07,0.001944825,0.022575438,6.750746e-07,5.3576127e-06,5.3692115e-06,3.6952162e-05,0.010936045,0.01091994,0.009469934,0.04203092,0.042029317,0.05631686,1.0353609e-11,1.0353505e-11,1.8302923e-11,5.292742e-08,5.2924175e-08,5.0000075e-08,0.0,0.0,0.0,0.0,0.0,0.0,0.0,0.0,663,0.28993145,0.23731174,0.013452014,0.09138865,0.019256467,0.013302662,0.0,0.0,0.0,0.004339,0,0,0,831,0,0,0,0
1436321037,-0.9996777,-0.018853884,0.007774093,0.015118239,-0.02229543,0.33689994,-0.9045672,8.752806,-10.530967,-4.13866,1.30631515e-05,-1.8384064e-05,-2.2916038e-05,0.00021145702,-0.00038612002,-0.00068298134,0.1840634,0.04931962,0.436957,0.0,0.0,0.0,0.0,0.0,0.0,5.025024e-07,0.0017647888,0.020423578,6.7397866e-07,5.3638605e-06,5.368415e-06,3.6914287e-05,0.010933,0.01091584,0.009409322,0.04204319,0.042040735,0.055723038,1.035771e-11,1.03576574e-11,1.8295686e-11,5.2927614e-08,5.292373e-08,5e-08,0.0,0.0,0.0,0.0,0.0,0.0,0.0,0.0,663,0.2899723,0.23605728,0.034494694,0.026797513,0.01549095,0.040086105,0.0,0.0,0.0,0.004338,0,0,0,831,0,0,0,0
1436525573,-0.9997186,-0.012691683,0.013659296,0.014671852,0.014127515,0.35748297,-0.88391113,8.73358,-10.469698,-4.3290997,1.3148974e-05,-1.8468296e-05,-2.2975677e-05,0.0002116809,-0.00038604095,-0.0006801766,0.1840634,0.04931962,0.436957,0.0,0.0,0.0,0.0,0.0,0.0,4.971917e-07,0.001752535,0.020234136,6.73611e-07,5.3724707e-06,5.3671774e-06,3.6932634e-05,0.010918947,0.01090286,0.009421448,0.042025287,0.04202183,0.055871304,1.03596645e-11,1.0359683e-11,1.8298748e-11,5.2927827e-08,5.2923266e-08,5e-08,0.0,0.0,0.0,0.0,0.0,0.0,0.0,0.0,663,0.2899088,0.23637111,0.020890985,0.079766124,0.028586367,0.00011326007,0.0,0.0,0.0,0.004081,0,0,0,831,0,0,0,0
1436726623,-0.99980664,-0.006644086,0.013108875,0.013064643,0.057646945,0.3689011,-0.91444814,8.733635,-10.388144,-4.5162916,1.311806e-05,-1.8471652e-05,-2.3032364e-05,0.00021166203,-0.00038594994,-0.00067656435,0.1840634,0.04931962,0.436957,0.0,0.0,0.0,0.0,0.0,0.0,4.855205e-07,0.0016441814,0.019688759,6.7155764e-07,5.3781364e-06,5.371788e-06,3.6955018e-05,0.010948032,0.010935402,0.009432405,0.04206394,0.042059515,0.056026574,1.0364132e-11,1.0364247e-11,1.8303659e-11,5.2928062e-08,5.2922815e-08,5e-08,0.0,0.0,0.0,0.0,0.0,0.0,0.0,0.0,663,0.29004043,0.23669933,0.05305734,0.028910834,0.031456582,0.014697382,0.0,0.0,0.0,0.0043099998,0,0,0,831,0,0,0,0
1436927397,-0.9999015,-0.0012043447,0.007886392,0.0115565825,0.09567832,0.34337953,-0.917082,8.7325,-10.321644,-4.7153244,1.31785655e-05,-1.8537234e-05,-2.3094251e-05,0.00021184249,-0.0003858175,-0.0006729175,0.1840634,0.04931962,0.436957,0.0,0.0,0.0,0.0,0.0,0.0,4.6465195e-07,0.0014336956,0.01733916,6.6971796e-07,5.3800577e-06,5.3788535e-06,3.6917467e-05,0.010956842,0.010950222,0.009517837,0.042099617,0.042094626,0.056958426,1.0368029e-11,1.0368254e-11,1.8296442e-11,5.292837e-08,5.292245e-08,5.000007e-08,0.0,0.0,0.0,0.0,0.0,0.0,0.0,0.0,663,0.29016244,0.23865965,0.052096788,0.059702292,0.0339721,0.033401936,0.0,0.0,0.0,0.004298,0,0,0,831,0,0,0,0
1437127941,-0.9999064,0.0021013431,-0.0023611824,0.013311138,0.11410974,0.31598794,-0.9000157,8.754477,-10.244946,-4.8795505,1.3133085e-05,-1.8495934e-05,-2.3133296e-05,0.00021157322,-0.00038601653,-0.0006786871,0.1840634,0.04931962,0.436957,0.0,0.0,0.0,0.0,0.0,0.0,4.0755867e-07,0.0013833307,0.016596744,6.720153e-07,5.383854e-06,5.3863896e-06,3.687457e-05,0.010960193,0.0109582525,0.009443642,0.04213298,0.042127945,0.056269944,1.0371719e-11,1.03720635e-11,1.8289667e-11,5.2928637e-08,5.2921905e-08,5e-08,0.0,0.0,0.0,0.0,0.0,0.0,0.0,0.0,663,0.29027733,0.23721287,0.07161621,0.054228958,0.023349384,0.03878412,0.0,0.0,0.0,0.004041,0,0,0,831,0,0,0,0
1437328970,-0.9998522,0.0042639463,0.000113872025,0.016656933,0.108695716,0.28955898,-0.8649849,8.775688,-10.184851,-5.054191,1.3168161e-05,-1.846625e-05,-2.3178734e-05,0.00021148662,-0.00038592223,-0.000679418,0.1840634,0.04931962,0.436957,0.0,0.0,0.0,0.0,0.0,0.0,4.1898497e-07,0.0014828641,0.016967406,6.768632e-07,5.389e-06,5.39375e-06,3.6889214e-05,0.010950044,0.0109500615,0.009448598,0.04214312,0.042138495,0.056382794,1.0375108e-11,1.0375571e-11,1.8295272e-11,5.2928907e-08,5.2921408e-08,5e-08,0.0,0.0,0.0,0.0,0.0,0.0,0.0,0.0,663,0.29031298,0.23745061,0.005290375,0.043943256,0.023011813,0.036234055,0.0,0.0,0.0,0.004278,0,0,0,831,0,0,0,0
1437533884,-0.99973863,0.0106029,0.0063595893,0.019230966,0.120914705,0.23513226,-0.873915,8.781158,-10.140424,-5.227611,1.32617215e-05,-1.8561534e-05,-2.3271552e-05,0.00021166935,-0.0003859488,-0.00068320544,0.1840634,0.04931962,0.436957,0.0,0.0,0.0,0.0,0.0,0.0,3.66128e-07,0.0014289016,0.01651647,6.8230065e-07,5.4010625e-06,5.411949e-06,3.691918e-05,0.011019453,0.011022051,0.009483554,0.042411253,0.042407397,0.05676328,1.0382382e-11,1.038296e-11,1.8305002e-11,5.292925e-08,5.2920992e-08,5.0000036e-08,0.0,0.0,0.0,0.0,0.0,0.0,0.0,0.0,663,0.2912364,0.23825046,0.0024249016,0.079284795,0.019116146,0.02271465,0.0,0.0,0.0,0.004373,0,0,0,831,0,0,0,0
1437737753,-0.9996635,0.013054684,0.005329783,0.021773538,0.15181607,0.1742828,-0.8849886,8.82316,-10.092879,-5.3842187,1.3231149e-05,-1.8454757e-05,-2.3357277e-05,0.00021130206,-0.00038626316,-0.000692078,0.1840634,0.04931962,0.436957,0.0,0.0,0.0,0.0,0.0,0.0,4.477308e-07,0.0015051542,0.017408738,6.8754497e-07,5.408918e-06,5.423919e-06,3.6888818e-05,0.011067736,0.011071174,0.009435095,0.04257045,0.042567793,0.05620771,1.0383916e-11,1.0384597e-11,1.8296767e-11,5.2929586e-08,5.2920512e-08,5e-08,0.0,0.0,0.0,0.0,0.0,0.0,0.0,0.0,663,0.29178458,0.23708165,0.075534835,0.09239081,0.0064509413,0.051422805,0.0,0.0,0.0,0.004246,0,0,0,831,0,0,0,0
1437938683,-0.999671,0.0107959295,-0.0066241375,0.022305423,0.1431171,0.09315616,-0.91031694,8.855595,-10.085338,-5.5195084,1.3358482e-05,-1.8442883e-05,-2.3429393e-05,0.00021109705,-0.00038647378,-0.00070595695,0.1840634,0.04931962,0.436957,0.0,0.0,0.0,0.0,0.0,0.0,4.5847347e-07,0.0014823228,0.017546903,6.8868155e-07,5.4153156e-06,5.4248153e-06,3.690967e-05,0.011100773,0.011101851,0.00944064,0.042598117,0.042596877,0.056315474,1.0385802e-11,1.03865605e-11,1.8302021e-11,5.292998e-08,5.2920182e-08,5e-08,0.0,0.0,0.0,0.0,0.0,0.0,0.0,0.0,663,0.2918818,0.23730882,0.007746743,0.10083884,0.005504366,0.014753281,0.0,0.0,0.0,0.004387,0,0,0,831,0,0,0,0
1438139391,-0.9996394,0.0071027004,-0.014368679,0.021544822,0.10217467,0.029782584,-0.90196097,8.88433,-10.072148,-5.694761,1.3343945e-05,-1.8429413e-05,-2.3481007e-05,0.00021102984,-0.00038656555,-0.00070792565,0.1840634,0.04931962,0.436957,0.0,0.0,0.0,0.0,0.0,0.0,4.7153029e-07,0.0016690014,0.019437805,6.877214e-07,5.425224e-06,5.42322e-06,3.6928228e-05,0.011102734,0.011099352,0.009447311,0.042599075,0.042599153,0.05640956,1.0385675e-11,1.0386493e-11,1.8305232e-11,5.293039e-08,5.2919866e-08,5.0000036e-08,0.0,0.0,0.0,0.0,0.0,0.0,0.0,0.0,663,0.29188734,0.23750697,0.04386563,0.014813279,0.0061361254,0.027404254,0.0,0.0,0.0,0.004291,0,0,0,831,0,0,0,0
1438339959,-0.9996088,0.007759393,-0.01758884,0.020312741,0.026437916,-0.027826542,-0.9023217,8.907056,-10.076885,-5.8498254,1.3364345e-05,-1.8377075e-05,-2.3564326e-05,0.00021080063,-0.00038678478,-0.000716097,0.1840634,0.04931962,0.436957,0.0,0.0,0.0,0.0,0.0,0.0,4.3835138e-07,0.0015887632,0.019275589,6.8639787e-07,5.433749e-06,5.428144e-06,3.6945676e-05,0.011126875,0.011119417,0.009459128,0.042638984,0.042639937,0.05654801,1.0388112e-11,1.0388971e-11,1.8310062e-11,5.293083e-08,5.291962e-08,5.000007e-08,0.0,0.0,0.0,0.0,0.0,0.0,0.0,0.0,663,0.29202554,0.23779826,0.039434835,0.029628247,0.014248319,0.046045043,0.0,0.0,0.0,0.004049,0,0,0,831,0,0,0,0
1438540779,-0.99959767,0.007782355,-0.019677643,0.018887611,-0.07905934,-0.09158272,-0.927883,8.90701,-10.097934,-6.0266614,1.3412871e-05,-1.836742e-05,-2.3683388e-05,0.00021070185,-0.00038678103,-0.00071937306,0.1840634,0.04931962,0.436957,0.0,0.0,0.0,0.0,0.0,0.0,4.5296153e-07,0.0015246513,0.019389383,6.847314e-07,5.4402617e-06,5.431543e-06,3.7024685e-05,0.011160029,0.011150645,0.009470284,0.042675592,0.042676788,0.056679375,1.038993e-11,1.03908175e-11,1.8326774e-11,5.2931323e-08,5.2919436e-08,5.000007e-08,0.0,0.0,0.0,0.0,0.0,0.0,0.0,0.0,663,0.2921513,0.2380743,0.087313905,0.033569258,0.02116823,0.013771465,0.0,0.0,0.0,0.00408,0,0,0,831,0,0,0,0
1438741568,-0.9996762,0.0009660271,-0.016160864,0.01963087,-0.16803348,-0.14388098,-0.92457604,8.895727,-10.138605,-6.1820383,1.3508449e-05,-1.8302275e-05,-2.3736546e-05,0.00021042458,-0.0003869477,-0.0007293643,0.1840634,0.04931962,0.436957,0.0,0.0,0.0,0.0,0.0,0.0,5.801825e-07,0.0016476973,0.019726373,6.845534e-07,5.4384127e-06,5.4291377e-06,3.698872e-05,0.011164886,0.011156914,0.0094044795,0.04266054,0.042661525,0.056019355,1.0390466e-11,1.03913805e-11,1.8318446e-11,5.293184e-08,5.2919237e-08,5e-08,0.0,0.0,0.0,0.0,0.0,0.0,0.0,0.0,663,0.29209942,0.23668408,0.0019280169,0.06903931,0.022320902,0.053305853,0.0,0.0,0.0,0.004075,0,0,0,831,0,0,0,0
1438942383,-0.99977726,-0.0012995654,-0.006276182,0.020112582,-0.22868963,-0.17499904,-0.9478711,8.867245,-10.1750965,-6.3467693,1.3517476e-05,-1.8237466e-05,-2.380609e-05,0.00021023491,-0.00038721232,-0.0007378747,0.1840634,0.04931962,0.436957,0.0,0.0,0.0,0.0,0.0,0.0,7.128756e-07,0.001761151,0.020894019,6.841456e-07,5.432255e-06,5.4308507e-06,3.7012218e-05,0.011179503,0.011173721,0.00941926,0.042630285,0.042630795,0.05616901,1.0390653e-11,1.0391588e-11,1.8322099e-11,5.293238e-08,5.2919173e-08,5.0000036e-08,0.0,0.0,0.0,0.0,0.0,0.0,0.0,0.0,663,0.291995,0.23700002,0.006043874,0.042246852,0.011487665,0.063509576,0.0,0.0,0.0,0.004115,0,0,0,831,0,0,0,0
1439147516,-0.99973387,-0.009215315,0.0035492603,0.020849511,-0.25163224,-0.19999957,-0.94976795,8.821435,-10.231228,-6.5256257,1.361108e-05,-1.8226296e-05,-2.3850429e-05,0.00021007795,-0.00038726703,-0.0007444927,0.1840634,0.04931962,0.436957,0.0,0.0,0.0,0.0,0.0,0.0,7.348533e-07,0.0016865594,0.02037107,6.8489555e-07,5.4394877e-06,5.4390557e-06,3.6986592e-05,0.011232877,0.011227603,0.009390727,0.04286763,0.042867586,0.05582328,1.03949505e-11,1.0395904e-11,1.8317304e-11,5.293295e-08,5.2919113e-08,5e-08,0.0,0.0,0.0,0.0,0.0,0.0,0.0,0.0,663,0.29280576,0.2362695,0.060190853,0.06268101,0.015912132,0.035334326,0.0,0.0,0.0,0.004416,0,0,0,831,0,0,0,0
1439348153,-0.9995693,-0.014310244,0.013973417,0.021479106,-0.22319965,-0.19941795,-0.9799749,8.773806,-10.287781,-6.7232914,1.370528e-05,-1.8240185e-05,-2.3891072e-05,0.00021005518,-0.00038703124,-0.00074079656,0.1840634,0.04931962,0.436957,0.0,0.0,0.0,0.0,0.0,0.0,7.0201094e-07,0.0017043836,0.019265259,6.869272e-07,5.444163e-06,5.439513e-06,3.6989473e-05,0.011215924,0.011209555,0.009401792,0.04273966,0.042739134,0.055858165,1.03900005e-11,1.03909745e-11,1.8315655e-11,5.2933473e-08,5.291906e-08,5e-08,0.0,0.0,0.0,0.0,0.0,0.0,0.0,0.0,663,0.29236758,0.23634332,0.018515192,0.06079476,0.017898234,0.023943368,0.0,0.0,0.0,0.00423,0,0,0,831,0,0,0,0
1439552291,-0.99936044,-0.020270657,0.018627442,0.022821138,-0.15515165,-0.16393147,-0.99279594,8.732757,-10.32858,-6.91433,1.3710116e-05,-1.8275028e-05,-2.3932625e-05,0.00021008594,-0.00038705993,-0.00074301625,0.1840634,0.04931962,0.436957,0.0,0.0,0.0,0.0,0.0,0.0,6.3045724e-07,0.0016715752,0.019241732,6.907339e-07,5.4516463e-06,5.4466386e-06,3.699296e-05,0.01122642,0.011219467,0.009416748,0.04277846,0.04277738,0.056022003,1.0391025e-11,1.0392029e-11,1.831977e-11,5.2934016e-08,5.2919027e-08,5e-08,0.0,0.0,0.0,0.0,0.0,0.0,0.0,0.0,663,0.2924993,0.23668967,0.0034608112,0.03977231,0.01454619,0.037339125,0.0,0.0,0.0,0.004423,0,0,0,831,0,0,0,0
1439753023,-0.99930215,-0.024536142,0.013673288,0.024623362,-0.1037315,-0.112933956,-1.0070297,8.715244,-10.368231,-7.102822,1.3766258e-05,-1.8241239e-05,-2.3963752e-05,0.00020994057,-0.00038713723,-0.00074694265,0.1840634,0.04931962,0.436957,0.0,0.0,0.0,0.0,0.0,0.0,5.6471936e-07,0.0016214364,0.01882638,6.9440847e-07,5.4476254e-06,5.454285e-06,3.700588e-05,0.011232043,0.011227769,0.009429082,0.04280452,0.042802956,0.056152165,1.0390027e-11,1.0391071e-11,1.8322312e-11,5.293455e-08,5.2919024e-08,5.0000036e-08,0.0,0.0,0.0,0.0,0.0,0.0,0.0,0.0,663,0.29258755,0.23696448,0.07401959,0.033764478,0.017479155,0.0035633359,0.0,0.0,0.0,0.004284,0,0,0,831,0,0,0,0
1439953557,-0.99930584,-0.023260634,0.008938465,0.027695823,-0.060595274,-0.049621522,-1.0015045,8.700238,-10.393308,-7.318955,1.3804945e-05,-1.8256633e-05,-2.4023146e-05,0.00020993213,-0.00038701622,-0.0007455056,0.1840634,0.04931962,0.436957,0.0,0.0,0.0,0.0,0.0,0.0,5.093506e-07,0.0016371456,0.018739117,7.0097826e-07,5.4531574e-06,5.4621955e-06,3.698152e-05,0.011284008,0.011282434,0.009399947,0.04312946,0.04312763,0.055814315,1.0395011e-11,1.0396097e-11,1.8318626e-11,5.29351e-08,5.2919052e-08,5e-08,0.0,0.0,0.0,0.0,0.0,0.0,0.0,0.0,663,0.29369557,0.23625053,0.038531523,0.025190344,0.014342013,0.035403308,0.0,0.0,0.0,0.004051,0,0,0,831,0,0,0,0
1440158376,-0.99922127,-0.02335333,0.010366164,0.030068254,-0.017073581,0.01805287,-0.98842245,8.695383,-10.405168,-7.4951124,1.3848607e-05,-1.825456e-05,-2.410701e-05,0.0002098042,-0.00038713444,-0.0007522146,0.1840634,0.04931962,0.436957,0.0,0.0,0.0,0.0,0.0,0.0,4.362276e-07,0.0015236554,0.01746813,7.0732466e-07,5.4526795e-06,5.460785e-06,3.6990063e-05,0.011248472,0.011248707,0.009408943,0.043031804,0.04303009,0.05584372,1.0389801e-11,1.0390932e-11,1.8317818e-11,5.2935498e-08,5.2919003e-08,5e-08,0.0,0.0,0.0,0.0,0.0,0.0,0.0,0.0,663,0.29336306,0.23631276,0.025181003,0.026607174,0.010750303,0.005290286,0.0,0.0,0.0,0.004094,0,0,0,831,0,0,0,0
1440359419,-0.9991911,-0.021551676,0.012229953,0.031671874,0.03284694,0.076514706,-1.0012908,8.702418,-10.406506,-7.6729493,1.3910878e-05,-1.8231132e-05,-2.416047e-05,0.00020956954,-0.0003873331,-0.00076107983,0.1840634,0.04931962,0.436957,0.0,0.0,0.0,0.0,0.0,0.0,3.7402776e-07,0.0014585874,0.017029863,7.116374e-07,5.4634966e-06,5.4676216e-06,3.696503e-05,0.011320605,0.011321686,0.009458484,0.043342464,0.043341096,0.05630321,1.039495e-11,1.0396126e-11,1.8314248e-11,5.293592e-08,5.2919013e-08,5.0000068e-08,0.0,0.0,0.0,0.0,0.0,0.0,0.0,0.0,663,0.29442072,0.23728298,0.09338926,0.04097309,0.014690525,0.036422607,0.0,0.0,0.0,0.004319,0,0,0,831,0,0,0,0
1440559943,-0.9992691,-0.018041613,0.011430988,0.03170505,0.07471455,0.14464565,-1.0462246,8.714445,-10.389579,-7.9109435,1.3937303e-05,-1.823655e-05,-2.4217195e-05,0.00020963405,-0.00038700702,-0.00074968074,0.1840634,0.04931962,0.436957,0.0,0.0,0.0,0.0,0.0,0.0,4.2934704e-07,0.0013989612,0.016719319,7.1155216e-07,5.463124e-06,5.4640377e-06,3.698549e-05,0.011321374,0.011322435,0.0094693005,0.043270327,0.043269422,0.056341723,1.0390913e-11,1.03921325e-11,1.8313758e-11,5.2936183e-08,5.2918896e-08,5.0000068e-08,0.0,0.0,0.0,0.0,0.0,0.0,0.0,0.0,663,0.29417637,0.23736411,0.018863086,0.014021388,0.010543647,0.0056410977,0.0,0.0,0.0,0.004051,0,0,0,831,0,0,0,0
1440760951,-0.9994763,-0.012702798,0.00093077356,0.02974563,0.09823288,0.18167411,-1.0550961,8.736326,-10.359308,-8.102876,1.3949837e-05,-1.8226954e-05,-2.4248639e-05,0.0002095497,-0.00038714608,-0.0007562836,0.1840634,0.04931962,0.436957,0.0,0.0,0.0,0.0,0.0,0.0,5.0866106e-07,0.0014018596,0.016197067,7.057389e-07,5.4609714e-06,5.4626867e-06,3.69578e-05,0.011336664,0.01133743,0.009486986,0.043323856,0.043323483,0.0565241,1.0391802e-11,1.0393062e-11,1.8306289e-11,5.2936457e-08,5.291885e-08,5.0000068e-08,0.0,0.0,0.0,0.0,0.0,0.0,0.0,0.0,663,0.2943592,0.23774798,0.025069306,0.013023604,0.012347571,0.016299414,0.0,0.0,0.0,0.004259,0,0,0,831,0,0,0,0
1440961558,-0.9996233,-0.002650808,-0.0030806586,0.027146533,0.0961836,0.19892696,-1.0707263,8.7692585,-10.317747,-8.298436,1.3923463e-05,-1.8160536e-05,-2.4309049e-05,0.00020952392,-0.00038744765,-0.00076218566,0.1840634,0.04931962,0.436957,0.0,0.0,0.0,0.0,0.0,0.0,4.903961e-07,0.0015325665,0.01724596,6.9990625e-07,5.462782e-06,5.462013e-06,3.698579e-05,0.011351263,0.011351342,0.00942504,0.0433594,0.043359444,0.0559033,1.0392616e-11,1.0393918e-11,1.8311288e-11,5.293668e-08,5.291875e-08,5e-08,0.0,0.0,0.0,0.0,0.0,0.0,0.0,0.0,663,0.29448062,0.23643878,0.07438359,0.04145717,0.0154827135,0.109403856,0.0,0.0,0.0,0.004059,0,0,0,831,0,0,0,0
1441162615,-0.999662,0.0030398162,-0.0046677096,0.025396919,0.07695053,0.16175127,-1.1048934,8.793625,-10.290445,-8.501518,1.3980521e-05,-1.8131537e-05,-2.4384746e-05,0.000209293,-0.00038755892,-0.00076582585,0.1840634,0.04931962,0.436957,0.0,0.0,0.0,0.0,0.0,0.0,4.4900546e-07,0.001619543,0.018051479,6.9677867e-07,5.463778e-06,5.464564e-06,3.7006885e-05,0.011370713,0.01137124,0.009440016,0.04338908,0.04338939,0.056070544,1.0392973e-11,1.0394316e-11,1.8315996e-11,5.2936866e-08,5.2918686e-08,5e-08,0.0,0.0,0.0,0.0,0.0,0.0,0.0,0.0,663,0.29458186,0.23679219,0.03989878,0.042692713,0.015732612,0.020223418,0.0,0.0,0.0,0.004346,0,0,0,831,0,0,0,0
1441366546,-0.9997134,0.0043141493,-0.0030374175,0.023350764,0.04842765,0.11295625,-1.1558571,8.80586,-10.266528,-8.735543,1.3999722e-05,-1.8149412e-05,-2.4397592e-05,0.0002092538,-0.00038743232,-0.00076332456,0.1840634,0.04931962,0.436957,0.0,0.0,0.0,0.0,0.0,0.0,4.990619e-07,0.002158232,0.022890344,6.9234113e-07,5.4634565e-06,5.465439e-06,3.703084e-05,0.011391433,0.011392189,0.009453688,0.043400597,0.043401036,0.056230623,1.0393019e-11,1.0394403e-11,1.8320881e-11,5.293703e-08,5.2918637e-08,5.0000036e-08,0.0,0.0,0.0,0.0,0.0,0.0,0.0,0.0,663,0.29462117,0.23712997,0.000879595,0.024579149,0.011832136,0.066240944,0.0,0.0,0.0,0.004278,0,0,0,831,0,0,0,0
1441567443,-0.9997535,0.0032516678,-0.0044369074,0.021511963,0.015460489,0.056418173,-1.1760176,8.8196945,-10.258682,-8.962549,1.4047072e-05,-1.811888e-05,-2.4470406e-05,0.00020909582,-0.0003875146,-0.00076492986,0.1840634,0.04931962,0.436957,0.0,0.0,0.0,0.0,0.0,0.0,5.2430016e-07,0.002372145,0.024567064,6.887013e-07,5.4627453e-06,5.463548e-06,3.6993006e-05,0.0113872,0.011387563,0.009467867,0.043369398,0.043369874,0.056375723,1.0390958e-11,1.0392385e-11,1.8311587e-11,5.2937168e-08,5.2918587e-08,5.0000068e-08,0.0,0.0,0.0,0.0,0.0,0.0,0.0,0.0,663,0.2945153,0.23743573,0.0066648913,0.031279266,0.012145525,0.047995716,0.0,0.0,0.0,0.004344,0,0,0,831,0,0,0,0
1441772240,-0.99977946,0.0034879502,-0.0085186185,0.018875068,-0.024574665,-0.024030467,-1.17968,8.8285885,-10.268115,-9.205502,1.4113936e-05,-1.8081704e-05,-2.4597624e-05,0.00020887743,-0.00038759908,-0.0007656711,0.1840634,0.04931962,0.436957,0.0,0.0,0.0,0.0,0.0,0.0,5.209855e-07,0.002224886,0.025325073,6.8448037e-07,5.470404e-06,5.4692487e-06,3.697529e-05,0.0114340065,0.011433023,0.009440199,0.0436345,0.04363492,0.056052554,1.0395016e-11,1.0396486e-11,1.8308298e-11,5.2937395e-08,5.291861e-08,5.0000033e-08,0.0,0.0,0.0,0.0,0.0,0.0,0.0,0.0,663,0.295414,0.23675421,0.046962846,0.04223993,0.015652886,0.048254315,0.0,0.0,0.0,0.004342,0,0,0,831,0,0,0,0
1441973073,-0.9998003,0.0018819551,-0.008858523,0.01781529,-0.08790492,-0.08682969,-1.2166455,8.822779,-10.281906,-9.451755,1.4111572e-05,-1.8069442e-05,-2.4698604e-05,0.00020886782,-0.0003875988,-0.00076431216,0.1840634,0.04931962,0.436957,0.0,0.0,0.0,0.0,0.0,0.0,6.0299743e-07,0.002037147,0.023923803,6.827622e-07,5.472981e-06,5.470784e-06,3.7014244e-05,0.011464868,0.011462753,0.009482371,0.04374791,0.04374817,0.056377504,1.0393126e-11,1.039464e-11,1.8311757e-11,5.2937622e-08,5.291866e-08,5.0000068e-08,0.0,0.0,0.0,0.0,0.0,0.0,0.0,0.0,663,0.29579735,0.23743947,0.11650241,0.023140917,0.014391856,0.04266259,0.0,0.0,0.0,0.004334,0,0,0,831,0,0,0,0
1442173563,-0.9997809,-0.007599796,-0.0021541682,0.019388232,-0.12492852,-0.14303753,-1.2078183,8.804317,-10.306702,-9.707589,1.4108655e-05,-1.8071538e-05,-2.472114e-05,0.00020889855,-0.00038748913,-0.0007581934,0.1840634,0.04931962,0.436957,0.0,0.0,0.0,0.0,0.0,0.0,7.6722785e-07,0.002001834,0.023929473,6.844661e-07,5.46796e-06,5.4676743e-06,3.7029604e-05,0.011416423,0.011412617,0.009490775,0.04359431,0.043594323,0.056409758,1.0387563e-11,1.0389121e-11,1.831071e-11,5.293786e-08,5.2918733e-08,5.0000036e-08,0.0,0.0,0.0,0.0,0.0,0.0,0.0,0.0,663,0.2952772,0.23750739,0.030091947,0.016608356,0.014625073,0.0401026,0.0,0.0,0.0,0.004063,0,0,0,831,0,0,0,0
1442374371,-0.9996096,-0.016142288,0.0059358138,0.022019355,-0.13040614,-0.16171846,-1.2182052,8.793412,-10.344601,-9.994343,1.4139131e-05,-1.7999679e-05,-2.4733963e-05,0.00020883996,-0.0003874293,-0.00074423326,0.1840634,0.04931962,0.436957,0.0,0.0,0.0,0.0,0.0,0.0,7.627041e-07,0.0019414895,0.022702372,6.897009e-07,5.4708134e-06,5.474316e-06,3.7036574e-05,0.011414279,0.011410289,0.009500626,0.04361247,0.04361215,0.05655032,1.0388889e-11,1.0390489e-11,1.8315155e-11,5.293818e-08,5.2918892e-08,5.0000036e-08,0.0,0.0,0.0,0.0,0.0,0.0,0.0,0.0,663,0.29533815,0.23780312,0.08896504,0.039596,0.021445394,0.0027120437,0.0,0.0,0.0,0.004103,0,0,0,831,0,0,0,0
1442578627,-0.9993895,-0.021596309,0.012411442,0.02450075,-0.09341325,-0.15314868,-1.1983234,8.7761345,-10.384379,-10.246605,1.4179643e-05,-1.8003257e-05,-2.4810111e-05,0.0002087549,-0.0003873743,-0.0007416012,0.1840634,0.04931962,0.436957,0.0,0.0,0.0,0.0,0.0,0.0,6.1530244e-07,0.00179903,0.021360813,6.9617494e-07,5.474779e-06,5.479833e-06,3.7039248e-05,0.011387988,0.011383962,0.009510041,0.043592338,0.0435917,0.05669156,1.0389213e-11,1.03908574e-11,1.831964e-11,5.2938503e-08,5.291904e-08,5.0000068e-08,0.0,0.0,0.0,0.0,0.0,0.0,0.0,0.0,663,0.29526943,0.2380999,0.020956965,0.024687022,0.025036147,0.059509236,0.0,0.0,0.0,0.004326,0,0,0,831,0,0,0,0
1442779378,-0.9993305,-0.02303577,0.013381051,0.025075348,-0.053895984,-0.1257691,-1.1921787,8.762735,-10.4254465,-10.478823,1.42518475e-05,-1.8027635e-05,-2.489772e-05,0.00020858776,-0.00038735848,-0.00074450934,0.1840634,0.04931962,0.436957,0.0,0.0,0.0,0.0,0.0,0.0,5.174457e-07,0.0017506542,0.020169517,6.980841e-07,5.4776365e-06,5.483846e-06,3.7052625e-05,0.011385235,0.01138255,0.009520019,0.0436125,0.04361158,0.05683271,1.039081e-11,1.0392498e-11,1.8324118e-11,5.2938834e-08,5.291917e-08,5.000007e-08,0.0,0.0,0.0,0.0,0.0,0.0,0.0,0.0,663,0.29533723,0.23839612,0.08426706,0.04710111,0.021984356,0.00707518,0.0,0.0,0.0,0.004278,0,0,0,831,0,0,0,0
1442980762,-0.9993691,-0.02389817,0.008997928,0.02468823,-0.012211135,-0.10099276,-1.205586,8.757224,-10.453668,-10.7098,1.4272792e-05,-1.804793e-05,-2.4922381e-05,0.00020854325,-0.00038735685,-0.00074798905,0.1840634,0.04931962,0.436957,0.0,0.0,0.0,0.0,0.0,0.0,5.0588187e-07,0.0018575217,0.020437827,6.968828e-07,5.476038e-06,5.487402e-06,3.701294e-05,0.011391716,0.011390221,0.009525178,0.0436117,0.04361063,0.056940254,1.0392192e-11,1.03939175e-11,1.8316227e-11,5.293917e-08,5.2919315e-08,5.0000082e-08,0.0,0.0,0.0,0.0,0.0,0.0,0.0,0.0,663,0.29533428,0.23862158,0.032762934,0.03188249,0.017866785,0.009329947,0.0,0.0,0.0,0.004093,0,0,0,831,0,0,0,0
1443180974,-0.99935615,-0.025172876,0.003393221,0.025340814,0.006405407,-0.058390565,-1.204463,8.757082,-10.471025,-10.940289,1.4274506e-05,-1.8071474e-05,-2.4971685e-05,0.00020854018,-0.0003873721,-0.00075230113,0.1840634,0.04931962,0.436957,0.0,0.0,0.0,0.0,0.0,0.0,4.4373786e-07,0.0017287281,0.01973935,6.9851245e-07,5.474873e-06,5.4910865e-06,3.7090995e-05,0.011389385,0.011389386,0.009455083,0.0436116,0.04361053,0.05626016,1.0393419e-11,1.0395179e-11,1.8333007e-11,5.293953e-08,5.2919468e-08,5e-08,0.0,0.0,0.0,0.0,0.0,0.0,0.0,0.0,663,0.29533392,0.23719224,0.048264943,0.03159314,0.015250158,0.020233538,0.0,0.0,0.0,0.004282,0,0,0,831,0,0,0,0
1443385789,-0.9994265,-0.022111466,0.0011728036,0.025619535,0.014162136,-0.026092773,-1.2231886,8.758738,-10.480028,-11.189822,1.4271044e-05,-1.8101857e-05,-2.5066694e-05,0.00020854989,-0.00038729474,-0.0007520375,0.1840634,0.04931962,0.436957,0.0,0.0,0.0,0.0,0.0,0.0,4.27267e-07,0.0019346657,0.020617215,6.990754e-07,5.4818283e-06,5.493796e-06,3.7071026e-05,0.011442087,0.01144285,0.009493969,0.043838244,0.04383733,0.056635994,1.0396723e-11,1.03985084e-11,1.832718e-11,5.2939917e-08,5.291966e-08,5.0000036e-08,0.0,0.0,0.0,0.0,0.0,0.0,0.0,0.0,663,0.29610062,0.23798318,0.050733026,0.0365023,0.015111703,0.021371134,0.0,0.0,0.0,0.004297,0,0,0,831,0,0,0,0
1443586361,-0.9994193,-0.022365702,0.0022044447,0.025616536,0.013908071,0.014528002,-1.2252072,8.760557,-10.472348,-11.435145,1.4215181e-05,-1.8126737e-05,-2.5123123e-05,0.0002086777,-0.00038726372,-0.0007526641,0.1840634,0.04931962,0.436957,0.0,0.0,0.0,0.0,0.0,0.0,4.033227e-07,0.0019610117,0.020605132,6.991895e-07,5.4828656e-06,5.4946913e-06,3.7027734e-05,0.011435647,0.011436654,0.009500715,0.04380805,0.043807417,0.056742683,1.03976255e-11,1.0399428e-11,1.8319284e-11,5.29403e-08,5.2919845e-08,5.000003e-08,0.0,0.0,0.0,0.0,0.0,0.0,0.0,0.0,663,0.2959991,0.23820722,0.061801992,0.043984413,0.010978335,0.0115865115,0.0,0.0,0.0,0.004093,0,0,0,831,0,0,0,0
1443787169,-0.99937874,-0.024776828,-0.0022774525,0.024962647,-0.007345327,0.04001031,-1.2322627,8.762899,-10.4691925,-11.699059,1.4234541e-05,-1.813472e-05,-2.5218318e-05,0.00020863836,-0.0003871189,-0.00074555556,0.1840634,0.04931962,0.436957,0.0,0.0,0.0,0.0,0.0,0.0,4.0142586e-07,0.0019657363,0.02056648,6.9842656e-07,5.4849834e-06,5.500411e-06,3.7044807e-05,0.011440481,0.011441315,0.0095093325,0.043817565,0.043817233,0.056854725,1.0399697e-11,1.0401506e-11,1.8323962e-11,5.2940692e-08,5.292003e-08,5.000007e-08,0.0,0.0,0.0,0.0,0.0,0.0,0.0,0.0,663,0.29603177,0.23844229,0.09229242,0.03814315,0.010600069,0.046917107,0.0,0.0,0.0,0.004077,0,0,0,831,0,0,0,0
1443988184,-0.99938023,-0.024459992,-0.0008112385,0.025304254,-0.022195287,0.06979607,-1.2412274,8.755074,-10.455096,-11.978876,1.4222941e-05,-1.8177545e-05,-2.520329e-05,0.00020868286,-0.00038687547,-0.00073507725,0.1840634,0.04931962,0.436957,0.0,0.0,0.0,0.0,0.0,0.0,4.321022e-07,0.0020655459,0.021695428,6.988556e-07,5.4872453e-06,5.5017945e-06,3.700306e-05,0.011441372,0.011442015,0.009516787,0.04381101,0.043811016,0.056959163,1.0401591e-11,1.0403392e-11,1.8316479e-11,5.294111e-08,5.2920235e-08,5.000006e-08,0.0,0.0,0.0,0.0,0.0,0.0,0.0,0.0,663,0.29601017,0.23866118,0.00045919808,0.040192477,0.006847857,0.043776102,0.0,0.0,0.0,0.004236,0,0,0,831,0,0,0,0
1444189055,-0.99944425,-0.021258885,-0.0009791201,0.025660561,-0.044748377,0.10686772,-1.2673208,8.744045,-10.435621,-12.225219,1.42213175e-05,-1.8211893e-05,-2.5266405e-05,0.00020869654,-0.00038679098,-0.0007346427,0.1840634,0.04931962,0.436957,0.0,0.0,0.0,0.0,0.0,0.0,4.4226064e-07,0.0020466507,0.02216943,6.995013e-07,5.4866714e-06,5.4963557e-06,3.7022328e-05,0.011429042,0.011429142,0.00944341,0.043674856,0.04367514,0.056142308,1.0397815e-11,1.03996e-11,1.8315831e-11,5.2941495e-08,5.292038e-08,5e-08,0.0,0.0,0.0,0.0,0.0,0.0,0.0,0.0,663,0.29555032,0.23694368,0.06287779,0.029692927,0.005608749,0.10118587,0.0,0.0,0.0,0.004363,0,0,0,831,0,0,0,0
1444392990,-0.99948996,-0.018402442,-0.0023262536,0.025996633,-0.06660942,0.119585276,-1.2468438,8.723333,-10.408208,-12.470245,1.4202451e-05,-1.8265679e-05,-2.5276224e-05,0.00020874992,-0.00038674937,-0.000738882,0.1840634,0.04931962,0.436957,0.0,0.0,0.0,0.0,0.0,0.0,5.0146576e-07,0.002123264,0.023744926,6.999528e-07,5.494458e-06,5.500402e-06,3.7003116e-05,0.01146702,0.011467254,0.009490678,0.043910854,0.043911383,0.056575786,1.0402806e-11,1.0404567e-11,1.8312317e-11,5.2941978e-08,5.2920623e-08,5.000006e-08,0.0,0.0,0.0,0.0,0.0,0.0,0.0,0.0,663,0.29634815,0.23785666,0.010372115,0.04000359,0.004239778,0.0011700805,0.0,0.0,0.0,0.004252,0,0,0,831,0,0,0,0
1444594568,-0.9995479,-0.015764397,0.0012122858,0.02557792,-0.079120964,0.116940245,-1.2666048,8.704765,-10.37671,-12.724227,1.4169148e-05,-1.8285806e-05,-2.5352054e-05,0.00020882161,-0.00038667893,-0.000737197,0.1840634,0.04931962,0.436957,0.0,0.0,0.0,0.0,0.0,0.0,5.366309e-07,0.002085177,0.023547923,6.989749e-07,5.495621e-06,5.498642e-06,3.702545e-05,0.01146916,0.011469892,0.0095045585,0.043863267,0.04386395,0.056719076,1.04036346e-11,1.0405374e-11,1.831717e-11,5.2942458e-08,5.292082e-08,5.000006e-08,0.0,0.0,0.0,0.0,0.0,0.0,0.0,0.0,663,0.29618782,0.23815767,0.05484494,0.030909631,0.012759355,0.043637644,0.0,0.0,0.0,0.004268,0,0,0,831,0,0,0,0
1444794420,-0.9995422,-0.014810147,0.007895223,0.0251733,-0.052727897,0.106141955,-1.2351218,8.681015,-10.346561,-12.987355,1.4141483e-05,-1.8348748e-05,-2.5396846e-05,0.00020890028,-0.00038649887,-0.0007328931,0.1840634,0.04931962,0.436957,0.0,0.0,0.0,0.0,0.0,0.0,5.643128e-07,0.0021681446,0.022514325,6.982606e-07,5.4992965e-06,5.498473e-06,3.7044138e-05,0.01144142,0.0114424685,0.0095156785,0.043822873,0.043823652,0.05684561,1.040461e-11,1.0406331e-11,1.832209e-11,5.2942937e-08,5.2921017e-08,5.000007e-08,0.0,0.0,0.0,0.0,0.0,0.0,0.0,0.0,663,0.29605156,0.23842317,0.014496324,0.045522526,0.014253358,0.028252186,0.0,0.0,0.0,0.004149,0,0,0,831,0,0,0,0
1444995544,-0.999527,-0.015414776,0.011178014,0.02414915,-0.013551096,0.07984571,-1.2353284,8.665352,-10.326477,-13.233006,1.4154585e-05,-1.840378e-05,-2.5482725e-05,0.00020890654,-0.0003864122,-0.0007329074,0.1840634,0.04931962,0.436957,0.0,0.0,0.0,0.0,0.0,0.0,6.54309e-07,0.0024344157,0.025204992,6.9643113e-07,5.5004016e-06,5.497255e-06,3.7001304e-05,0.0114168255,0.011418575,0.009447911,0.043704927,0.043705773,0.056151066,1.04026345e-11,1.0404353e-11,1.8312655e-11,5.2943424e-08,5.2921177e-08,5e-08,0.0,0.0,0.0,0.0,0.0,0.0,0.0,0.0,663,0.29565302,0.23696215,0.036717173,0.03944327,0.013386435,0.050734542,0.0,0.0,0.0,0.004444,0,0,0,831,0,0,0,0
1445200228,-0.9996244,-0.013514226,0.0084861275,0.022283452,0.041488428,0.055901628,-1.1833247,8.659232,-10.3013735,-13.493777,1.41080645e-05,-1.846105e-05,-2.5521535e-05,0.0002090275,-0.00038632046,-0.00073095347,0.1840634,0.04931962,0.436957,0.0,0.0,0.0,0.0,0.0,0.0,6.452642e-07,0.0024872667,0.027018638,6.920979e-07,5.5070077e-06,5.504572e-06,3.698756e-05,0.011436594,0.011439683,0.009495506,0.0439332,0.043934137,0.05658519,1.04082515e-11,1.0409982e-11,1.830942e-11,5.2943985e-08,5.2921397e-08,5.0000057e-08,0.0,0.0,0.0,0.0,0.0,0.0,0.0,0.0,663,0.29642424,0.23787642,0.060724553,0.039582387,0.016382216,0.034563735,0.0,0.0,0.0,0.004297,0,0,0,831,0,0,0,0
1445400946,-0.999635,-0.014549437,0.008968721,0.020923533,0.06464196,0.03968777,-1.1902989,8.66594,-10.281843,-13.7424345,1.4063376e-05,-1.8485727e-05,-2.5541112e-05,0.00020912425,-0.0003862546,-0.00072701223,0.1840634,0.04931962,0.436957,0.0,0.0,0.0,0.0,0.0,0.0,5.8940526e-07,0.002267303,0.02550881,6.8931206e-07,5.5073124e-06,5.5051305e-06,3.7006193e-05,0.011413908,0.011417402,0.00950478,0.0437778,0.04377886,0.05659947,1.0404808e-11,1.0406565e-11,1.8308887e-11,5.294447e-08,5.292153e-08,5.0000036e-08,0.0,0.0,0.0,0.0,0.0,0.0,0.0,0.0,663,0.29589975,0.23790644,0.024476996,0.025354583,0.014706111,0.04201105,0.0,0.0,0.0,0.004246,0,0,0,831,0,0,0,0
1445601566,-0.9996257,-0.015287145,0.008809044,0.020913223,0.11037036,0.009958663,-1.1776541,8.689358,-10.264774,-13.973428,1.40005595e-05,-1.8465702e-05,-2.560535e-05,0.0002092012,-0.00038636147,-0.000727668,0.1840634,0.04931962,0.436957,0.0,0.0,0.0,0.0,0.0,0.0,4.9397687e-07,0.0019247965,0.023098616,6.894766e-07,5.5106475e-06,5.50909e-06,3.702509e-05,0.011416919,0.011421087,0.009517456,0.043781824,0.043783065,0.056737557,1.0407106e-11,1.0408909e-11,1.8313817e-11,5.2945033e-08,5.29217e-08,5.000006e-08,0.0,0.0,0.0,0.0,0.0,0.0,0.0,0.0,663,0.29591364,0.23819646,0.10539942,0.03575251,0.01745757,0.04503337,0.0,0.0,0.0,0.004074,0,0,0,831,0,0,0,0
1445802695,-0.9996103,-0.017340649,0.0048383353,0.021335887,0.14755656,-0.0064916117,-1.1845869,8.720777,-10.26025,-14.219097,1.3997324e-05,-1.844666e-05,-2.5649437e-05,0.00020917619,-0.0003862846,-0.0007233033,0.1840634,0.04931962,0.436957,0.0,0.0,0.0,0.0,0.0,0.0,4.9425e-07,0.00196371,0.021692846,6.902854e-07,5.51183e-06,5.51409e-06,3.698249e-05,0.011427747,0.011432573,0.009530508,0.04378798,0.043789454,0.056875817,1.0408985e-11,1.0410841e-11,1.8306053e-11,5.2945644e-08,5.2921877e-08,5.0000057e-08,0.0,0.0,0.0,0.0,0.0,0.0,0.0,0.0,663,0.29593486,0.23848651,0.024852889,0.041435014,0.018264044,0.07229492,0.0,0.0,0.0,0.004402,0,0,0,831,0,0,0,0
1446006621,-0.99958336,-0.019245662,0.0007765336,0.021497954,0.16985758,-0.008055053,-1.1802622,8.755602,-10.246348,-14.451199,1.392465e-05,-1.8444287e-05,-2.5710497e-05,0.00020927742,-0.0003863842,-0.00072482,0.1840634,0.04931962,0.436957,0.0,0.0,0.0,0.0,0.0,0.0,4.882441e-07,0.0019472351,0.021008415,6.908658e-07,5.513995e-06,5.518858e-06,3.699988e-05,0.01143457,0.011439515,0.0094645,0.043797005,0.04379876,0.056209717,1.0410828e-11,1.0412745e-11,1.8310797e-11,5.2946277e-08,5.2921997e-08,5e-08,0.0,0.0,0.0,0.0,0.0,0.0,0.0,0.0,663,0.29596582,0.23708588,0.043096174,0.039766245,0.02281447,0.03437807,0.0,0.0,0.0,0.004354,0,0,0,831,0,0,0,0
1446207465,-0.9995693,-0.018424705,-0.0051718443,0.022251919,0.15696967,-0.005172377,-1.1649414,8.785852,-10.240874,-14.679664,1.3913579e-05,-1.8478137e-05,-2.5753776e-05,0.00020935596,-0.00038645518,-0.00072920683,0.1840634,0.04931962,0.436957,0.0,0.0,0.0,0.0,0.0,0.0,4.4474734e-07,0.0018176724,0.019618772,6.9266247e-07,5.5213786e-06,5.52437e-06,3.6973066e-05,0.011459982,0.011463654,0.009505138,0.043942813,0.043944817,0.056505505,1.041115e-11,1.04131296e-11,1.8301773e-11,5.2946913e-08,5.2922147e-08,5.0000054e-08,0.0,0.0,0.0,0.0,0.0,0.0,0.0,0.0,663,0.29645848,0.23770887,0.04411169,0.033401113,0.020983769,0.062381115,0.0,0.0,0.0,0.0043719998,0,0,0,831,0,0,0,0
1446407970,-0.99955624,-0.017681861,-0.006055944,0.023198051,0.13851546,-0.0040872362,-1.1579139,8.814573,-10.228252,-14.9126425,1.3860288e-05,-1.8496072e-05,-2.5833711e-05,0.00020943853,-0.0003864667,-0.00072926685,0.1840634,0.04931962,0.436957,0.0,0.0,0.0,0.0,0.0,0.0,3.7365947e-07,0.0015923857,0.018448114,6.9499265e-07,5.525623e-06,5.5273226e-06,3.698989e-05,0.0114689,0.011470963,0.0095216725,0.043969452,0.043971557,0.056670204,1.0413256e-11,1.0415297e-11,1.8306565e-11,5.2947577e-08,5.2922307e-08,5.000007e-08,0.0,0.0,0.0,0.0,0.0,0.0,0.0,0.0,663,0.2965485,0.23805505,0.070814215,0.025219163,0.022188608,0.009598066,0.0,0.0,0.0,0.00407,0,0,0,831,0,0,0,0
1446609071,-0.9995895,-0.016270423,-0.0043579857,0.023175072,0.116345815,0.008922727,-1.1816128,8.834439,-10.214579,-15.162856,1.3808977e-05,-1.8535571e-05,-2.591073e-05,0.00020948594,-0.00038630635,-0.00072320335,0.1840634,0.04931962,0.436957,0.0,0.0,0.0,0.0,0.0,0.0,4.232897e-07,0.0016665964,0.020198284,6.949963e-07,5.527488e-06,5.5284827e-06,3.7009533e-05,0.011481476,0.011482579,0.009533242,0.043949872,0.043951925,0.056787938,1.0413033e-11,1.04151375e-11,1.8309387e-11,5.294823e-08,5.2922452e-08,5.0000054e-08,0.0,0.0,0.0,0.0,0.0,0.0,0.0,0.0,663,0.29648238,0.2383022,0.11550367,0.030295268,0.020942293,0.0137417335,0.0,0.0,0.0,0.004379,0,0,0,831,0,0,0,0
1446809826,-0.99963915,-0.012107368,-0.0065993313,0.023055067,0.10877899,0.006246252,-1.2065876,8.855781,-10.197165,-15.415208,1.3735484e-05,-1.8541708e-05,-2.593401e-05,0.00020953422,-0.00038626144,-0.00071939727,0.1840634,0.04931962,0.436957,0.0,0.0,0.0,0.0,0.0,0.0,4.3072794e-07,0.0017518774,0.0203838,6.947607e-07,5.5311043e-06,5.5282367e-06,3.703044e-05,0.011501217,0.011501331,0.009468808,0.043959603,0.043961447,0.056137722,1.04144315e-11,1.0416603e-11,1.83141e-11,5.2948927e-08,5.2922584e-08,5e-08,0.0,0.0,0.0,0.0,0.0,0.0,0.0,0.0,663,0.29651484,0.236934,0.06722658,0.04160101,0.022230819,0.0496229,0.0,0.0,0.0,0.004319,0,0,0,831,0,0,0,0
1447010675,-0.9996942,-0.006291861,-0.004899542,0.023408908,0.100072995,-0.02784179,-1.2710855,8.877027,-10.183531,-15.655643,1.3664269e-05,-1.854899e-05,-2.6049973e-05,0.00020959761,-0.000386298,-0.0007210042,0.1840634,0.04931962,0.436957,0.0,0.0,0.0,0.0,0.0,0.0,4.970691e-07,0.0018926811,0.02080605,6.960176e-07,5.5320556e-06,5.5281594e-06,3.7050668e-05,0.011544829,0.011542708,0.009485299,0.043956358,0.04395788,0.056301855,1.0415473e-11,1.0417724e-11,1.8318834e-11,5.2949655e-08,5.2922775e-08,5.0000036e-08,0.0,0.0,0.0,0.0,0.0,0.0,0.0,0.0,663,0.29650337,0.23728012,0.043435752,0.038411357,0.022872804,0.051977437,0.0,0.0,0.0,0.004407,0,0,0,831,0,0,0,0
1447211446,-0.99962735,-0.008150223,-0.007444359,0.02496648,0.0952727,-0.07279155,-1.2971438,8.896267,-10.178745,-15.959636,1.36018325e-05,-1.856314e-05,-2.6121563e-05,0.00020953505,-0.0003859088,-0.0007051052,0.1840634,0.04931962,0.436957,0.0,0.0,0.0,0.0,0.0,0.0,5.56462e-07,0.0021109832,0.022374319,6.998981e-07,5.5320183e-06,5.526933e-06,3.699999e-05,0.011529205,0.011524147,0.009494541,0.04383815,0.043839123,0.05632131,1.0410974e-11,1.0413321e-11,1.8305392e-11,5.2950345e-08,5.292293e-08,5.0000036e-08,0.0,0.0,0.0,0.0,0.0,0.0,0.0,0.0,663,0.29610348,0.23732111,0.013855452,0.033568613,0.02236561,0.004167048,0.0,0.0,0.0,0.004314,0,0,0,831,0,0,0,0
1447412285,-0.9995373,-0.01343398,-0.009901274,0.02543138,0.09279647,-0.114867665,-1.2912666,8.91905,-10.187877,-16.224558,1.3563076e-05,-1.8552677e-05,-2.6208714e-05,0.00020954512,-0.00038585506,-0.00070351665,0.1840634,0.04931962,0.436957,0.0,0.0,0.0,0.0,0.0,0.0,5.25699e-07,0.002022688,0.022185441,7.0149434e-07,5.5336845e-06,5.5290648e-06,3.7013215e-05,0.011522348,0.011514481,0.00950753,0.043825317,0.043825567,0.05647006,1.04110505e-11,1.0413523e-11,1.8310006e-11,5.2951084e-08,5.29231e-08,5.0000036e-08,0.0,0.0,0.0,0.0,0.0,0.0,0.0,0.0,663,0.29605892,0.2376343,0.035393294,0.014765912,0.019049205,0.03935989,0.0,0.0,0.0,0.004351,0,0,0,831,0,0,0,0
1447616755,-0.99944013,-0.015223191,-0.0142253935,0.026180781,0.05271534,-0.14103098,-1.2828081,8.927027,-10.200891,-16.500952,1.3503734e-05,-1.8606179e-05,-2.6287902e-05,0.00020958499,-0.0003857692,-0.00070174213,0.1840634,0.04931962,0.436957,0.0,0.0,0.0,0.0,0.0,0.0,4.602925e-07,0.0017797515,0.019732267,7.0413364e-07,5.5451437e-06,5.537812e-06,3.6983653e-05,0.011575578,0.011565863,0.009476256,0.04410336,0.044102613,0.056114797,1.0416112e-11,1.0418738e-11,1.8306131e-11,5.2951837e-08,5.2923223e-08,5e-08,0.0,0.0,0.0,0.0,0.0,0.0,0.0,0.0,663,0.29699492,0.23688562,0.03304958,0.038354676,0.019666268,0.016118795,0.0,0.0,0.0,0.004086,0,0,0,831,0,0,0,0
1447820953,-0.9993283,-0.018351529,-0.01763581,0.026364947,-0.0064105727,-0.13110988,-1.2950929,8.921298,-10.216765,-16.789825,1.34611255e-05,-1.8668696e-05,-2.6348467e-05,0.00020959969,-0.00038552991,-0.00069286965,0.1840634,0.04931962,0.436957,0.0,0.0,0.0,0.0,0.0,0.0,5.744996e-07,0.0020546,0.02087329,7.0536066e-07,5.5493288e-06,5.541159e-06,3.6934005e-05,0.01157631,0.011568494,0.009491737,0.044090614,0.04408889,0.056278888,1.0416851e-11,1.0419658e-11,1.8298177e-11,5.295253e-08,5.2923397e-08,5e-08,0.0,0.0,0.0,0.0,0.0,0.0,0.0,0.0,663,0.29695034,0.23723172,0.1084823,0.042770408,0.020973478,0.02561439,0.0,0.0,0.0,0.004261,0,0,0,831,0,0,0,0
1448021761,-0.999285,-0.023090947,-0.0133941695,0.026775096,-0.06390326,-0.1300186,-1.2757175,8.89642,-10.227522,-17.045908,1.3398686e-05,-1.8723926e-05,-2.6400246e-05,0.00020967824,-0.0003855007,-0.00069396343,0.1840634,0.04931962,0.436957,0.0,0.0,0.0,0.0,0.0,0.0,6.082676e-07,0.0020562361,0.021182992,7.0616073e-07,5.540666e-06,5.543586e-06,3.695027e-05,0.011527214,0.01152129,0.009502326,0.043894038,0.04389139,0.05641929,1.0414747e-11,1.0417739e-11,1.8302694e-11,5.2953272e-08,5.292353e-08,5e-08,0.0,0.0,0.0,0.0,0.0,0.0,0.0,0.0,663,0.29628605,0.23752744,0.009314811,0.026677331,0.043879144,0.034507453,0.0,0.0,0.0,0.004269,0,0,0,831,0,0,0,0
1448226588,-0.99928975,-0.025298936,-0.006588456,0.027140832,-0.09809443,-0.11786613,-1.223266,8.844891,-10.235953,-17.318161,1.3344118e-05,-1.8839317e-05,-2.6458174e-05,0.00020974662,-0.0003853576,-0.0006917835,0.1840634,0.04931962,0.436957,0.0,0.0,0.0,0.0,0.0,0.0,5.6131773e-07,0.0019880587,0.021932632,7.0668017e-07,5.5402793e-06,5.5517944e-06,3.692891e-05,0.011513959,0.01151001,0.009544872,0.043917794,0.043914445,0.05683869,1.0417822e-11,1.0420998e-11,1.8298987e-11,5.2954004e-08,5.2923674e-08,5.000005e-08,0.0,0.0,0.0,0.0,0.0,0.0,0.0,0.0,663,0.29636505,0.23840867,0.04845231,0.028771821,0.07195889,0.05368444,0.0,0.0,0.0,0.0043099998,0,0,0,831,0,0,0,0
1448427502,-0.9993533,-0.02395513,-0.0038921006,0.026534645,-0.1260428,-0.10154283,-1.2293082,8.784717,-10.237461,-17.524061,1.3278804e-05,-1.8941586e-05,-2.6493704e-05,0.00020998377,-0.00038564624,-0.0007041567,0.1840634,0.04931962,0.436957,0.0,0.0,0.0,0.0,0.0,0.0,5.1560284e-07,0.0019383498,0.021460108,7.0482616e-07,5.5367577e-06,5.54741e-06,3.6951158e-05,0.01147947,0.011477288,0.009553703,0.043580934,0.043577284,0.05694445,1.04149675e-11,1.04183225e-11,1.8301676e-11,5.295468e-08,5.292377e-08,5.0000047e-08,0.0,0.0,0.0,0.0,0.0,0.0,0.0,0.0,663,0.2952257,0.23863035,0.013509122,0.017864214,0.099869296,0.047168847,0.0,0.0,0.0,0.004409,0,0,0,831,0,0,0,0
1448632226,-0.99934983,-0.02455442,-0.00021424769,0.026402969,-0.12490128,-0.09079289,-1.2306594,8.713151,-10.230956,-17.79445,1.3188622e-05,-1.9086525e-05,-2.658741e-05,0.00020999786,-0.00038536615,-0.0006965794,0.1840634,0.04931962,0.436957,0.0,0.0,0.0,0.0,0.0,0.0,4.917848e-07,0.0018887337,0.020587,7.047422e-07,5.538708e-06,5.5506716e-06,3.692593e-05,0.011463032,0.011460628,0.00951034,0.04336036,0.043356575,0.05641548,1.0413172e-11,1.0416697e-11,1.8292548e-11,5.295532e-08,5.292376e-08,5e-08,0.0,0.0,0.0,0.0,0.0,0.0,0.0,0.0,663,0.2944774,0.23751943,0.018272001,0.03262093,0.118288904,0.012252455,0.0,0.0,0.0,0.004333,0,0,0,831,0,0,0,0
1448832984,-0.9993395,-0.024877846,0.0036970738,0.026231576,-0.10299779,-0.08136179,-1.2198371,8.635809,-10.228708,-18.0457,1.3148173e-05,-1.9249866e-05,-2.6614332e-05,0.00021004665,-0.0003851782,-0.0006933381,0.1840634,0.04931962,0.436957,0.0,0.0,0.0,0.0,0.0,0.0,4.9404326e-07,0.0019260173,0.021207634,7.044532e-07,5.538113e-06,5.5498576e-06,3.7004964e-05,0.011416153,0.011413295,0.009521898,0.04296903,0.04296529,0.05655407,1.0412706e-11,1.0416406e-11,1.8309583e-11,5.295596e-08,5.2923813e-08,5.0000036e-08,0.0,0.0,0.0,0.0,0.0,0.0,0.0,0.0,663,0.29314557,0.237811,0.004006464,0.025724545,0.13718165,0.04700698,0.0,0.0,0.0,0.004251,0,0,0,831,0,0,0,0
