timestamp,lat,lon,alt,delta_alt,vel_n,vel_e,vel_d,yaw,eph,epv,terrain_alt,lat_lon_reset_counter,alt_reset_counter,terrain_alt_valid,dead_reckoning
1430858361,37.10258039874985,-76.38812415558412,1.3033884,-0.0,0.046257343,-0.0040262723,0.008373968,-0.04929676,1.028253,1.2176065,0.0,2,0,0,0
1431062656,37.10258044169295,-76.38812408633108,1.2985609,-0.0,0.041779365,0.0026462236,0.010427964,-0.049298584,1.028086,1.2173417,0.0,2,0,0,0
1431263180,37.1025804635634,-76.3881239645682,1.3014503,-0.0,0.03850636,-7.495843e-05,0.0113136,-0.04915237,1.0281361,1.2174034,0.0,2,0,0,0
1431464236,37.10258045411212,-76.38812382899766,1.2918011,-0.0,0.034643408,0.0019477187,0.0058855372,-0.051369518,1.0284495,1.2172695,0.0,2,0,0,0
1431665039,37.102580464644326,-76.38812367341473,1.2718492,-0.0,0.0217618,0.024179932,0.017866507,-0.04977048,1.0283569,1.2172879,0.0,2,0,0,0
1431869774,37.10258042684741,-76.38812351472393,1.2502679,-0.0,0.020334495,0.038201,0.012780288,-0.0488358,1.0283824,1.2173684,0.0,2,0,0,0
1432074690,37.102580368655346,-76.38812335086061,1.2391087,-0.0,-0.07893801,0.01749959,-0.09742935,-0.04140989,1.0286852,1.217242,0.0,2,0,0,0
1432274551,37.10258007323439,-76.3881233378053,1.298545,-0.0,-0.19042172,-0.05945376,-0.8015372,-0.030335346,1.0222241,1.2171037,0.0,2,0,0,0
1432479170,37.1025796443443,-76.38812343960889,1.4839239,-0.0,-0.2371245,-0.11695924,-1.0244405,-0.017648831,1.0288546,1.2174064,0.0,2,0,0,0
1432679977,37.102579148041976,-76.38812371796485,1.6975069,-0.0,-0.2357669,-0.17319758,-1.0056614,-0.011681493,1.0225244,1.2173052,0.0,2,0,0,0
1432880745,37.10257884688276,-76.38812423777144,1.9026284,-0.0,-0.16320978,-0.30244836,-0.95994973,-0.008258344,1.0226192,1.217373,0.0,2,0,0,0
1433081780,37.10257869053057,-76.38812504939847,2.0945375,-0.0,-0.052291732,-0.39879635,-0.95510775,-0.007911704,1.0226884,1.2171096,0.0,2,0,0,0
1433282613,37.10257874928784,-76.38812607502227,2.2733655,-0.0,0.041229997,-0.40270126,-0.95168334,-0.010447827,1.0227951,1.2171848,0.0,2,0,0,0
1433483449,37.10257897996306,-76.38812706704138,2.4330444,-0.0,0.08316077,-0.39515063,-0.92461526,-0.012927796,1.022836,1.2172636,0.0,2,0,0,0
1433688222,37.10257927763882,-76.38812790444547,2.59369,-0.0,0.102434,-0.32324317,-0.9219661,-0.016731052,1.0231292,1.2171354,0.0,2,0,0,0
1433888757,37.10257956050291,-76.38812863286189,2.7694488,-0.0,0.09964141,-0.2786332,-0.92361015,-0.01774009,1.0230529,1.2171488,0.0,2,0,0,0
1434092939,37.102579811453644,-76.38812918741422,2.9658368,-0.0,0.08406975,-0.20030028,-0.9285196,-0.01732393,1.023122,1.2172226,0.0,2,0,0,0
1434294619,37.10258002797816,-76.38812948579447,3.1643896,-0.0,0.037606932,-0.115988545,-0.90776736,-0.020141812,1.0231776,1.2172997,0.0,2,0,0,0
1434498643,37.102580152810404,-76.3881296409152,3.3684788,-0.0,-0.009550255,-0.043913517,-0.91360146,-0.025372809,1.0234525,1.217168,0.0,2,0,0,0
1434699453,37.10258014026283,-76.38812965347537,3.5721924,-0.0,-0.057336412,-0.0050931056,-0.9211826,-0.030426165,1.0233852,1.2172282,0.0,2,0,0,0
1434899916,37.10258008748251,-76.38812957947984,3.7789586,-0.0,-0.07499879,0.047558047,-0.9335513,-0.035789166,1.0233729,1.2172976,0.0,2,0,0,0
1435105063,37.10258002523371,-76.38812941836943,3.9897597,-0.0,-0.050800737,0.09821746,-0.96798366,-0.03799507,1.0233741,1.2173647,0.0,2,0,0,0
1435305799,37.1025799679509,-76.38812913457133,4.19287,-0.0,-0.032647725,0.15851662,-0.9070262,-0.036749642,1.0236217,1.2172284,0.0,2,0,0,0
1435510372,37.10257990811239,-76.38812872302056,4.3995824,-0.0,-0.027216908,0.19340347,-0.8977249,-0.03355398,1.0235567,1.2172514,0.0,2,0,0,0
1435714665,37.10257982950838,-76.3881282000303,4.6078434,-0.0,-0.020807654,0.25611237,-0.9058946,-0.032514773,1.0238199,1.2171315,0.0,2,0,0,0
1435915170,37.102579731521324,-76.38812761470143,4.8328037,-0.0,-0.009449285,0.2933034,-0.91065043,-0.03137799,1.0237844,1.2172166,0.0,2,0,0,0
1436121057,37.10257960935695,-76.38812690526534,5.0708656,-0.0,-0.0007526316,0.33278552,-0.89425343,-0.030668795,1.0239064,1.2173549,0.0,2,0,0,0
1436321037,37.1025795242864,-76.38812617313924,5.2815676,-0.0,0.02121308,0.37190402,-0.875125,-0.030137742,1.023918,1.2171109,0.0,2,0,0,0
1436525573,37.10257950462962,-76.3881253748464,5.4972982,-0.0,0.058483906,0.36564928,-0.889371,-0.027046936,1.0239,1.2171718,0.0,2,0,0,0
1436726623,37.10257951922773,-76.38812461878295,5.7015686,-0.0,0.107959315,0.35327783,-0.9196057,-0.024174271,1.0239373,1.2172357,0.0,2,0,0,0
1436927397,37.10257958897338,-76.38812386789206,5.9026546,-0.0,0.119421594,0.33073467,-0.9122712,-0.026244523,1.0239718,1.2176183,0.0,2,0,0,0
1437127941,37.102579661755065,-76.3881231736296,6.0787287,-0.0,0.10597567,0.29736668,-0.8673045,-0.032374904,1.0240045,1.2173356,0.0,2,0,0,0
1437328970,37.10257980401577,-76.38812249642244,6.2471037,-0.0,0.124050066,0.2586213,-0.866404,-0.03798138,1.0240145,1.217382,0.0,2,0,0,0
1437533884,37.10257998434783,-76.38812198365923,6.42519,-0.0,0.15364762,0.18895718,-0.9038517,-0.043034382,1.0242767,1.2175382,0.0,2,0,0,0
1437737753,37.102580195838485,-76.38812167658,6.5954485,-0.0,0.149171,0.12542966,-0.9227072,-0.045646936,1.0244327,1.2173101,0.0,2,0,0,0
1437938683,37.1025804466012,-76.38812155461316,6.751523,-0.0,0.103987664,0.047566965,-0.9183074,-0.044150047,1.0244604,1.2173543,0.0,2,0,0,0
1438139391,37.10258059364691,-76.38812164084642,6.9062595,-0.0,0.024065081,-0.0072447127,-0.90613097,-0.0419143,1.024462,1.2173929,0.0,2,0,0,0
1438339959,37.10258060907604,-76.38812182114116,7.06153,-0.0,-0.076778874,-0.07990338,-0.94282234,-0.03872732,1.0245013,1.2174498,0.0,2,0,0,0
1438540779,37.10258047354833,-76.3881221315541,7.229966,-0.0,-0.16410606,-0.11386115,-0.9458339,-0.03982405,1.0245372,1.2175038,0.0,2,0,0,0
1438741568,37.102580203041946,-76.38812258511865,7.3934774,-0.0,-0.23001522,-0.17953427,-0.9696408,-0.040608346,1.0245224,1.2172327,0.0,2,0,0,0
1438942383,37.10257987930054,-76.38812312918535,7.5636644,-0.0,-0.25880802,-0.18416089,-0.9728633,-0.04187529,1.0244926,1.2172941,0.0,2,0,0,0
1439147516,37.10257953747962,-76.38812370399651,7.7375536,-0.0,-0.24024971,-0.19245856,-0.98577046,-0.043235656,1.024724,1.2171521,0.0,2,0,0,0
1439348153,37.10257924313875,-76.38812429062595,7.9214764,-0.0,-0.17229436,-0.16138253,-0.9870492,-0.046005607,1.024599,1.2171664,0.0,2,0,0,0
1439547944,37.10257902967529,-76.38812478411866,8.116384,-0.0,-0.10259633,-0.103477895,-1.0044928,-0.05007499,1.0246365,1.2172338,0.0,2,0,0,0
1439753023,37.10257890087159,-76.38812512036174,8.308365,-0.0,-0.05972067,-0.05816299,-0.9861707,-0.05505625,1.0246617,1.2172872,0.0,2,0,0,0
1439953557,37.102578862388214,-76.38812530722682,8.504034,-0.0,-0.026727196,0.02823719,-0.98777556,-0.06095475,1.0249786,1.2171484,0.0,2,0,0,0
1440158376,37.102578878383554,-76.38812531841059,8.699643,-0.0,0.016994655,0.08433518,-1.0037872,-0.06397913,1.0248834,1.2171606,0.0,2,0,0,0
1440359419,37.1025789923581,-76.38812520462702,8.884618,-0.0,0.06691144,0.14317103,-1.033722,-0.06457096,1.0251867,1.2173493,0.0,2,0,0,0
1440559943,37.102579181266506,-76.38812495923037,9.09484,-0.0,0.096401915,0.18204813,-1.0509057,-0.060117457,1.0251166,1.217365,0.0,2,0,0,0
1440760951,37.10257938460085,-76.38812461713745,9.304389,-0.0,0.09117721,0.18157353,-1.0700334,-0.055103388,1.025169,1.21744,0.0,2,0,0,0
1440961558,37.102579590190885,-76.38812424296657,9.517058,-0.0,0.06695497,0.17059444,-1.1045154,-0.051744483,1.0252038,1.217185,0.0,2,0,0,0
1441162615,37.10257978584055,-76.38812394295243,9.726665,-0.0,0.046673365,0.111202605,-1.138411,-0.047929015,1.0252329,1.2172537,0.0,2,0,0,0
1441366546,37.10257992085353,-76.38812378332635,9.951621,-0.0,0.020853104,0.0868928,-1.1647935,-0.044706605,1.0252442,1.2173195,0.0,2,0,0,0
1441567443,37.1025799817817,-76.38812377733669,10.186015,-0.0,-0.0138623845,0.012610135,-1.188001,-0.03988652,1.0252138,1.2173791,0.0,2,0,0,0
1441772240,37.10257996159219,-76.38812397524573,10.424528,-0.0,-0.07618942,-0.076809056,-1.1809843,-0.036236346,1.0254724,1.2172463,0.0,2,0,0,0
1441973073,37.102579842505776,-76.38812432083371,10.667623,-0.0,-0.12568653,-0.117081776,-1.209172,-0.038452942,1.0255828,1.2173798,0.0,2,0,0,0
1442173563,37.10257965846873,-76.38812471728606,10.915075,-0.0,-0.13416843,-0.16461475,-1.1904018,-0.043683708,1.025433,1.217393,0.0,2,0,0,0
1442374371,37.10257952007631,-76.3881251253416,11.179599,-0.0,-0.10167369,-0.14975785,-1.1953089,-0.04902093,1.0254505,1.2174507,0.0,2,0,0,0
1442578627,37.102579459456535,-76.38812551176105,11.45144,-0.0,-0.059487805,-0.1298774,-1.1847125,-0.05092715,1.0254307,1.2175088,0.0,2,0,0,0
1442779378,37.102579452406225,-76.38812586769413,11.70053,-0.0,-0.014810744,-0.08467504,-1.1998992,-0.05076103,1.0254502,1.2175667,0.0,2,0,0,0
1442980762,37.102579480408515,-76.38812616382656,11.944753,-0.0,0.0076591447,-0.085046045,-1.1893413,-0.050442055,1.0254494,1.2176108,0.0,2,0,0,0
1443180974,37.1025795188315,-76.38812634990676,12.18078,-0.0,0.018776536,-0.022157157,-1.2253,-0.05215829,1.0254493,1.2173315,0.0,2,0,0,0
1443385789,37.102579548317784,-76.3881264283435,12.42261,-0.0,0.016274044,-0.014923435,-1.2282897,-0.051792827,1.0256704,1.2174859,0.0,2,0,0,0
1443586361,37.10257955552216,-76.38812637508097,12.665268,-0.0,0.0099211605,0.03698017,-1.2300922,-0.05066402,1.0256411,1.2175298,0.0,2,0,0,0
1443787169,37.10257952892628,-76.38812622626199,12.916249,-0.0,-0.017809207,0.051809076,-1.2238896,-0.050309464,1.0256505,1.2175758,0.0,2,0,0,0
1443988184,37.10257945840113,-76.388126004297,13.181486,-0.0,-0.03412081,0.09528489,-1.2557627,-0.05197856,1.0256443,1.2176187,0.0,2,0,0,0
1444189055,37.10257933146773,-76.38812572891885,13.446501,-0.0,-0.06420813,0.10754868,-1.2540665,-0.05225073,1.0255116,1.2172831,0.0,2,0,0,0
1444392990,37.10257914327171,-76.38812542269932,13.707576,-0.0,-0.06817631,0.092449576,-1.2644488,-0.05130512,1.0257418,1.2174612,0.0,2,0,0,0
1444594568,37.1025789606505,-76.3881251084576,13.962731,-0.0,-0.052742764,0.11069755,-1.2265756,-0.05150964,1.0256956,1.2175201,0.0,2,0,0,0
1444794420,37.10257882394838,-76.38812480591587,14.217503,-0.0,-0.0059994212,0.08907583,-1.2430766,-0.049507223,1.0256562,1.217572,0.0,2,0,0,0
1444995544,37.102578758106056,-76.38812457222949,14.46539,-0.0,0.048407376,0.06836521,-1.2119055,-0.046100058,1.0255412,1.2172868,0.0,2,0,0,0
1445200228,37.1025787500957,-76.38812437268585,14.711575,-0.0,0.07213774,0.013837008,-1.1849806,-0.042621285,1.0257639,1.217465,0.0,2,0,0,0
1445400946,37.102578824352065,-76.38812421501682,14.958516,-0.0,0.11017462,-0.0065624416,-1.1779612,-0.042257544,1.0256124,1.2174709,0.0,2,0,0,0
1445601566,37.10257901675962,-76.38812407912398,15.201139,-0.0,0.13876444,-0.005280438,-1.184808,-0.043219887,1.0256164,1.2175276,0.0,2,0,0,0
1445802695,37.10257930176011,-76.38812398395514,15.445253,-0.0,0.16146895,-0.020423902,-1.177904,-0.04338915,1.0256225,1.2175845,0.0,2,0,0,0
1446006621,37.102579624111705,-76.38812386558011,15.684855,-0.0,0.1518447,-0.025888767,-1.1599563,-0.044026688,1.0256314,1.2173109,0.0,2,0,0,0
1446207465,37.10257990471241,-76.38812373766658,15.913829,-0.0,0.13264199,0.00038143364,-1.1454781,-0.046237893,1.0257738,1.2174324,0.0,2,0,0,0
1446407970,37.10258013737853,-76.38812359781647,16.144976,-0.0,0.11706746,0.0017099436,-1.1658067,-0.047290597,1.0257998,1.2175,0.0,2,0,0,0
1446609071,37.10258032056626,-76.38812344290052,16.381254,-0.0,0.10833408,0.00421594,-1.2050806,-0.04661743,1.0257807,1.2175484,0.0,2,0,0,0
1446809826,37.10258048787013,-76.38812329404958,16.634752,-0.0,0.102848075,-0.048060585,-1.2569239,-0.04687289,1.02579,1.2172813,0.0,2,0,0,0
1447010675,37.102580659402186,-76.38812321308605,16.89783,-0.0,0.09475998,-0.08687784,-1.2653556,-0.049676254,1.0257866,1.2173487,0.0,2,0,0,0
1447211446,37.10258083150878,-76.38812323555055,17.172228,-0.0,0.09053579,-0.11542649,-1.2800938,-0.050542396,1.0256711,1.2173567,0.0,2,0,0,0
1447412285,37.10258098478965,-76.38812335148525,17.45298,-0.0,0.06254024,-0.1371404,-1.2900382,-0.05219962,1.0256584,1.2174178,0.0,2,0,0,0
1447613009,37.10258103342741,-76.3881234979815,17.725464,-0.0,0.0080964165,-0.13949262,-1.2871786,-0.053135887,1.0256647,1.2174839,0.0,2,0,0,0
1447817041,37.10258093516516,-76.3881236540052,18.004835,-0.0,-0.047327112,-0.1493351,-1.2722886,-0.05372862,1.025916,1.2173393,0.0,2,0,0,0
1448017871,37.10258069667554,-76.38812378174674,18.278173,-0.0,-0.079861,-0.1208981,-1.2470512,-0.054542813,1.0257239,1.217397,0.0,2,0,0,0
1448218616,37.102580309827964,-76.38812385149396,18.537434,-0.0,-0.10567251,-0.12593365,-1.2242653,-0.05328055,1.0254817,1.2174525,0.0,2,0,0,0
1448419402,37.10257982995864,-76.3881238761512,18.775139,-0.0,-0.09717149,-0.10266822,-1.2176467,-0.053525615,1.025155,1.2174958,0.0,2,0,0,0
1448620170,37.10257927675946,-76.38812383088849,19.012136,-0.0,-0.07593617,-0.10202997,-1.229821,-0.0527794,1.0246799,1.2174926,0.0,2,0,0,0
1448825057,37.102578644501236,-76.38812373606237,19.267159,-0.0,-0.060619827,-0.08292596,-1.2207321,-0.051892705,1.0245608,1.2173363,0.0,2,0,0,0
1449025568,37.102578007868985,-76.38812361877198,19.522116,-0.0,-0.033397023,-0.07240634,-1.2355503,-0.052213803,1.0241516,1.2173972,0.0,2,0,0,0
1449230575,37.102577374881754,-76.38812350832089,19.786348,-0.0,0.001344874,-0.08391963,-1.2430749,-0.05256168,1.0237751,1.2174534,0.0,2,0,0,0
1449431444,37.10257680549858,-76.38812340793525,20.057894,-0.0,0.047123287,-0.060151786,-1.2432343,-0.054187134,1.0236481,1.2173038,0.0,2,0,0,0
1449631574,37.102576405305946,-76.38812333912242,20.311796,-0.0,0.11187009,-0.092866376,-1.2498542,-0.053039234,1.0231143,1.2173096,0.0,2,0,0,0
1449836304,37.10257616398621,-76.38812331822783,20.58427,-0.0,0.19002426,-0.09523704,-1.2705514,-0.050098397,1.0227252,1.2173651,0.0,2,0,0,0
1450036805,37.102576081942466,-76.38812331585116,20.863932,-0.0,0.26689288,-0.11915708,-1.2831991,-0.04563011,1.0223098,1.2174149,0.0,2,0,0,0
1450237849,37.102576192228916,-76.38812334446663,21.127623,-0.0,0.34922984,-0.1694614,-1.274612,-0.042911172,1.0219383,1.2174817,0.0,2,0,0,0
1450438547,37.1025765075648,-76.38812328694615,21.380308,-0.0,0.43194246,-0.121658556,-1.2443271,-0.04680651,1.0215818,1.2172273,0.0,2,0,0,0
1450639387,37.10257699746886,-76.38812314553718,21.621859,-0.0,0.48946738,-0.10897834,-1.2155192,-0.049684405,1.0212351,1.2173032,0.0,2,0,0,0
1450844253,37.10257760498383,-76.38812299702026,21.865625,-0.0,0.48197883,-0.09345333,-1.2499386,-0.047377672,1.0211495,1.2174929,0.0,2,0,0,0
1451044779,37.10257818977933,-76.38812291059455,22.1121,-0.0,0.42418084,-0.11745288,-1.2656846,-0.045451406,1.020846,1.2172395,0.0,2,0,0,0
1451245013,37.102578723286705,-76.38812287347396,22.352913,-0.0,0.35386243,-0.16790195,-1.2538133,-0.046021216,1.0205636,1.2173047,0.0,2,0,0,0
1451449863,37.10257913518642,-76.38812292258623,22.593498,-0.0,0.25049847,-0.17126317,-1.2285628,-0.045580298,1.0203019,1.2173645,0.0,2,0,0,0
1451650372,37.10257941906315,-76.3881230516405,22.809992,-0.0,0.13789068,-0.20234288,-1.1828201,-0.047730345,1.0200737,1.217428,0.0,2,0,0,0
1451851166,37.102579633443646,-76.38812323039777,23.011955,-0.0,0.08942824,-0.1798527,-1.167966,-0.054691747,1.0201461,1.2175986,0.0,2,0,0,0
1452052348,37.10257985228397,-76.38812342722107,23.201565,-0.0,0.07739217,-0.1538659,-1.1561401,-0.059401926,1.0198582,1.2175972,0.0,2,0,0,0
1452252981,37.10258014355365,-76.38812363680901,23.397171,-0.0,0.11600716,-0.14432122,-1.1710075,-0.058355868,1.0197337,1.2173294,0.0,2,0,0,0
1452457807,37.10258058325851,-76.38812386756024,23.6132,-0.0,0.16196956,-0.1246625,-1.1823658,-0.057735633,1.0197948,1.2174523,0.0,2,0,0,0
1452658577,37.10258107171271,-76.38812414567035,23.845957,-0.0,0.18045448,-0.09769815,-1.1989535,-0.053585846,1.0197407,1.2175204,0.0,2,0,0,0
1452858370,37.10258153383674,-76.38812443812571,24.066772,-0.0,0.15901472,-0.06258159,-1.1872092,-0.051940452,1.0195785,1.217211,0.0,2,0,0,0
1453063422,37.10258191964622,-76.38812470344968,24.297777,-0.0,0.08524571,-0.037134416,-1.1917281,-0.050027773,1.0198121,1.2173983,0.0,2,0,0,0
1453264220,37.10258220703068,-76.38812494184647,24.529346,-0.0,0.009875221,-0.027925622,-1.2191032,-0.049423046,1.0197835,1.2174627,0.0,2,0,0,0
1453464706,37.10258242672006,-76.38812514878892,24.780079,-0.0,-0.045904692,0.003995516,-1.2187054,-0.05051465,1.0197864,1.2172166,0.0,2,0,0,0
1453665891,37.10258257681893,-76.38812534334312,25.023006,-0.0,-0.086676344,0.005774848,-1.1933157,-0.049478274,1.0197947,1.2176102,0.0,2,0,0,0
1453866569,37.10258264744707,-76.3881255004532,25.240934,-0.0,-0.109790005,0.03594469,-1.1822828,-0.0489721,1.0198047,1.2173442,0.0,2,0,0,0
1454071361,37.10258262232611,-76.38812561286045,25.463127,-0.0,-0.14829747,0.061031368,-1.1395649,-0.048869457,1.0200235,1.2175252,0.0,2,0,0,0
1454272306,37.10258252704861,-76.38812565943411,25.679428,-0.0,-0.16557151,0.086448275,-1.1356702,-0.048846103,1.0199095,1.2175301,0.0,2,0,0,0
1454472198,37.10258242216538,-76.38812566011143,25.896278,-0.0,-0.182211,0.0996427,-1.1480387,-0.048201498,1.0199733,1.2175871,0.0,2,0,0,0
1454673040,37.10258230379123,-76.3881255890085,26.112429,-0.0,-0.19189602,0.12535994,-1.1295213,-0.048076775,1.0199901,1.2176391,0.0,2,0,0,0
1454873848,37.10258217431044,-76.38812546094378,26.32474,-0.0,-0.19849592,0.12448962,-1.1574937,-0.047671244,1.0199819,1.2176739,0.0,2,0,0,0
1455074383,37.10258202414291,-76.38812531830791,26.552996,-0.0,-0.21028614,0.1058792,-1.1763554,-0.046877187,1.0200211,1.2177274,0.0,2,0,0,0
1455279581,37.10258186153928,-76.3881252031367,26.799242,-0.0,-0.2129885,0.10631109,-1.1635411,-0.045642797,1.0202584,1.2175487,0.0,2,0,0,0
1455479959,37.102581652124506,-76.38812515306765,27.04084,-0.0,-0.22421315,0.076511495,-1.2049271,-0.044819027,1.0201461,1.2175423,0.0,2,0,0,0
1455684708,37.1025814280266,-76.38812509242781,27.286491,-0.0,-0.23386112,0.07665945,-1.1943336,-0.046130136,1.0201762,1.2175965,0.0,2,0,0,0
1455885777,37.10258121368891,-76.38812499424719,27.525976,-0.0,-0.21856888,0.08887716,-1.2150015,-0.046896726,1.0146896,1.2175299,0.0,2,0,0,0
1456086625,37.10258103568176,-76.38812483089987,27.779682,-0.0,-0.17677844,0.1273837,-1.2255912,-0.04735226,1.0146143,1.2175161,0.0,2,0,0,0
1456291639,37.10258091667307,-76.38812462558137,28.05479,-0.0,-0.14120945,0.13170685,-1.221187,-0.044017863,1.0146407,1.2172356,0.0,2,0,0,0
1456491377,37.10258087680925,-76.38812440804692,28.323668,-0.0,-0.11480137,0.13200319,-1.2506948,-0.04332918,1.0204115,1.2175149,0.0,2,0,0,0
1456695987,37.10258089961461,-76.38812422163345,28.607908,-0.0,-0.08253214,0.109268494,-1.263876,-0.040781867,1.014846,1.2174393,0.0,2,0,0,0
1456896753,37.10258089579811,-76.38812412532428,28.891983,-0.0,-0.06874612,0.05529384,-1.2824835,-0.039345946,1.0149136,1.2174981,0.0,2,0,0,0
1457097843,37.102580874039276,-76.38812413120647,29.182001,-0.0,-0.072417416,0.028314834,-1.2875531,-0.042007476,1.0149084,1.2172097,0.0,2,0,0,0
1457302659,37.10258082007527,-76.38812417897384,29.483923,-0.0,-0.066417195,0.029197065,-1.2592334,-0.04574459,1.0149491,1.217266,0.0,2,0,0,0
1457503181,37.10258073769697,-76.38812424766765,29.772795,-0.0,-0.0703656,0.035494335,-1.2761112,-0.04869492,1.0151955,1.2174442,0.0,2,0,0,0
1457703986,37.10258063732495,-76.38812432608267,30.044325,-0.0,-0.065946355,0.03106092,-1.253801,-0.050263885,1.0151318,1.217446,0.0,2,0,0,0
1457908161,37.102580515374214,-76.3881244004113,30.325562,-0.0,-0.07156676,0.032868274,-1.2732829,-0.050513018,1.0151695,1.217179,0.0,2,0,0,0
1458108781,37.102580397094265,-76.38812447275055,30.604115,-0.0,-0.06487793,0.021870133,-1.2816824,-0.05172981,1.0151997,1.217234,0.0,2,0,0,0
1458313863,37.10258026193555,-76.3881245506816,30.879066,-0.0,-0.07266649,0.015268806,-1.181618,-0.052919764,1.015474,1.2174071,0.0,2,0,0,0
1458514351,37.10258012592779,-76.38812460752489,31.102203,-0.0,-0.066030145,0.022479247,-0.96163756,-0.054085672,1.0155025,1.2171354,0.0,2,0,0,0
1458719164,37.10257996713207,-76.38812459856689,31.297594,-0.0,-0.12573813,0.11199552,-0.7982046,0.006027879,1.015535,1.2172048,0.0,2,0,0,0
1458920213,37.102579620046036,-76.38812422947086,31.446774,-0.0,-0.33062997,0.35130212,-0.5668094,0.15234087,1.0157357,1.2173826,0.0,2,0,0,0
1459124973,37.10257867885112,-76.38812312935558,31.54347,-0.0,-0.8124074,0.70858425,-0.34424788,0.33935082,1.0156207,1.2173834,0.0,2,0,0,0
1459325776,37.10257663581269,-76.38812119137268,31.600655,-0.0,-1.5109211,1.0453238,-0.20146202,0.525891,1.0156292,1.2174422,0.0,2,0,0,0
1459526554,37.10257319138429,-76.38811859003111,31.628368,-0.0,-2.357844,1.2311609,-0.15366793,0.70327055,1.0156327,1.2171724,0.0,2,0,0,0
1459730345,37.10256807071991,-76.38811560873084,31.6514,-0.0,-3.2288096,1.3116252,-0.1640963,0.86791337,1.0158894,1.2173365,0.0,2,0,0,0
1459931416,37.10256152091097,-76.3881126458069,31.670437,-0.0,-3.984675,1.2922368,-0.18025365,1.0181013,1.015887,1.2173727,0.0,2,0,0,0
1460132313,37.10255371585228,-76.38810976266262,31.690275,-0.0,-4.5824203,1.260611,-0.16125652,1.151188,1.015925,1.217398,0.0,2,0,0,0
1460333020,37.10254492993503,-76.38810690705762,31.709188,-0.0,-4.998085,1.2483467,-0.11718726,1.2901673,1.015882,1.2173764,0.0,2,0,0,0
1460533529,37.10253568193407,-76.38810412253387,31.745779,-0.0,-5.0743504,1.2012109,-0.19792378,1.4443555,1.0159721,1.2174127,0.0,2,0,0,0
1460738306,37.102526336215455,-76.38810147933428,31.807068,-0.0,-4.812969,1.1099184,-0.34557667,1.5962741,1.0164095,1.2172475,0.0,2,0,0,0
1460943109,37.10251774785747,-76.38809908217821,31.89308,-0.0,-4.2835574,0.9932407,-0.42224628,1.7516186,1.0165391,1.2176138,0.0,2,0,0,0
1461144196,37.10251051830049,-76.38809705124285,31.99627,-0.0,-3.532698,0.84006184,-0.41215524,1.8851199,1.0169649,1.2177585,0.0,2,0,0,0
1461349040,37.10250460730427,-76.38809529755281,32.084522,-0.0,-2.6590667,0.7287242,-0.28269446,2.031403,1.0171335,1.2177079,0.0,2,0,0,0
1461548762,37.102500324851015,-76.38809375587708,32.128178,-0.0,-1.7896655,0.66251945,-0.10318977,2.1932657,1.0174164,1.2177097,0.0,2,0,0,0
1461750352,37.10249754783539,-76.38809213050271,32.127937,-0.0,-1.0718682,0.59348124,0.084414944,2.3488748,1.0176718,1.2176942,0.0,2,0,0,0
1461954651,37.10249606094795,-76.38809055869343,32.123646,-0.0,-0.4736434,0.44911543,0.10390359,2.4814265,1.0180995,1.2174598,0.0,2,0,0,0
1462155376,37.10249546096903,-76.3880893393122,32.124638,-0.0,-0.093528114,0.25263533,0.1441948,2.57764,1.018358,1.21776,0.0,2,0,0,0
1462356251,37.10249539032254,-76.388088520169,32.11749,-0.0,0.13508011,0.05478852,0.15003888,2.6389165,1.0186892,1.2177312,0.0,2,0,0,0
1462556698,37.10249565815028,-76.38808794907361,32.115852,-0.0,0.262311,-0.04341048,0.09075205,2.6573532,1.0188419,1.2176554,0.0,2,0,0,0
1462765933,37.1024960923925,-76.38808731502154,32.13593,-0.0,0.28261918,-0.006075226,0.01633758,2.5704548,1.0194998,1.217431,0.0,2,0,0,0
1462966357,37.10249650392984,-76.38808656545987,32.149624,-0.0,0.22300273,0.09142707,0.043822877,2.4409418,1.0197648,1.2177513,0.0,2,0,0,0
1463175794,37.10249692482935,-76.3880853816418,32.13693,-0.0,0.22166297,0.33466032,0.10526371,2.2847114,1.0201952,1.2175205,0.0,2,0,0,0
1463375380,37.10249740404867,-76.38808378874685,32.10883,-0.0,0.277271,0.56754315,0.11847861,2.1236954,1.0203117,1.2175066,0.0,2,0,0,0
1463580188,37.10249810631906,-76.38808171284437,32.091747,-0.0,0.44955614,0.7560658,0.10181968,1.9541887,1.0207195,1.2176095,0.0,2,0,0,0
1463781054,37.10249907917778,-76.38807940062141,32.074287,-0.0,0.6076865,0.8687041,0.053068306,1.7915149,1.0206567,1.2175593,0.0,2,0,0,0
1463981844,37.102500367275084,-76.38807692591749,32.053295,-0.0,0.77965784,0.90607256,0.0663651,1.6316825,1.0206517,1.2178684,0.0,2,0,0,0
1464182740,37.1025019782316,-76.38807439179485,32.05103,-0.0,0.9438102,0.9305648,0.03338074,1.4747484,1.0206405,1.2175227,0.0,2,0,0,0
1464383406,37.102503837021494,-76.38807186825383,32.04591,-0.0,1.1121775,0.94144833,0.06333102,1.3201702,1.0205864,1.21752,0.0,2,0,0,0
1464583953,37.102505920327545,-76.38806934893903,32.02778,-0.0,1.2263619,0.98780227,0.10368648,1.1635028,1.0204879,1.2178463,0.0,2,0,0,0
1464788935,37.102508300010285,-76.38806671979262,32.014866,-0.0,1.3875854,1.0311759,0.09508745,1.0125548,1.0206097,1.2179431,0.0,2,0,0,0
1464989784,37.102510988058725,-76.3880640649506,31.995752,-0.0,1.555452,1.0855864,0.13481094,0.89882326,1.0205305,1.2179258,0.0,2,0,0,0
1465193927,37.10251408403004,-76.3880612938732,31.988876,-0.0,1.7204891,1.1892042,0.11353589,0.8211445,1.0203143,1.2179048,0.0,2,0,0,0
1465394587,37.102517442026134,-76.38805830616487,31.994223,-0.0,1.875077,1.3589246,0.12712573,0.7716808,1.0201013,1.2178794,0.0,2,0,0,0
1465595185,37.10252104022069,-76.38805495608754,31.997332,-0.0,2.0290585,1.5635853,0.058260493,0.7401138,1.0197986,1.217846,0.0,2,0,0,0
1465796290,37.1025248518407,-76.3880513240699,32.02141,-0.0,2.1382344,1.6946939,-0.053967725,0.715018,1.0195156,1.2178144,0.0,2,0,0,0
1465997048,37.10252883515344,-76.38804751873649,32.048798,-0.0,2.210561,1.7287414,-0.03100587,0.70389754,1.0194864,1.2179021,0.0,2,0,0,0
1466197854,37.10253292121162,-76.38804363408696,32.022884,-0.0,2.2619348,1.7345937,0.010380244,0.7027632,1.0191057,1.2178175,0.0,2,0,0,0
1466402961,37.10253712048507,-76.3880396884481,31.963009,-0.0,2.2271845,1.738681,0.017944245,0.7047799,1.0188802,1.2177906,0.0,2,0,0,0
1466603393,37.10254116596922,-76.38803583536217,31.888494,-0.0,2.203132,1.7516034,-0.008748993,0.7132483,1.0188776,1.217879,0.0,2,0,0,0
1466807558,37.102545140400444,-76.38803185696429,31.858442,-0.0,2.1516016,1.7594438,-0.09431991,0.72535855,1.0185548,1.2181288,0.0,2,0,0,0
1467008497,37.10254890877016,-76.38802790754414,31.84484,-0.0,2.0519671,1.8107942,-0.17314036,0.73292816,1.0183855,1.2180707,0.0,2,0,0,0
1467208983,37.102552551737,-76.38802388722652,31.850286,-0.0,1.9832277,1.8220097,-0.18545559,0.7396219,1.0185102,1.218142,0.0,2,0,0,0
1467414224,37.102556178974254,-76.38801964131035,31.872477,-0.0,1.9165305,1.8920672,-0.17879848,0.74061346,1.0183382,1.2180506,0.0,2,0,0,0
1467614630,37.10255970359663,-76.38801536297842,31.889997,-0.0,1.8852307,1.9273846,-0.14551969,0.74038744,1.0183141,1.2180239,0.0,2,0,0,0
1467823512,37.10256333926868,-76.38801081443647,31.89691,-0.0,1.8987123,1.9763409,-0.18023562,0.73448294,1.0185542,1.2177745,0.0,2,0,0,0
1468024175,37.10256696135092,-76.38800638346308,31.914497,-0.0,2.014506,1.9892079,-0.12615657,0.72924536,1.018587,1.2180958,0.0,2,0,0,0
1468224176,37.102570843308236,-76.38800195954208,31.931175,-0.0,2.1674554,1.9605867,-0.11616115,0.72875273,1.0186434,1.2177352,0.0,2,0,0,0
1468424994,37.10257500138901,-76.38799752212987,31.920078,-0.0,2.2645903,1.958429,-0.030411653,0.72871464,1.018712,1.2177334,0.0,2,0,0,0
1468625789,37.10257929236402,-76.38799308425543,31.905827,-0.0,2.299862,1.983589,0.0017388947,0.7276911,1.0188527,1.2177323,0.0,2,0,0,0
1468826630,37.10258360202726,-76.38798863744154,31.914965,-0.0,2.3062105,1.9988029,-0.041081604,0.72546077,1.0189416,1.2177306,0.0,2,0,0,0
1469027143,37.102587935833476,-76.38798416239896,31.933552,-0.0,2.3171363,1.9797162,0.06471909,0.7224651,1.0192956,1.217837,0.0,2,0,0,0
1469228202,37.102592233094626,-76.3879797087327,31.950035,-0.0,2.2853355,1.9842485,0.07640353,0.71842825,1.0192721,1.2177873,0.0,2,0,0,0
1469429018,37.10259645956435,-76.38797524913534,31.966997,-0.0,2.2688694,1.9641658,0.09043787,0.71570325,1.0193506,1.2178043,0.0,2,0,0,0
1469629766,37.102600583534986,-76.38797081563114,31.978558,-0.0,2.2427344,1.9424102,0.100152165,0.71329314,1.0194198,1.2178191,0.0,2,0,0,0
1469830618,37.102604646088466,-76.38796644762392,31.973522,-0.0,2.2078266,1.9293401,0.06403884,0.7124848,1.0194812,1.2175032,0.0,2,0,0,0
1470034704,37.1026087707106,-76.38796200469055,31.98348,-0.0,2.2091005,1.9224885,0.117706515,0.7079748,1.0196126,1.2175356,0.0,2,0,0,0
1470235365,37.10261280227646,-76.3879575727066,31.97136,-0.0,2.2078147,1.9456788,0.19668154,0.70535064,1.0197752,1.2173052,0.0,2,0,0,0
1470436449,37.10261673432786,-76.38795309251925,31.940355,-0.0,2.1482904,1.9752854,0.21050255,0.7104689,1.0197952,1.2173469,0.0,2,0,0,0
1470637034,37.10262050422991,-76.38794859690553,31.920702,-0.0,2.058536,1.9824957,0.11076272,0.716402,1.0197628,1.2173488,0.0,2,0,0,0
1470837926,37.102624039012916,-76.38794416230746,31.931133,-0.0,1.9719856,1.9434937,0.017175334,0.7215423,1.0198087,1.2174019,0.0,2,0,0,0
1471042657,37.10262746314906,-76.38793973565063,31.952068,-0.0,1.903285,1.893865,0.048754144,0.7250416,1.020109,1.2175661,0.0,2,0,0,0
1471243447,37.102630654696355,-76.387935485729,31.979181,-0.0,1.8374423,1.862098,0.10245313,0.72692984,1.0201442,1.2176116,0.0,2,0,0,0
1471443955,37.10263373777529,-76.38793130618943,31.991117,-0.0,1.7799859,1.8316071,-0.0031129746,0.72822714,1.0201659,1.2173346,0.0,2,0,0,0
1471644315,37.10263670476992,-76.38792726082767,32.020733,-0.0,1.7392422,1.7632996,-0.12858742,0.72792333,1.020221,1.2173957,0.0,2,0,0,0
1471845030,37.10263960865791,-76.38792340599794,32.05163,-0.0,1.7269808,1.6844826,-0.12533629,0.7253564,1.0202338,1.2174501,0.0,2,0,0,0
1472045775,37.10264251505886,-76.38791973749014,32.01318,-0.0,1.7498801,1.66139,-0.0011769664,0.7222252,1.0202402,1.2175047,0.0,2,0,0,0
1472246367,37.102645517346176,-76.3879161941431,31.949352,-0.0,1.8186554,1.6358789,-0.0045908783,0.7206415,1.0201709,1.2175483,0.0,2,0,0,0
1472447485,37.10264866330863,-76.38791270960706,31.88986,-0.0,1.8999628,1.6086452,0.025793046,0.72128713,1.02016,1.2176039,0.0,2,0,0,0
1472648191,37.10265197459352,-76.38790924436246,31.850714,-0.0,1.9618267,1.6446834,-0.0049651917,0.7194537,1.0202748,1.2173839,0.0,2,0,0,0
1472852932,37.10265548379182,-76.38790568525985,31.831032,-0.0,2.0044901,1.6676593,0.0020148084,0.7195471,1.0203714,1.2174964,0.0,2,0,0,0
1473053795,37.10265900412247,-76.38790214077105,31.808386,-0.0,2.0312047,1.6751062,-0.025960496,0.7224669,1.020231,1.2174952,0.0,2,0,0,0
1473254374,37.10266256158966,-76.38789857329066,31.795961,-0.0,2.0427308,1.6904514,-0.06324518,0.722733,1.0202776,1.2175467,0.0,2,0,0,0
1473454576,37.102666142573725,-76.3878949507622,31.765991,-0.0,2.0389688,1.7481391,0.0065957895,0.71840096,1.0204259,1.2175981,0.0,2,0,0,0
1473655387,37.10266979793381,-76.3878911854362,31.737825,-0.0,2.0729878,1.786214,0.027179718,0.7107989,1.0206128,1.2176336,0.0,2,0,0,0
1473860294,37.1026735337935,-76.38788718887494,31.699404,-0.0,2.067139,1.8484124,-0.004429872,0.7081914,1.0208219,1.2176739,0.0,2,0,0,0
1474060792,37.10267716716277,-76.38788326411527,31.67078,-0.0,2.0812013,1.8374568,-0.041242346,0.7059988,1.0210713,1.2177111,0.0,2,0,0,0
1474262020,37.10268076294923,-76.38787932179467,31.66693,-0.0,2.082242,1.8341221,-0.080868006,0.7032122,1.0213934,1.2174225,0.0,2,0,0,0
1474462693,37.10268438125763,-76.38787531433906,31.670137,-0.0,2.0970156,1.806615,-0.08229159,0.70310545,1.0217916,1.2174745,0.0,2,0,0,0
1474663172,37.10268801623881,-76.38787129280655,31.651285,-0.0,2.1024544,1.8035545,-0.104175895,0.7002408,1.0221452,1.2175204,0.0,2,0,0,0
1474868200,37.10269168828782,-76.3878672094081,31.641851,-0.0,2.1195772,1.7533996,-0.089376345,0.6987676,1.0227597,1.217671,0.0,2,0,0,0
1475068280,37.102695267606705,-76.38786328030218,31.65198,-0.0,2.1203573,1.764692,-0.12311723,0.69639677,1.0230672,1.2177,0.0,2,0,0,0
1475268993,37.102698876514715,-76.38785935177654,31.648787,-0.0,2.1185455,1.7620496,-0.11882917,0.69579655,1.0233734,1.2177314,0.0,2,0,0,0
1475469813,37.102702418679584,-76.38785548233098,31.656727,-0.0,2.1089523,1.7455502,-0.11272051,0.69742996,1.0236367,1.2177576,0.0,2,0,0,0
1475670621,37.10270594448009,-76.38785155152499,31.673449,-0.0,2.1026063,1.740037,-0.10278738,0.6989208,1.0238786,1.2177811,0.0,2,0,0,0
1475871402,37.10270946383095,-76.38784767249727,31.694193,-0.0,2.120259,1.715923,-0.0839776,0.69957286,1.024013,1.2177562,0.0,2,0,0,0
1476072294,37.102712948343516,-76.38784379164117,31.71215,-0.0,2.117043,1.709196,-0.06040912,0.69901633,1.024284,1.217778,0.0,2,0,0,0
1476273005,37.10271644738468,-76.3878398853739,31.738758,-0.0,2.1085749,1.726727,-0.03470296,0.6989611,1.024813,1.2175845,0.0,2,0,0,0
1476477844,37.102720134870644,-76.38783589880862,31.757305,-0.0,2.1219168,1.7018211,0.007124195,0.70093954,1.0249325,1.2175529,0.0,2,0,0,0
1476677889,37.102723788942214,-76.3878320229407,31.772808,-0.0,2.1163507,1.6947979,-0.0015815422,0.7043652,1.0251732,1.2175779,0.0,2,0,0,0
1476878741,37.10272744333958,-76.38782816447176,31.790056,-0.0,2.0979173,1.67316,-0.0587933,0.7070144,1.025387,1.2176005,0.0,2,0,0,0
1477079353,37.10273108468331,-76.38782434639305,31.808489,-0.0,2.0729213,1.6351876,-0.025060628,0.70634943,1.0256058,1.2176131,0.0,2,0,0,0
1477280222,37.102734751790926,-76.38782046934108,31.815083,-0.0,2.0600295,1.6422114,-0.058306236,0.703309,1.0198573,1.2175244,0.0,2,0,0,0
1477480771,37.10273843654907,-76.38781659962265,31.826128,-0.0,2.055082,1.6432519,0.015417281,0.70127344,1.0261815,1.2177261,0.0,2,0,0,0
1477685534,37.102742191394825,-76.38781259053685,31.851429,-0.0,2.0551884,1.6522328,-0.0008077589,0.6993865,1.0263747,1.2177564,0.0,2,0,0,0
1477886664,37.10274586956572,-76.38780862412119,31.87436,-0.0,2.0443242,1.6559839,0.020094074,0.69919336,1.0265635,1.2174568,0.0,2,0,0,0
1478087384,37.10274953567791,-76.38780473313102,31.896986,-0.0,2.018472,1.6556345,0.034291558,0.701619,1.0204387,1.2172754,0.0,2,0,0,0
1478291399,37.10275323978419,-76.38780077359684,31.914806,-0.0,2.0248637,1.6682547,0.031190094,0.70276314,1.0208689,1.2174345,0.0,2,0,0,0
1478492445,37.10275694665205,-76.38779684010751,31.932966,-0.0,2.0401056,1.6999727,0.044230536,0.7058211,1.0209842,1.2174164,0.0,2,0,0,0
1478696991,37.1027607606926,-76.3877927011589,31.941422,-0.0,2.0538437,1.740867,0.115284994,0.7088504,1.021423,1.2172415,0.0,2,0,0,0
1478897847,37.10276450860749,-76.3877886092894,31.936384,-0.0,2.0621688,1.7757666,0.073297955,0.7089257,1.0215962,1.2172756,0.0,2,0,0,0
1479098656,37.10276831393395,-76.38778447939454,31.928867,-0.0,2.0958924,1.7520027,0.018339096,0.7113799,1.0218054,1.2173283,0.0,2,0,0,0
1479299133,37.1027721669119,-76.3877803809857,31.920202,-0.0,2.1062262,1.7508025,0.008894051,0.7080247,1.022016,1.2173831,0.0,2,0,0,0
1479500196,37.10277603920427,-76.38777631449314,31.903576,-0.0,2.130314,1.728677,0.00036637852,0.70582783,1.0222244,1.2174351,0.0,2,0,0,0
1479701205,37.102779907173996,-76.38777229286427,31.92162,-0.0,2.0929396,1.7337621,-0.0024550976,0.70694876,1.022448,1.2171592,0.0,2,0,0,0
1479901860,37.10278375193522,-76.38776823194132,31.949566,-0.0,2.0971735,1.7122487,0.018001277,0.7091974,1.0226377,1.2175275,0.0,2,0,0,0
1480102706,37.102787540673965,-76.38776417396465,31.939566,-0.0,2.0713098,1.7200519,0.07083641,0.71141195,1.0228115,1.2175635,0.0,2,0,0,0
1480306717,37.102791310818276,-76.38776000251544,31.925158,-0.0,2.03566,1.7342035,0.097851396,0.71274817,1.0229362,1.2172693,0.0,2,0,0,0
1480507441,37.10279496564156,-76.38775587165033,31.911554,-0.0,2.017863,1.7622147,0.09309461,0.71363735,1.0233254,1.217412,0.0,2,0,0,0
1480708251,37.102798650311286,-76.38775174788213,31.87761,-0.0,2.0148854,1.7688566,0.11294003,0.7145711,1.0233383,1.2173932,0.0,2,0,0,0
1480912977,37.10280238613148,-76.38774751900746,31.84891,-0.0,2.007233,1.7725191,0.0841621,0.7149534,1.0235956,1.2174883,0.0,2,0,0,0
1481113436,37.10280599635597,-76.3877433607626,31.821453,-0.0,2.0016623,1.7880943,0.0063747987,0.71502686,1.0236877,1.2175218,0.0,2,0,0,0
1481314710,37.10280963714727,-76.3877391828596,31.795788,-0.0,2.0143976,1.7573831,0.033005368,0.71616054,1.0238147,1.2175516,0.0,2,0,0,0
1481515398,37.10281332998127,-76.38773503325955,31.78692,-0.0,2.0074816,1.7557474,0.02818345,0.71695906,1.0239426,1.2172602,0.0,2,0,0,0
1481715171,37.102816995850475,-76.38773094809491,31.789785,-0.0,1.9723973,1.7404736,0.00055633765,0.72193456,1.0240656,1.2172939,0.0,2,0,0,0
1481919962,37.10282065619621,-76.38772687131774,31.802969,-0.0,1.9151566,1.7003663,0.03462939,0.72488993,1.0243169,1.2173805,0.0,2,0,0,0
1482120994,37.10282415293504,-76.38772297279289,31.827002,-0.0,1.8685137,1.6504599,0.026403239,0.72473425,1.0244119,1.2174013,0.0,2,0,0,0
1482321564,37.10282761063335,-76.38771919924645,31.842848,-0.0,1.8463876,1.6027316,0.025999164,0.7234013,1.0245126,1.2174324,0.0,2,0,0,0
1482522621,37.102831002943844,-76.38771554179608,31.859058,-0.0,1.8133123,1.5822753,0.038764477,0.7178949,1.0246289,1.2174577,0.0,2,0,0,0
1482723456,37.1028343590269,-76.38771197517066,31.879435,-0.0,1.8325981,1.5288634,0.049915314,0.71539366,1.0246147,1.2174295,0.0,2,0,0,0
1482924206,37.102837745025134,-76.38770845287125,31.890358,-0.0,1.8280014,1.5514387,0.07210878,0.71293616,1.0247568,1.2174617,0.0,2,0,0,0
1483124978,37.10284113647813,-76.38770498881318,31.895617,-0.0,1.8505898,1.5267186,0.07146169,0.71412295,1.0249069,1.217495,0.0,2,0,0,0
1483324764,37.10284451486042,-76.38770157561949,31.909193,-0.0,1.8701363,1.5128062,0.07869901,0.7137852,1.0251492,1.2172118,0.0,2,0,0,0
1483529545,37.102847972798926,-76.38769807491214,31.929783,-0.0,1.8666165,1.5146687,0.038951904,0.7130623,1.0256029,1.2173649,0.0,2,0,0,0
1483730345,37.10285140819815,-76.38769462429497,31.9449,-0.0,1.8821216,1.5127944,0.090570614,0.7113179,1.025767,1.2173994,0.0,2,0,0,0
1483931439,37.102854876394176,-76.38769117034373,31.944023,-0.0,1.9156396,1.5267253,0.124965176,0.71160746,1.0258429,1.2174101,0.0,2,0,0,0
1484132276,37.10285838222411,-76.38768767382915,31.936934,-0.0,1.9309098,1.5803667,0.11744645,0.71177304,1.026005,1.2174301,0.0,2,0,0,0
1484333039,37.10286194424761,-76.38768410238269,31.916357,-0.0,1.9766413,1.5827016,0.12595919,0.7140612,1.0262051,1.2174474,0.0,2,0,0,0
1484533557,37.102865549256805,-76.38768049134084,31.895123,-0.0,1.9880762,1.6136674,0.07846874,0.71682495,1.0262289,1.2174147,0.0,2,0,0,0
1484738573,37.10286917913792,-76.3876768339504,31.864109,-0.0,1.9647205,1.6219739,0.064398974,0.7194154,1.0266405,1.2175517,0.0,2,0,0,0
1484939406,37.10287268452117,-76.38767323824298,31.854101,-0.0,1.9485745,1.6302384,0.024852876,0.72002655,1.0267859,1.2175635,0.0,2,0,0,0
1485143467,37.102876208875465,-76.38766954216074,31.83035,-0.0,1.9130632,1.6532831,0.00039864425,0.71871954,1.0269303,1.2175702,0.0,2,0,0,0
1485343926,37.10287961253989,-76.38766589971782,31.825197,-0.0,1.8793417,1.646003,-0.047733173,0.72384244,1.0270518,1.2175771,0.0,2,0,0,0
1485544770,37.10288294505275,-76.38766225587692,31.841305,-0.0,1.8435646,1.6533211,-0.12709038,0.7261389,1.0274171,1.2176937,0.0,2,0,0,0
1485749792,37.10288631025908,-76.38765847944325,31.854324,-0.0,1.7966543,1.6788735,-0.036301866,0.7251425,1.0274186,1.2176486,0.0,2,0,0,0
1485950368,37.10288958740076,-76.38765469524552,31.86917,-0.0,1.7765203,1.7406704,-0.045307208,0.723536,1.0277665,1.217455,0.0,2,0,0,0
1486151365,37.10289284162529,-76.38765079196182,31.870329,-0.0,1.8004951,1.7623467,-0.029969482,0.72021943,1.0277811,1.2174273,0.0,2,0,0,0
1486351991,37.10289614847529,-76.38764675326775,31.865284,-0.0,1.8155832,1.8023418,-0.01744517,0.717477,1.0279061,1.2174655,0.0,2,0,0,0
1486553021,37.10289950335397,-76.3876426678163,31.853811,-0.0,1.8091434,1.8445188,-0.026768481,0.7163553,1.0280247,1.2174995,0.0,2,0,0,0
1486756941,37.10290291226506,-76.38763857380431,31.84369,-0.0,1.8053486,1.82336,-0.03028477,0.7187588,1.0281636,1.2175266,0.0,2,0,0,0
1486958410,37.10290625911606,-76.38763458642532,31.853863,-0.0,1.7989883,1.745441,-0.04917779,0.7211021,1.0282954,1.2175494,0.0,2,0,0,0
1487158329,37.10290951893202,-76.38763072705773,31.886086,-0.0,1.7410818,1.7307439,-0.057494216,0.7220586,1.0284398,1.21757,0.0,2,0,0,0
1487363148,37.10291279085822,-76.38762693707221,31.91657,-0.0,1.728964,1.7131585,-0.04070078,0.7198386,1.0287756,1.2176894,0.0,2,0,0,0
1487564178,37.102915973382494,-76.38762335024457,31.93589,-0.0,1.745775,1.6566395,-0.0070481617,0.71997917,1.0288976,1.2176996,0.0,2,0,0,0
1487764963,37.102919176490694,-76.38761982187329,31.96284,-0.0,1.7622393,1.6339896,-0.017194659,0.72280025,1.0289639,1.2173883,0.0,2,0,0,0
1487965768,37.10292241997755,-76.38761634129068,31.976065,-0.0,1.782549,1.6181523,-0.024231546,0.72518957,1.0290167,1.2174195,0.0,2,0,0,0
1488166371,37.10292571996705,-76.38761288522579,31.987167,-0.0,1.807217,1.5877582,-0.0017943233,0.72572976,1.0290767,1.2174604,0.0,2,0,0,0
1488370578,37.102929114538895,-76.38760934700227,31.991295,-0.0,1.8124126,1.5996146,0.059511792,0.72438496,1.0292459,1.217234,0.0,2,0,0,0
1488571205,37.10293246976129,-76.3876058331249,31.970997,-0.0,1.8095013,1.6371944,0.10964514,0.7230863,1.0292689,1.2176025,0.0,2,0,0,0
1488771943,37.1029358106433,-76.38760226036034,31.94973,-0.0,1.8154018,1.6712178,0.11069821,0.72158813,1.0292838,1.2176319,0.0,2,0,0,0
1488973011,37.10293916888394,-76.38759859726478,31.942627,-0.0,1.8378147,1.6869143,0.15175027,0.7193364,1.0292817,1.2173228,0.0,2,0,0,0
1489173756,37.102942562665454,-76.38759481097497,31.903177,-0.0,1.8607589,1.7416129,0.1776976,0.7169438,1.0293021,1.217363,0.0,2,0,0,0
1489374366,37.10294598694462,-76.38759084961536,31.853596,-0.0,1.8985311,1.7693586,0.13177104,0.71632963,1.0293671,1.2174002,0.0,2,0,0,0
1489575385,37.102949495411075,-76.38758675185572,31.81196,-0.0,1.9378372,1.8202964,0.07434808,0.71416736,1.0294274,1.2174453,0.0,2,0,0,0
1489775921,37.102953098185495,-76.38758260394017,31.783257,-0.0,1.9834597,1.7949781,0.042337276,0.71193945,1.0294477,1.2174848,0.0,2,0,0,0
1489976283,37.102956760687356,-76.38757849761897,31.754803,-0.0,2.0205786,1.7592677,-0.022869095,0.7076467,1.0293511,1.2174672,0.0,2,0,0,0
1490177891,37.10296047969189,-76.38757444046273,31.735205,-0.0,2.0259044,1.7497138,-0.09164837,0.7133774,1.0295466,1.2172432,0.0,2,0,0,0
1490377748,37.10296428648659,-76.38757044756936,31.76076,-0.0,2.2393649,1.7652537,-0.43321848,0.8038179,1.0295738,1.2172866,0.0,2,0,0,0
1490582676,37.10296886105693,-76.38756607941187,31.877531,-0.0,2.7935348,1.9822695,-0.8898968,0.925296,1.029613,1.217328,0.0,2,0,0,0
1490783710,37.10297447342756,-76.38756108762226,32.04697,-0.0,3.4433143,2.3918025,-1.0753018,1.0277958,1.0297292,1.2176813,0.0,2,0,0,0
1490983970,37.102981088913076,-76.38755505448567,32.236855,-0.0,3.9636722,2.9048145,-1.1049676,1.0972614,1.0298347,1.217696,0.0,2,0,0,0
1491184782,37.102988373883164,-76.38754786829473,32.423576,-0.0,4.2534404,3.3802326,-1.0514535,1.1456074,1.030299,1.2178016,0.0,2,0,0,0
1491385575,37.102995952271776,-76.38753975320031,32.598698,-0.0,4.30371,3.7107933,-1.0142446,1.183383,1.0302835,1.2177391,0.0,2,0,0,0
1491586351,37.10300339703377,-76.38753097525006,32.774616,-0.0,4.1283793,3.9342976,-1.137603,1.2121998,1.0304636,1.2177399,0.0,2,0,0,0
1491786548,37.103010360577706,-76.3875218099116,32.993477,-0.0,3.7953148,4.083327,-1.193264,1.224756,1.030676,1.2177527,0.0,2,0,0,0
1491987453,37.10301669380771,-76.38751221404235,33.22659,-0.0,3.4075289,4.345136,-1.2380726,1.2263128,1.0307771,1.2177522,0.0,2,0,0,0
1492192027,37.103022414458025,-76.38750169693158,33.47578,-0.0,3.0561821,4.729558,-1.1929632,1.2249026,1.030864,1.2177315,0.0,2,0,0,0
1492397422,37.103027449970426,-76.38749027914082,33.71416,-0.0,2.765351,5.1666813,-1.1515449,1.2271636,1.031097,1.2178261,0.0,2,0,0,0
1492598061,37.10303182456569,-76.38747811341493,33.918633,-0.0,2.5853431,5.5767345,-1.033385,1.2321814,1.0309199,1.2177474,0.0,2,0,0,0
1492798370,37.10303586737882,-76.38746513247689,34.07408,-0.0,2.4547384,5.9594107,-1.0051463,1.2393962,1.0308682,1.2177389,0.0,2,0,0,0
1492999363,37.1030396786189,-76.3874514078163,34.213936,-0.0,2.3622124,6.2411427,-1.0388346,1.243554,1.0308412,1.2177266,0.0,2,0,0,0
1493200341,37.1030433727328,-76.38743714951576,34.382183,-0.0,2.2865436,6.4003463,-1.1496506,1.242761,1.0308133,1.2176992,0.0,2,0,0,0
1493400732,37.103047033051695,-76.38742259006867,34.58191,-0.0,2.2526624,6.488116,-1.2067132,1.24055,1.0308868,1.2180116,0.0,2,0,0,0
1493600994,37.103050687468006,-76.38740800859674,34.80594,-0.0,2.2638845,6.494697,-1.1935672,1.2401891,1.0308831,1.2179866,0.0,2,0,0,0
1493805809,37.10305447842031,-76.38739309999599,35.057724,-0.0,2.3151877,6.48493,-1.2224871,1.2399541,1.031181,1.2177373,0.0,2,0,0,0
1494010892,37.103058418398255,-76.38737829196074,35.309223,-0.0,2.3494031,6.4900846,-1.1995136,1.2384064,1.0311507,1.2176962,0.0,2,0,0,0
1494211353,37.1030624224607,-76.38736385230075,35.57284,-0.0,2.4421144,6.4538198,-1.1849626,1.2365384,1.0314869,1.2177888,0.0,2,0,0,0
1494412276,37.103066619186336,-76.38734944967318,35.845024,-0.0,2.5171854,6.4477015,-1.211717,1.2325652,1.0313576,1.2180504,0.0,2,0,0,0
1494613010,37.103071040411585,-76.38733509964892,36.126568,-0.0,2.5944743,6.42954,-1.1646643,1.2305316,1.0312718,1.2179552,0.0,2,0,0,0
1494813874,37.10307563375023,-76.38732073921187,36.4066,-0.0,2.6051874,6.463969,-1.1767765,1.2308421,1.031313,1.2179227,0.0,2,0,0,0
1495014342,37.10308034657581,-76.38730629085003,36.682713,-0.0,2.624855,6.4861226,-1.2269588,1.2331707,1.031377,1.2178936,0.0,2,0,0,0
1495214608,37.103085101561895,-76.3872917928471,36.933365,-0.0,2.5988004,6.5191884,-1.2318894,1.2329334,1.0314804,1.2178702,0.0,2,0,0,0
1495415449,37.10308986601419,-76.38727719573649,37.18691,-0.0,2.6011534,6.53268,-1.23356,1.2309272,1.031521,1.2178377,0.0,2,0,0,0
1495616209,37.10309460164701,-76.3872625518674,37.442715,-0.0,2.559056,6.568413,-1.216225,1.2308106,1.0315839,1.2178288,0.0,2,0,0,0
1495816819,37.10309929569837,-76.38724785964843,37.69574,-0.0,2.5330958,6.598454,-1.2442193,1.2314708,1.031611,1.2178113,0.0,2,0,0,0
1496017927,37.10310395626424,-76.38723306995674,37.94799,-0.0,2.4757464,6.6387305,-1.226138,1.2305006,1.0317482,1.2177992,0.0,2,0,0,0
1496218707,37.103108542451295,-76.38721817281338,38.204422,-0.0,2.468359,6.6703296,-1.2238917,1.2301407,1.0318433,1.2177842,0.0,2,0,0,0
1496419381,37.103113128429975,-76.38720317544406,38.456573,-0.0,2.4256911,6.68865,-1.183486,1.2288078,1.0319785,1.2177706,0.0,2,0,0,0
1496624174,37.10311777924344,-76.3871878279328,38.697227,-0.0,2.4045942,6.6985645,-1.1677595,1.2273839,1.0323718,1.2175412,0.0,2,0,0,0
1496827906,37.10312235794301,-76.3871724987447,38.957367,-0.0,2.3879724,6.7333436,-1.1872678,1.2249897,1.0324765,1.2175384,0.0,2,0,0,0
1497029007,37.103126843946065,-76.3871573574439,39.221798,-0.0,2.3716908,6.773862,-1.2322434,1.2241681,1.032732,1.2175974,0.0,2,0,0,0
1497229805,37.10313130298185,-76.38714214387694,39.480606,-0.0,2.3926697,6.766365,-1.1997147,1.2241176,1.0328554,1.2176089,0.0,2,0,0,0
1497430639,37.103135740127286,-76.38712680642618,39.726414,-0.0,2.3654394,6.76691,-1.1428773,1.2223725,1.0330039,1.2176108,0.0,2,0,0,0
1497631178,37.10314017980928,-76.3871114514236,39.963913,-0.0,2.3507302,6.7907767,-1.1443338,1.2209365,1.033006,1.2175717,0.0,2,0,0,0
1497832235,37.10314459204413,-76.3870960891931,40.172062,-0.0,2.3343837,6.7990894,-1.1226639,1.2213212,1.0331154,1.2175795,0.0,2,0,0,0
1498032776,37.1031489968672,-76.38708077556747,40.371216,-0.0,2.3289135,6.814769,-1.1265901,1.2211393,1.033535,1.2173808,0.0,2,0,0,0
1498233974,37.103153389749494,-76.38706544103508,40.573975,-0.0,2.2918792,6.8033853,-1.1261014,1.2222592,1.0335467,1.2176682,0.0,2,0,0,0
1498438570,37.10315785041663,-76.38704977941634,40.7893,-0.0,2.291917,6.765481,-1.2026136,1.2238128,1.0337232,1.2176877,0.0,2,0,0,0
1498638625,37.10316221193954,-76.3870345236837,41.034878,-0.0,2.2592843,6.7626605,-1.2479124,1.2251705,1.0339139,1.2177043,0.0,2,0,0,0
1498843458,37.10316664241361,-76.38701893630507,41.28299,-0.0,2.2545812,6.7333274,-1.2230469,1.2279702,1.0343362,1.2174933,0.0,2,0,0,0
1499044178,37.10317091603939,-76.38700365777223,41.521244,-0.0,2.2196412,6.7316775,-1.2019699,1.2293878,1.0345175,1.2175088,0.0,2,0,0,0
1499244992,37.10317513326368,-76.38698840246637,41.77127,-0.0,2.2337406,6.7416363,-1.2360171,1.2298342,1.0345192,1.2174748,0.0,2,0,0,0
1499445544,37.10317932297197,-76.38697310818789,42.027687,-0.0,2.2168033,6.7648115,-1.209455,1.2272801,1.0346498,1.2174926,0.0,2,0,0,0
1499646772,37.103183507325944,-76.3869577529129,42.25651,-0.0,2.2412488,6.7833924,-1.1977164,1.2263533,1.0347952,1.2175075,0.0,2,0,0,0
1499847468,37.10318775150723,-76.38694227857069,42.493336,-0.0,2.2681696,6.8058796,-1.1937876,1.2247818,1.0352786,1.2176484,0.0,2,0,0,0
1500048242,37.10319202285639,-76.38692671699252,42.763096,-0.0,2.2870004,6.8063707,-1.1597216,1.2251279,1.0352942,1.2176127,0.0,2,0,0,0
1500249007,37.10319633990008,-76.3869112056531,43.024803,-0.0,2.3025017,6.796497,-1.1524578,1.2253373,1.0353807,1.2176398,0.0,2,0,0,0
1500448997,37.10320069934623,-76.386895883404,43.27263,-0.0,2.3429868,6.768438,-1.2362547,1.2239473,1.0354463,1.2176622,0.0,2,0,0,0
1500649771,37.103205144556384,-76.38688055857097,43.537796,-0.0,2.3829226,6.723349,-1.2555848,1.2256671,1.0355301,1.2176666,0.0,2,0,0,0
1500850345,37.103209629286674,-76.38686535297235,43.80978,-0.0,2.4099336,6.662674,-1.1970295,1.2288177,1.0356281,1.2176708,0.0,2,0,0,0
1501051395,37.10321421473892,-76.38685018031967,44.06534,-0.0,2.4181516,6.651598,-1.1882144,1.2269409,1.0357699,1.217674,0.0,2,0,0,0
1501252175,37.103218849109574,-76.3868349483901,44.318703,-0.0,2.439613,6.666484,-1.1469401,1.2252989,1.0358905,1.2176845,0.0,2,0,0,0
1501453012,37.10322351620537,-76.38681959446838,44.56101,-0.0,2.4255717,6.703496,-1.1541803,1.2224529,1.0360051,1.2176907,0.0,2,0,0,0
1501657837,37.10322824930099,-76.3868038743163,44.797283,-0.0,2.40332,6.7634177,-1.1643448,1.2203094,1.0364313,1.2174863,0.0,2,0,0,0
1501858354,37.10323282376406,-76.38678837973407,45.03588,-0.0,2.4022503,6.7809854,-1.1389505,1.2219265,1.0364113,1.2174428,0.0,2,0,0,0
1502063404,37.10323744728012,-76.3867725819813,45.284622,-0.0,2.378105,6.8107314,-1.2016717,1.2237036,1.036798,1.2175707,0.0,2,0,0,0
1502263192,37.10324198853105,-76.38675713746503,45.53021,-0.0,2.389447,6.812931,-1.2166091,1.224061,1.0367442,1.2175257,0.0,2,0,0,0
1502463959,37.10324652305619,-76.38674171643302,45.770973,-0.0,2.3704386,6.813054,-1.2407004,1.2253177,1.03676,1.2175324,0.0,2,0,0,0
1502665153,37.103251061970745,-76.38672631492783,46.02785,-0.0,2.416392,6.7923455,-1.2366252,1.2260325,1.0368404,1.2172341,0.0,2,0,0,0
1502865575,37.10325567683706,-76.38671085655398,46.265842,-0.0,2.4573739,6.798773,-1.2383974,1.2258008,1.036944,1.2172722,0.0,2,0,0,0
1503066553,37.10326035098227,-76.38669534784995,46.50993,-0.0,2.4580655,6.778206,-1.2111108,1.2278953,1.0370362,1.217308,0.0,2,0,0,0
1503267480,37.10326497785128,-76.38667984379043,46.724598,-0.0,2.4165254,6.752074,-1.23918,1.2316191,1.0370909,1.2173494,0.0,2,0,0,0
1503467953,37.1032695715106,-76.38666442016721,46.91659,-0.0,2.4188054,6.6962647,-1.1641515,1.2278228,1.0370218,1.2173414,0.0,2,0,0,0
1503668161,37.103274138891045,-76.38664915612733,47.10113,-0.0,2.3992493,6.710231,-1.105627,1.2236023,1.0370958,1.2170714,0.0,2,0,0,0
1503872996,37.103278783728996,-76.38663351234992,47.2984,-0.0,2.4147525,6.7160835,-1.0832374,1.2195681,1.0374633,1.2172413,0.0,2,0,0,0
1504073804,37.10328334245904,-76.3866181428343,47.51448,-0.0,2.407816,6.749636,-1.2012863,1.2201545,1.0374522,1.217286,0.0,2,0,0,0
1504278548,37.10328793205893,-76.38660244124223,47.79287,-0.0,2.391839,6.7191067,-1.333602,1.2274427,1.0375203,1.217334,0.0,2,0,0,0
1504479160,37.10329235458896,-76.38658710493283,48.09558,-0.0,2.3239813,6.6838546,-1.3705798,1.2308317,1.037631,1.2173731,0.0,2,0,0,0
1504680182,37.10329668291216,-76.38657181198231,48.395607,-0.0,2.283218,6.6547027,-1.2018495,1.2283666,1.0377281,1.2170975,0.0,2,0,0,0
1504881061,37.103300904677816,-76.38655652505416,48.651577,-0.0,2.2420025,6.700036,-1.1320572,1.2254443,1.0377802,1.2171513,0.0,2,0,0,0
1505089014,37.103305248770496,-76.38654061913932,48.89774,-0.0,2.2287834,6.7344975,-1.1238945,1.2264066,1.0306756,1.2170955,0.0,2,0,0,0
1505289852,37.103309439860745,-76.38652521305737,49.103405,-0.0,2.2558906,6.7530007,-1.092656,1.2251239,1.0308123,1.2171978,0.0,2,0,0,0
1505490627,37.103313653865776,-76.38650981592032,49.3202,-0.0,2.2696693,6.769084,-1.1474581,1.2262031,1.0307937,1.2169218,0.0,2,0,0,0
1505691172,37.103317912673596,-76.38649446644105,49.542595,-0.0,2.2563255,6.74206,-1.2526432,1.2279339,1.0307155,1.2172792,0.0,2,0,0,0
1505896175,37.103322223895596,-76.38647880553195,49.793423,-0.0,2.2545586,6.68352,-1.2475123,1.2280455,1.0306624,1.2169799,0.0,2,0,0,0
1506096958,37.10332635652074,-76.3864634761827,50.05504,-0.0,2.1984477,6.681338,-1.2547493,1.2265602,1.0306443,1.2170193,0.0,2,0,0,0
1506301846,37.103330516380396,-76.38644793347785,50.334637,-0.0,2.2087855,6.6846123,-1.2931638,1.2245244,1.0309082,1.2171751,0.0,2,0,0,0
1506502632,37.103334591163154,-76.386432768615,50.610565,-0.0,2.2203097,6.705553,-1.3692247,1.2237384,1.0310171,1.2169526,0.0,2,0,0,0
1506703148,37.10333869805511,-76.38641762852637,50.876274,-0.0,2.2523413,6.72732,-1.423173,1.227711,1.0308782,1.2169387,0.0,2,0,0,0
1506904180,37.10334284611143,-76.38640238623206,51.166344,-0.0,2.2070558,6.789401,-1.4646921,1.23041,1.0308793,1.2169838,0.0,2,0,0,0
1507108232,37.10334707594685,-76.38638674716582,51.450428,-0.0,2.2246516,6.8309126,-1.4105638,1.2316461,1.0309007,1.2170264,0.0,2,0,0,0
1507308985,37.10335126674112,-76.38637122423866,51.741344,-0.0,2.2568197,6.8918996,-1.4453163,1.2317486,1.0309204,1.2170632,0.0,2,0,0,0
1507509575,37.10335550446282,-76.38635557690992,52.036736,-0.0,2.3156357,6.9295316,-1.3934065,1.2310125,1.0309125,1.2170835,0.0,2,0,0,0
1507710591,37.10335981628224,-76.38633978539218,52.348442,-0.0,2.3408864,6.9805856,-1.4944246,1.2339413,1.0309591,1.2171197,0.0,2,0,0,0
1507915375,37.10336423849236,-76.38632362635167,52.667084,-0.0,2.3606098,6.9543905,-1.4956151,1.2355443,1.0312251,1.2172604,0.0,2,0,0,0
1508116406,37.10336858125272,-76.38630789057679,52.951344,-0.0,2.40406,6.933224,-1.4033275,1.2354716,1.0312718,1.2172868,0.0,2,0,0,0
1508316734,37.10337294349692,-76.38629214791729,53.232533,-0.0,2.4035585,6.9549413,-1.4337922,1.2353146,1.0313084,1.2173092,0.0,2,0,0,0
1508517806,37.10337736501964,-76.38627634486183,53.51263,-0.0,2.4043622,6.942624,-1.4755726,1.2345351,1.031337,1.2173264,0.0,2,0,0,0
1508718525,37.10338178269868,-76.38626059376651,53.798496,-0.0,2.4230177,6.898015,-1.3910527,1.2317342,1.0313649,1.2173418,0.0,2,0,0,0
1508922605,37.103386326620196,-76.38624464015264,54.075993,-0.0,2.4513817,6.9028497,-1.4515508,1.2288234,1.0315621,1.2170873,0.0,2,0,0,0
1509123408,37.1033908536649,-76.38622895959533,54.356045,-0.0,2.4911802,6.8870735,-1.4381675,1.2267237,1.0315803,1.2171086,0.0,2,0,0,0
1509323964,37.10339542276808,-76.38621333787947,54.636543,-0.0,2.4986868,6.905493,-1.4660108,1.2248914,1.0316004,1.21711,0.0,2,0,0,0
1509524768,37.103400004563404,-76.38619777208068,54.91624,-0.0,2.49498,6.9039793,-1.4572699,1.2271104,1.0318152,1.2171799,0.0,2,0,0,0
1509725813,37.10340452439904,-76.38618218477409,55.186523,-0.0,2.4795873,6.9049697,-1.4526379,1.2307255,1.0317229,1.2171367,0.0,2,0,0,0
1509926557,37.10340896731717,-76.38616656494828,55.438667,-0.0,2.436923,6.8972545,-1.4305912,1.2335736,1.0317658,1.2171515,0.0,2,0,0,0
1510127437,37.10341335794958,-76.38615089797767,55.6953,-0.0,2.3900254,6.9114237,-1.4219208,1.2336162,1.0318164,1.2171651,0.0,2,0,0,0
1510331508,37.10341783200923,-76.38613498633478,55.945473,-0.0,2.408578,6.9069767,-1.4478374,1.2339996,1.0318604,1.2171769,0.0,2,0,0,0
1510532345,37.10342226222764,-76.3861193558361,56.179302,-0.0,2.4322567,6.877633,-1.3601598,1.2362397,1.0319185,1.2171874,0.0,2,0,0,0
1510733001,37.10342669875652,-76.38610373497076,56.419857,-0.0,2.428103,6.8777385,-1.4137158,1.2372627,1.0319997,1.2171955,0.0,2,0,0,0
1510933577,37.10343114591773,-76.3860880752179,56.70017,-0.0,2.4537973,6.863118,-1.4313624,1.237906,1.0322274,1.2172709,0.0,2,0,0,0
1511134536,37.103435610504924,-76.38607244127166,56.968544,-0.0,2.446246,6.893365,-1.4580742,1.2340881,1.0322944,1.216965,0.0,2,0,0,0
1511335440,37.1034400980073,-76.38605684053046,57.244457,-0.0,2.5022829,6.857446,-1.4180363,1.230655,1.0323911,1.2173038,0.0,2,0,0,0
1511535981,37.10344460931661,-76.38604126008981,57.51572,-0.0,2.4832706,6.8825245,-1.458897,1.2278389,1.032441,1.217318,0.0,2,0,0,0
1511736755,37.10344912727927,-76.38602567741034,57.786045,-0.0,2.4998853,6.871556,-1.4287441,1.2285135,1.032518,1.2173282,0.0,2,0,0,0
1511937796,37.10345364400515,-76.38601011141883,58.02517,-0.0,2.4972773,6.873157,-1.364595,1.2273381,1.0325998,1.2173394,0.0,2,0,0,0
1512138595,37.103458179941384,-76.38599459394572,58.27395,-0.0,2.4911625,6.8889556,-1.4167925,1.2280947,1.0325079,1.2172949,0.0,2,0,0,0
1512342650,37.10346279038536,-76.38597885571644,58.553024,-0.0,2.5275013,6.8756647,-1.4804577,1.2311163,1.032838,1.2170994,0.0,2,0,0,0
1512543174,37.10346733455187,-76.38596338538366,58.84003,-0.0,2.526986,6.886169,-1.4426458,1.2321887,1.0328802,1.2171184,0.0,2,0,0,0
1512744159,37.10347187212898,-76.38594788149759,59.106544,-0.0,2.5160751,6.9375577,-1.4001564,1.2305725,1.0328869,1.2171308,0.0,2,0,0,0
1512944775,37.10347642239593,-76.38593229209575,59.377132,-0.0,2.5427532,6.9573555,-1.4065813,1.2319622,1.032912,1.2171581,0.0,2,0,0,0
1513145762,37.103481056710464,-76.38591664298507,59.651386,-0.0,2.5846756,6.9574866,-1.5100809,1.2326865,1.0329467,1.2171924,0.0,2,0,0,0
1513350689,37.10348587188082,-76.38590068622503,59.942818,-0.0,2.616274,6.959866,-1.4973503,1.2322677,1.0330186,1.2172232,0.0,2,0,0,0
1513551429,37.10349064629895,-76.38588505981839,60.21721,-0.0,2.6278112,6.937562,-1.4293784,1.2294371,1.0330807,1.2172476,0.0,2,0,0,0
1513751445,37.1034954091889,-76.3858694802103,60.491516,-0.0,2.6197941,6.9467807,-1.3649689,1.226115,1.0331317,1.2172754,0.0,2,0,0,0
1513955981,37.10350026167815,-76.38585351466814,60.778896,-0.0,2.590844,6.9786353,-1.3746922,1.2227893,1.0334108,1.2170846,0.0,2,0,0,0
1514157231,37.10350497392496,-76.38583778244072,61.063534,-0.0,2.5834177,6.998346,-1.3880671,1.2216091,1.033435,1.2171074,0.0,2,0,0,0
1514357876,37.103509650420484,-76.3858219445678,61.350185,-0.0,2.5346265,7.0341353,-1.4099514,1.224535,1.0334246,1.2174305,0.0,2,0,0,0
1514558593,37.10351427689345,-76.3858060137822,61.65452,-0.0,2.4872158,7.0738854,-1.4354408,1.2279027,1.0333161,1.2170669,0.0,2,0,0,0
1514759144,37.10351882665424,-76.38579003172315,61.95118,-0.0,2.433075,7.0931783,-1.4445242,1.2320471,1.0333503,1.2170862,0.0,2,0,0,0
1514964188,37.103523324946394,-76.38577368266057,62.2553,-0.0,2.3559482,7.1318064,-1.4290208,1.2348554,1.0336305,1.2172108,0.0,2,0,0,0
1515165016,37.10352759345782,-76.38575763814839,62.532917,-0.0,2.3253655,7.127386,-1.436266,1.237529,1.0336643,1.217235,0.0,2,0,0,0
1515365521,37.10353177036761,-76.38574151999562,62.805027,-0.0,2.2850053,7.145463,-1.380606,1.2354401,1.033677,1.2172503,0.0,2,0,0,0
1515566661,37.10353589149189,-76.38572534385865,63.07276,-0.0,2.2567813,7.1597133,-1.3837539,1.2330645,1.0336705,1.2172706,0.0,2,0,0,0
1515766557,37.103539926438955,-76.38570930485407,63.340694,-0.0,2.2191098,7.138748,-1.3629992,1.2290813,1.0335358,1.2172447,0.0,2,0,0,0
1515967140,37.10354398368386,-76.38569330834585,63.5981,-0.0,2.2233582,7.099807,-1.2796775,1.2213902,1.0335231,1.2172776,0.0,2,0,0,0
1516168285,37.103548071803814,-76.38567738633678,63.850925,-0.0,2.262473,7.0500712,-1.3262029,1.2151101,1.0335833,1.2172927,0.0,2,0,0,0
1516368979,37.10355220767884,-76.38566160059577,64.10055,-0.0,2.3432643,6.947065,-1.3093293,1.211232,1.0339344,1.2171049,0.0,2,0,0,0
1516569792,37.103556447986,-76.3856460954791,64.36054,-0.0,2.4010105,6.788881,-1.3240595,1.213363,1.0338631,1.2170832,0.0,2,0,0,0
1516770337,37.103560750529404,-76.38563091417507,64.622955,-0.0,2.4567904,6.68003,-1.253268,1.2153658,1.0339271,1.2171153,0.0,2,0,0,0
1516971149,37.10356511036674,-76.38561593968325,64.87559,-0.0,2.5066495,6.6435146,-1.2688859,1.2147444,1.0339853,1.2171553,0.0,2,0,0,0
1517171163,37.103569530034676,-76.38560107169276,65.15646,-0.0,2.5338306,6.6196995,-1.3433124,1.2158102,1.033887,1.2171335,0.0,2,0,0,0
1517372224,37.103574065724395,-76.38558617393049,65.44029,-0.0,2.6169426,6.5768323,-1.3316743,1.2171416,1.0339224,1.2171593,0.0,2,0,0,0
1517573051,37.10357874700984,-76.38557133689885,65.71728,-0.0,2.6697197,6.572278,-1.2583929,1.2161223,1.0339806,1.2171948,0.0,2,0,0,0
1517773807,37.10358354342637,-76.38555653306916,65.95803,-0.0,2.7340841,6.561783,-1.1821373,1.2132341,1.0340298,1.2172313,0.0,2,0,0,0
1517974376,37.10358837373565,-76.38554172166587,66.17839,-0.0,2.7428334,6.587568,-1.1741222,1.208388,1.0340652,1.2169513,0.0,2,0,0,0
1518175164,37.10359320212272,-76.3855269489742,66.38948,-0.0,2.7561398,6.5683246,-1.194663,1.2099633,1.0341115,1.2169943,0.0,2,0,0,0
1518379977,37.10359814316514,-76.3855119360815,66.60585,-0.0,2.7943158,6.552868,-1.2584332,1.2123091,1.0344266,1.2171391,0.0,2,0,0,0
