timestamp,time_utc_usec,lat,lon,alt,alt_ellipsoid,s_variance_m_s,c_variance_rad,eph,epv,hdop,vdop,noise_per_ms,jamming_indicator,vel_m_s,vel_n_m_s,vel_e_m_s,vel_d_m_s,cog_rad,timestamp_time_relative,fix_type,vel_ned_valid,satellites_used
1430619537,1686685140800292,371025815,-763881273,-6427,-42198,0.24800001,0.47446302,0.58400005,0.89900005,0.7,0.96999997,98,22,0.013,-0.011000001,-0.007,-0.026,5.964675,0,4,1,16
1431017513,1686685141200292,371025816,-763881271,-6392,-42162,0.18,0.4744866,0.58400005,0.897,0.7,0.96999997,98,22,0.044000003,-0.016,0.041,-0.011000001,5.964675,0,4,1,16
1431221196,1686685141400292,371025815,-763881269,-6379,-42149,0.24100001,0.47450054,0.58400005,0.896,0.7,0.96999997,98,22,0.028,-0.028,-0.004,-0.024,5.964675,0,4,1,16
1431418566,1686685141600292,371025815,-763881267,-6369,-42139,0.18200001,0.474511,0.583,0.89400005,0.7,0.96999997,98,22,0.063,0.051000003,0.038000003,-0.024,5.964675,0,4,1,16
1431619120,1686685141800292,371025815,-763881265,-6361,-42131,0.21800001,0.47452357,0.583,0.89300007,0.66999996,0.96999997,98,20,0.059000004,-0.052,-0.027,-0.017,5.964675,0,4,1,17
1431819835,1686685142000292,371025814,-763881264,-6340,-42111,0.22500001,0.47453666,0.583,0.892,0.66999996,0.96999997,98,20,0.017,-0.007,0.016,-0.080000006,5.964675,0,4,1,17
1432024775,1686685142200292,371025814,-763881263,-6315,-42085,0.177,0.4745468,0.583,0.89100003,0.66999996,0.96999997,98,20,0.011000001,-0.001,-0.011000001,0.008,5.964675,0,4,1,17
1432217492,1686685142400292,371025813,-763881262,-6291,-42061,0.231,0.47456023,0.58400005,0.89000005,0.66999996,0.96999997,98,20,0.07300001,-0.07300001,0.009000001,-0.045,5.964675,0,4,1,17
1432424401,1686685142600292,371025810,-763881262,-6161,-41931,0.24400002,0.58266556,0.58400005,0.89000005,0.66999996,0.96999997,98,20,0.323,-0.27600002,-0.16900001,-0.95400006,5.0576077,0,4,1,17
1432618589,1686685142800292,371025809,-763881266,-5975,-41745,0.23900001,0.58271444,0.58500004,0.89100003,0.66999996,0.96999997,98,19,0.177,0.031000001,-0.17400001,-1.024,5.0576077,0,4,1,17
1432819486,1686685143000292,371025808,-763881271,-5786,-41556,0.25500003,0.5592532,0.58500004,0.89400005,0.66999996,0.96999997,98,19,0.38900003,-0.223,-0.31800002,-0.99000007,4.560434,0,4,1,17
1433020529,1686685143200292,371025806,-763881280,-5551,-41321,0.24800001,0.41387495,0.586,0.89500004,0.66999996,0.96999997,98,19,0.52000004,-0.075,-0.51500005,-1.077,4.5657477,0,4,1,17
1433217515,1686685143400292,371025806,-763881289,-5322,-41092,0.24400002,0.51813674,0.586,0.89300007,0.66999996,0.96999997,98,19,0.418,0.106000006,-0.40500003,-1.08,4.722246,0,4,1,17
1433421487,1686685143600292,371025808,-763881296,-5074,-40844,0.23700002,0.59429294,0.58500004,0.89000005,0.66999996,0.96999997,98,19,0.367,0.12200001,-0.34600002,-1.044,4.8646464,0,4,1,17
1433624308,1686685143800292,371025810,-763881305,-4894,-40664,0.23700002,0.40840423,0.586,0.89100003,0.66999996,0.96999997,98,20,0.544,0.112,-0.53300005,-0.975,4.90203,0,4,1,17
1433818967,1686685144000292,371025812,-763881314,-4691,-40461,0.23900001,0.5754498,0.586,0.892,0.66999996,0.96999997,98,20,0.386,0.101,-0.372,-0.95000005,4.9275236,0,4,1,17
1434014570,1686685144200291,371025815,-763881319,-4519,-40289,0.23,0.5754917,0.586,0.88900006,0.66999996,0.96999997,98,20,0.24000001,0.192,-0.14500001,-0.84300005,4.9275236,0,4,1,17
1434216571,1686685144400291,371025817,-763881322,-4311,-40081,0.22900002,0.5755368,0.586,0.883,0.7,0.96999997,98,20,0.273,0.14,-0.23500001,-0.90500003,4.9275236,0,4,1,16
1434417510,1686685144600291,371025816,-763881322,-4000,-39770,0.21700001,0.57557553,0.58500004,0.87500006,0.68,0.96999997,98,20,0.18100001,0.003,-0.18100001,-0.791,4.9275236,0,4,1,17
1434629030,1686685144800291,371025816,-763881324,-3777,-39547,0.22600001,0.5756167,0.58500004,0.873,0.68,0.96999997,98,20,0.164,0.068,-0.149,-0.84900004,4.9275236,0,4,1,17
1434822741,1686685145000291,371025815,-763881324,-3515,-39285,0.22900002,0.57565844,0.58500004,0.87100005,0.68,0.96999997,98,20,0.148,0.017,-0.147,-0.86500007,4.9275236,0,4,1,17
1435025214,1686685145200291,371025813,-763881323,-3232,-39002,0.22900002,0.57570434,0.586,0.869,0.68,0.96999997,98,20,0.05,-0.040000003,-0.029000001,-0.961,4.9275236,0,4,1,17
1435226040,1686685145400291,371025811,-763881321,-2961,-38731,0.22800002,0.57575077,0.586,0.86700004,0.68,0.96999997,98,20,0.024,-0.024,0.003,-0.975,4.9275236,0,4,1,17
1435416496,1686685145600291,371025809,-763881318,-2699,-38469,0.22900002,0.57579684,0.587,0.86500007,0.65999997,0.96999997,98,20,0.059000004,-0.051000003,0.030000001,-0.96900004,4.9275236,0,4,1,18
1435621498,1686685145800291,371025808,-763881315,-2438,-38208,0.22900002,0.5758443,0.587,0.86300004,0.65999997,0.96999997,98,20,0.081,-0.076000005,0.029000001,-0.99100006,4.9275236,0,4,1,18
1435832310,1686685146000291,371025806,-763881312,-2191,-37961,0.21800001,0.5758921,0.586,0.86100006,0.65999997,0.96999997,98,20,0.216,-0.066,0.20600002,-0.98200005,4.9275236,0,4,1,18
1436026565,1686685146200291,371025804,-763881306,-1920,-37690,0.21900001,0.5759415,0.586,0.85700005,0.65999997,0.96999997,98,20,0.062000003,-0.022000002,0.058000002,-1.0350001,4.9275236,0,4,1,18
1436222154,1686685146400291,371025804,-763881302,-1693,-37464,0.208,0.5759825,0.586,0.85600007,0.65999997,0.96999997,98,20,0.24900001,0.012,0.24900001,-0.82400006,4.9275236,0,4,1,18
1436419509,1686685146600291,371025800,-763881294,-1381,-37151,0.21100001,0.57602215,0.586,0.851,0.65999997,0.96999997,98,20,0.18400002,-0.106000006,0.15100001,-0.81100005,4.9275236,0,4,1,18
1436616485,1686685146800291,371025798,-763881286,-1070,-36840,0.19500001,0.47268313,0.586,0.84700006,0.65999997,0.96999997,98,20,0.40600002,0.11100001,0.39100003,-1.011,0.22840896,0,4,1,18
1436817490,1686685147000291,371025798,-763881278,-843,-36613,0.209,0.47273374,0.586,0.846,0.65999997,0.96999997,98,20,0.19900002,0.031000001,0.19700001,-0.85,0.22840896,0,4,1,18
1437017904,1686685147200291,371025801,-763881269,-602,-36373,0.19500001,0.45254394,0.586,0.84400004,0.65999997,0.96999997,98,20,0.42400002,0.22900002,0.35700002,-0.88500005,0.63170826,0,4,1,18
1437221848,1686685147400291,371025803,-763881262,-424,-36194,0.20600002,0.62155867,0.58500004,0.841,0.65999997,0.96999997,98,20,0.286,0.22200002,0.18,-0.837,0.6489764,0,4,1,18
1437419507,1686685147600291,371025806,-763881260,-286,-36056,0.23,0.6215897,0.58500004,0.84300005,0.65999997,0.96999997,98,20,0.074,-0.055000003,0.049000002,-0.70000005,0.6489764,0,4,1,18
1437619826,1686685147800290,371025810,-763881257,-149,-35919,0.20700002,0.45483872,0.586,0.84400004,0.65999997,0.96999997,98,21,0.43800002,0.36400002,0.24300002,-0.76900005,0.6101114,0,4,1,18
1437824486,1686685148000290,371025816,-763881256,39,-35732,0.23200001,0.4548963,0.587,0.84300005,0.65999997,0.96999997,98,21,0.20700002,0.158,-0.134,-0.933,0.6101114,0,4,1,18
1438021513,1686685148200290,371025820,-763881256,209,-35561,0.22100002,0.454953,0.587,0.841,0.65999997,0.96999997,98,21,0.15100001,0.12100001,0.091000006,-0.92800003,0.6101114,0,4,1,18
1438216318,1686685148400290,371025824,-763881256,393,-35377,0.22700001,0.45500505,0.586,0.84000003,0.65999997,0.96999997,98,21,0.134,0.126,-0.047000002,-0.85400003,0.6101114,0,4,1,18
1438419528,1686685148600290,371025827,-763881258,567,-35203,0.23700002,0.45506123,0.586,0.83800006,0.65999997,0.96999997,98,21,0.16700001,-0.072000004,-0.15100001,-0.91700006,0.6101114,0,4,1,18
1438623599,1686685148800290,371025826,-763881263,760,-35010,0.238,0.6064724,0.58500004,0.836,0.65999997,0.96999997,98,20,0.31,-0.075,-0.30100003,-0.90000004,6.019915,0,4,1,18
1438824533,1686685149000290,371025821,-763881267,868,-34902,0.24000001,0.6065104,0.58400005,0.83500004,0.65999997,0.96999997,98,20,0.20400001,-0.106000006,-0.17500001,-0.82000005,6.019915,0,4,1,18
1439025555,1686685149200290,371025819,-763881274,1021,-34749,0.25,0.4942341,0.58400005,0.83800006,0.65999997,0.96999997,98,20,0.42600003,-0.25500003,-0.34100002,-0.906,4.848062,0,4,1,18
1439224325,1686685149400290,371025814,-763881281,1186,-34584,0.25100002,0.4192834,0.58500004,0.83900005,0.65999997,0.96999997,98,20,0.453,-0.289,-0.35000002,-1.0960001,4.367851,0,4,1,18
1439425193,1686685149600290,371025811,-763881286,1383,-34387,0.25100002,0.5938418,0.586,0.841,0.65999997,0.96999997,98,20,0.324,-0.284,-0.157,-0.99700004,4.1276774,0,4,1,18
1439623530,1686685149800290,371025809,-763881290,1571,-34199,0.24700001,0.5938896,0.587,0.84200007,0.65999997,0.96999997,98,19,0.24000001,-0.11400001,-0.21100001,-1.008,4.1276774,0,4,1,18
1439827158,1686685150000290,371025807,-763881292,1761,-34009,0.24100001,0.5939332,0.588,0.841,0.65999997,0.96999997,98,19,0.201,-0.15,-0.133,-0.9250001,4.1276774,0,4,1,18
1440033536,1686685150200290,371025805,-763881294,1913,-33857,0.23900001,0.5939739,0.588,0.84200007,0.65999997,0.96999997,98,19,0.093,-0.055000003,-0.076000005,-0.878,4.1276774,0,4,1,18
1440221494,1686685150400290,371025806,-763881295,2072,-33698,0.22900002,0.59402174,0.587,0.84000003,0.65999997,0.96999997,98,19,0.044000003,0.011000001,-0.042000003,-1.034,4.1276774,0,4,1,18
1440425060,1686685150600290,371025806,-763881293,2266,-33504,0.21700001,0.5940685,0.587,0.836,0.65999997,0.96999997,98,19,0.085,0.008,0.08400001,-1.008,4.1276774,0,4,1,18
1440622702,1686685150800290,371025808,-763881290,2449,-33321,0.21700001,0.59411615,0.587,0.83500004,0.65999997,0.96999997,98,20,0.177,0.079,0.15900001,-1.019,4.1276774,0,4,1,18
1440818918,1686685151000290,371025811,-763881285,2634,-33136,0.21000001,0.59104526,0.586,0.83500004,0.65999997,0.96999997,98,20,0.31800002,0.20600002,0.24200001,-1.018,5.645543,0,4,1,18
1441019530,1686685151200290,371025814,-763881281,2832,-32938,0.224,0.5910997,0.586,0.83500004,0.65999997,0.96999997,98,20,0.13100001,0.106000006,0.076000005,-1.164,5.645543,0,4,1,18
1441221482,1686685151400289,371025815,-763881279,3069,-32701,0.21800001,0.5911529,0.58500004,0.83100003,0.65999997,0.96999997,98,20,0.10700001,0.0050000004,0.10700001,-1.1420001,5.645543,0,4,1,18
1441421478,1686685151600289,371025816,-763881278,3254,-32516,0.22500001,0.5912098,0.58400005,0.83000004,0.65999997,0.96999997,98,20,0.066,0.066,0.006,-1.2260001,5.645543,0,4,1,18
1441624326,1686685151800289,371025818,-763881280,3477,-32293,0.23,0.5912669,0.58400005,0.82900006,0.65999997,0.96999997,98,21,0.096,0.038000003,-0.089,-1.228,5.645543,0,4,1,18
1441833524,1686685152000289,371025818,-763881281,3699,-32071,0.23300001,0.5913276,0.58400005,0.82800007,0.65999997,0.96999997,98,21,0.074,-0.068,-0.028,-1.3080001,5.645543,0,4,1,18
1442023524,1686685152200289,371025817,-763881282,3936,-31834,0.23600002,0.5913885,0.583,0.827,0.65999997,0.96999997,98,21,0.18300001,-0.15400001,-0.098000005,-1.3010001,5.645543,0,4,1,18
1442220492,1686685152400289,371025817,-763881285,4176,-31594,0.23500001,0.59144896,0.583,0.827,0.65999997,0.96999997,98,21,0.20600002,-0.05,-0.2,-1.286,5.645543,0,4,1,18
1442424484,1686685152600289,371025817,-763881290,4401,-31369,0.24000001,0.69932353,0.583,0.827,0.65999997,0.96999997,98,21,0.279,-0.18200001,-0.21200001,-1.21,4.9604406,0,4,1,18
1442621812,1686685152800289,371025815,-763881295,4647,-31123,0.238,0.5973743,0.583,0.82500005,0.65999997,0.96999997,98,20,0.305,-0.18100001,-0.245,-1.2440001,4.4489956,0,4,1,18
1442821483,1686685153000289,371025813,-763881299,4857,-30913,0.23500001,0.5974281,0.582,0.82500005,0.65999997,0.96999997,98,20,0.162,-0.108,-0.120000005,-1.1600001,4.4489956,0,4,1,18
1443023604,1686685153200289,371025812,-763881300,5080,-30690,0.23300001,0.5974836,0.582,0.82500005,0.65999997,0.96999997,98,20,0.109000005,-0.096,-0.051000003,-1.2040001,4.4489956,0,4,1,18
1443223476,1686685153400289,371025812,-763881300,5314,-30456,0.23,0.5975435,0.58100003,0.823,0.65999997,0.96999997,98,20,0.08400001,-0.078,-0.032,-1.302,4.4489956,0,4,1,18
1443424542,1686685153600289,371025811,-763881299,5547,-30224,0.223,0.5976005,0.58000004,0.822,0.65999997,0.96999997,98,20,0.119,-0.057000004,0.104,-1.238,4.4489956,0,4,1,18
1443613494,1686685153800289,371025811,-763881297,5799,-29971,0.22600001,0.59766334,0.58000004,0.82000005,0.65999997,0.96999997,98,20,0.046000004,-0.036000002,-0.029000001,-1.3700001,4.4489956,0,4,1,18
1443821118,1686685154000289,371025810,-763881297,6054,-29716,0.23,0.59772146,0.57900006,0.82100004,0.65999997,0.96999997,98,20,0.13900001,-0.11800001,0.075,-1.261,4.4489956,0,4,1,18
1444018850,1686685154200289,371025808,-763881294,6305,-29465,0.22700001,0.5977789,0.57900006,0.82000005,0.65999997,0.96999997,98,20,0.135,-0.11000001,0.078,-1.2420001,4.4489956,0,4,1,18
1444223474,1686685154400289,371025805,-763881292,6583,-29187,0.223,0.59784174,0.578,0.818,0.65999997,0.96999997,98,20,0.22000001,-0.16900001,0.141,-1.3520001,4.4489956,0,4,1,18
1444423479,1686685154600289,371025803,-763881286,6809,-28961,0.215,0.597904,0.577,0.814,0.65999997,0.96999997,98,20,0.17400001,-0.087000005,0.15,-1.3470001,4.4489956,0,4,1,18
1444620558,1686685154800289,371025801,-763881282,7071,-28699,0.223,0.59796494,0.577,0.813,0.65999997,0.96999997,98,20,0.23300001,-0.18100001,0.147,-1.307,4.4489956,0,4,1,18
1444833501,1686685155000289,371025799,-763881279,7320,-28450,0.22700001,0.5980245,0.57600003,0.81200004,0.65999997,0.96999997,98,20,0.133,-0.12200001,0.053000003,-1.291,4.4489956,0,4,1,18
1445024407,1686685155200288,371025798,-763881276,7512,-28258,0.23200001,0.5980789,0.57600003,0.813,0.65999997,0.96999997,98,20,0.16100001,-0.074,0.143,-1.176,4.4489956,0,4,1,18
1445221453,1686685155400288,371025799,-763881274,7721,-28049,0.23500001,0.59813166,0.57600003,0.81500006,0.65999997,0.96999997,98,20,0.117000006,0.004,0.116000004,-1.1470001,4.4489956,0,4,1,18
1445423511,1686685155600288,371025802,-763881271,7969,-27801,0.23,0.59818816,0.577,0.81500006,0.65999997,0.96999997,98,20,0.15200001,0.108,0.10700001,-1.223,4.4489956,0,4,1,18
1445622916,1686685155800288,371025805,-763881269,8227,-27543,0.22900002,0.5982503,0.577,0.814,0.65999997,0.96999997,98,20,0.14600001,0.143,-0.031000001,-1.348,4.4489956,0,4,1,18
1445823778,1686685156000288,371025808,-763881267,8458,-27312,0.22500001,0.5983058,0.577,0.814,0.65999997,0.96999997,98,20,0.177,0.15100001,0.093,-1.1960001,4.4489956,0,4,1,18
1446024758,1686685156200288,371025811,-763881266,8669,-27101,0.238,0.59835833,0.577,0.81600004,0.65999997,0.96999997,98,20,0.082,0.079,-0.022000002,-1.1450001,4.4489956,0,4,1,18
1446221833,1686685156400288,371025813,-763881265,8858,-26912,0.238,0.5984123,0.577,0.818,0.65999997,0.96999997,98,20,0.11400001,0.096,0.062000003,-1.172,4.4489956,0,4,1,18
1446426247,1686685156600288,371025814,-763881264,9069,-26701,0.23600002,0.5984697,0.57600003,0.818,0.65999997,0.96999997,98,20,0.080000006,0.040000003,0.07,-1.2520001,4.4489956,0,4,1,18
1446622718,1686685156800288,371025815,-763881262,9270,-26500,0.22900002,0.59852225,0.57600003,0.818,0.65999997,0.96999997,98,20,0.148,0.108,0.102000006,-1.1350001,4.4489956,0,4,1,18
1446824725,1686685157000288,371025818,-763881260,9463,-26307,0.23300001,0.5985807,0.57500005,0.82000005,0.65999997,0.96999997,98,20,0.12900001,0.096,0.086,-1.269,4.4489956,0,4,1,18
1447021482,1686685157200288,371025820,-763881259,9678,-26092,0.23500001,0.5986392,0.57500005,0.82100004,0.65999997,0.96999997,98,20,0.072000004,0.060000002,0.040000003,-1.2750001,4.4489956,0,4,1,18
1447225175,1686685157400288,371025822,-763881260,9906,-25864,0.23,0.5986994,0.57500005,0.82000005,0.65999997,0.96999997,98,20,0.136,0.123,-0.057000004,-1.3100001,4.4489956,0,4,1,18
1447422607,1686685157600288,371025822,-763881261,10160,-25610,0.231,0.5987575,0.574,0.81900007,0.65999997,0.96999997,98,20,0.044000003,-0.018000001,-0.040000003,-1.2670001,4.4489956,0,4,1,18
1447622650,1686685157800288,371025821,-763881262,10407,-25364,0.23300001,0.59881634,0.573,0.81700003,0.65999997,0.96999997,98,20,0.119,-0.09,-0.078,-1.2780001,4.4489956,0,4,1,18
1447839517,1686685158000288,371025810,-763881261,10550,-25220,0.22600001,0.598876,0.56700003,0.81100005,0.65999997,0.96999997,98,20,0.074,-0.045,-0.059000004,-1.3050001,4.4489956,0,4,1,18
1448031092,1686685158200288,371025800,-763881260,10669,-25101,0.22700001,0.59893113,0.56100005,0.80600005,0.65999997,0.96999997,98,20,0.16700001,-0.148,-0.079,-1.194,4.4489956,0,4,1,18
1448232508,1686685158400288,371025788,-763881258,10848,-24922,0.21900001,0.59898525,0.55600005,0.79700005,0.65999997,0.96999997,98,20,0.11100001,-0.08800001,-0.068,-1.174,4.4489956,0,4,1,18
1448433032,1686685158600288,371025778,-763881255,11022,-24749,0.21000001,0.5990432,0.55,0.78900003,0.65999997,0.96999997,98,20,0.14,-0.13800001,-0.021000002,-1.261,4.4489956,0,4,1,18
1448629365,1686685158800287,371025767,-763881254,11217,-24553,0.21000001,0.76219064,0.545,0.78000003,0.65999997,0.96999997,99,20,0.187,-0.147,-0.116000004,-1.309,4.204067,0,4,1,18
1448827486,1686685159000287,371025757,-763881252,11431,-24339,0.21000001,0.7622357,0.54,0.77300006,0.65999997,0.96999997,99,20,0.13900001,-0.091000006,-0.105000004,-1.241,4.204067,0,4,1,18
1449023480,1686685159200287,371025749,-763881251,11626,-24144,0.21400002,0.7622826,0.536,0.768,0.65999997,0.96999997,99,20,0.148,-0.053000003,-0.13800001,-1.296,4.204067,0,4,1,18
1449225482,1686685159400287,371025743,-763881251,11810,-23960,0.215,0.76232713,0.532,0.76500005,0.66999996,0.96999997,99,20,0.120000005,0.043,-0.112,-1.2310001,4.204067,0,4,1,17
1449428782,1686685159600287,371025739,-763881251,12010,-23760,0.21100001,0.7623713,0.52900004,0.76100004,0.66999996,0.96999997,99,20,0.17600001,0.165,-0.060000002,-1.2160001,4.204067,0,4,1,17
1449628805,1686685159800287,371025737,-763881251,12243,-23527,0.20500001,0.77460206,0.52500004,0.75500005,0.65999997,0.96999997,99,20,0.22200002,0.20500001,-0.08400001,-1.3030001,5.036527,0,4,1,18
1449830574,1686685160000287,371025734,-763881248,12487,-23283,0.19700001,0.5320486,0.521,0.749,0.65999997,0.96999997,99,20,0.30800003,0.303,-0.056,-1.2290001,5.759645,0,4,1,18
1450031485,1686685160200287,371025736,-763881248,12690,-23080,0.19700001,0.4063943,0.518,0.74600005,0.65999997,0.96999997,99,20,0.41900003,0.41000003,-0.087000005,-1.3000001,5.958054,0,4,1,18
1450228782,1686685160400287,371025737,-763881244,12959,-22811,0.187,0.29077202,0.51500005,0.74,0.65999997,0.96999997,99,20,0.526,0.52500004,0.023000002,-1.294,6.202273,0,4,1,18
1450429556,1686685160600287,371025743,-763881243,13171,-22599,0.18800001,0.28399017,0.512,0.73800004,0.65999997,0.96999997,99,20,0.586,0.583,-0.061000004,-1.2360001,6.190448,0,4,1,18
1450629531,1686685160800287,371025751,-763881244,13349,-22421,0.18300001,0.22693922,0.509,0.73600006,0.65999997,0.96999997,99,20,0.726,0.716,-0.116000004,-1.153,6.14926,0,4,1,18
1450830800,1686685161000287,371025758,-763881245,13609,-22161,0.17,0.2049533,0.507,0.73,0.65999997,0.96999997,99,20,0.75000006,0.74200004,-0.105000004,-1.0760001,6.1459265,0,4,1,18
1451029341,1686685161200287,371025768,-763881241,13920,-21850,0.18100001,0.18723437,0.503,0.72400004,0.65999997,0.96999997,99,20,0.80700004,0.80300003,-0.082,-1.304,6.165496,0,4,1,18
1451227484,1686685161400287,371025777,-763881242,14163,-21607,0.18800001,0.2541222,0.50100005,0.72200006,0.65999997,0.96999997,99,20,0.638,0.63000005,-0.101,-1.243,6.1507716,0,4,1,18
1451428480,1686685161600287,371025786,-763881244,14419,-21351,0.193,0.23354965,0.499,0.71900004,0.65999997,0.96999997,99,20,0.71300006,0.675,-0.23,-1.2750001,6.0444894,0,4,1,18
1451621530,1686685161800287,371025794,-763881249,14652,-21118,0.19600001,0.26218998,0.497,0.71800005,0.65999997,0.96999997,99,21,0.642,0.58900005,-0.254,-1.2700001,5.969765,0,4,1,18
1451832733,1686685162000287,371025800,-763881253,14877,-20893,0.201,0.32610515,0.49600002,0.716,0.65999997,0.96999997,99,21,0.541,0.48000002,-0.24800001,-1.172,5.9052763,0,4,1,18
1452030074,1686685162200287,371025805,-763881259,15110,-20661,0.2,0.32906207,0.49400002,0.71400005,0.65999997,0.96999997,99,21,0.527,0.453,-0.27,-1.1850001,5.825883,0,4,1,18
1452227626,1686685162400286,371025810,-763881265,15347,-20423,0.2,0.288006,0.49300003,0.71300006,0.65999997,0.96999997,99,21,0.592,0.537,-0.24900001,-1.1780001,5.8386955,0,4,1,18
1452431068,1686685162600286,371025814,-763881271,15618,-20152,0.201,0.31433412,0.49100003,0.711,0.65999997,0.96999997,99,21,0.54200006,0.44000003,-0.317,-1.169,5.7569914,0,4,1,18
1452628983,1686685162800286,371025818,-763881278,15891,-19879,0.20700002,0.33653557,0.49,0.71000004,0.65999997,0.96999997,99,20,0.51900005,0.44900003,-0.259,-1.2600001,5.758376,0,4,1,18
1452829574,1686685163000286,371025823,-763881284,16144,-19626,0.19900002,0.31136987,0.48900002,0.71000004,0.65999997,0.96999997,99,20,0.53400004,0.499,-0.18800001,-1.1980001,5.8467174,0,4,1,18
1453028405,1686685163200286,371025829,-763881288,16401,-19369,0.19600001,0.28196648,0.48800004,0.708,0.65999997,0.96999997,99,20,0.58500004,0.55700004,-0.18,-1.2470001,5.915083,0,4,1,18
1453233950,1686685163400286,371025835,-763881292,16666,-19104,0.194,0.30689797,0.48600003,0.70600003,0.65999997,0.96999997,99,20,0.53900003,0.522,-0.134,-1.2420001,5.968965,0,4,1,18
1453427490,1686685163600286,371025840,-763881295,16958,-18812,0.202,0.40852955,0.485,0.70500004,0.65999997,0.96999997,99,20,0.41200003,0.374,-0.17400001,-1.322,5.9253836,0,4,1,18
1453632548,1686685163800286,371025842,-763881298,17229,-18541,0.20500001,0.5922485,0.48400003,0.703,0.65999997,0.96999997,99,20,0.28800002,0.26000002,-0.125,-1.2140001,5.896581,0,4,1,18
1453837500,1686685164000286,371025843,-763881300,17498,-18272,0.21000001,0.5923038,0.483,0.702,0.65999997,0.96999997,99,20,0.15100001,0.125,-0.085,-1.1860001,5.896581,0,4,1,18
1454030022,1686685164200286,371025842,-763881301,17760,-18010,0.21000001,0.5923604,0.48200002,0.70100003,0.65999997,0.96999997,99,20,0.147,0.11800001,-0.087000005,-1.2110001,5.896581,0,4,1,18
1454225011,1686685164400286,371025842,-763881302,17987,-17783,0.208,0.5924169,0.48100004,0.69900006,0.65999997,0.96999997,99,20,0.164,0.149,-0.067,-1.212,5.896581,0,4,1,18
1454429315,1686685164600286,371025843,-763881302,18246,-17524,0.20700002,0.5924722,0.48000002,0.698,0.65999997,0.96999997,99,20,0.125,0.12100001,0.032,-1.19,5.896581,0,4,1,18
1454631501,1686685164800286,371025843,-763881300,18479,-17292,0.20700002,0.5925256,0.47900003,0.697,0.65999997,0.96999997,99,20,0.11800001,0.069000006,0.095000006,-1.1470001,5.896581,0,4,1,18
1454828491,1686685165000286,371025841,-763881298,18752,-17018,0.19800001,0.59257853,0.47700003,0.693,0.65999997,0.96999997,99,20,0.095000006,0.065000005,0.07,-1.138,5.896581,0,4,1,18
1455033475,1686685165200286,371025839,-763881296,19018,-16752,0.19600001,0.5926316,0.476,0.69000006,0.65999997,0.96999997,99,20,0.07700001,0.07300001,0.023000002,-1.143,5.896581,0,4,1,18
1455236259,1686685165400286,371025837,-763881295,19317,-16453,0.19800001,0.59269285,0.47400004,0.68700004,0.65999997,0.96999997,99,20,0.024,-0.018000001,-0.016,-1.3240001,5.896581,0,4,1,18
1455427226,1686685165600286,371025836,-763881294,19581,-16189,0.208,0.59275216,0.47300002,0.68700004,0.65999997,0.96999997,99,20,0.069000006,0.032,0.061000004,-1.279,5.896581,0,4,1,18
1455627495,1686685165800286,371025834,-763881293,19848,-15922,0.21100001,0.5928108,0.47200003,0.68500006,0.65999997,0.96999997,99,21,0.089,-0.023000002,0.086,-1.268,5.896581,0,4,1,18
1455827499,1686685166000285,371025832,-763881291,20142,-15628,0.202,0.5928757,0.47100002,0.68200004,0.65999997,0.96999997,99,21,0.058000002,-0.016,0.055000003,-1.401,5.896581,0,4,1,18
1456028536,1686685166200285,371025831,-763881290,20427,-15343,0.19900002,0.5929368,0.47000003,0.68,0.65999997,0.96999997,99,21,0.063,-0.051000003,0.037,-1.3210001,5.896581,0,4,1,18
1456229483,1686685166400285,371025830,-763881289,20692,-15078,0.201,0.5929972,0.469,0.68,0.65999997,0.96999997,99,21,0.133,0.040000003,0.127,-1.3000001,5.896581,0,4,1,18
1456433374,1686685166600285,371025829,-763881287,20977,-14793,0.20500001,0.593059,0.46800002,0.679,0.65999997,0.96999997,99,21,0.136,0.035,0.13100001,-1.3290001,5.896581,0,4,1,18
1456630638,1686685166800285,371025826,-763881286,21299,-14471,0.19900002,0.5931241,0.467,0.67700005,0.65999997,0.96999997,99,21,0.11000001,-0.034,0.105000004,-1.404,5.896581,0,4,1,18
1456823543,1686685167000285,371025825,-763881284,21602,-14168,0.202,0.5931869,0.467,0.675,0.66999996,0.96999997,99,21,0.051000003,0.049000002,0.015000001,-1.3570001,5.896581,0,4,1,17
1457032482,1686685167200285,371025823,-763881285,21943,-13827,0.2,0.5932536,0.46600002,0.67200005,0.66999996,0.96999997,99,21,0.049000002,0.009000001,0.048,-1.4410001,5.896581,0,4,1,17
1457221514,1686685167400285,371025820,-763881285,22260,-13510,0.20500001,0.59331644,0.46500003,0.67,0.66999996,0.96999997,99,21,0.011000001,0.004,-0.010000001,-1.36,5.896581,0,4,1,17
1457425480,1686685167600285,371025819,-763881287,22570,-13200,0.215,0.59338087,0.46500003,0.67,0.66999996,0.96999997,99,21,0.035,0.008,-0.034,-1.396,5.896581,0,4,1,17
1457624951,1686685167800285,371025817,-763881289,22879,-12891,0.216,0.593443,0.46600002,0.671,0.66999996,0.96999997,99,20,0.033,-0.017,0.029000001,-1.343,5.896581,0,4,1,17
1457822629,1686685168000285,371025817,-763881290,23184,-12586,0.21900001,0.59350336,0.46800002,0.67200005,0.66999996,0.96999997,99,20,0.054,0.0,0.054,-1.304,5.896581,0,4,1,17
1458023575,1686685168200285,371025815,-763881290,23505,-12265,0.216,0.59356236,0.47000003,0.671,0.66999996,0.96999997,99,20,0.053000003,-0.025,0.047000002,-1.276,5.896581,0,4,1,17
1458216521,1686685168400285,371025814,-763881290,23785,-11985,0.22000001,0.593621,0.47200003,0.67300004,0.66999996,0.96999997,99,20,0.061000004,-0.035,0.05,-1.2670001,5.896581,0,4,1,17
1458416788,1686685168600285,371025813,-763881291,24084,-11686,0.22100002,0.59367806,0.47400004,0.674,0.66999996,0.96999997,99,20,0.095000006,-0.068,0.066,-1.233,5.896581,0,4,1,17
1458617558,1686685168800285,371025812,-763881292,24356,-11414,0.22200002,0.59372675,0.47500002,0.675,0.66999996,0.96999997,99,20,0.029000001,0.016,0.024,-1.052,5.896581,0,4,1,17
1458821724,1686685169000285,371025814,-763881289,24592,-11178,0.20600002,0.5023293,0.47700003,0.67600006,0.66999996,0.96999997,99,20,0.367,0.15100001,0.335,-1.107,0.5071951,0,4,1,17
1459022577,1686685169200285,371025812,-763881279,24826,-10944,0.22700001,0.36686942,0.48000002,0.67800003,0.66999996,0.96999997,99,20,0.64000005,-0.26200002,0.583,-1.0220001,1.4765258,0,4,1,17
1459218821,1686685169400285,371025804,-763881261,24954,-10817,0.172,0.18627287,0.48200002,0.679,0.66999996,0.96999997,99,20,1.056,-0.462,0.95000005,-0.40800002,1.9116116,0,4,1,17
1459416681,1686685169600285,371025787,-763881235,25019,-10751,0.179,0.10818248,0.483,0.68200004,0.66999996,0.96999997,99,20,1.7720001,-1.2090001,1.2950001,-0.28300002,2.2184327,0,4,1,17
1459607980,1686685169800284,371025755,-763881203,25041,-10729,0.194,0.07624313,0.485,0.68500006,0.66999996,0.96999997,99,20,2.595,-2.1720002,1.4200001,-0.14600001,2.449274,0,4,1,17
1459820995,1686685170000284,371025707,-763881169,25033,-10737,0.21400002,0.06297008,0.48900002,0.69000006,0.66999996,0.96999997,99,20,3.3160002,-2.936,1.5400001,-0.046000004,2.5751696,0,4,1,17
1460018964,1686685170200284,371025641,-763881132,25062,-10709,0.19100001,0.046509355,0.492,0.69500005,0.65999997,0.96999997,99,20,4.196,-3.897,1.5550001,-0.040000003,2.6983273,0,4,1,18
1460219487,1686685170400284,371025563,-763881096,25064,-10706,0.21200001,0.04901286,0.49500003,0.70400006,0.65999997,0.96999997,99,20,4.716,-4.458,1.539,0.037,2.7539513,0,4,1,18
1460424525,1686685170600284,371025477,-763881063,25062,-10708,0.216,0.04273194,0.499,0.71000004,0.65999997,0.96999997,99,20,5.056,-4.854,1.4150001,0.113000005,2.8157835,0,4,1,18
1460607656,1686685170800284,371025386,-763881031,25021,-10749,0.18300001,0.03853966,0.50200003,0.71300006,0.66999996,0.96999997,99,21,5.3,-5.1200004,1.3700001,0.11100001,2.853619,0,4,1,17
1460829480,1686685171000284,371025293,-763881000,25004,-10766,0.18300001,0.040354278,0.503,0.71900004,0.66999996,0.96999997,99,21,5.1340003,-4.958,1.332,0.026,2.8669355,0,4,1,17
1461021497,1686685171200284,371025204,-763880970,25123,-10647,0.24000001,0.047171358,0.505,0.72300005,0.66999996,0.96999997,99,21,4.728,-4.5670004,1.2210001,-0.223,2.8731468,0,4,1,17
1461206366,1686685171400284,371025126,-763880946,25181,-10589,0.259,0.056388967,0.508,0.726,0.66999996,0.96999997,99,21,4.1800003,-4.086,0.88100004,-0.42700002,2.897624,0,4,1,17
1461407120,1686685171600284,371025058,-763880919,25335,-10435,0.23200001,0.07300048,0.509,0.725,0.66999996,0.96999997,99,21,3.2430003,-3.071,1.042,-0.21400002,2.8654394,0,4,1,17
1461607615,1686685171800284,371025013,-763880889,25406,-10364,0.16900001,0.103458226,0.509,0.72,0.66999996,0.96999997,99,20,2.2350001,-1.8790001,1.21,-0.028,2.7655954,0,4,1,17
1461824507,1686685172000284,371024979,-763880862,25534,-10236,0.22500001,0.15246515,0.509,0.72,0.66999996,0.96999997,99,20,1.6150001,-1.3980001,0.808,-0.19000001,2.7186317,0,4,1,17
1462017480,1686685172200284,371024957,-763880842,25672,-10098,0.194,0.25693008,0.51100004,0.71900004,0.66999996,0.96999997,99,20,0.97300005,-0.69000006,0.68500006,-0.17500001,2.6250563,0,4,1,17
1462221219,1686685172400284,371024945,-763880824,25779,-9991,0.16800001,0.4199262,0.512,0.71900004,0.66999996,0.96999997,99,20,0.57500005,-0.26500002,0.51000005,0.123,2.4683282,0,4,1,17
1462429030,1686685172600284,371024940,-763880810,25821,-9949,0.25100002,0.43057078,0.512,0.721,0.66999996,0.96999997,99,20,0.46300003,0.178,0.42800003,0.35000002,1.8380731,0,4,1,17
1462606265,1686685172800284,371024941,-763880799,25857,-9913,0.20400001,0.39756784,0.51000005,0.71800005,0.66999996,0.96999997,99,21,0.36600003,0.35000002,0.10700001,0.12900001,1.0054069,0,4,1,17
1462823508,1686685173000284,371024947,-763880795,25919,-9851,0.186,0.18896121,0.508,0.71800005,0.66999996,0.96999997,99,21,0.78200006,0.75500005,0.20400001,-0.006,0.39995423,0,4,1,17
1463032164,1686685173200284,371024959,-763880792,25941,-9829,0.179,0.18218619,0.505,0.716,0.66999996,0.96999997,99,21,0.84000003,0.81600004,0.2,0.22200002,0.31701303,0,4,1,17
1463224716,1686685173400283,371024969,-763880787,25947,-9823,0.202,0.23708028,0.50200003,0.716,0.66999996,0.96999997,99,21,0.70600003,0.698,0.104,0.284,0.25390106,0,4,1,17
1463408780,1686685173600283,371024978,-763880778,25969,-9801,0.20600002,0.17464112,0.5,0.716,0.66999996,0.96999997,99,21,0.86600006,0.76000005,0.41500002,0.162,0.4132016,0,4,1,17
1463623555,1686685173800283,371024989,-763880763,26012,-9758,0.177,0.13899888,0.49800003,0.71300006,0.66999996,0.96999997,99,21,0.98,0.78700006,0.58500004,-0.054,0.5518118,0,4,1,17
1463823499,1686685174000283,371025003,-763880745,26044,-9726,0.19800001,0.122075304,0.49600002,0.712,0.66999996,0.96999997,99,21,1.202,1.01,0.652,0.07700001,0.5637586,0,4,1,17
1464027479,1686685174200283,371025016,-763880727,26103,-9667,0.22000001,0.10848739,0.49400002,0.711,0.66999996,0.96999997,99,21,1.35,1.169,0.675,0.049000002,0.5412245,0,4,1,17
1464221476,1686685174400283,371025033,-763880709,26168,-9602,0.20600002,0.115839764,0.492,0.71000004,0.66999996,0.96999997,99,21,1.3290001,1.159,0.651,0.010000001,0.5276334,0,4,1,17
1464421470,1686685174600283,371025051,-763880692,26228,-9542,0.19700001,0.10623993,0.49100003,0.70900005,0.66999996,0.96999997,99,21,1.4460001,1.312,0.60700005,0.046000004,0.47624204,0,4,1,17
1464622672,1686685174800283,371025071,-763880675,26286,-9484,0.19900002,0.10166612,0.48900002,0.711,0.66999996,0.96999997,99,20,1.565,1.4380001,0.61600006,0.009000001,0.4388803,0,4,1,17
1464802356,1686685175000283,371025097,-763880660,26288,-9482,0.22600001,0.09883834,0.49,0.71400005,0.66999996,0.96999997,99,20,1.7530001,1.6220001,0.666,0.22700001,0.41334316,0,4,1,17
1465020489,1686685175200283,371025126,-763880645,26312,-9458,0.21800001,0.087217934,0.49100003,0.71500003,0.66999996,0.96999997,99,20,1.96,1.8080001,0.75600004,0.19800001,0.40347996,0,4,1,17
1465211842,1686685175400283,371025156,-763880627,26367,-9403,0.22600001,0.0812812,0.492,0.717,0.66999996,0.96999997,99,20,2.055,1.8050001,0.98200005,0.117000006,0.45451704,0,4,1,17
1465419807,1686685175600283,371025187,-763880605,26418,-9352,0.22700001,0.07224773,0.492,0.71900004,0.66999996,0.96999997,99,20,2.249,1.9520001,1.116,0.23200001,0.4909365,0,4,1,17
1465620471,1686685175800283,371025221,-763880578,26489,-9281,0.224,0.064763054,0.49300003,0.71900004,0.66999996,0.96999997,99,22,2.426,2.1130002,1.192,0.097,0.50373673,0,4,1,17
1465822635,1686685176000283,371025259,-763880543,26522,-9248,0.215,0.059245545,0.49300003,0.72200006,0.66999996,0.96999997,99,22,2.7270002,2.2480001,1.544,0.025,0.55804527,0,4,1,17
1466019477,1686685176200283,371025297,-763880504,26575,-9195,0.22600001,0.057231788,0.49400002,0.72400004,0.66999996,0.96999997,99,22,2.851,2.3560002,1.6060001,-0.061000004,0.5792264,0,4,1,17
1466219578,1686685176400283,371025337,-763880465,26620,-9150,0.22100002,0.056511663,0.49400002,0.726,0.66999996,0.96999997,99,22,2.8880002,2.4080002,1.593,0.026,0.5819486,0,4,1,17
1466428263,1686685176600283,371025377,-763880427,26702,-9068,0.21300001,0.057547864,0.49500003,0.72800004,0.66999996,0.96999997,99,22,2.868,2.4020002,1.5680001,-0.124000005,0.58013326,0,4,1,17
1466625205,1686685176800283,371025417,-763880388,26761,-9009,0.20400001,0.057754688,0.49500003,0.72800004,0.66999996,0.96999997,99,20,2.9160001,2.3920002,1.6680001,0.0,0.5947195,0,4,1,17
1466824376,1686685177000282,371025457,-763880350,26814,-8956,0.20600002,0.06194016,0.49500003,0.72900003,0.66999996,0.96999997,99,20,2.716,2.237,1.5410001,-0.031000001,0.5986661,0,4,1,17
1467025575,1686685177200282,371025497,-763880311,26840,-8931,0.21000001,0.059523404,0.49500003,0.73200005,0.66999996,0.96999997,99,20,2.8330002,2.275,1.6880001,-0.124000005,0.6197428,0,4,1,17
1467222723,1686685177400282,371025538,-763880269,26843,-8927,0.20300001,0.0591602,0.49600002,0.735,0.66999996,0.96999997,99,20,2.812,2.204,1.746,-0.13000001,0.6454979,0,4,1,17
1467420482,1686685177600282,371025578,-763880227,26859,-8911,0.201,0.059672978,0.497,0.73700005,0.66999996,0.96999997,99,20,2.7180002,2.134,1.6840001,-0.158,0.6568291,0,4,1,17
1467624208,1686685177800282,371025613,-763880185,26915,-8855,0.208,0.06422829,0.497,0.739,0.66999996,0.96999997,99,21,2.6290002,1.9810001,1.728,-0.055000003,0.6854442,0,4,1,17
1467824773,1686685178000282,371025650,-763880142,26868,-8902,0.19600001,0.0582638,0.497,0.739,0.66999996,0.96999997,99,21,2.6750002,1.973,1.807,-0.046000004,0.7166054,0,4,1,17
1468025483,1686685178200282,371025687,-763880098,26874,-8896,0.20400001,0.058744464,0.49800003,0.74200004,0.66999996,0.96999997,99,21,2.7930002,2.079,1.8650001,-0.095000006,0.7239105,0,4,1,17
1468225163,1686685178400282,371025726,-763880053,26872,-8898,0.209,0.056734715,0.499,0.74600005,0.65999997,0.96999997,99,21,2.923,2.2480001,1.868,-0.097,0.7077668,0,4,1,18
1468410708,1686685178600282,371025765,-763880009,26963,-8807,0.21300001,0.05881864,0.5,0.75000006,0.65999997,0.96999997,99,21,2.8490002,2.229,1.7750001,-0.28,0.6903707,0,4,1,18
1468627416,1686685178800282,371025806,-763879966,26981,-8789,0.21000001,0.05451326,0.50100005,0.75100005,0.65999997,0.96999997,99,20,2.9980001,2.352,1.858,0.069000006,0.678371,0,4,1,18
1468821492,1686685179000282,371025848,-763879921,27032,-8738,0.20700002,0.052021105,0.50100005,0.75200003,0.65999997,0.96999997,99,20,3.1050003,2.437,1.9250001,-0.043,0.6731031,0,4,1,18
1469024484,1686685179200282,371025891,-763879875,27050,-8720,0.209,0.054474864,0.50100005,0.753,0.65999997,0.96999997,99,20,2.9800003,2.3560002,1.8260001,-0.035,0.6663667,0,4,1,18
1469225551,1686685179400282,371025933,-763879829,27058,-8712,0.2,0.053502716,0.5,0.754,0.65999997,0.96999997,99,20,2.9970002,2.3070002,1.9130001,0.016,0.6798322,0,4,1,18
1469427479,1686685179600282,371025973,-763879782,27078,-8692,0.2,0.055488028,0.499,0.754,0.65999997,0.96999997,99,20,2.914,2.243,1.8600001,0.040000003,0.6860027,0,4,1,18
1469624599,1686685179800282,371026014,-763879738,27049,-8721,0.201,0.05490404,0.49800003,0.753,0.65999997,0.96999997,99,21,2.8960001,2.275,1.7910001,0.19900002,0.6760979,0,4,1,18
1469808591,1686685180000282,371026054,-763879694,27061,-8709,0.18900001,0.05596363,0.49600002,0.748,0.65999997,0.96999997,99,21,2.9080002,2.279,1.8060001,0.23500001,0.67310554,0,4,1,18
1470025485,1686685180200282,371026093,-763879651,27098,-8672,0.185,0.05518469,0.49300003,0.74300003,0.65999997,0.96999997,99,21,2.897,2.226,1.853,0.15400001,0.6841106,0,4,1,18
1470221484,1686685180400282,371026132,-763879608,27112,-8658,0.19800001,0.05840709,0.49100003,0.74100006,0.65999997,0.96999997,99,21,2.7770002,2.183,1.7170001,0.101,0.6755696,0,4,1,18
1470414649,1686685180600281,371026170,-763879564,27115,-8655,0.20500001,0.05642876,0.49100003,0.73800004,0.65999997,0.96999997,99,21,2.8240001,2.141,1.8410001,0.282,0.69391793,0,4,1,18
1470623502,1686685180800281,371026206,-763879520,27107,-8663,0.19700001,0.05915741,0.49,0.735,0.65999997,0.96999997,99,21,2.6990001,1.9810001,1.8320001,0.13700001,0.7194606,0,4,1,18
1470819838,1686685181000281,371026240,-763879477,27105,-8665,0.194,0.060162716,0.48900002,0.73200005,0.65999997,0.96999997,99,21,2.6650002,1.9110001,1.858,0.031000001,0.74550724,0,4,1,18
1471020523,1686685181200281,371026271,-763879432,27152,-8618,0.18200001,0.061438028,0.48700002,0.72800004,0.65999997,0.96999997,99,21,2.572,1.835,1.802,0.09,0.7607897,0,4,1,18
1471221096,1686685181400281,371026303,-763879389,27186,-8584,0.18,0.061339766,0.485,0.725,0.65999997,0.96999997,99,21,2.561,1.8490001,1.7730001,0.026,0.76265526,0,4,1,18
1471418573,1686685181600281,371026335,-763879347,27186,-8584,0.185,0.065997526,0.48400003,0.72200006,0.65999997,0.96999997,99,21,2.4650002,1.7390001,1.7470001,0.119,0.77445996,0,4,1,18
1471626021,1686685181800281,371026365,-763879310,27152,-8618,0.2,0.07836877,0.485,0.72300005,0.65999997,0.96999997,99,21,2.321,1.6780001,1.6040001,0.112,0.7696046,0,4,1,18
1471830600,1686685182000281,371026394,-763879274,27163,-8607,0.19600001,0.08085307,0.485,0.725,0.65999997,0.96999997,99,21,2.213,1.6010001,1.5280001,-0.067,0.7659166,0,4,1,18
1472032396,1686685182200281,371026425,-763879241,27174,-8597,0.21200001,0.087169245,0.48700002,0.72800004,0.65999997,0.96999997,99,21,2.253,1.664,1.5200001,-0.062000003,0.75387484,0,4,1,18
1472229472,1686685182400281,371026458,-763879207,27136,-8635,0.21400002,0.08753541,0.49,0.73300004,0.65999997,0.96999997,99,21,2.255,1.667,1.519,-0.061000004,0.74637467,0,4,1,18
1472432532,1686685182600281,371026492,-763879174,27087,-8683,0.23200001,0.087495096,0.49300003,0.739,0.65999997,0.96999997,99,21,2.2930002,1.746,1.4870001,0.101,0.7258264,0,4,1,18
1472629499,1686685182800281,371026527,-763879140,27041,-8729,0.22900002,0.08628331,0.497,0.744,0.65999997,0.96999997,99,21,2.325,1.769,1.508,0.039,0.71573275,0,4,1,18
1472830905,1686685183000281,371026561,-763879106,27024,-8746,0.23,0.08465073,0.5,0.75000006,0.65999997,0.96999997,99,21,2.3700001,1.8080001,1.5330001,0.007,0.7093159,0,4,1,18
1473031640,1686685183200281,371026596,-763879072,27005,-8766,0.22900002,0.083069816,0.504,0.75600004,0.65999997,0.96999997,99,21,2.4150002,1.8470001,1.5560001,-0.060000002,0.7045845,0,4,1,18
1473224518,1686685183400281,371026631,-763879037,26983,-8788,0.24800001,0.082561396,0.508,0.763,0.65999997,0.96999997,99,21,2.5410001,1.94,1.6400001,-0.065000005,0.70315176,0,4,1,18
1473429494,1686685183600281,371026667,-763879001,26951,-8819,0.24300002,0.08037747,0.513,0.77000004,0.65999997,0.96999997,99,21,2.6020002,2.013,1.649,-0.05,0.6944956,0,4,1,18
1473634038,1686685183800281,371026703,-763878963,26951,-8819,0.22700001,0.07746277,0.517,0.776,0.65999997,0.96999997,99,20,2.591,1.9300001,1.7290001,0.003,0.7133593,0,4,1,18
1473838579,1686685184000281,371026738,-763878925,26937,-8833,0.23600002,0.08480991,0.521,0.78300005,0.65999997,0.96999997,99,20,2.4980001,1.866,1.6600001,0.085,0.71966606,0,4,1,18
1474027771,1686685184200280,371026772,-763878886,26922,-8848,0.23400001,0.07893216,0.52500004,0.79,0.65999997,0.96999997,99,20,2.5730002,1.8330001,1.8050001,0.026,0.75102544,0,4,1,18
1474212349,1686685184400280,371026806,-763878845,26939,-8831,0.223,0.072657704,0.528,0.795,0.65999997,0.96999997,99,20,2.736,1.9560001,1.9130001,-0.19900002,0.7638241,0,4,1,18
1474425490,1686685184600280,371026842,-763878803,26951,-8819,0.223,0.07370577,0.531,0.8,0.65999997,0.96999997,99,20,2.7010002,1.94,1.8800001,-0.18,0.7667292,0,4,1,18
1474625501,1686685184800280,371026875,-763878764,26991,-8779,0.22000001,0.07537797,0.53400004,0.80300003,0.65999997,0.96999997,99,20,2.65,1.8800001,1.868,-0.104,0.7744926,0,4,1,18
1474832458,1686685185000280,371026910,-763878724,26983,-8787,0.23900001,0.078067526,0.537,0.808,0.65999997,0.96999997,99,20,2.628,1.9180001,1.797,-0.109000005,0.76387453,0,4,1,18
1475033723,1686685185200280,371026946,-763878683,26979,-8791,0.231,0.075355634,0.54,0.813,0.65999997,0.96999997,99,20,2.696,1.9720001,1.8390001,-0.098000005,0.7567971,0,4,1,18
1475242022,1686685185400280,371026981,-763878643,27032,-8738,0.21800001,0.080264546,0.54300004,0.81700003,0.65999997,0.96999997,99,20,2.516,1.7980001,1.7600001,-0.238,0.7653593,0,4,1,18
1475436500,1686685185600280,371027016,-763878604,27051,-8719,0.22100002,0.07290956,0.544,0.82000005,0.65999997,0.96999997,99,20,2.726,1.9330001,1.922,-0.24700001,0.7747851,0,4,1,18
1475631878,1686685185800280,371027053,-763878564,27055,-8715,0.21400002,0.07659133,0.54700005,0.823,0.79999995,1.24,99,20,2.545,1.8780001,1.7170001,-0.134,0.75836,0,4,1,17
1475829446,1686685186000280,371027086,-763878525,27126,-8644,0.22500001,0.07824974,0.549,0.82600003,0.65999997,0.96999997,99,20,2.548,1.8210001,1.7830001,-0.18200001,0.76652676,0,4,1,18
1476030599,1686685186200280,371027122,-763878485,27105,-8665,0.21300001,0.073176935,0.551,0.82800007,0.79999995,1.24,99,20,2.647,1.8960001,1.8470001,-0.148,0.76958823,0,4,1,17
1476230738,1686685186400280,371027160,-763878444,27115,-8655,0.21000001,0.078385174,0.554,0.83000004,0.79999995,1.24,99,20,2.7040002,2.0210001,1.797,-0.19000001,0.74931794,0,4,1,17
1476427544,1686685186600280,371027198,-763878406,27130,-8640,0.20600002,0.071612425,0.555,0.832,0.65999997,0.96999997,99,20,2.6980002,2.0040002,1.8060001,-0.112,0.7406477,0,4,1,18
1476628499,1686685186800280,371027236,-763878365,27111,-8660,0.209,0.074042276,0.55600005,0.83400005,0.79999995,1.24,99,21,2.641,1.917,1.8160001,-0.082,0.74940085,0,4,1,17
1476828490,1686685187000280,371027274,-763878324,27109,-8661,0.21100001,0.07726834,0.558,0.836,0.79999995,1.24,99,21,2.6420002,1.9580001,1.774,-0.082,0.7429714,0,4,1,17
1477029021,1686685187200280,371027313,-763878282,27085,-8685,0.21700001,0.07307501,0.56,0.83900005,0.79999995,1.24,99,21,2.7630002,2.0470002,1.8560001,-0.058000002,0.73956263,0,4,1,17
1477226715,1686685187400280,371027351,-763878243,27073,-8697,0.21100001,0.0793774,0.56200004,0.84000003,0.79999995,1.24,99,21,2.6120002,1.9750001,1.7090001,-0.056,0.72741145,0,4,1,17
1477431475,1686685187600280,371027389,-763878204,27055,-8715,0.208,0.07624383,0.563,0.84300005,0.79999995,1.24,99,21,2.63,1.9150001,1.802,-0.11100001,0.7420274,0,4,1,17
1477627405,1686685187800279,371027426,-763878164,27035,-8735,0.216,0.073245876,0.565,0.845,0.79999995,1.24,99,21,2.641,1.9510001,1.7810001,-0.09,0.7408516,0,4,1,17
1477839632,1686685188000279,371027465,-763878126,26994,-8776,0.21300001,0.08426117,0.56600004,0.84900004,0.79999995,1.24,99,21,2.5860002,1.9640001,1.6830001,-0.062000003,0.7266863,0,4,1,17
1478025512,1686685188200279,371027502,-763878088,26964,-8806,0.22100002,0.08360266,0.569,0.85200006,0.79999995,1.24,99,21,2.542,1.8730001,1.7190001,0.051000003,0.73474395,0,4,1,17
1478229757,1686685188400279,371027540,-763878050,26908,-8862,0.22500001,0.08530471,0.572,0.85600007,0.79999995,1.24,99,21,2.588,1.9620001,1.6890001,0.07300001,0.7228663,0,4,1,17
1478421376,1686685188600279,371027577,-763878011,26889,-8882,0.223,0.07910914,0.574,0.859,0.79999995,1.24,99,21,2.631,1.9150001,1.8050001,0.096,0.74078053,0,4,1,17
1478631760,1686685188800279,371027614,-763877970,26855,-8915,0.22100002,0.079594165,0.57600003,0.86100006,0.79999995,1.24,99,21,2.528,1.8560001,1.7170001,0.028,0.7437085,0,4,1,17
1478831109,1686685189000279,371027652,-763877930,26797,-8973,0.224,0.084232904,0.578,0.864,0.79999995,1.24,99,21,2.693,1.9590001,1.848,0.080000006,0.74962896,0,4,1,17
1479032519,1686685189200279,371027690,-763877889,26739,-9031,0.22800002,0.07857105,0.58100003,0.86700004,0.79999995,1.24,99,21,2.7050002,1.9810001,1.8410001,0.18400002,0.7492073,0,4,1,17
1479232525,1686685189400279,371027729,-763877849,26660,-9111,0.22000001,0.0796022,0.583,0.869,0.79999995,1.24,99,21,2.654,1.9310001,1.82,-0.026,0.7523891,0,4,1,17
1479429531,1686685189600279,371027768,-763877809,26614,-9156,0.21000001,0.07800103,0.58500004,0.87100005,0.79999995,1.24,99,21,2.6550002,1.978,1.771,-0.07,0.74095505,0,4,1,17
1479630086,1686685189800279,371027807,-763877768,26585,-9185,0.21400002,0.07247584,0.586,0.87100005,0.79999995,1.24,99,20,2.7380002,1.9750001,1.8960001,0.036000002,0.7539054,0,4,1,17
1479827503,1686685190000279,371027846,-763877728,26551,-9219,0.20700002,0.07141031,0.586,0.87100005,0.79999995,1.24,99,20,2.6430001,1.9160001,1.82,-0.053000003,0.75685847,0,4,1,17
1480028483,1686685190200279,371027883,-763877686,26555,-9215,0.209,0.079993844,0.587,0.87200004,0.79999995,1.24,99,20,2.6360002,1.868,1.8600001,-0.202,0.7687098,0,4,1,17
1480236494,1686685190400279,371027918,-763877645,26556,-9214,0.21100001,0.08141804,0.588,0.873,0.79999995,1.24,99,20,2.5700002,1.8510001,1.784,0.007,0.767841,0,4,1,17
1480432544,1686685190600279,371027955,-763877604,26522,-9248,0.21800001,0.07629322,0.59000003,0.873,0.79999995,1.24,99,20,2.6880002,1.996,1.7990001,0.12100001,0.749352,0,4,1,17
1480634242,1686685190800279,371027993,-763877563,26471,-9299,0.209,0.075249515,0.591,0.87200004,0.79999995,1.24,99,21,2.6460001,1.9020001,1.84,0.039,0.7592901,0,4,1,17
1480831595,1686685191000279,371028029,-763877523,26427,-9344,0.202,0.07209256,0.591,0.87100005,0.79999995,1.24,99,21,2.528,1.7310001,1.8420001,-0.058000002,0.78938377,0,4,1,17
1481027590,1686685191200279,371028066,-763877482,26343,-9427,0.21200001,0.06923808,0.59000003,0.87200004,0.79999995,1.24,99,21,2.6460001,1.8500001,1.891,0.033,0.7931243,0,4,1,17
1481224489,1686685191400278,371028104,-763877440,26271,-9499,0.22000001,0.0721465,0.591,0.873,0.79999995,1.24,99,21,2.657,1.927,1.8290001,0.123,0.77660465,0,4,1,17
1481425480,1686685191600278,371028141,-763877398,26237,-9533,0.21700001,0.07865256,0.592,0.874,0.79999995,1.24,99,21,2.634,1.9390001,1.7830001,-0.09,0.7612525,0,4,1,17
1481624586,1686685191800278,371028178,-763877359,26201,-9569,0.21100001,0.07220671,0.59300005,0.87500006,0.79999995,1.24,99,21,2.5500002,1.871,1.7320001,0.008,0.753268,0,4,1,17
1481829111,1686685192000278,371028214,-763877318,26158,-9612,0.208,0.07516557,0.59400004,0.87600005,0.79999995,1.24,99,21,2.545,1.802,1.7980001,-0.013,0.7683541,0,4,1,17
1482023486,1686685192200278,371028250,-763877280,26112,-9658,0.21800001,0.075519346,0.59400004,0.87700003,0.79999995,1.24,99,21,2.561,1.891,1.7270001,0.051000003,0.7542428,0,4,1,17
1482224474,1686685192400278,371028284,-763877242,26073,-9697,0.21200001,0.085323036,0.59400004,0.878,0.79999995,1.24,99,21,2.4310002,1.7450001,1.6930001,0.109000005,0.7613918,0,4,1,17
1482420505,1686685192600278,371028317,-763877205,26045,-9725,0.21000001,0.09102258,0.596,0.88000005,0.79999995,1.24,99,21,2.299,1.651,1.6010001,-0.093,0.7654747,0,4,1,17
1482624588,1686685192800278,371028351,-763877169,26017,-9753,0.22100002,0.091005825,0.59800005,0.882,0.79999995,1.24,99,20,2.391,1.7720001,1.605,0.026,0.7506556,0,4,1,17
1482825478,1686685193000278,371028385,-763877135,25956,-9814,0.223,0.09220417,0.601,0.88500005,0.79999995,1.24,99,20,2.2680001,1.667,1.539,0.09,0.7480898,0,4,1,17
1483026605,1686685193200278,371028417,-763877101,25902,-9868,0.21800001,0.08959595,0.60300004,0.887,0.79999995,1.24,99,20,2.3160002,1.718,1.5530001,0.024,0.7413394,0,4,1,17
1483203758,1686685193400278,371028449,-763877067,25879,-9891,0.21800001,0.09188041,0.60400003,0.88900006,0.79999995,1.24,99,20,2.183,1.5920001,1.4940001,0.068,0.74739337,0,4,1,17
1483416486,1686685193600278,371028481,-763877033,25828,-9942,0.23300001,0.086217165,0.605,0.89100003,0.79999995,1.24,99,20,2.436,1.84,1.5960001,0.087000005,0.72983694,0,4,1,17
1483625502,1686685193800278,371028516,-763876999,25773,-9997,0.22200002,0.08652836,0.60700005,0.89400005,0.79999995,1.24,99,21,2.367,1.8140001,1.5200001,0.07,0.71353644,0,4,1,17
1483837489,1686685194000278,371028549,-763876965,25733,-10037,0.22800002,0.08636343,0.609,0.896,0.79999995,1.24,99,21,2.388,1.8280001,1.5370001,0.15100001,0.7062867,0,4,1,17
1484022073,1686685194200278,371028582,-763876931,25689,-10081,0.22500001,0.086836584,0.61,0.89900005,0.79999995,1.24,99,21,2.3830001,1.7980001,1.5640001,0.193,0.71107346,0,4,1,17
1484221991,1686685194400278,371028616,-763876897,25635,-10135,0.22700001,0.08312339,0.61200005,0.90200007,0.79999995,1.24,99,21,2.486,1.9160001,1.5840001,0.23900001,0.70040476,0,4,1,17
1484423494,1686685194600278,371028650,-763876864,25609,-10161,0.223,0.08225579,0.61200005,0.90300006,0.79999995,1.24,99,21,2.4120002,1.8460001,1.5510001,0.155,0.69954294,0,4,1,17
1484620492,1686685194800278,371028686,-763876829,25559,-10212,0.22200002,0.083036825,0.61300004,0.90500003,0.79999995,1.24,99,21,2.398,1.7930001,1.5920001,-0.015000001,0.7127814,0,4,1,17
1484823778,1686685195000278,371028721,-763876794,25533,-10237,0.216,0.08095657,0.614,0.90700006,0.79999995,1.24,99,21,2.5300002,1.9110001,1.659,0.053000003,0.7138119,0,4,1,17
1485024346,1686685195200277,371028758,-763876758,25471,-10299,0.215,0.08509492,0.615,0.90800005,0.79999995,1.24,99,21,2.4120002,1.807,1.5970001,-0.041,0.71847296,0,4,1,17
1485226604,1686685195400277,371028793,-763876723,25436,-10334,0.21300001,0.07964583,0.615,0.90900004,0.79999995,1.24,99,21,2.4420002,1.8100001,1.6400001,-0.025,0.7279604,0,4,1,17
1485423550,1686685195600277,371028828,-763876687,25406,-10364,0.21300001,0.08028322,0.61600006,0.91,0.79999995,1.24,99,21,2.427,1.766,1.6650001,-0.096,0.74204606,0,4,1,17
1485624611,1686685195800277,371028863,-763876650,25405,-10365,0.21300001,0.07656131,0.61700004,0.91,0.79999995,1.24,99,20,2.4720001,1.817,1.6760001,-0.09,0.74352485,0,4,1,17
1485828128,1686685196000277,371028895,-763876612,25424,-10346,0.21000001,0.080333136,0.61700004,0.9110001,0.79999995,1.24,99,20,2.3760002,1.669,1.69,-0.097,0.7667365,0,4,1,17
1486013483,1686685196200277,371028928,-763876574,25406,-10364,0.215,0.07908924,0.61700004,0.91200006,0.79999995,1.24,99,20,2.463,1.6940001,1.789,-0.062000003,0.79023284,0,4,1,17
1486220645,1686685196400277,371028962,-763876535,25379,-10391,0.21700001,0.07757325,0.619,0.91400003,0.79999995,1.24,99,20,2.571,1.8210001,1.815,-0.049000002,0.7869307,0,4,1,17
1486421176,1686685196600277,371028995,-763876496,25363,-10407,0.22000001,0.082956016,0.62,0.915,0.79999995,1.24,99,20,2.411,1.6800001,1.7290001,-0.035,0.79294,0,4,1,17
1486623601,1686685196800277,371029030,-763876457,25298,-10472,0.21900001,0.08156098,0.62200004,0.91800004,0.79999995,1.24,99,21,2.532,1.7760001,1.8050001,-0.078,0.79322606,0,4,1,17
1486823077,1686685197000277,371029063,-763876417,25292,-10479,0.21200001,0.07980832,0.623,0.92,0.79999995,1.24,99,21,2.582,1.7530001,1.8960001,-0.109000005,0.8093934,0,4,1,17
1487017483,1686685197200277,371029095,-763876380,25305,-10465,0.21000001,0.08327751,0.623,0.92100006,0.79999995,1.24,99,21,2.457,1.7400001,1.7340001,-0.087000005,0.7968932,0,4,1,17
1487221187,1686685197400277,371029126,-763876346,25325,-10446,0.209,0.08513559,0.623,0.92200005,0.79999995,1.24,99,21,2.367,1.6430001,1.7040001,-0.012,0.8002147,0,4,1,17
1487420933,1686685197600277,371029157,-763876309,25305,-10465,0.22100002,0.08550175,0.624,0.92300004,0.79999995,1.24,99,21,2.3170002,1.6420001,1.6340001,-0.011000001,0.79157114,0,4,1,17
1487622135,1686685197800277,371029189,-763876273,25267,-10503,0.21800001,0.085978925,0.624,0.9250001,0.79999995,1.24,99,20,2.3930001,1.6810001,1.7040001,0.095000006,0.7918804,0,4,1,17
1487827511,1686685198000277,371029222,-763876238,25240,-10530,0.21400002,0.08560211,0.624,0.92600006,0.79999995,1.24,99,20,2.3920002,1.7240001,1.659,0.053000003,0.7788798,0,4,1,17
1488023494,1686685198200277,371029255,-763876203,25231,-10539,0.21700001,0.08386464,0.623,0.92700005,0.79999995,1.24,99,20,2.4290001,1.7300001,1.705,0.068,0.7784439,0,4,1,17
1488225497,1686685198400277,371029289,-763876167,25220,-10550,0.21700001,0.08421108,0.623,0.92800003,0.79999995,1.24,99,20,2.414,1.7500001,1.664,0.040000003,0.7693102,0,4,1,17
1488421486,1686685198600277,371029323,-763876133,25172,-10598,0.22200002,0.087832466,0.623,0.929,0.79999995,1.24,99,20,2.3130002,1.7080001,1.559,0.124000005,0.75493896,0,4,1,17
1488622908,1686685198800276,371029357,-763876097,25114,-10656,0.22100002,0.08410532,0.623,0.929,0.79999995,1.24,99,20,2.3730001,1.6580001,1.6980001,0.22100002,0.7772698,0,4,1,17
1488822374,1686685199000276,371029390,-763876058,25078,-10692,0.22900002,0.08540768,0.624,0.93000007,0.65999997,0.96999997,99,20,2.403,1.7110001,1.6880001,0.192,0.77793,0,4,1,18
1489025990,1686685199200276,371029423,-763876018,25040,-10730,0.22100002,0.08228093,0.624,0.93100005,0.65999997,0.96999997,99,20,2.483,1.7010001,1.8090001,0.187,0.79805976,0,4,1,18
1489223665,1686685199400276,371029456,-763875977,25002,-10769,0.22100002,0.078918375,0.625,0.93100005,0.65999997,0.96999997,99,20,2.4720001,1.697,1.7980001,0.202,0.8066489,0,4,1,18
1489424529,1686685199600276,371029490,-763875935,24942,-10828,0.22500001,0.07635414,0.625,0.93200004,0.79999995,1.24,99,20,2.594,1.853,1.815,0.2,0.79021436,0,4,1,17
1489629575,1686685199800276,371029526,-763875894,24857,-10914,0.224,0.07526679,0.625,0.933,0.79999995,1.24,99,21,2.6230001,1.8390001,1.871,0.23500001,0.7921422,0,4,1,17
1489830578,1686685200000276,371029561,-763875852,24825,-10946,0.223,0.07322511,0.62600005,0.93500006,0.79999995,1.24,99,21,2.6950002,1.9150001,1.8960001,0.15,0.78607076,0,4,1,17
1490023488,1686685200200276,371029595,-763875809,24825,-10945,0.21400002,0.07549107,0.62600005,0.93500006,0.79999995,1.24,99,21,2.5930002,1.8540001,1.8140001,0.09200001,0.7803375,0,4,1,17
1490224484,1686685200400276,371029628,-763875767,24850,-10920,0.21400002,0.07776907,0.62600005,0.93700004,0.79999995,1.24,99,21,2.5440001,1.7860001,1.812,-0.071,0.7862954,0,4,1,17
1490423808,1686685200600276,371029664,-763875725,24826,-10944,0.231,0.06739606,0.62700003,0.93900007,0.79999995,1.24,99,21,2.973,2.21,1.988,0.07300001,0.75516725,0,4,1,17
1490617503,1686685200800276,371029705,-763875680,24912,-10858,0.22900002,0.067650706,0.629,0.943,0.79999995,1.24,99,22,3.1290002,2.3890002,2.02,-0.614,0.72810924,0,4,1,17
1490829452,1686685201000276,371029754,-763875631,25133,-10637,0.23200001,0.05202093,0.63000005,0.947,0.79999995,1.24,99,22,4.013,3.144,2.4940002,-1.046,0.6913109,0,4,1,17
1491022628,1686685201200276,371029815,-763875574,25386,-10384,0.23200001,0.043504946,0.632,0.9480001,0.65999997,0.96999997,99,22,4.6190004,3.5870001,2.91,-1.309,0.6853576,0,4,1,18
1491231569,1686685201400276,371029883,-763875504,25687,-10084,0.23900001,0.037580427,0.632,0.94900006,0.65999997,0.96999997,99,22,5.346,4.0610003,3.476,-1.1700001,0.699127,0,4,1,18
1491424478,1686685201600276,371029957,-763875425,25994,-9776,0.238,0.036983524,0.633,0.95100003,0.79999995,1.24,99,22,5.6660004,4.155,3.8530002,-1.44,0.7262489,0,4,1,17
1491617603,1686685201800276,371030032,-763875339,26268,-9502,0.22600001,0.036366552,0.634,0.95500004,0.79999995,1.24,99,21,5.701,4.0470004,4.0150003,-1.5150001,0.757232,0,4,1,17
1491821511,1686685202000276,371030099,-763875249,26423,-9348,0.21000001,0.034672882,0.632,0.957,0.79999995,1.24,99,21,5.616,3.7960002,4.1390004,-1.3210001,0.7983851,0,4,1,17
1492008999,1686685202200276,371030158,-763875156,26570,-9200,0.209,0.03726208,0.63000005,0.95900005,0.65999997,0.96999997,99,21,5.479,3.3500001,4.335,-1.256,0.8580446,0,4,1,18
1492230563,1686685202400275,371030209,-763875055,26765,-9006,0.20700002,0.03517781,0.628,0.95800006,0.65999997,0.96999997,99,21,5.471,2.9800003,4.5880003,-1.218,0.9370875,0,4,1,18
1492423473,1686685202600275,371030253,-763874948,27005,-8766,0.21100001,0.033913665,0.62600005,0.95800006,0.66999996,0.96999997,99,21,5.7590003,2.6190002,5.129,-1.22,1.0300999,0,4,1,17
1492627210,1686685202800275,371030295,-763874835,27210,-8560,0.21200001,0.03308847,0.625,0.957,0.66999996,0.96999997,99,21,5.8320003,2.5700002,5.235,-1.2550001,1.0785115,0,4,1,17
1492820481,1686685203000275,371030334,-763874712,27417,-8353,0.22100002,0.03219469,0.624,0.95800006,0.66999996,0.96999997,99,21,6.2850003,2.332,5.8360004,-1.115,1.143809,0,4,1,17
1493021473,1686685203200275,371030375,-763874577,27617,-8154,0.24200001,0.0327237,0.625,0.961,0.66999996,0.96999997,99,21,6.623,2.3040001,6.209,-1.131,1.1844501,0,4,1,17
1493206676,1686685203400275,371030416,-763874438,27820,-7950,0.224,0.029479308,0.62600005,0.96300006,0.66999996,0.96999997,99,21,6.8160005,2.311,6.413,-1.212,1.2097747,0,4,1,17
1493422616,1686685203600275,371030454,-763874294,28078,-7693,0.23,0.0287536,0.62600005,0.966,0.66999996,0.96999997,99,21,6.8420005,2.2110002,6.4750004,-1.2550001,1.2290336,0,4,1,17
1493627931,1686685203800275,371030494,-763874149,28280,-7491,0.231,0.02843944,0.62700003,0.96900004,0.66999996,0.96999997,99,21,6.9220004,2.2220001,6.5550003,-1.2540001,1.2379636,0,4,1,17
1493828508,1686685204000275,371030533,-763874004,28520,-7250,0.22900002,0.028926563,0.62700003,0.97300005,0.66999996,0.96999997,99,21,6.808,2.312,6.4030004,-1.3010001,1.2299656,0,4,1,17
1494021484,1686685204200275,371030575,-763873862,28760,-7010,0.224,0.031299513,0.628,0.9760001,0.66999996,0.96999997,99,21,6.8370004,2.2910001,6.4420004,-1.312,1.2294549,0,4,1,17
1494224779,1686685204400275,371030619,-763873720,28980,-6790,0.22100002,0.030927058,0.629,0.98,0.66999996,0.96999997,99,21,6.9160004,2.403,6.485,-1.2540001,1.2214712,0,4,1,17
1494418555,1686685204600275,371030663,-763873576,29246,-6524,0.21900001,0.03117088,0.629,0.98300004,0.66999996,0.96999997,99,21,6.8480005,2.5180001,6.3680005,-1.289,1.2056792,0,4,1,17
1494623503,1686685204800275,371030710,-763873434,29508,-6262,0.22500001,0.030926708,0.63000005,0.98800004,0.66999996,0.96999997,99,20,6.9700003,2.63,6.4550004,-1.32,1.1928464,0,4,1,17
1494824487,1686685205000275,371030760,-763873290,29767,-6004,0.22500001,0.030426497,0.632,0.99100006,0.66999996,0.96999997,99,20,7.0580006,2.785,6.485,-1.373,1.1763911,0,4,1,17
1495017486,1686685205200275,371030810,-763873146,30055,-5716,0.22800002,0.031227604,0.633,0.99600005,0.66999996,0.96999997,99,20,7.089,2.7640002,6.5280004,-1.355,1.1728861,0,4,1,17
1495224361,1686685205400275,371030859,-763873002,30342,-5429,0.22800002,0.031147841,0.634,1.0,0.65999997,0.96999997,99,20,7.024,2.6690001,6.497,-1.3980001,1.1776427,0,4,1,18
1495433124,1686685205600275,371030909,-763872856,30598,-5173,0.23,0.030126302,0.63500005,1.0040001,0.65999997,0.96999997,99,20,7.1320004,2.7220001,6.5930004,-1.386,1.1786075,0,4,1,18
1495633456,1686685205800275,371030959,-763872709,30859,-4912,0.224,0.029817726,0.637,1.0070001,0.65999997,0.96999997,99,20,7.1180005,2.719,6.5780005,-1.36,1.1787139,0,4,1,18
1495818784,1686685206000274,371031009,-763872563,31077,-4694,0.224,0.030453026,0.638,1.011,0.65999997,0.96999997,99,20,7.0590005,2.6120002,6.558,-1.3520001,1.1862911,0,4,1,18
1496024506,1686685206200274,371031057,-763872416,31311,-4459,0.22200002,0.029798703,0.63900006,1.014,0.65999997,0.96999997,99,20,7.149,2.5100002,6.6940002,-1.363,1.2017188,0,4,1,18
1496221521,1686685206400274,371031105,-763872268,31550,-4221,0.22200002,0.02981249,0.64000005,1.0170001,0.65999997,0.96999997,99,20,7.1980004,2.6390002,6.6970005,-1.4080001,1.1980264,0,4,1,18
1496428540,1686685206600274,371031153,-763872117,31799,-3972,0.223,0.029709691,0.64100003,1.021,0.65999997,0.96999997,99,20,7.2380004,2.513,6.787,-1.322,1.2088134,0,4,1,18
1496626697,1686685206800274,371031198,-763871965,32063,-3707,0.22100002,0.029883875,0.642,1.024,0.65999997,0.96999997,100,21,7.143,2.4410002,6.7130003,-1.3210001,1.2166175,0,4,1,18
1496826185,1686685207000274,371031243,-763871814,32304,-3467,0.22100002,0.029763795,0.643,1.0270001,0.65999997,0.96999997,100,21,7.175,2.4320002,6.7500005,-1.342,1.2215543,0,4,1,18
