timestamp,rollspeed,pitchspeed,yawspeed,q[0],q[1],q[2],q[3],delta_q_reset[0],delta_q_reset[1],delta_q_reset[2],delta_q_reset[3],quat_reset_counter
1430858361,0.0022715987,2.3782253e-05,0.00065942365,-0.9996931,0.0016202604,-0.0019929237,0.024642548,-0.1945038,0.022208337,-0.010982009,0.98058885,1
1430986607,-0.00014644745,1.575076e-05,0.0022064955,-0.9996941,0.0015394612,-0.0019695598,0.02460718,-0.1945038,0.022208337,-0.010982009,0.98058885,1
1431026738,-0.0011039276,0.0036271452,0.0018161451,-0.999694,0.0015723896,-0.0019966823,0.024606507,-0.1945038,0.022208337,-0.010982009,0.98058885,1
1431070600,-0.004728039,0.0032085082,-0.0029973113,-0.9996926,0.001651501,-0.0020237912,0.02465654,-0.1945038,0.022208337,-0.010982009,0.98058885,1
1431114602,-0.0025603725,-0.0020070227,-0.001581406,-0.99969095,0.0017386527,-0.0020451248,0.02471259,-0.1945038,0.022208337,-0.010982009,0.98058885,1
1431155368,-0.00014400796,-0.0031552573,-0.002388164,-0.99968916,0.0017569097,-0.0020121024,0.024786193,-0.1945038,0.022208337,-0.010982009,0.98058885,1
1431199453,-0.0071368613,-0.010212335,-0.04562345,-0.99968714,0.0016214328,-0.001953934,0.024885438,-0.1945038,0.022208337,-0.010982009,0.98058885,1
1431239419,-0.057150137,-0.053229205,0.06755426,-0.99969214,0.0016517033,-0.001968935,0.024680875,-0.1945038,0.022208337,-0.010982009,0.98058885,1
1431283455,-0.10335609,0.0285516,0.027239908,-0.9996917,0.0016055957,-0.001992182,0.0246989,-0.1945038,0.022208337,-0.010982009,0.98058885,1
1431328185,-0.11617851,-0.018360399,0.03983106,-0.99968964,0.0011843952,-0.0023055067,0.02477956,-0.1945038,0.022208337,-0.010982009,0.98058885,1
1431367964,0.042883508,0.0023028387,-0.044525977,-0.9996754,0.0009506646,-0.0026082261,0.025327964,-0.1945038,0.022208337,-0.010982009,0.98058885,1
1431412273,0.015447248,0.027923161,-0.024261363,-0.99967,0.00087392586,-0.002325267,0.025565982,-0.1945038,0.022208337,-0.010982009,0.98058885,1
1431452239,-0.067616,-0.024009017,0.0069236243,-0.99966615,0.0011843226,-0.0016975822,0.02575357,-0.1945038,0.022208337,-0.010982009,0.98058885,1
1431496178,-0.047273647,-0.028435312,-0.004829715,-0.9996675,0.0018793526,-0.0011188324,0.025693597,-0.1945038,0.022208337,-0.010982009,0.98058885,1
1431536229,-0.02896778,0.008833005,-0.00091930944,-0.9996699,0.0025075702,-0.00080531416,0.025556082,-0.1945038,0.022208337,-0.010982009,0.98058885,1
1431580179,-0.0038177622,0.021974176,0.01722435,-0.99967206,0.0028090738,-0.001079642,0.025433682,-0.1945038,0.022208337,-0.010982009,0.98058885,1
1431620999,0.0025973816,0.010252606,-6.351643e-05,-0.9996781,0.0027696243,-0.001495806,0.025178399,-0.1945038,0.022208337,-0.010982009,0.98058885,1
1431665039,0.056410454,-0.005034553,0.02471211,-0.9996859,0.0024096374,-0.0018625996,0.024878133,-0.1945038,0.022208337,-0.010982009,0.98058885,1
1431708972,0.025055321,0.013350411,0.0131534375,-0.99969125,0.0020227954,-0.0019264724,0.024690595,-0.1945038,0.022208337,-0.010982009,0.98058885,1
1431753027,-0.014627111,-0.030138787,-0.0031880776,-0.99969596,0.001804306,-0.0016034569,0.024537979,-0.1945038,0.022208337,-0.010982009,0.98058885,1
1431793050,-0.012773921,-0.031459857,0.0039362703,-0.9996976,0.0018811076,-0.0012019571,0.024488399,-0.1945038,0.022208337,-0.010982009,0.98058885,1
1431833857,-0.028739834,0.020881133,0.0018195591,-0.9996979,0.002240186,-0.0008515443,0.024462918,-0.1945038,0.022208337,-0.010982009,0.98058885,1
1431877777,-0.032460645,0.10337748,0.027640227,-0.99969864,0.0027051398,-0.0015107966,0.024353752,-0.1945038,0.022208337,-0.010982009,0.98058885,1
1431917807,0.03976287,0.12566887,0.016822532,-0.99969894,0.0030012706,-0.004433462,0.023948716,-0.1945038,0.022208337,-0.010982009,0.98058885,1
1431961601,-0.38272893,0.3731936,-0.06896969,-0.9996643,0.004068388,-0.010587178,0.023294395,-0.1945038,0.022208337,-0.010982009,0.98058885,1
1432001856,0.076755054,0.42703864,0.09652997,-0.99957925,0.0050857323,-0.017701445,0.022411637,-0.1945038,0.022208337,-0.010982009,0.98058885,1
1432042670,-0.17962882,0.022952883,-0.022782817,-0.99946505,0.0068308706,-0.023610763,0.021573402,-0.1945038,0.022208337,-0.010982009,0.98058885,1
1432082623,0.058039468,-0.22692603,0.16129468,-0.999438,0.007933953,-0.025460156,0.020311885,-0.1945038,0.022208337,-0.010982009,0.98058885,1
1432126679,-0.066427134,-0.15031558,-0.037760377,-0.99951005,0.008710661,-0.02278092,0.019616464,-0.1945038,0.022208337,-0.010982009,0.98058885,1
1432166570,0.19930862,-0.068546735,0.036850452,-0.9995753,0.008640635,-0.020602562,0.01871249,-0.1945038,0.022208337,-0.010982009,0.98058885,1
1432210688,-0.24348466,-0.030439204,0.094757326,-0.9996117,0.010054578,-0.01951436,0.01716269,-0.1945038,0.022208337,-0.010982009,0.98058885,1
1432250783,-0.09031343,-0.05448153,0.083187774,-0.99966633,0.011442843,-0.017066885,0.015653282,-0.1945038,0.022208337,-0.010982009,0.98058885,1
1432294584,0.04881872,-0.41132072,0.10682817,-0.9997714,0.00997539,-0.012288104,0.014377257,-0.1945038,0.022208337,-0.010982009,0.98058885,1
1432335169,0.12479129,-0.2068264,0.15059666,-0.9998444,0.0064599356,-0.0097974315,0.013176661,-0.1945038,0.022208337,-0.010982009,0.98058885,1
1432379419,0.042351287,-0.17524432,0.12981898,-0.9998792,0.00491863,-0.00888517,0.011772712,-0.1945038,0.022208337,-0.010982009,0.98058885,1
1432419417,-0.35381156,-0.31266013,-0.03000549,-0.9999096,0.0047682333,-0.0068256794,0.010562265,-0.1945038,0.022208337,-0.010982009,0.98058885,1
1432459422,-0.3920801,-0.16732416,-0.07051673,-0.99993575,0.0049927863,-0.003806747,0.0094455145,-0.1945038,0.022208337,-0.010982009,0.98058885,1
1432503359,-0.39136878,-0.32968733,-0.07240558,-0.9999394,0.0071030273,-0.0006156443,0.008391902,-0.1945038,0.022208337,-0.010982009,0.98058885,1
1432544216,-0.5551892,-0.11794526,-0.055013664,-0.99990547,0.011261818,0.0022302698,0.007576864,-0.1945038,0.022208337,-0.010982009,0.98058885,1
1432587973,0.076751724,-0.060307167,0.2248093,-0.99983454,0.015830567,0.0059686024,0.006693469,-0.1945038,0.022208337,-0.010982009,0.98058885,1
1432628225,0.11125293,-0.15479113,0.06956332,-0.99975103,0.019050634,0.009634743,0.006497198,-0.1945038,0.022208337,-0.010982009,0.98058885,1
1432668169,-0.0621053,-0.040161423,-0.003330332,-0.99966216,0.021598259,0.013045801,0.006250748,-0.1945038,0.022208337,-0.010982009,0.98058885,1
1432709039,-0.018690642,-0.09960317,0.03763014,-0.99956405,0.023669288,0.01661931,0.0059392336,-0.1945038,0.022208337,-0.010982009,0.98058885,1
1432752963,0.2537675,0.04684015,0.18996613,-0.99948454,0.024068927,0.020548617,0.0054024467,-0.1945038,0.022208337,-0.010982009,0.98058885,1
1432792990,-0.10764087,-0.054595638,0.0014391951,-0.99940777,0.02360864,0.0244543,0.0053565577,-0.1945038,0.022208337,-0.010982009,0.98058885,1
1432836790,-0.04157958,-0.16216506,-0.060118973,-0.9993377,0.022564635,0.028088447,0.005123593,-0.1945038,0.022208337,-0.010982009,0.98058885,1
1432877015,-0.11819594,-0.20393619,-0.11262399,-0.9992878,0.02112133,0.030865144,0.0050258227,-0.1945038,0.022208337,-0.010982009,0.98058885,1
1432920985,0.030444957,-0.20310502,0.025893774,-0.99927515,0.018397944,0.032994445,0.004699917,-0.1945038,0.022208337,-0.010982009,0.98058885,1
1432961564,0.4563969,0.14508444,0.16835588,-0.9993076,0.014815741,0.033846617,0.004393285,-0.1945038,0.022208337,-0.010982009,0.98058885,1
1433001792,0.39271948,-0.012241593,0.1213658,-0.999336,0.011670357,0.034244146,0.0043349653,-0.1945038,0.022208337,-0.010982009,0.98058885,1
1433041769,0.3878958,0.22337209,0.028219698,-0.9993802,0.008221709,0.033952363,0.00434707,-0.1945038,0.022208337,-0.010982009,0.98058885,1
1433081780,0.5769812,0.13694249,0.1985712,-0.9994146,0.004409913,0.033676922,0.004097739,-0.1945038,0.022208337,-0.010982009,0.98058885,1
1433125767,0.10567566,0.08291935,-0.061103106,-0.99946,0.00092526135,0.03254427,0.004453381,-0.1945038,0.022208337,-0.010982009,0.98058885,1
1433170368,0.07153897,-0.12833212,0.0435379,-0.9995098,-0.0024069468,0.030898146,0.004436296,-0.1945038,0.022208337,-0.010982009,0.98058885,1
1433210363,0.24942556,-0.0031550655,-0.073847756,-0.99956214,-0.005517517,0.028700517,0.0046314336,-0.1945038,0.022208337,-0.010982009,0.98058885,1
1433254631,0.4098724,0.18495022,0.075034164,-0.9996133,-0.008746122,0.025991809,0.00461361,-0.1945038,0.022208337,-0.010982009,0.98058885,1
1433294551,0.14645143,0.075679645,0.03617916,-0.9996509,-0.010551026,0.023729607,0.0048807245,-0.1945038,0.022208337,-0.010982009,0.98058885,1
1433338589,-0.12952355,-0.05538278,-0.17456777,-0.99967694,-0.012546426,0.021451583,0.0053365226,-0.1945038,0.022208337,-0.010982009,0.98058885,1
1433382633,-0.04731673,0.022539858,0.04712281,-0.99969566,-0.014721433,0.019026782,0.005461826,-0.1945038,0.022208337,-0.010982009,0.98058885,1
1433422764,0.032824825,0.16741459,0.02938255,-0.9997122,-0.016681535,0.016295886,0.005630175,-0.1945038,0.022208337,-0.010982009,0.98058885,1
1433467459,0.021084754,0.116046965,-0.06310823,-0.9997178,-0.018335765,0.013816219,0.0061042234,-0.1945038,0.022208337,-0.010982009,0.98058885,1
1433511459,0.3507756,0.17960134,0.13557488,-0.9996982,-0.020807358,0.011461115,0.006251492,-0.1945038,0.022208337,-0.010982009,0.98058885,1
1433555505,-0.050323136,0.14688803,-0.07357947,-0.9996758,-0.022638258,0.009516223,0.0067297253,-0.1945038,0.022208337,-0.010982009,0.98058885,1
1433595423,0.08212938,0.009133234,0.016874429,-0.99963933,-0.024582697,0.008220798,0.00702953,-0.1945038,0.022208337,-0.010982009,0.98058885,1
1433635433,0.2311483,0.097844705,0.124880165,-0.99959904,-0.026425147,0.0070281844,0.0073564537,-0.1945038,0.022208337,-0.010982009,0.98058885,1
1433680133,-0.14717783,-0.065928556,-0.22861259,-0.99956197,-0.027735395,0.006321697,0.008168092,-0.1945038,0.022208337,-0.010982009,0.98058885,1
1433720189,0.06502743,-0.032642554,-0.094858795,-0.99953115,-0.0288145,0.00599777,0.008443541,-0.1945038,0.022208337,-0.010982009,0.98058885,1
1433763948,-0.062296525,-0.06615717,-0.13908261,-0.9995211,-0.028971968,0.006290576,0.0088746,-0.1945038,0.022208337,-0.010982009,0.98058885,1
1433804208,-0.20155546,-0.11272953,-0.13047491,-0.99953216,-0.028509982,0.0063746674,0.009061366,-0.1945038,0.022208337,-0.010982009,0.98058885,1
1433847960,-0.010202318,0.06731873,0.20528929,-0.99954635,-0.028218511,0.0057195583,0.0088443225,-0.1945038,0.022208337,-0.010982009,0.98058885,1
1433888757,0.059161842,0.12110963,0.17834385,-0.99957144,-0.027557343,0.0045828912,0.008746701,-0.1945038,0.022208337,-0.010982009,0.98058885,1
1433932762,0.05471914,0.22526675,-0.16489775,-0.99958426,-0.027289694,0.0027875383,0.0088810185,-0.1945038,0.022208337,-0.010982009,0.98058885,1
1433972987,-0.008529704,0.10407254,-0.20138822,-0.9995782,-0.027625423,0.0011512656,0.008885651,-0.1945038,0.022208337,-0.010982009,0.98058885,1
1434016950,0.0074409517,0.021518864,0.16763188,-0.9995634,-0.028295966,-0.00081994623,0.008469574,-0.1945038,0.022208337,-0.010982009,0.98058885,1
1434056749,-0.13039155,0.24966265,0.08085399,-0.9995439,-0.028862406,-0.0025702827,0.008509482,-0.1945038,0.022208337,-0.010982009,0.98058885,1
1434098015,-0.1273771,0.03747719,0.03571878,-0.9995078,-0.029937543,-0.0035576376,0.008678438,-0.1945038,0.022208337,-0.010982009,0.98058885,1
1434141751,0.22920093,0.18541604,-0.080562085,-0.999442,-0.031852484,-0.004597747,0.0089412965,-0.1945038,0.022208337,-0.010982009,0.98058885,1
1434181780,-0.087378144,0.03493686,-0.091845274,-0.9994099,-0.032769285,-0.004538837,0.009240314,-0.1945038,0.022208337,-0.010982009,0.98058885,1
1434221805,-0.058449302,-0.059877172,-0.114996195,-0.9993822,-0.033513334,-0.004691112,0.009496055,-0.1945038,0.022208337,-0.010982009,0.98058885,1
1434265730,0.18826905,0.41060948,0.017853335,-0.99933726,-0.034585603,-0.005991716,0.009653526,-0.1945038,0.022208337,-0.010982009,0.98058885,1
1434306577,-0.03731981,0.08511813,0.1607137,-0.9993255,-0.034699187,-0.0065773907,0.010062254,-0.1945038,0.022208337,-0.010982009,0.98058885,1
1434346355,0.17190072,0.16938378,0.24964967,-0.99934953,-0.033743,-0.00727218,0.010448258,-0.1945038,0.022208337,-0.010982009,0.98058885,1
1434390700,-0.12866917,0.08892214,-0.21758609,-0.9994068,-0.031467196,-0.007870884,0.011570595,-0.1945038,0.022208337,-0.010982009,0.98058885,1
1434430331,-0.07373241,-0.21352626,-0.11097599,-0.9994432,-0.030133924,-0.0078065195,0.01201684,-0.1945038,0.022208337,-0.010982009,0.98058885,1
1434474578,0.043221463,-0.08318073,0.13246648,-0.99946684,-0.029148204,-0.007926445,0.012391372,-0.1945038,0.022208337,-0.010982009,0.98058885,1
1434514372,0.15245393,0.0594332,-0.101986766,-0.9994744,-0.028514085,-0.008003289,0.013180191,-0.1945038,0.022208337,-0.010982009,0.98058885,1
1434558358,-0.18061289,-0.37354216,-0.09099898,-0.9994774,-0.028540775,-0.0067714956,0.013582268,-0.1945038,0.022208337,-0.010982009,0.98058885,1
1434599422,-0.14405708,-0.21184094,-0.16876607,-0.9994572,-0.02914383,-0.0057973256,0.014230514,-0.1945038,0.022208337,-0.010982009,0.98058885,1
1434643173,0.25255206,-0.09762545,0.1880812,-0.9994563,-0.029333906,-0.0043669175,0.014415537,-0.1945038,0.022208337,-0.010982009,0.98058885,1
1434683180,0.057446588,-0.10536283,0.076379195,-0.99948025,-0.0283779,-0.0028181407,0.015038619,-0.1945038,0.022208337,-0.010982009,0.98058885,1
1434727460,-0.21863987,-0.15886466,-0.08671985,-0.9995058,-0.027224187,-0.0010625137,0.015680397,-0.1945038,0.022208337,-0.010982009,0.98058885,1
1434767417,-0.1534321,-0.234712,-0.09266786,-0.99953055,-0.026074989,0.00060164154,0.01607465,-0.1945038,0.022208337,-0.010982009,0.98058885,1
1434812212,-0.023256857,-0.2167326,-0.12730457,-0.9995556,-0.024454081,0.0032450815,0.01673581,-0.1945038,0.022208337,-0.010982009,0.98058885,1
1434852196,0.30271667,-0.009864395,0.036808737,-0.999546,-0.024321215,0.005117599,0.017039036,-0.1945038,0.022208337,-0.010982009,0.98058885,1
1434892307,-0.04697433,-0.06832791,-0.0012452453,-0.999517,-0.02464932,0.006886803,0.017625442,-0.1945038,0.022208337,-0.010982009,0.98058885,1
1434935980,0.04330097,0.038359456,0.08041224,-0.9994644,-0.025754044,0.009268762,0.017938664,-0.1945038,0.022208337,-0.010982009,0.98058885,1
1434979975,-0.038211696,-0.20010608,-0.08093446,-0.9994111,-0.026585182,0.0114616705,0.018419355,-0.1945038,0.022208337,-0.010982009,0.98058885,1
1435020169,0.040892478,-0.15374097,-0.0041871974,-0.99936444,-0.027869886,0.012242768,0.018549347,-0.1945038,0.022208337,-0.010982009,0.98058885,1
1435060992,0.007693311,-0.100176066,-0.059462853,-0.99932444,-0.028948175,0.012840878,0.018650781,-0.1945038,0.022208337,-0.010982009,0.98058885,1
1435105063,-0.1331649,-0.22243883,-0.0037079693,-0.999307,-0.02941472,0.01319098,0.01861179,-0.1945038,0.022208337,-0.010982009,0.98058885,1
1435145003,0.31746757,0.080225796,0.015967447,-0.9992959,-0.0302001,0.012286861,0.018567292,-0.1945038,0.022208337,-0.010982009,0.98058885,1
1435188996,0.19842492,0.08529598,0.04052776,-0.99930215,-0.030350959,0.01163209,0.018406264,-0.1945038,0.022208337,-0.010982009,0.98058885,1
1435229145,0.06814129,-0.067200735,0.08892557,-0.99932575,-0.029797023,0.011280447,0.01824638,-0.1945038,0.022208337,-0.010982009,0.98058885,1
1435273746,-0.4416408,-0.1555517,-0.12506764,-0.99938637,-0.027899798,0.010869205,0.018180538,-0.1945038,0.022208337,-0.010982009,0.98058885,1
1435317872,0.22461638,0.30442172,0.21659885,-0.99941635,-0.027575469,0.009796394,0.017621653,-0.1945038,0.022208337,-0.010982009,0.98058885,1
1435361772,-0.18753162,-0.1066829,-0.0732771,-0.99944305,-0.026575658,0.009902982,0.017590541,-0.1945038,0.022208337,-0.010982009,0.98058885,1
1435401793,-0.20489877,0.02522384,-0.1653113,-0.99946475,-0.025964903,0.009513985,0.017480157,-0.1945038,0.022208337,-0.010982009,0.98058885,1
1435442604,-0.05173862,0.10953477,-0.11119952,-0.99946976,-0.026037663,0.009417906,0.017136108,-0.1945038,0.022208337,-0.010982009,0.98058885,1
1435486343,0.24442802,0.04299406,0.19301587,-0.9994574,-0.02682965,0.009490497,0.016583102,-0.1945038,0.022208337,-0.010982009,0.98058885,1
1435526340,0.35685316,0.23921308,0.15306568,-0.99946004,-0.026957382,0.009130235,0.016420808,-0.1945038,0.022208337,-0.010982009,0.98058885,1
1435570579,-0.20421705,-0.046927493,-0.1702246,-0.9994771,-0.02639347,0.008592429,0.01658636,-0.1945038,0.022208337,-0.010982009,0.98058885,1
1435610629,-0.3722339,-0.18192302,-0.17957367,-0.9994962,-0.025948664,0.008111359,0.016377404,-0.1945038,0.022208337,-0.010982009,0.98058885,1
1435654642,0.1509797,-0.078402296,0.15659304,-0.99950206,-0.02619814,0.007481318,0.01591542,-0.1945038,0.022208337,-0.010982009,0.98058885,1
1435694556,0.32540542,0.12180478,0.17330998,-0.9995189,-0.025926037,0.0065794503,0.015703415,-0.1945038,0.022208337,-0.010982009,0.98058885,1
1435739420,-0.17125942,-0.17990956,-0.04011058,-0.9995516,-0.02454336,0.0065534734,0.015857037,-0.1945038,0.022208337,-0.010982009,0.98058885,1
1435783167,-0.11815716,0.06630791,0.06311586,-0.99957556,-0.023843981,0.0060257446,0.0156190675,-0.1945038,0.022208337,-0.010982009,0.98058885,1
1435823447,-0.21627504,-0.010265945,-0.005213859,-0.99959165,-0.023205314,0.0059253075,0.01558998,-0.1945038,0.022208337,-0.010982009,0.98058885,1
1435867422,0.09683213,0.28277007,-0.053171325,-0.99959,-0.023357412,0.0053293044,0.015684014,-0.1945038,0.022208337,-0.010982009,0.98058885,1
1435907388,0.039056282,0.24496442,-0.015628954,-0.999594,-0.02326195,0.0052409545,0.015601999,-0.1945038,0.022208337,-0.010982009,0.98058885,1
1435952191,-0.043871947,-0.05289498,-0.17756043,-0.999598,-0.02299273,0.0051055327,0.0157821,-0.1945038,0.022208337,-0.010982009,0.98058885,1
1435992225,-0.2700324,-0.106152885,-0.21250334,-0.99961054,-0.022478456,0.0050863763,0.015739648,-0.1945038,0.022208337,-0.010982009,0.98058885,1
1436035919,0.08274332,-0.06657276,0.117808186,-0.99962425,-0.022072472,0.0052396995,0.015386677,-0.1945038,0.022208337,-0.010982009,0.98058885,1
1436075872,0.24830088,0.04010186,0.16138357,-0.99964243,-0.02116345,0.005828414,0.015270781,-0.1945038,0.022208337,-0.010982009,0.98058885,1
1436121057,-0.08544648,-0.20896709,0.0011119401,-0.99966246,-0.019741492,0.0073946137,0.0151896,-0.1945038,0.022208337,-0.010982009,0.98058885,1
1436161002,0.123213045,-0.048396345,0.09894097,-0.99967736,-0.018738737,0.00811437,0.015104413,-0.1945038,0.022208337,-0.010982009,0.98058885,1
1436201057,0.077972904,-0.14646982,0.079021394,-0.9996886,-0.017521149,0.0093923835,0.015084809,-0.1945038,0.022208337,-0.010982009,0.98058885,1
1436244962,-0.21653003,-0.100004345,-0.19673291,-0.99969673,-0.01599959,0.010898635,0.015223041,-0.1945038,0.022208337,-0.010982009,0.98058885,1
1436289022,-0.07002074,0.026425483,0.065818645,-0.99970657,-0.014758297,0.012121129,0.014907566,-0.1945038,0.022208337,-0.010982009,0.98058885,1
1436333085,0.030229542,0.100738816,0.08261243,-0.9997108,-0.013506673,0.013363906,0.014746268,-0.1945038,0.022208337,-0.010982009,0.98058885,1
1436372965,0.009270203,-0.028152227,0.018662944,-0.9997141,-0.012288625,0.01436578,0.0146417,-0.1945038,0.022208337,-0.010982009,0.98058885,1
1436417933,-0.32579726,0.13730574,-0.17552944,-0.9997332,-0.010699167,0.014415098,0.01453296,-0.1945038,0.022208337,-0.010982009,0.98058885,1
1436457825,-0.4194971,-0.013336962,-0.115201876,-0.99974906,-0.009549694,0.014365936,0.014293153,-0.1945038,0.022208337,-0.010982009,0.98058885,1
1436501548,0.22227086,0.08500166,0.06335629,-0.99977356,-0.008621417,0.013806969,0.013706083,-0.1945038,0.022208337,-0.010982009,0.98058885,1
1436541722,0.20553343,0.17105202,0.06609045,-0.99979585,-0.007316156,0.013304739,0.013334584,-0.1945038,0.022208337,-0.010982009,0.98058885,1
1436585828,-0.12691772,-0.11979846,0.054571383,-0.9998147,-0.0057659303,0.012967438,0.0130051365,-0.1945038,0.022208337,-0.010982009,0.98058885,1
1436626557,0.1714528,-0.06109066,0.18809594,-0.99983686,-0.0047714813,0.012216124,0.01241991,-0.1945038,0.022208337,-0.010982009,0.98058885,1
1436666396,0.13270132,0.0067173773,0.09828969,-0.99985594,-0.0034024667,0.011333099,0.0121773165,-0.1945038,0.022208337,-0.010982009,0.98058885,1
1436706594,0.16745022,0.006410798,0.10682767,-0.99987626,-0.0024230762,0.009983455,0.01191946,-0.1945038,0.022208337,-0.010982009,0.98058885,1
1436750376,-0.121751584,0.11456587,-0.13271709,-0.99989593,-0.0013879924,0.007908858,0.011990774,-0.1945038,0.022208337,-0.010982009,0.98058885,1
1436790554,-0.09730701,0.12516847,0.015296066,-0.99991184,-0.0005755695,0.005844464,0.011907538,-0.1945038,0.022208337,-0.010982009,0.98058885,1
1436834627,-0.17776416,-0.0039722743,-0.09443856,-0.9999203,0.00045209005,0.003302423,0.012182009,-0.1945038,0.022208337,-0.010982009,0.98058885,1
1436875363,-0.060520083,0.02836385,0.009638882,-0.99992275,0.0011485708,0.00085696584,0.012346016,-0.1945038,0.022208337,-0.010982009,0.98058885,1
1436915348,0.13657053,0.09333858,-0.00989417,-0.9999159,0.0015661032,-0.001144356,0.012830406,-0.1945038,0.022208337,-0.010982009,0.98058885,1
1436959168,-0.1166351,-0.05402533,-0.020441111,-0.99990314,0.0023585383,-0.0022456008,0.013532796,-0.1945038,0.022208337,-0.010982009,0.98058885,1
1436999401,-0.21890847,-0.040159952,-0.14038995,-0.99989146,0.002617642,-0.0027847681,0.014233209,-0.1945038,0.022208337,-0.010982009,0.98058885,1
1437039387,-0.16172405,-0.19973971,-0.07016895,-0.9998836,0.0026799834,-0.0024603999,0.014823402,-0.1945038,0.022208337,-0.010982009,0.98058885,1
1437080274,-0.20502113,-0.21577787,-0.096622795,-0.9998731,0.0030786195,-0.0018684588,0.015523122,-0.1945038,0.022208337,-0.010982009,0.98058885,1
1437120191,-0.18777825,-0.25083354,-0.06376162,-0.99986374,0.0035654753,-0.0009077618,0.016095493,-0.1945038,0.022208337,-0.010982009,0.98058885,1
1437164252,-0.009326267,-0.16098583,-0.10430851,-0.9998489,0.004385946,0.0006157259,0.01680935,-0.1945038,0.022208337,-0.010982009,0.98058885,1
1437207991,-0.23078842,-0.07374277,-0.12520394,-0.9998286,0.0057644253,0.001978452,0.017489746,-0.1945038,0.022208337,-0.010982009,0.98058885,1
1437248163,-0.2888021,-0.08570512,-0.14205937,-0.99980885,0.0068167225,0.0032376202,0.018037245,-0.1945038,0.022208337,-0.010982009,0.98058885,1
1437292418,-0.0338328,-0.13597049,0.104270644,-0.9997873,0.008148093,0.004576637,0.018392257,-0.1945038,0.022208337,-0.010982009,0.98058885,1
1437332782,0.016613161,-0.10055844,0.028571844,-0.99975926,0.0094688255,0.0056336396,0.018979894,-0.1945038,0.022208337,-0.010982009,0.98058885,1
1437376743,-0.16127828,-0.019658871,-0.08047152,-0.9997237,0.010955151,0.006519734,0.019749712,-0.1945038,0.022208337,-0.010982009,0.98058885,1
1437417140,-0.19935013,-0.13115525,-0.21203946,-0.9996966,0.011762751,0.007066919,0.020453723,-0.1945038,0.022208337,-0.010982009,0.98058885,1
1437460749,-0.14246795,-0.11235937,0.015863871,-0.9996786,0.012403637,0.007367363,0.020845693,-0.1945038,0.022208337,-0.010982009,0.98058885,1
1437500769,-0.09097488,-0.0058488706,-0.0062338673,-0.99966824,0.012706604,0.007019087,0.021275518,-0.1945038,0.022208337,-0.010982009,0.98058885,1
1437541558,0.097892225,0.111319944,0.053841878,-0.99966735,0.012734927,0.006087922,0.02158921,-0.1945038,0.022208337,-0.010982009,0.98058885,1
1437585862,-0.037410855,0.10989037,-0.1671498,-0.9996616,0.012765965,0.004621906,0.022190917,-0.1945038,0.022208337,-0.010982009,0.98058885,1
1437625973,0.17600802,0.20919491,0.00095118466,-0.99967486,0.01239589,0.0025288449,0.022142613,-0.1945038,0.022208337,-0.010982009,0.98058885,1
1437669734,-0.061409067,0.0048083058,0.026352787,-0.999676,0.012087403,-0.00017311664,0.022403743,-0.1945038,0.022208337,-0.010982009,0.98058885,1
1437709878,-0.15486673,0.052085366,-0.085661836,-0.9996741,0.011549141,-0.0028942076,0.022583568,-0.1945038,0.022208337,-0.010982009,0.98058885,1
1437749792,-0.116694644,-0.1598342,0.101565324,-0.9996709,0.011070564,-0.00524386,0.022542005,-0.1945038,0.022208337,-0.010982009,0.98058885,1
1437790371,-0.02271242,0.11337132,0.074508086,-0.99966073,0.010448077,-0.007939442,0.02250154,-0.1945038,0.022208337,-0.010982009,0.98058885,1
1437830712,-0.007838344,-0.04263355,-0.012924325,-0.99965006,0.009921556,-0.009626861,0.022552617,-0.1945038,0.022208337,-0.010982009,0.98058885,1
1437874365,0.3629741,0.07465333,0.12324858,-0.99964935,0.008573114,-0.011486794,0.022264604,-0.1945038,0.022208337,-0.010982009,0.98058885,1
1437918380,0.008127401,0.035104476,-0.08819864,-0.9996367,0.007911995,-0.012953802,0.022277687,-0.1945038,0.022208337,-0.010982009,0.98058885,1
1437958556,-0.16061553,-0.15453503,-0.17881995,-0.9996291,0.0074800076,-0.013960259,0.022154119,-0.1945038,0.022208337,-0.010982009,0.98058885,1
1438002698,-0.09100568,0.07002213,0.02241446,-0.9996246,0.0071584075,-0.015255205,0.021602333,-0.1945038,0.022208337,-0.010982009,0.98058885,1
1438043419,-0.30973378,-0.023251224,-0.17204957,-0.9996134,0.0071696066,-0.016011983,0.021572828,-0.1945038,0.022208337,-0.010982009,0.98058885,1
1438083438,-0.14081587,0.060982034,-0.106815934,-0.99961114,0.007059583,-0.01664751,0.021224927,-0.1945038,0.022208337,-0.010982009,0.98058885,1
1438127398,0.12904826,0.08318057,0.20421419,-0.99961334,0.007121741,-0.017264068,0.020600704,-0.1945038,0.022208337,-0.010982009,0.98058885,1
1438171508,-0.11198794,-0.008553717,-0.101452395,-0.99960226,0.0077194045,-0.017671933,0.020581122,-0.1945038,0.022208337,-0.010982009,0.98058885,1
1438211355,-0.111286655,0.12899642,-0.07098368,-0.999593,0.008188918,-0.01828573,0.020309607,-0.1945038,0.022208337,-0.010982009,0.98058885,1
1438252329,0.26653296,0.23426178,0.059032675,-0.9995915,0.008152204,-0.019042807,0.019690812,-0.1945038,0.022208337,-0.010982009,0.98058885,1
1438296152,0.038465463,-0.11069601,0.0675211,-0.99959224,0.008386639,-0.019130468,0.019471565,-0.1945038,0.022208337,-0.010982009,0.98058885,1
1438339959,-0.12165636,0.025131721,0.029142015,-0.9995903,0.008466475,-0.019481089,0.019187301,-0.1945038,0.022208337,-0.010982009,0.98058885,1
1438383934,0.2258272,0.1673848,0.032329936,-0.9995934,0.007353357,-0.019840129,0.019114735,-0.1945038,0.022208337,-0.010982009,0.98058885,1
1438424732,0.16999131,0.20761667,0.053846393,-0.99960285,0.0059971064,-0.019877782,0.019054187,-0.1945038,0.022208337,-0.010982009,0.98058885,1
1438469062,-0.10489221,-0.2373128,-0.05267027,-0.99962395,0.0043923026,-0.018981965,0.019297626,-0.1945038,0.022208337,-0.010982009,0.98058885,1
1438508764,0.02797472,-0.20168462,-0.032496005,-0.99964166,0.0027094285,-0.018108813,0.019526314,-0.1945038,0.022208337,-0.010982009,0.98058885,1
1438549011,-0.053082403,-0.12970719,-0.22577935,-0.99965596,0.0013464156,-0.016998185,0.019929199,-0.1945038,0.022208337,-0.010982009,0.98058885,1
1438588993,-0.0014839286,-0.06454612,-0.09544603,-0.99968004,0.0003807779,-0.015517343,0.019971665,-0.1945038,0.022208337,-0.010982009,0.98058885,1
1438632963,0.044666957,-0.19537435,0.09404596,-0.9997118,-0.0001334145,-0.013356604,0.019948058,-0.1945038,0.022208337,-0.010982009,0.98058885,1
1438673564,-0.1141287,-0.18892473,-0.124722995,-0.9997308,-0.00020665351,-0.011207502,0.020315347,-0.1945038,0.022208337,-0.010982009,0.98058885,1
1438717867,0.09173581,-0.028371911,0.18175718,-0.9997553,-0.0004967418,-0.009009321,0.020199772,-0.1945038,0.022208337,-0.010982009,0.98058885,1
1438761563,-0.09414802,-0.16872971,-0.1891064,-0.99976194,-0.0006958927,-0.006690531,0.020755341,-0.1945038,0.022208337,-0.010982009,0.98058885,1
1438801772,0.16073722,0.05382313,-0.18226252,-0.99976903,-0.001976769,-0.005150402,0.020772634,-0.1945038,0.022208337,-0.010982009,0.98058885,1
1438841580,-0.25719866,-0.15491723,-0.24514544,-0.9997722,-0.003118887,-0.0032738233,0.02086255,-0.1945038,0.022208337,-0.010982009,0.98058885,1
1438882580,0.05581348,0.13178931,-0.03217728,-0.99976826,-0.0051602228,-0.0015687312,0.020844463,-0.1945038,0.022208337,-0.010982009,0.98058885,1
1438922665,-0.028534684,-0.042264186,-0.11013186,-0.9997564,-0.0067221867,0.0006192336,0.021016529,-0.1945038,0.022208337,-0.010982009,0.98058885,1
1438966365,0.14988613,-0.14554934,-0.0477993,-0.99973977,-0.00868684,0.002797355,0.020910092,-0.1945038,0.022208337,-0.010982009,0.98058885,1
1439006353,0.07858956,-0.1850929,-0.14341241,-0.9997153,-0.010120712,0.0046785576,0.021099424,-0.1945038,0.022208337,-0.010982009,0.98058885,1
1439050371,0.09595216,-0.18948652,0.06142413,-0.9996903,-0.011443788,0.006926868,0.020989139,-0.1945038,0.022208337,-0.010982009,0.98058885,1
1439090372,0.13995187,-0.20275994,0.161059,-0.9996595,-0.012438212,0.008930577,0.021128261,-0.1945038,0.022208337,-0.010982009,0.98058885,1
1439134593,-0.07715866,-0.15290098,-0.16528822,-0.99961233,-0.013316033,0.011496384,0.021579904,-0.1945038,0.022208337,-0.010982009,0.98058885,1
1439175390,0.32535475,0.08603935,0.018395543,-0.9995669,-0.014883226,0.0136041725,0.021437824,-0.1945038,0.022208337,-0.010982009,0.98058885,1
1439215615,0.3320929,0.103040956,-0.019168006,-0.9995181,-0.015957277,0.015426973,0.021704864,-0.1945038,0.022208337,-0.010982009,0.98058885,1
1439259369,-0.098030984,-0.20526493,-0.14855187,-0.999466,-0.016885918,0.01709825,0.022141494,-0.1945038,0.022208337,-0.010982009,0.98058885,1
1439299374,-0.2942584,-0.28952083,-0.13766569,-0.9994285,-0.017788643,0.017988598,0.02242348,-0.1945038,0.022208337,-0.010982009,0.98058885,1
1439344167,0.056061164,-0.10513819,0.018956065,-0.99938506,-0.019332813,0.018570751,0.022605488,-0.1945038,0.022208337,-0.010982009,0.98058885,1
1439384151,0.3063951,-0.0341051,0.014709633,-0.9993413,-0.020971084,0.018772889,0.022908805,-0.1945038,0.022208337,-0.010982009,0.98058885,1
1439428182,-0.033355363,-0.023249665,0.05183378,-0.9993103,-0.022057578,0.018703494,0.023294732,-0.1945038,0.022208337,-0.010982009,0.98058885,1
1439468200,-0.27399147,-0.17330559,-0.12594885,-0.9992899,-0.022910934,0.018171852,0.023765411,-0.1945038,0.022208337,-0.010982009,0.98058885,1
1439512243,-0.023437828,0.1757718,0.029992389,-0.9992896,-0.023966812,0.016443592,0.02399444,-0.1945038,0.022208337,-0.010982009,0.98058885,1
1439552291,0.06524934,0.09890092,0.18968879,-0.9992928,-0.024488585,0.014999424,0.024276637,-0.1945038,0.022208337,-0.010982009,0.98058885,1
1439593069,-0.20909885,0.1692196,-0.17538437,-0.9993016,-0.024280835,0.013305089,0.025098128,-0.1945038,0.022208337,-0.010982009,0.98058885,1
1439633057,-0.1366831,-0.06317152,-0.15448937,-0.9993055,-0.024182556,0.012191021,0.025597686,-0.1945038,0.022208337,-0.010982009,0.98058885,1
1439676950,-0.1922292,0.08361244,-0.11343193,-0.9993126,-0.023804849,0.0106893005,0.026334394,-0.1945038,0.022208337,-0.010982009,0.98058885,1
1439716782,-0.1607623,0.09808214,-0.14828295,-0.99931246,-0.023509298,0.009768955,0.026952807,-0.1945038,0.022208337,-0.010982009,0.98058885,1
1439761044,-0.047153085,0.19449545,0.048173323,-0.9993128,-0.023201138,0.009109297,0.027436372,-0.1945038,0.022208337,-0.010982009,0.98058885,1
1439801008,-0.4589795,-0.14572467,-0.18019167,-0.9992952,-0.02283483,0.009277273,0.028317086,-0.1945038,0.022208337,-0.010982009,0.98058885,1
1439841857,0.002750184,-0.007829148,0.083028786,-0.9992785,-0.023383068,0.009404427,0.028414892,-0.1945038,0.022208337,-0.010982009,0.98058885,1
1439881765,0.0003696984,-0.10119078,0.08672888,-0.9992536,-0.02352466,0.009884522,0.02900347,-0.1945038,0.022208337,-0.010982009,0.98058885,1
1439925869,0.11360952,0.17663886,-0.019414317,-0.9992279,-0.023791008,0.009942424,0.02964601,-0.1945038,0.022208337,-0.010982009,0.98058885,1
1439969805,-0.15020686,0.060785666,-0.18865955,-0.9992113,-0.023443636,0.010255048,0.030366618,-0.1945038,0.022208337,-0.010982009,0.98058885,1
1440009832,0.005407142,0.073168166,0.10400618,-0.99920774,-0.023394914,0.010355394,0.030487232,-0.1945038,0.022208337,-0.010982009,0.98058885,1
1440054310,-0.008897163,-0.06477521,0.0044131577,-0.9991963,-0.023156503,0.0107210465,0.030913511,-0.1945038,0.022208337,-0.010982009,0.98058885,1
1440094794,-0.091268666,0.02256986,0.018398123,-0.9991925,-0.022796351,0.010973126,0.03121321,-0.1945038,0.022208337,-0.010982009,0.98058885,1
1440138377,0.11320703,0.09526598,0.0049497276,-0.99918485,-0.02254582,0.011397201,0.0314889,-0.1945038,0.022208337,-0.010982009,0.98058885,1
1440178603,-0.15816787,-0.05115527,-0.1034511,-0.9991813,-0.021877227,0.012021341,0.031839203,-0.1945038,0.022208337,-0.010982009,0.98058885,1
1440218694,0.26107582,0.086956106,0.16104485,-0.99918574,-0.021675251,0.012356045,0.031709816,-0.1945038,0.022208337,-0.010982009,0.98058885,1
1440258632,0.023379054,-0.1171442,-0.014294951,-0.99919176,-0.020616893,0.012734651,0.03207344,-0.1945038,0.022208337,-0.010982009,0.98058885,1
1440303182,-0.10912253,-0.135979,0.06848822,-0.9992125,-0.019482639,0.013015788,0.03202514,-0.1945038,0.022208337,-0.010982009,0.98058885,1
1440343167,-0.14314002,-0.13185854,0.049414106,-0.9992305,-0.01875086,0.012810706,0.03198226,-0.1945038,0.022208337,-0.010982009,0.98058885,1
1440387415,0.00175482,0.09482286,0.09619004,-0.99926054,-0.018097935,0.01180438,0.03180371,-0.1945038,0.022208337,-0.010982009,0.98058885,1
1440427488,0.012689902,0.11702896,0.01209948,-0.99929345,-0.017576981,0.010317197,0.03157975,-0.1945038,0.022208337,-0.010982009,0.98058885,1
1440471412,0.018619817,0.28054914,-0.032693245,-0.99933994,-0.016850362,0.0077856625,0.03122886,-0.1945038,0.022208337,-0.010982009,0.98058885,1
1440512203,0.033275984,0.19545747,0.076624416,-0.99938667,-0.016034765,0.0054840646,0.030645914,-0.1945038,0.022208337,-0.010982009,0.98058885,1
1440552360,0.034568496,0.1845942,0.12375744,-0.99943143,-0.014836541,0.003106273,0.030118339,-0.1945038,0.022208337,-0.010982009,0.98058885,1
1440596175,-0.14470968,0.024010006,0.176477,-0.99948686,-0.012448728,0.0008646184,0.029500535,-0.1945038,0.022208337,-0.010982009,0.98058885,1
1440636225,-0.0019189678,0.03159592,0.19152376,-0.9995243,-0.010588518,-0.00078883406,0.028956933,-0.1945038,0.022208337,-0.010982009,0.98058885,1
1440680132,0.031548392,0.18258405,0.009003475,-0.9995526,-0.008467746,-0.0020957524,0.028610477,-0.1945038,0.022208337,-0.010982009,0.98058885,1
1440720143,-0.043637604,0.06996532,0.0019354002,-0.9995798,-0.006217785,-0.002729899,0.028179748,-0.1945038,0.022208337,-0.010982009,0.98058885,1
1440764776,-0.13677141,-0.14569342,-0.10052903,-0.9996029,-0.003796482,-0.0029780914,0.02776116,-0.1945038,0.022208337,-0.010982009,0.98058885,1
1440805009,-0.22530507,-0.10160363,-0.03431635,-0.99961907,-0.001984781,-0.0033385933,0.027326938,-0.1945038,0.022208337,-0.010982009,0.98058885,1
1440849023,-0.19698276,-0.15156478,-0.0338914,-0.9996308,-0.0004250753,-0.0037118944,0.026914528,-0.1945038,0.022208337,-0.010982009,0.98058885,1
1440892994,-0.08726881,-0.043102037,0.058859713,-0.9996411,0.0007028324,-0.0042501134,0.02644021,-0.1945038,0.022208337,-0.010982009,0.98058885,1
1440936987,-0.45629382,-0.1588604,-0.17303108,-0.9996424,0.0023046753,-0.004427901,0.026275525,-0.1945038,0.022208337,-0.010982009,0.98058885,1
1440977802,-0.16907842,0.025573602,-0.06580587,-0.9996552,0.0027769902,-0.0046629147,0.025691573,-0.1945038,0.022208337,-0.010982009,0.98058885,1
1441017870,0.10493356,0.1332854,-0.06932835,-0.9996637,0.0030542412,-0.004699682,0.025318658,-0.1945038,0.022208337,-0.010982009,0.98058885,1
1441061889,-0.1485951,0.14705901,-0.037398536,-0.99966997,0.003870601,-0.004704288,0.02495829,-0.1945038,0.022208337,-0.010982009,0.98058885,1
1441101774,-0.39604038,-0.24347803,-0.012906473,-0.9996783,0.0046320767,-0.0039478303,0.024623683,-0.1945038,0.022208337,-0.010982009,0.98058885,1
1441145804,0.29103062,-0.037423536,0.16421388,-0.9996959,0.0042620245,-0.0035580008,0.02402908,-0.1945038,0.022208337,-0.010982009,0.98058885,1
1441186327,0.53862214,0.2769126,0.2242494,-0.9997065,0.004238926,-0.0032133083,0.023640467,-0.1945038,0.022208337,-0.010982009,0.98058885,1
1441230377,-0.2442895,-0.074791,-0.11417764,-0.9997068,0.004940513,-0.0025734068,0.023566173,-0.1945038,0.022208337,-0.010982009,0.98058885,1
1441270595,-0.5028383,-0.28629953,-0.15858054,-0.999717,0.004931874,-0.0022306489,0.02317,-0.1945038,0.022208337,-0.010982009,0.98058885,1
1441314347,0.2733593,0.081298895,0.12845461,-0.9997365,0.0036595226,-0.0029082934,0.022477351,-0.1945038,0.022208337,-0.010982009,0.98058885,1
1441354329,0.4639879,0.38111848,0.25189233,-0.99974597,0.0031893246,-0.0038337382,0.021978894,-0.1945038,0.022208337,-0.010982009,0.98058885,1
1441394664,0.33983925,0.16104253,0.14569844,-0.99974954,0.0031744214,-0.0044649527,0.0217004,-0.1945038,0.022208337,-0.010982009,0.98058885,1
1441434560,0.3127205,0.25227305,0.18322372,-0.99975455,0.0029065234,-0.00551394,0.0212613,-0.1945038,0.022208337,-0.010982009,0.98058885,1
1441479397,-0.37930018,-0.20559068,-0.14923778,-0.9997537,0.0035086856,-0.0060005854,0.021076929,-0.1945038,0.022208337,-0.010982009,0.98058885,1
1441519175,-0.13925217,0.103375256,-0.11839691,-0.9997603,0.003287331,-0.0070959255,0.020450411,-0.1945038,0.022208337,-0.010982009,0.98058885,1
1441563503,0.39541322,0.25074366,0.23007227,-0.9997717,0.0029156632,-0.008081637,0.019561775,-0.1945038,0.022208337,-0.010982009,0.98058885,1
1441607395,-0.14468649,0.12907833,0.063871235,-0.9997721,0.0036554541,-0.008848929,0.01908508,-0.1945038,0.022208337,-0.010982009,0.98058885,1
1441647497,-0.070430666,-0.082448624,0.21018085,-0.99977887,0.0038251341,-0.009334904,0.018454172,-0.1945038,0.022208337,-0.010982009,0.98058885,1
1441688191,-0.05509699,0.047277305,0.24502824,-0.9997769,0.004303189,-0.009848596,0.018186165,-0.1945038,0.022208337,-0.010982009,0.98058885,1
1441728133,0.2408682,0.16965754,0.23473677,-0.9997819,0.003860772,-0.009900047,0.017979046,-0.1945038,0.022208337,-0.010982009,0.98058885,1
1441772240,0.26109737,0.26930383,0.023254586,-0.99978554,0.0028805034,-0.00966963,0.018086886,-0.1945038,0.022208337,-0.010982009,0.98058885,1
1441812018,-0.1009621,-0.08768987,0.07923794,-0.9997969,0.0020331047,-0.008731787,0.018050773,-0.1945038,0.022208337,-0.010982009,0.98058885,1
1441855959,0.055620287,-0.3745994,-0.03319709,-0.99980694,5.014611e-05,-0.0073554064,0.018218903,-0.1945038,0.022208337,-0.010982009,0.98058885,1
1441896971,0.2821617,-0.15306988,-0.04190327,-0.9998069,-0.0022589653,-0.0063521154,0.018458288,-0.1945038,0.022208337,-0.010982009,0.98058885,1
1441940979,0.035674967,-0.19152589,-0.03308476,-0.9998002,-0.004286787,-0.0048307497,0.018914444,-0.1945038,0.022208337,-0.010982009,0.98058885,1
1441984948,0.2591129,0.024036122,0.15042365,-0.9997917,-0.0066698953,-0.0032176848,0.019019809,-0.1945038,0.022208337,-0.010982009,0.98058885,1
1442029070,0.21033102,0.13341871,-0.15248026,-0.9997634,-0.008824417,-0.0010000484,0.01985738,-0.1945038,0.022208337,-0.010982009,0.98058885,1
1442073131,0.35292444,-0.05750823,0.10277779,-0.9997347,-0.011097074,0.0013965078,0.020136556,-0.1945038,0.022208337,-0.010982009,0.98058885,1
1442113587,0.0010814756,-0.24343911,-0.0065751746,-0.9996987,-0.012476675,0.0033205093,0.02087725,-0.1945038,0.022208337,-0.010982009,0.98058885,1
1442157806,0.28847355,0.043820348,-0.045302887,-0.99965066,-0.014528119,0.004500502,0.021617197,-0.1945038,0.022208337,-0.010982009,0.98058885,1
1442197902,0.38153705,0.095967434,0.10601354,-0.9996112,-0.016188288,0.005531058,0.022018997,-0.1945038,0.022208337,-0.010982009,0.98058885,1
1442241575,-0.12506086,-0.21956567,-0.054092854,-0.9995605,-0.017513122,0.0072674477,0.022790648,-0.1945038,0.022208337,-0.010982009,0.98058885,1
1442281581,-0.24892236,-0.18802261,-0.21610768,-0.99951243,-0.018657671,0.008690108,0.02348377,-0.1945038,0.022208337,-0.010982009,0.98058885,1
1442326357,0.07123042,-0.20653237,-0.07125454,-0.99945897,-0.020041961,0.010472367,0.023884466,-0.1945038,0.022208337,-0.010982009,0.98058885,1
1442366360,0.16591902,-0.18849318,0.008656137,-0.99941814,-0.02115795,0.01147042,0.024170818,-0.1945038,0.022208337,-0.010982009,0.98058885,1
1442410380,0.06907547,0.20620798,0.047262378,-0.9993888,-0.02179488,0.011963085,0.024574846,-0.1945038,0.022208337,-0.010982009,0.98058885,1
1442450357,-0.27402675,-0.2577137,-0.19939116,-0.99936104,-0.021791378,0.0130953165,0.02512344,-0.1945038,0.022208337,-0.010982009,0.98058885,1
1442490784,0.007704375,-0.19447255,-0.029222261,-0.9993383,-0.022559151,0.013587897,0.025089214,-0.1945038,0.022208337,-0.010982009,0.98058885,1
1442530631,-0.28075922,-0.22998576,-0.12425049,-0.9993214,-0.022773206,0.013953909,0.02536685,-0.1945038,0.022208337,-0.010982009,0.98058885,1
1442574366,-0.18303524,-0.08179234,-0.119114086,-0.99931365,-0.023169631,0.013874001,0.025357312,-0.1945038,0.022208337,-0.010982009,0.98058885,1
1442615389,-0.02172342,0.14787157,-0.19712853,-0.99931514,-0.023514166,0.013214476,0.025334269,-0.1945038,0.022208337,-0.010982009,0.98058885,1
1442659447,-0.019289313,-0.05467683,0.22616088,-0.99932945,-0.023493595,0.012859842,0.02496773,-0.1945038,0.022208337,-0.010982009,0.98058885,1
1442699385,-0.061180443,-0.14801726,0.014166834,-0.99933416,-0.023569262,0.012087055,0.025093101,-0.1945038,0.022208337,-0.010982009,0.98058885,1
1442739163,0.14151539,-0.004137937,0.11574422,-0.9993487,-0.023652047,0.011080508,0.024902655,-0.1945038,0.022208337,-0.010982009,0.98058885,1
1442783384,0.083444305,0.23788877,0.17067885,-0.99936455,-0.023768114,0.009563604,0.024783418,-0.1945038,0.022208337,-0.010982009,0.98058885,1
1442824182,0.06401906,0.09493884,0.15057218,-0.99936926,-0.023873616,0.008588584,0.024847707,-0.1945038,0.022208337,-0.010982009,0.98058885,1
1442868256,-0.07860157,0.016789038,-0.1576608,-0.99936545,-0.024036271,0.00755213,0.025176117,-0.1945038,0.022208337,-0.010982009,0.98058885,1
1442908117,0.123587,0.092029415,0.0072225146,-0.99936116,-0.024596335,0.006351748,0.025140023,-0.1945038,0.022208337,-0.010982009,0.98058885,1
1442952996,-0.1148662,0.061579704,-0.01708738,-0.999361,-0.02467844,0.004963041,0.025379328,-0.1945038,0.022208337,-0.010982009,0.98058885,1
1442996988,0.32342887,-0.03810822,0.17748512,-0.999349,-0.025483027,0.0039325445,0.025233727,-0.1945038,0.022208337,-0.010982009,0.98058885,1
1443037008,0.5313369,0.32147038,0.13580619,-0.9993495,-0.025441092,0.002694823,0.025418708,-0.1945038,0.022208337,-0.010982009,0.98058885,1
1443081057,-0.016200775,0.06714539,-0.01985679,-0.9993707,-0.024303403,0.0019373714,0.02576373,-0.1945038,0.022208337,-0.010982009,0.98058885,1
1443125033,0.0352532,0.057411935,0.029893238,-0.9993865,-0.023610711,0.0015575485,0.025822949,-0.1945038,0.022208337,-0.010982009,0.98058885,1
1443168807,0.17658862,0.17794475,0.005865612,-0.99939734,-0.023048772,0.0010544804,0.025932979,-0.1945038,0.022208337,-0.010982009,0.98058885,1
1443209031,0.2352069,0.25237203,0.1365861,-0.99941796,-0.022228157,0.0009922227,0.025857106,-0.1945038,0.022208337,-0.010982009,0.98058885,1
1443253063,-0.14039221,-0.1179318,-0.0151971355,-0.9994293,-0.021322249,0.0015337814,0.026156561,-0.1945038,0.022208337,-0.010982009,0.98058885,1
1443293822,-0.113864765,-0.049032,-0.20867519,-0.9994254,-0.021252409,0.001750688,0.026349073,-0.1945038,0.022208337,-0.010982009,0.98058885,1
1443337779,0.2866604,0.19091892,0.09980316,-0.9994182,-0.021976361,0.0016870021,0.026027432,-0.1945038,0.022208337,-0.010982009,0.98058885,1
1443381771,-0.13115841,-0.1619265,-0.14458404,-0.999416,-0.02177052,0.0024716663,0.026222536,-0.1945038,0.022208337,-0.010982009,0.98058885,1
1443421872,0.16683978,0.1194513,-0.06321338,-0.9994039,-0.02261927,0.002023823,0.026000973,-0.1945038,0.022208337,-0.010982009,0.98058885,1
1443466546,0.13745716,0.07370638,0.1465406,-0.999398,-0.023256343,0.0013375834,0.025710318,-0.1945038,0.022208337,-0.010982009,0.98058885,1
1443506585,-0.32947165,-0.23797305,-0.14748421,-0.9993986,-0.023079854,0.0007600052,0.025868975,-0.1945038,0.022208337,-0.010982009,0.98058885,1
1443550662,0.14564708,0.1522864,0.02094728,-0.99938726,-0.024010645,-0.0006199026,0.025464598,-0.1945038,0.022208337,-0.010982009,0.98058885,1
1443590545,0.1277289,0.13516155,0.19040394,-0.9993846,-0.024578292,-0.001645939,0.024977524,-0.1945038,0.022208337,-0.010982009,0.98058885,1
1443634379,-0.22336426,-0.12987104,-0.10672562,-0.9993743,-0.02470918,-0.0021911291,0.025216129,-0.1945038,0.022208337,-0.010982009,0.98058885,1
1443679182,-0.11238802,-0.19913304,0.08902491,-0.99937093,-0.025110565,-0.0022823815,0.024939073,-0.1945038,0.022208337,-0.010982009,0.98058885,1
1443719429,0.059554487,-0.03487925,0.015679518,-0.99935514,-0.02559741,-0.0023748886,0.025069363,-0.1945038,0.022208337,-0.010982009,0.98058885,1
1443759355,-0.17299622,-0.3100025,-0.052028164,-0.9993638,-0.025068961,-0.0015505666,0.025322765,-0.1945038,0.022208337,-0.010982009,0.98058885,1
1443803557,0.04981204,0.019739887,0.10071027,-0.9993706,-0.024793502,-0.0012029451,0.025345115,-0.1945038,0.022208337,-0.010982009,0.98058885,1
1443847368,-0.29856884,-0.20942642,-0.24004985,-0.9993874,-0.023533903,-0.00017104384,0.025905957,-0.1945038,0.022208337,-0.010982009,0.98058885,1
1443887480,-0.06706414,0.030374615,-0.17069423,-0.9993939,-0.023208352,0.00010085192,0.025946438,-0.1945038,0.022208337,-0.010982009,0.98058885,1
1443931355,0.044528875,0.02702527,0.09512155,-0.9994117,-0.02262336,0.00017301503,0.025777655,-0.1945038,0.022208337,-0.010982009,0.98058885,1
1443972310,-0.29995853,-0.25482324,0.034742277,-0.99943167,-0.021611022,0.00021490581,0.025871519,-0.1945038,0.022208337,-0.010982009,0.98058885,1
1444016187,-0.04051142,0.13365634,0.20480539,-0.9994411,-0.021244746,-0.000903343,0.025794676,-0.1945038,0.022208337,-0.010982009,0.98058885,1
1444056207,0.1760462,0.097919956,0.1609289,-0.99944633,-0.020807566,-0.0014810066,0.025921293,-0.1945038,0.022208337,-0.010982009,0.98058885,1
1444099980,-0.025669366,0.18095005,-0.21923584,-0.9994501,-0.01997618,-0.0020899014,0.026385276,-0.1945038,0.022208337,-0.010982009,0.98058885,1
1444141029,-0.06618539,-0.0016036723,-0.036911078,-0.99946445,-0.019531338,-0.0021629636,0.026167735,-0.1945038,0.022208337,-0.010982009,0.98058885,1
1444184968,0.033506494,-0.13821177,0.08132478,-0.99947506,-0.01901514,-0.0021574972,0.026144246,-0.1945038,0.022208337,-0.010982009,0.98058885,1
1444225046,-0.029085163,0.044265833,-0.021162177,-0.99948865,-0.01836781,-0.0022325541,0.026078567,-0.1945038,0.022208337,-0.010982009,0.98058885,1
1444269038,0.02841239,-0.073720455,-0.13951604,-0.99949896,-0.017890103,-0.0015740456,0.026066285,-0.1945038,0.022208337,-0.010982009,0.98058885,1
1444309145,-0.17558728,-0.09871583,-0.09162309,-0.99951625,-0.017148178,-0.0012649397,0.025916299,-0.1945038,0.022208337,-0.010982009,0.98058885,1
1444352964,0.210628,0.06874585,0.19030921,-0.9995319,-0.016733028,-0.00048235818,0.025604842,-0.1945038,0.022208337,-0.010982009,0.98058885,1
1444397120,-0.36767745,-0.17951682,-0.17096436,-0.9995431,-0.015413085,0.000951912,0.02598647,-0.1945038,0.022208337,-0.010982009,0.98058885,1
1444437843,-0.20244032,-0.11446154,-0.22454116,-0.9995401,-0.015259793,0.0018249234,0.026142078,-0.1945038,0.022208337,-0.010982009,0.98058885,1
1444481793,-0.15347013,-0.061856013,0.101763554,-0.9995491,-0.015129199,0.0028088342,0.025788995,-0.1945038,0.022208337,-0.010982009,0.98058885,1
1444525876,-0.115554,0.009428678,-0.16013475,-0.9995388,-0.015049455,0.004287897,0.026024986,-0.1945038,0.022208337,-0.010982009,0.98058885,1
1444569758,-0.005090031,-0.17617504,0.054345228,-0.9995318,-0.015491656,0.0059197806,0.025715271,-0.1945038,0.022208337,-0.010982009,0.98058885,1
1444610666,0.01862306,0.027826764,-0.012852723,-0.9995339,-0.015146879,0.0072287857,0.02550385,-0.1945038,0.022208337,-0.010982009,0.98058885,1
1444650392,-0.3038655,-0.21416448,-0.13898769,-0.9995307,-0.014509268,0.008888043,0.025476785,-0.1945038,0.022208337,-0.010982009,0.98058885,1
1444694610,0.21054208,-0.11381351,0.09706292,-0.99952453,-0.015083657,0.009996508,0.024967223,-0.1945038,0.022208337,-0.010982009,0.98058885,1
1444734376,0.32637417,-0.03070932,0.15621662,-0.999518,-0.015501659,0.010659914,0.02469559,-0.1945038,0.022208337,-0.010982009,0.98058885,1
1444774381,0.37638637,0.08596684,0.19337375,-0.99951667,-0.0157417,0.011127892,0.024392202,-0.1945038,0.022208337,-0.010982009,0.98058885,1
1444818617,-0.3386462,-0.18702264,-0.09894747,-0.9995224,-0.01519612,0.011368289,0.024389666,-0.1945038,0.022208337,-0.010982009,0.98058885,1
1444859167,-0.46914557,-0.083778284,-0.17097211,-0.9995389,-0.015247544,0.0105567975,0.024045829,-0.1945038,0.022208337,-0.010982009,0.98058885,1
1444899408,-0.26425964,-0.14605694,-0.1316228,-0.99956,-0.014735642,0.009941133,0.023747385,-0.1945038,0.022208337,-0.010982009,0.98058885,1
1444943376,0.35949773,0.022195354,0.24940488,-0.9995852,-0.014718773,0.009363246,0.022914812,-0.1945038,0.022208337,-0.010982009,0.98058885,1
1444983437,0.34741312,0.18205447,0.16487321,-0.99959964,-0.014379594,0.008802493,0.022723505,-0.1945038,0.022208337,-0.010982009,0.98058885,1
1445027388,-0.40002552,-0.12733376,-0.11650554,-0.99961907,-0.013201298,0.008954995,0.022524305,-0.1945038,0.022208337,-0.010982009,0.98058885,1
1445067556,-0.49690694,-0.54077816,-0.17003164,-0.9996256,-0.012753012,0.009502634,0.022262974,-0.1945038,0.022208337,-0.010982009,0.98058885,1
1445112238,0.19280618,0.15679376,0.092305854,-0.9996369,-0.013368362,0.008822122,0.021672787,-0.1945038,0.022208337,-0.010982009,0.98058885,1
1445156156,-0.1999818,-0.031660672,-0.18062097,-0.9996369,-0.013238446,0.009012139,0.021670396,-0.1945038,0.022208337,-0.010982009,0.98058885,1
1445196247,-0.097549975,-0.19007125,-0.14797229,-0.9996329,-0.013667314,0.009161178,0.02152655,-0.1945038,0.022208337,-0.010982009,0.98058885,1
1445236155,-0.07427921,0.13865323,-0.08765152,-0.9996341,-0.0143151805,0.008758673,0.021219669,-0.1945038,0.022208337,-0.010982009,0.98058885,1
1445280183,0.2794734,-0.012073695,0.16591422,-0.99962527,-0.0152671365,0.00909507,0.020825734,-0.1945038,0.022208337,-0.010982009,0.98058885,1
1445324775,0.011887742,0.12030262,0.097091,-0.999624,-0.015308334,0.009053354,0.020871747,-0.1945038,0.022208337,-0.010982009,0.98058885,1
1445364755,0.0010562532,0.28448656,0.03183656,-0.9996215,-0.015410872,0.00911481,0.020891475,-0.1945038,0.022208337,-0.010982009,0.98058885,1
1445408994,0.048974294,0.0022839024,0.03547135,-0.9996241,-0.015217668,0.008988346,0.020964134,-0.1945038,0.022208337,-0.010982009,0.98058885,1
1445448949,-0.08981235,0.070352525,-0.094477214,-0.99962384,-0.015234183,0.00845465,0.021181457,-0.1945038,0.022208337,-0.010982009,0.98058885,1
1445493075,-0.11567237,-0.21817201,-0.14036638,-0.99961555,-0.015583843,0.008247288,0.021399837,-0.1945038,0.022208337,-0.010982009,0.98058885,1
1445532977,0.08846236,0.021613782,-0.059702735,-0.9996145,-0.016216971,0.0071252054,0.021385364,-0.1945038,0.022208337,-0.010982009,0.98058885,1
1445577815,-0.23966853,0.009502361,-0.084302835,-0.999614,-0.016620664,0.0060425056,0.021429796,-0.1945038,0.022208337,-0.010982009,0.98058885,1
1445617925,-0.09023101,0.18022764,-0.11854188,-0.9996054,-0.017444642,0.004903205,0.02146319,-0.1945038,0.022208337,-0.010982009,0.98058885,1
1445661892,0.18406262,0.12074643,0.21945003,-0.9996066,-0.017923713,0.0039025329,0.021215264,-0.1945038,0.022208337,-0.010982009,0.98058885,1
1445701869,0.04965641,0.029571932,0.09232195,-0.99959767,-0.01828726,0.003079888,0.021463314,-0.1945038,0.022208337,-0.010982009,0.98058885,1
1445742627,-0.033230253,-0.13218774,0.14984624,-0.999594,-0.018351914,0.0028929524,0.021607375,-0.1945038,0.022208337,-0.010982009,0.98058885,1
1445782593,-0.23659396,0.033422507,-0.15258138,-0.9995918,-0.018303754,0.0019843415,0.02184911,-0.1945038,0.022208337,-0.010982009,0.98058885,1
1445826646,0.45252356,0.38241193,0.17904697,-0.999582,-0.0191263,0.0008105056,0.021669472,-0.1945038,0.022208337,-0.010982009,0.98058885,1
1445870364,-0.048928518,0.1524356,-0.045960184,-0.99957985,-0.018842,-0.00043130535,0.022021117,-0.1945038,0.022208337,-0.010982009,0.98058885,1
1445910382,-0.253876,0.10586306,-0.16787842,-0.999579,-0.018648343,-0.001546219,0.022174945,-0.1945038,0.022208337,-0.010982009,0.98058885,1
1445954326,0.22549377,0.14555593,-0.04472095,-0.9995648,-0.019292878,-0.0030045565,0.022111634,-0.1945038,0.022208337,-0.010982009,0.98058885,1
1445994607,-0.10671833,0.0025625674,-0.18388851,-0.9995628,-0.018782953,-0.004020437,0.022477588,-0.1945038,0.022208337,-0.010982009,0.98058885,1
1446039513,-0.15269811,0.0019132468,0.03729469,-0.99956673,-0.018360188,-0.005132603,0.022425957,-0.1945038,0.022208337,-0.010982009,0.98058885,1
1446079518,-0.08931408,-0.12779455,0.07189155,-0.9995697,-0.017944861,-0.005559858,0.02252465,-0.1945038,0.022208337,-0.010982009,0.98058885,1
1446123370,0.04763618,0.12430092,0.060515057,-0.9995625,-0.017994193,-0.006040011,0.022683987,-0.1945038,0.022208337,-0.010982009,0.98058885,1
1446163463,0.10336862,0.036582883,0.10134997,-0.9995593,-0.018004151,-0.005953391,0.022839332,-0.1945038,0.022208337,-0.010982009,0.98058885,1
1446207465,0.09336637,0.24945042,-0.046470255,-0.99955684,-0.017608026,-0.0060534184,0.023225661,-0.1945038,0.022208337,-0.010982009,0.98058885,1
1446248237,0.23118556,0.2544485,-0.047080673,-0.99954754,-0.017695965,-0.0062739477,0.02350112,-0.1945038,0.022208337,-0.010982009,0.98058885,1
1446292238,-0.098186426,-0.078491814,-0.03966927,-0.9995576,-0.016996155,-0.0058702435,0.02369516,-0.1945038,0.022208337,-0.010982009,0.98058885,1
1446332267,-0.12791587,-0.26963386,0.049049087,-0.9995707,-0.01652759,-0.0047866455,0.02371743,-0.1945038,0.022208337,-0.010982009,0.98058885,1
1446376217,0.1395778,-0.10727744,-0.035563238,-0.9995696,-0.016669022,-0.0039590355,0.023814075,-0.1945038,0.022208337,-0.010982009,0.98058885,1
1446420146,-0.32043815,0.045849185,-0.03274349,-0.9995861,-0.015765406,-0.0039834823,0.023734335,-0.1945038,0.022208337,-0.010982009,0.98058885,1
1446460219,-0.2919762,0.14874895,-0.14636226,-0.9995949,-0.01532677,-0.004222169,0.02360645,-0.1945038,0.022208337,-0.010982009,0.98058885,1
1446504965,0.20219547,0.21178012,0.237525,-0.99960274,-0.0152300345,-0.0050731576,0.023167405,-0.1945038,0.022208337,-0.010982009,0.98058885,1
1446544966,-0.14073782,0.09937622,-0.02176453,-0.9996124,-0.014076202,-0.005738686,0.02332567,-0.1945038,0.022208337,-0.010982009,0.98058885,1
1446588780,0.26021457,0.2108426,0.06026585,-0.9996202,-0.013592492,-0.006286221,0.023134107,-0.1945038,0.022208337,-0.010982009,0.98058885,1
1446628957,0.31584582,-0.008250853,0.09613566,-0.99963224,-0.012640018,-0.006419177,0.023121823,-0.1945038,0.022208337,-0.010982009,0.98058885,1
1446672977,-0.39662865,-0.2636905,-0.15588906,-0.9996521,-0.010685363,-0.0063177454,0.023271637,-0.1945038,0.022208337,-0.010982009,0.98058885,1
1446713861,-0.08232127,0.017058223,-0.053396776,-0.99966025,-0.009765746,-0.0062916246,0.023335855,-0.1945038,0.022208337,-0.010982009,0.98058885,1
1446753823,-0.33245435,-0.3127384,-0.15250677,-0.9996725,-0.008455619,-0.0055944007,0.023498276,-0.1945038,0.022208337,-0.010982009,0.98058885,1
1446797890,-0.2113304,-0.23166166,-0.072183914,-0.99968266,-0.0070292894,-0.0050088493,0.023664083,-0.1945038,0.022208337,-0.010982009,0.98058885,1
1446837927,0.054594614,-0.12068647,-0.042685334,-0.9996877,-0.006278697,-0.004689959,0.023734318,-0.1945038,0.022208337,-0.010982009,0.98058885,1
1446881783,-0.08917716,-0.028420005,-0.08806727,-0.9996811,-0.00596704,-0.0050054383,0.024021389,-0.1945038,0.022208337,-0.010982009,0.98058885,1
1446922599,0.1263499,-0.017763365,0.20914257,-0.9996739,-0.0064310622,-0.0055211503,0.02409213,-0.1945038,0.022208337,-0.010982009,0.98058885,1
1446966515,-0.17823489,-0.10185721,-0.14667343,-0.9996552,-0.006410892,-0.005898828,0.02477093,-0.1945038,0.022208337,-0.010982009,0.98058885,1
1447006374,-0.18480544,-0.24290496,-0.07904425,-0.9996372,-0.0075684106,-0.006622377,0.024986263,-0.1945038,0.022208337,-0.010982009,0.98058885,1
1447050356,0.03534804,0.00030198274,0.13072579,-0.9996182,-0.008773522,-0.0077334847,0.02503793,-0.1945038,0.022208337,-0.010982009,0.98058885,1
1447090633,-0.14418711,-0.20455155,0.07593248,-0.99960834,-0.009237737,-0.008046735,0.025160927,-0.1945038,0.022208337,-0.010982009,0.98058885,1
1447135411,-0.23241371,-0.06519344,-0.12339722,-0.9995867,-0.010165821,-0.008668494,0.025455482,-0.1945038,0.022208337,-0.010982009,0.98058885,1
1447175183,-0.14482953,0.17250812,-0.18668112,-0.9995616,-0.011606014,-0.009543372,0.02551183,-0.1945038,0.022208337,-0.010982009,0.98058885,1
1447219469,0.19922885,0.17920636,0.07438301,-0.9995411,-0.013059934,-0.010054645,0.025415178,-0.1945038,0.022208337,-0.010982009,0.98058885,1
1447259379,0.03903305,0.2136551,0.15422606,-0.9995279,-0.013580664,-0.0106776785,0.025410114,-0.1945038,0.022208337,-0.010982009,0.98058885,1
1447303406,0.13325661,0.22607253,-0.074606866,-0.9994947,-0.01444307,-0.011663813,0.025803683,-0.1945038,0.022208337,-0.010982009,0.98058885,1
1447343492,-0.20871958,-0.17723092,-0.09052389,-0.9994906,-0.014478306,-0.0115466025,0.025990458,-0.1945038,0.022208337,-0.010982009,0.98058885,1
1447384193,0.05557252,0.18235235,0.011357843,-0.9994702,-0.014893563,-0.012471608,0.02611569,-0.1945038,0.022208337,-0.010982009,0.98058885,1
1447424251,0.054243416,0.11011739,0.075762935,-0.99945384,-0.0149902385,-0.013396255,0.026225692,-0.1945038,0.022208337,-0.010982009,0.98058885,1
1447464246,-0.010553725,-0.0674796,-0.033636846,-0.9994254,-0.015332235,-0.01443381,0.02656222,-0.1945038,0.022208337,-0.010982009,0.98058885,1
1447503940,-0.04239577,0.21859658,-0.13447879,-0.9993917,-0.015801858,-0.01593117,0.026698438,-0.1945038,0.022208337,-0.010982009,0.98058885,1
1447548181,0.1383347,-0.04423017,0.023502542,-0.99936175,-0.01638128,-0.016888458,0.026880702,-0.1945038,0.022208337,-0.010982009,0.98058885,1
1447588132,0.13319765,0.23717216,-0.0075904904,-0.99933684,-0.016939288,-0.017850649,0.026839072,-0.1945038,0.022208337,-0.010982009,0.98058885,1
1447628783,-0.24046867,-0.12991501,-0.17320001,-0.99933296,-0.017346382,-0.017469386,0.026975414,-0.1945038,0.022208337,-0.010982009,0.98058885,1
1447669039,-0.12860681,0.028270533,-0.17394045,-0.9993083,-0.018707687,-0.01735274,0.02705563,-0.1945038,0.022208337,-0.010982009,0.98058885,1
1447713075,0.4610466,0.23209117,0.0816219,-0.9992903,-0.020319106,-0.016741503,0.026942544,-0.1945038,0.022208337,-0.010982009,0.98058885,1
1447756774,-0.21876116,-0.19829954,-0.1127987,-0.99929583,-0.020717315,-0.015375055,0.027246153,-0.1945038,0.022208337,-0.010982009,0.98058885,1
1447797002,-0.03910975,0.0116494745,-0.1498766,-0.999283,-0.021767722,-0.014478592,0.027388375,-0.1945038,0.022208337,-0.010982009,0.98058885,1
1447837041,-0.18701516,-0.29332036,-0.1740594,-0.99928844,-0.022196384,-0.013042917,0.027567722,-0.1945038,0.022208337,-0.010982009,0.98058885,1
1447877783,-0.2104148,-0.091553204,-0.14336704,-0.99928284,-0.022971042,-0.012444941,0.027412284,-0.1945038,0.022208337,-0.010982009,0.98058885,1
1447921907,0.345556,-0.20039578,0.08838852,-0.9992722,-0.024453864,-0.010829373,0.02720056,-0.1945038,0.022208337,-0.010982009,0.98058885,1
1447961573,0.33488694,-0.003606688,0.10493589,-0.9992589,-0.02545218,-0.009845628,0.027147599,-0.1945038,0.022208337,-0.010982009,0.98058885,1
1448005878,-0.12088214,-0.18712547,0.1325989,-0.99926925,-0.025523562,-0.008242332,0.027231727,-0.1945038,0.022208337,-0.010982009,0.98058885,1
1448046519,-0.10817851,-0.19977807,-0.026315873,-0.99928254,-0.02537709,-0.0067085996,0.027303614,-0.1945038,0.022208337,-0.010982009,0.98058885,1
1448090801,-0.011528546,-0.35615236,-0.0009890096,-0.9993003,-0.025157824,-0.0050408253,0.027213816,-0.1945038,0.022208337,-0.010982009,0.98058885,1
1448134544,-0.4525963,-0.25570196,-0.022170482,-0.9993249,-0.024307536,-0.0044357637,0.027187303,-0.1945038,0.022208337,-0.010982009,0.98058885,1
1448178788,0.1123638,0.09160127,0.06472456,-0.9993357,-0.024202272,-0.004328896,0.026904732,-0.1945038,0.022208337,-0.010982009,0.98058885,1
1448222649,-0.4345833,-0.09274049,-0.19932726,-0.999351,-0.023380548,-0.0038037777,0.027136987,-0.1945038,0.022208337,-0.010982009,0.98058885,1
1448262599,-0.3009055,-0.15005833,-0.15878254,-0.9993605,-0.023209833,-0.0034086846,0.026987437,-0.1945038,0.022208337,-0.010982009,0.98058885,1
1448307528,0.28459787,-0.03635168,0.099972,-0.9993594,-0.023710314,-0.0027317347,0.026668835,-0.1945038,0.022208337,-0.010982009,0.98058885,1
1448347438,0.21816836,-0.17210947,0.06649089,-0.99936104,-0.023624511,-0.0018220155,0.026758563,-0.1945038,0.022208337,-0.010982009,0.98058885,1
