timestamp,rollspeed,pitchspeed,yawspeed,rollspeed_integ,pitchspeed_integ,yawspeed_integ,additional_integ1
1430857880,0.0012936858,0.0013851684,0.00011328142,9.501123e-05,0.0003193584,-1.2852053e-05,0.0
1430889879,0.002254543,0.00013835263,0.001126222,9.501123e-05,0.0003193584,-1.2852053e-05,0.0
1430985964,-8.117664e-05,-0.00084908656,0.00034296187,0.00010104133,0.00042499168,-1.48906365e-05,0.0
1431017902,-0.0023846047,0.0006806514,-0.00027091196,0.00010795525,0.00054198154,-1.9039446e-05,0.0
1431049949,-0.0039446754,8.05147e-05,-0.0018949038,0.00011320227,0.0006567483,-1.505996e-05,0.0
1431081878,-0.004078982,0.0025870737,-0.0021976442,0.00012009193,0.0007692731,-2.0054345e-06,0.0
1431113939,-0.0045793746,-0.00053455005,-0.0018268218,0.0001261021,0.0008808147,1.41772325e-05,0.0
1431146725,-0.0012347267,-0.0023033663,-0.0033026459,0.00012548556,0.0009962741,3.0582945e-05,0.0
1431178701,0.0020616013,-0.0030009001,-0.002356143,0.0001162141,0.0011098731,5.292762e-05,0.0
1431210687,0.016368022,-0.0077860355,-0.0008786875,9.17657e-05,0.0012248035,6.8170884e-05,0.0
1431242677,-0.0037208076,-0.010381823,0.0146863535,7.7543365e-05,0.0013382384,3.733228e-05,0.0
1431274717,-0.013315125,-0.0007696294,-0.0036539745,6.8164314e-05,0.001445208,-3.528309e-05,0.0
1431306723,0.008082706,0.004868744,-0.018162668,1.5452677e-05,0.0015342446,5.4917968e-05,0.0
1431339533,0.007113091,0.009604725,0.005364134,-5.8996273e-05,0.0016079008,3.5692326e-05,0.0
1431367513,-0.010590728,0.011088184,-0.03488679,-1.940829e-05,0.001653383,0.00015907815,0.0
1431399498,0.014992351,-0.033593033,-0.0035829172,-0.00011825449,0.0018145136,0.0002915878,0.0
1431431450,-0.0056887916,-0.021085396,-0.015407244,-0.00014872613,0.0018448359,0.00038247346,0.0
1431463507,-0.03538316,-0.03714494,0.0077617588,-0.00015616506,0.002024016,0.00043377868,0.0
1431495484,-0.037088506,-0.021307243,-0.003419328,-0.00012892637,0.0021815177,0.00041219013,0.0
1431527488,-0.029033773,-0.021839807,0.012963449,-0.00011005016,0.0023641456,0.00042340875,0.0
1431559438,-0.011229876,0.0033082431,0.0003167889,-0.00010395235,0.0024232166,0.000408224,0.0
1431591511,-0.00517969,0.017418833,0.01717469,-0.000108292305,0.00247396,0.0003651825,0.0
1431624358,0.002105698,0.027849581,0.006422125,-0.00013721769,0.0025788664,0.00028712128,0.0
1431656331,0.013666554,0.022174465,0.012891934,-0.00018002781,0.0026546556,0.00023144882,0.0
1431688295,0.020292988,0.008270277,0.011714274,-0.0002470828,0.0027090567,0.00014094208,0.0
1431720265,0.018769685,-0.008292085,0.008006421,-0.00032293555,0.0027687242,0.00010163104,0.0
1431752415,0.009828182,-0.01957986,0.0058900504,-0.00038505808,0.0028820694,4.404891e-05,0.0
1431784298,-0.0068774708,-0.019531768,0.00028657215,-0.000431587,0.003022139,3.3311775e-05,0.0
1431816301,-0.022116229,-0.017852087,0.0005842976,-0.00045938249,0.0031372092,8.876483e-06,0.0
1431849077,-0.022101413,0.006358496,-0.0046582064,-0.00048313712,0.003232546,8.198164e-06,0.0
1431881119,-0.014576728,0.058705416,0.01475909,-0.00049717084,0.0032839736,-3.415927e-05,0.0
1431913120,-0.018483086,0.17466561,0.028608276,-0.0005028015,0.0031808824,-0.00015066811,0.0
1431945056,-0.05956102,0.2437305,0.035472397,-0.0004912364,0.002886622,-0.00037460963,0.0
1431977136,-0.08590056,0.33317226,0.031895924,-0.00043316747,0.002373364,-0.0006328347,0.0
1432009108,-0.066924766,0.3575961,0.046478607,-0.00033717213,0.0017032019,-0.00092015567,0.0
1432041898,-0.07942582,0.26675186,0.04917156,-0.00019378163,0.0009925867,-0.0013130123,0.0
1432073906,-0.09095704,0.09540759,0.05377882,-5.8232887e-05,0.00041508654,-0.001692988,0.0
1432105873,-0.060611907,-0.10535718,0.040358018,9.736983e-05,6.180969e-05,-0.0021267952,0.0
1432137864,-0.0053293346,-0.15638863,0.030452665,0.00026406205,-0.00013863578,-0.0024641769,0.0
1432169903,-0.0030505178,-0.077172026,0.04173746,0.0004497796,-0.00025933067,-0.002831916,0.0
1432201997,-0.06268221,-0.04027707,0.06629475,0.00059235684,-0.00033812184,-0.0033376187,0.0
1432233882,-0.06706082,-0.10620787,0.071258284,0.0007168279,-0.00040749647,-0.0039570164,0.0
1432265894,-0.012979832,-0.1884708,0.0607474,0.0009103476,-0.00046877132,-0.0045844894,0.0
1432293859,0.12963726,-0.19790082,0.05164172,0.0009849842,-0.0004977364,-0.0050681047,0.0
1432326692,0.16013001,-0.13626108,0.050872475,0.00092761545,-0.00055693905,-0.005647152,0.0
1432358664,0.11120629,-0.026127426,0.065207094,0.00077780115,-0.00071522954,-0.006257757,0.0
1432390730,0.02727664,-0.049600493,0.063694715,0.00071015226,-0.00090914976,-0.006945957,0.0
1432422676,0.019247388,-0.13064958,0.06651781,0.0007204153,-0.0010396553,-0.007640784,0.0
1432454705,0.00017346698,-0.1467508,0.05484493,0.0008322382,-0.0010850782,-0.008337334,0.0
1432482670,-0.071955964,-0.1224334,0.035647005,0.0010475636,-0.001112667,-0.008873366,0.0
1432515540,-0.15185511,-0.14642146,0.04527147,0.001407052,-0.001110677,-0.009538822,0.0
1432547494,-0.22910333,-0.15513419,0.036412027,0.0019145104,-0.0010630643,-0.01011564,0.0
1432579466,-0.22660127,-0.16225263,0.021688666,0.00253847,-0.0009872549,-0.010678065,0.0
1432611439,-0.18461129,-0.18066156,0.014024313,0.0031974227,-0.0008853338,-0.011188747,0.0
1432643463,-0.12850349,-0.1763665,0.0026567609,0.003803516,-0.0007431632,-0.011660054,0.0
1432675437,-0.117457,-0.17924325,0.0062565217,0.0043930705,-0.0005630216,-0.012139671,0.0
1432704274,-0.107615866,-0.18518709,0.0052136267,0.0049533066,-0.00036722087,-0.012575786,0.0
1432736298,-0.03595564,-0.19338779,0.012351055,0.00554611,-0.000101048885,-0.013061755,0.0
1432768281,0.031811327,-0.17698394,-0.0006666796,0.006079677,0.00020124747,-0.013569659,0.0
1432800343,0.042412248,-0.17228314,0.002469673,0.0065648346,0.00054980925,-0.0140041895,0.0
1432832308,0.053583436,-0.1660287,-0.00027712714,0.0070351865,0.00092113303,-0.014483606,0.0
1432864303,0.062463522,-0.14079176,-0.007621117,0.0075039854,0.0012938248,-0.014967865,0.0
1432896285,0.112786405,-0.1063461,0.0019150942,0.007951177,0.0016550918,-0.015425376,0.0
1432928343,0.14442027,-0.08644871,-0.0041539627,0.00835704,0.002004943,-0.015885498,0.0
1432961059,0.16385382,-0.043454524,-0.00089189806,0.008707846,0.0023448656,-0.01634544,0.0
1432993068,0.1715383,0.0058951043,0.0053863423,0.009017763,0.0026288813,-0.01682147,0.0
1433025114,0.15946487,-0.0067228097,-0.005266645,0.009323362,0.002892213,-0.017269533,0.0
1433057133,0.18406788,0.0074186726,-0.01985103,0.009604263,0.003162191,-0.017690714,0.0
1433089146,0.18776488,0.03301193,-0.0065520387,0.009873538,0.0034261849,-0.018146222,0.0
1433121073,0.17147541,0.05535611,-0.0070229783,0.010132024,0.003660768,-0.018555121,0.0
1433153824,0.15946303,0.09513369,-0.01022912,0.010398336,0.0038549697,-0.01896394,0.0
1433185885,0.14142899,0.09372082,-0.0020203136,0.010688474,0.0040057776,-0.0193716,0.0
1433217878,0.1569948,0.10250896,-0.011705393,0.010973564,0.004120008,-0.01976909,0.0
1433249896,0.12758541,0.123257644,-0.011460135,0.011265835,0.0042191115,-0.020154389,0.0
1433281879,0.10383472,0.123919584,-0.016461337,0.011571735,0.004302322,-0.020518968,0.0
1433313913,0.103878066,0.11560795,-0.013371756,0.0118952235,0.0043764655,-0.020893747,0.0
1433345912,0.08913478,0.10655147,-0.010035736,0.012238415,0.0044526407,-0.021255298,0.0
1433377866,0.10802748,0.12195169,-0.023465596,0.012561869,0.004513453,-0.0215617,0.0
1433409875,0.09237628,0.120383665,-0.013717273,0.012885211,0.004559085,-0.021904826,0.0
1433441922,0.073323,0.11490608,-0.009903444,0.013222222,0.004569957,-0.022266898,0.0
1433470873,0.08496146,0.11097232,-0.022445934,0.013505006,0.00456262,-0.022529293,0.0
1433502753,0.092570305,0.09979823,-0.02206416,0.01380815,0.0045734835,-0.022815833,0.0
1433534732,0.10030743,0.08486655,-0.016364759,0.014088128,0.004605841,-0.023118043,0.0
1433566767,0.11433192,0.088452555,-0.00803931,0.014348917,0.004636608,-0.0234369,0.0
1433598660,0.0922886,0.07370888,-0.019079741,0.014604055,0.0046700174,-0.02371025,0.0
1433630762,0.09675248,0.052694827,-0.018785588,0.0148541955,0.004709901,-0.02394755,0.0
1433663516,0.06409943,0.041923225,-0.026011495,0.015114828,0.0047718724,-0.024190055,0.0
1433695487,0.04383511,0.017766733,-0.027638145,0.015376692,0.0048630084,-0.024429517,0.0
1433727448,0.0332045,0.0011510282,-0.029557765,0.015667597,0.0049872454,-0.024652079,0.0
1433759438,-0.016090432,-0.011225792,-0.022551721,0.016017297,0.0051568835,-0.024914209,0.0
1433791527,-0.01708443,-0.005803505,-0.020058906,0.016409222,0.0053418684,-0.025201917,0.0
1433823494,-0.020421762,0.015225214,-0.010597386,0.016815728,0.005500278,-0.02552508,0.0
1433855485,-0.03571489,0.044016946,-0.0032567333,0.017228583,0.005611302,-0.025849616,0.0
1433888269,-0.027854066,0.058816608,0.0039006867,0.017662814,0.0056819012,-0.02626796,0.0
1433920293,0.0025096145,0.0864372,0.007902637,0.018090151,0.0057141925,-0.026676074,0.0
1433952322,0.014196957,0.10705606,-0.0001903479,0.018491656,0.005706185,-0.02707184,0.0
1433984315,0.02965894,0.093618184,0.0029803768,0.018846441,0.005679446,-0.027453044,0.0
1434016323,0.03802811,0.08761015,0.0017234235,0.019172689,0.0056298357,-0.027810885,0.0
1434048293,0.015797561,0.069666795,-0.01215018,0.019506779,0.0055781873,-0.028179066,0.0
1434080298,0.06201796,0.06418285,-0.011641541,0.019823818,0.0055410336,-0.028500333,0.0
1434113134,0.050048433,0.03873851,-0.01387698,0.020123908,0.0055299536,-0.028816449,0.0
1434145094,0.068152286,0.047045264,-0.015333753,0.020360854,0.005513697,-0.029111605,0.0
1434177105,0.048905365,0.01318801,-0.019496439,0.020582424,0.005523902,-0.029389564,0.0
1434209123,0.020547397,-0.008050522,-0.016875654,0.020825963,0.0055577443,-0.029622326,0.0
1434241121,0.019351913,0.026382927,-0.02244692,0.021093324,0.0055707633,-0.02989112,0.0
1434273070,0.01816981,0.03891467,-0.021445647,0.02136008,0.005538532,-0.03012259,0.0
1434305888,0.00059729733,0.042673714,-0.034392685,0.021624448,0.0054573123,-0.030265281,0.0
1434337824,-0.067638226,0.03417111,-0.025010725,0.021953946,0.005386997,-0.030404596,0.0
1434369923,-0.07504859,0.036778517,-0.030653471,0.022375407,0.005328923,-0.030520927,0.0
1434401901,-0.085822605,0.018722717,-0.02010177,0.022848934,0.0052750846,-0.030628024,0.0
1434433880,-0.06516016,-0.007463999,-0.038676415,0.023301655,0.005229416,-0.030719373,0.0
1434465877,-0.058812633,0.0011056091,-0.028289218,0.023719456,0.005184884,-0.030798212,0.0
1434497950,-0.060983554,-0.0058396226,-0.0352202,0.024123965,0.005137063,-0.03085905,0.0
1434529891,-0.00091548817,-0.018297996,-0.033034846,0.024487851,0.005116534,-0.030911421,0.0
1434561874,0.03183508,-0.0446352,-0.021224186,0.024800032,0.0051322235,-0.031040447,0.0
1434589916,0.03200256,-0.06286218,-0.017504439,0.025042541,0.005165861,-0.031108486,0.0
1434622685,0.00086585886,-0.055127572,-0.022751141,0.025322612,0.0052135456,-0.031179463,0.0
1434654683,-0.04139023,-0.07680544,-0.033950265,0.025650827,0.0052871383,-0.03122583,0.0
1434686700,-0.034454294,-0.08598486,-0.030186377,0.026019242,0.005386094,-0.031273186,0.0
1434718714,-0.04302669,-0.06149138,-0.023900272,0.026415566,0.005492489,-0.031345606,0.0
1434750670,-0.06525654,-0.07854789,-0.020132676,0.026834305,0.005616151,-0.031414106,0.0
1434782699,-0.07443088,-0.112001896,-0.041373853,0.02726818,0.005777008,-0.03146087,0.0
1434811550,-0.072455436,-0.13198702,-0.018404622,0.027679916,0.005971844,-0.03147613,0.0
1434843526,-0.019302124,-0.10087815,-0.030432448,0.028104017,0.0062082103,-0.031521697,0.0
1434875508,0.04650727,-0.077821076,-0.022366922,0.028443797,0.0064309807,-0.031540148,0.0
1434907520,0.04958405,-0.09173281,-0.018184958,0.028712755,0.006663915,-0.03153341,0.0
1434939445,0.040251374,-0.117652506,-0.010232641,0.028954549,0.006943826,-0.031581294,0.0
1434971484,0.037470825,-0.08144003,-0.018271843,0.029196097,0.007240916,-0.031639356,0.0
1435003495,0.07219248,-0.02860672,-0.014386003,0.029419186,0.0074939416,-0.0317092,0.0
1435036294,0.049197845,-0.04319231,-0.005011982,0.029639725,0.0077187866,-0.03180622,0.0
1435068357,0.033061292,-0.021593314,-0.013080749,0.029816566,0.007911467,-0.03193254,0.0
1435100261,0.011659801,0.0034157871,-0.008618878,0.029992273,0.00809351,-0.032046415,0.0
1435132377,0.02655189,0.02810966,-0.010321553,0.030181812,0.008242707,-0.03219593,0.0
1435164315,0.00405598,0.030522147,-0.00038390933,0.030387761,0.0083612865,-0.032339077,0.0
1435196406,-0.015159073,0.03329114,-0.0044909576,0.030598572,0.00846512,-0.032530583,0.0
1435228312,-0.022824807,0.032637242,-0.001851877,0.030816957,0.008581576,-0.032699946,0.0
1435261069,-0.07257608,0.014576367,0.0004239527,0.03108683,0.008716947,-0.032935064,0.0
1435293120,-0.05382303,0.043456957,-0.0022151966,0.031375177,0.008817279,-0.033163473,0.0
1435325125,-0.028483635,0.027973875,0.018546669,0.031652406,0.008921544,-0.033383194,0.0
1435357167,-0.027707644,-0.0071448972,0.0029623103,0.031899832,0.009049157,-0.033661745,0.0
1435389067,-0.040324304,0.01836972,-0.0027455764,0.032119323,0.009185903,-0.033874925,0.0
1435421144,-0.016778117,0.010099158,0.00483761,0.032326054,0.009324422,-0.03411033,0.0
1435453871,0.004147053,-0.011858558,0.0028317305,0.03250078,0.009470832,-0.0343537,0.0
1435485882,0.024301933,0.010813547,0.013236324,0.032621723,0.009613713,-0.03459807,0.0
1435517839,0.010447893,0.021908749,0.0054543233,0.032742884,0.009747922,-0.034828946,0.0
1435549847,-0.012668426,0.021475561,-0.0037793247,0.032870065,0.009855752,-0.03505111,0.0
1435582004,-0.0019144665,0.044463977,0.013012145,0.032987226,0.009917296,-0.035304196,0.0
1435613922,-0.007215835,0.03174129,0.0005800256,0.03309594,0.009983907,-0.035553094,0.0
1435645877,-0.0046857656,0.02827352,0.0037457654,0.03320684,0.01005334,-0.035756696,0.0
1435677873,-0.029527396,0.037138242,0.008846042,0.033325784,0.010115159,-0.03600383,0.0
1435709903,-0.016152548,0.041674033,0.0031954425,0.03344463,0.01017853,-0.036238234,0.0
1435738690,-0.021270402,0.020844426,-0.0046696975,0.033561688,0.010235268,-0.03640863,0.0
1435770761,-0.05606332,0.0007719889,0.002568674,0.03368973,0.010309008,-0.036630366,0.0
1435802713,-0.044885494,0.015749997,-0.011919756,0.033789895,0.010380636,-0.036848098,0.0
1435834755,-0.027884135,-0.00706935,-0.0030393668,0.033883348,0.010467299,-0.037081707,0.0
1435866681,-0.011025354,0.0037884624,-0.015353168,0.033934873,0.010545972,-0.037266623,0.0
1435898722,-0.008068466,0.024732968,-0.00026561902,0.033945747,0.010602371,-0.037461694,0.0
1435930691,-0.0030084043,0.0062312204,-0.012193276,0.033940032,0.010657987,-0.037665978,0.0
1435959519,0.005548518,0.004893617,0.0053023594,0.033940844,0.010700885,-0.037838355,0.0
1435991517,-0.0252837,0.0039868876,0.0050316583,0.03394202,0.010754361,-0.038055208,0.0
1436023437,-0.052426707,-0.009850371,-0.0010191747,0.03395429,0.010829716,-0.038260702,0.0
1436055459,-0.062240325,-0.04560858,0.0020697792,0.033991493,0.010934832,-0.038482927,0.0
1436087448,-0.06895893,-0.058085,0.003236306,0.03403657,0.011075723,-0.038710255,0.0
1436120345,-0.050942324,-0.04046552,0.0054652765,0.034064814,0.011247939,-0.03896185,0.0
1436152365,-0.062077645,-0.06009083,-0.0028781064,0.034078535,0.011422615,-0.039201375,0.0
1436184310,-0.057622008,-0.048400085,-0.00084496685,0.034086302,0.011594722,-0.039450366,0.0
1436216301,-0.07038553,-0.08242143,-0.0016800975,0.034100533,0.011813346,-0.039692182,0.0
1436248317,-0.046459846,-0.06207244,0.007814855,0.034119304,0.012066646,-0.039958432,0.0
1436280293,-0.0644858,-0.061597325,0.0036764625,0.03413909,0.012337767,-0.04020635,0.0
1436312388,-0.04725404,-0.059436314,0.008800686,0.034141514,0.012616843,-0.040453125,0.0
1436344265,-0.06832372,-0.06446118,0.012014494,0.034154624,0.01289397,-0.04072728,0.0
1436376296,-0.04907045,-0.035946548,0.015116509,0.034162898,0.013160322,-0.041013785,0.0
1436409184,-0.06264487,-0.0063118776,0.011777401,0.03418387,0.013414856,-0.041320615,0.0
1436441111,-0.040474944,0.0049350215,0.011406012,0.034179475,0.013636239,-0.04164279,0.0
1436473117,-0.08232522,0.009633242,0.013110512,0.03418661,0.013841185,-0.04195337,0.0
1436505055,-0.062434047,0.017980415,0.013742879,0.034204286,0.014040554,-0.042304948,0.0
1436537162,-0.06967049,-0.0058690524,0.017589498,0.034247246,0.01426163,-0.042665966,0.0
1436569095,-0.05784651,0.03337859,0.013270139,0.03427925,0.014464388,-0.04303161,0.0
1436601836,-0.06342498,0.021915484,0.014020923,0.034307744,0.014671896,-0.043398775,0.0
1436633859,-0.06264539,0.031107297,0.020842673,0.03435269,0.014858985,-0.043769818,0.0
1436665854,-0.07061082,0.04395283,0.007405594,0.034398936,0.015028451,-0.044128835,0.0
1436697914,-0.051916927,0.064162545,0.004370969,0.03443105,0.015173505,-0.04447883,0.0
1436729896,-0.0568273,0.07436459,-0.00062464154,0.03444823,0.015281724,-0.044809733,0.0
1436761904,-0.04945126,0.08877053,0.00093241583,0.034451675,0.015357178,-0.04513434,0.0
1436793872,-0.042827975,0.11622581,-0.012367781,0.03445475,0.015391701,-0.045393355,0.0
1436825945,-0.046370327,0.11524677,-0.012239552,0.034459386,0.015382564,-0.045623474,0.0
1436857918,-0.053597204,0.12713051,-0.021600476,0.03447763,0.01533876,-0.045818288,0.0
1436890659,-0.04424789,0.08895711,-0.027592424,0.03449706,0.015293407,-0.045969438,0.0
1436922653,-0.039958622,0.070797235,-0.03370347,0.03449717,0.015272455,-0.046070557,0.0
1436954675,-0.03566227,0.04665755,-0.038137924,0.034476824,0.015281754,-0.04612933,0.0
1436986758,-0.010187218,0.029759096,-0.035687935,0.0344344,0.015323971,-0.046166103,0.0
1437018662,-0.022380952,-0.0027930017,-0.035344727,0.0343794,0.015395049,-0.046198405,0.0
1437050707,-0.003642452,-0.013536507,-0.036780074,0.034304142,0.01549807,-0.04619934,0.0
1437083471,-0.023014113,-0.048183583,-0.02759159,0.03423306,0.015642103,-0.04620861,0.0
1437115550,-0.023382518,-0.046849113,-0.030909617,0.03418155,0.015819183,-0.04619242,0.0
1437147523,-0.04377247,-0.05444345,-0.035749167,0.03414702,0.016037276,-0.046154827,0.0
1437179470,-0.059146203,-0.076244034,-0.03701208,0.034139156,0.016293177,-0.04610587,0.0
1437211447,-0.05748749,-0.063964665,-0.030415127,0.03414204,0.016551686,-0.04608007,0.0
1437243496,-0.065168165,-0.06756004,-0.031991586,0.03414588,0.016823588,-0.046052366,0.0
1437275497,-0.044773154,-0.05269617,-0.028840294,0.034155868,0.017103588,-0.046023563,0.0
1437307453,-0.06728806,-0.058468338,-0.023745336,0.034194652,0.017401857,-0.045975532,0.0
1437340307,-0.064803064,-0.05608383,-0.034664154,0.03425114,0.01772825,-0.045896504,0.0
1437372307,-0.064525,-0.035779983,-0.030765517,0.034319203,0.018049741,-0.045807987,0.0
1437404367,-0.026663385,-0.021365382,-0.031087857,0.03436717,0.018358288,-0.045713764,0.0
1437436338,-0.033951066,-0.014943236,-0.022368338,0.034393433,0.018657764,-0.045627378,0.0
1437468258,-0.017454306,0.0028540164,-0.023857338,0.034399793,0.018956112,-0.045515545,0.0
1437500278,-0.010215677,0.01719035,-0.023101537,0.03441003,0.019247279,-0.045423236,0.0
1437533123,-0.011247454,0.0453453,-0.01885434,0.034434963,0.019497897,-0.0453412,0.0
1437565178,-0.0051631834,0.055091187,-0.016496083,0.03445609,0.019702781,-0.045279365,0.0
1437597126,0.013237209,0.08416151,-0.0075329617,0.034464408,0.019867843,-0.045228265,0.0
1437629165,0.035839394,0.12002011,-0.0048567024,0.034457114,0.019973248,-0.04523752,0.0
1437661127,0.026787294,0.1262837,-0.0076909205,0.03444222,0.020028027,-0.04520795,0.0
1437693154,0.03563514,0.13653088,-0.0015129172,0.034417037,0.020028017,-0.045188356,0.0
1437725094,0.022577796,0.12758094,-0.0130721815,0.03439086,0.020014472,-0.04519881,0.0
1437757826,0.02140752,0.11693581,-0.004007926,0.034377094,0.019990435,-0.045190006,0.0
1437789892,0.021715432,0.12527767,0.0037515594,0.034358773,0.019955957,-0.045223944,0.0
1437821895,0.03765937,0.08977288,0.0109789595,0.034339238,0.019931562,-0.04528242,0.0
1437853915,0.036724612,0.079412594,0.008507186,0.03431403,0.019899204,-0.045362204,0.0
1437885867,0.02999361,0.080070905,0.010226443,0.034270514,0.019856192,-0.045441363,0.0
1437917890,0.05060438,0.06901927,0.0058166217,0.034209505,0.019811353,-0.04553616,0.0
1437949908,0.017284721,0.060536586,0.011078628,0.034170825,0.019761795,-0.045658812,0.0
1437981983,0.009146308,0.06628885,0.008866669,0.034158733,0.019697411,-0.045792177,0.0
1438013867,0.00931412,0.04213442,0.008511305,0.034172993,0.019634347,-0.045953047,0.0
1438046667,0.004197834,0.035217598,0.010907564,0.034208108,0.019565495,-0.046077866,0.0
1438078742,-0.0064853844,0.0324007,0.011680004,0.034262303,0.019496271,-0.046242457,0.0
1438110700,-0.012527515,0.015258706,0.011494319,0.034344755,0.01943508,-0.046391215,0.0
1438142759,-0.006154422,0.02955838,0.017070875,0.034451965,0.019356826,-0.046590876,0.0
1438174677,-0.0020446167,0.028537255,0.020884916,0.03456437,0.019264571,-0.046747293,0.0
1438202697,-0.021172516,0.02498984,0.0046086432,0.034685515,0.019154722,-0.046889585,0.0
1438235479,-0.045978807,0.024404276,0.0080555435,0.034847565,0.018999152,-0.0470809,0.0
1438267561,-0.014777588,0.03621236,0.012736918,0.034998108,0.018823892,-0.04731936,0.0
1438299487,-0.013112104,0.0012299811,-0.0053338846,0.03514698,0.01865493,-0.047475256,0.0
1438331533,-0.0031855986,0.020201962,0.006010418,0.035290014,0.018469682,-0.047655728,0.0
1438363461,0.03464312,0.010302292,-0.0021691723,0.035412334,0.018281147,-0.04783429,0.0
1438391471,0.049939416,-0.0033156662,0.005899283,0.03549812,0.018113121,-0.047953475,0.0
1438424274,0.082940586,0.01285601,0.0028320958,0.035558157,0.017896121,-0.04808349,0.0
1438456275,0.08683682,-0.009129993,-0.004116822,0.035575077,0.01768783,-0.048175674,0.0
1438488313,0.0966145,-0.035672896,-0.0092178155,0.035572093,0.017500117,-0.048223943,0.0
1438520304,0.07326522,-0.038687494,-0.013400871,0.035588942,0.01733276,-0.048249457,0.0
1438552318,0.070841566,-0.061067577,-0.009469216,0.035621822,0.01718792,-0.04827572,0.0
1438584280,0.043058105,-0.0784662,-0.0063451896,0.03569113,0.017054405,-0.048299756,0.0
1438616318,0.024428613,-0.08656401,-0.003389501,0.03579912,0.01694565,-0.04832955,0.0
1438648327,0.032453995,-0.09180387,0.0021073166,0.035936445,0.016863346,-0.04838829,0.0
1438681132,0.013769528,-0.10234871,-0.00576162,0.036092214,0.016803226,-0.048410226,0.0
1438713067,0.021492427,-0.10039824,-0.005988609,0.03623736,0.016746866,-0.04842295,0.0
1438745097,0.005857408,-0.108460695,-0.0029569329,0.03639468,0.016697919,-0.048466437,0.0
1438777155,0.036230497,-0.09467745,0.0015676331,0.036538843,0.01664598,-0.04847423,0.0
1438809073,0.066627145,-0.089253396,-0.0002510224,0.03663968,0.016590437,-0.048557114,0.0
1438841066,0.085863926,-0.077691145,0.0049534873,0.036694173,0.016534291,-0.048608314,0.0
1438873837,0.07415345,-0.09335726,-0.01468027,0.036708172,0.016495563,-0.04868773,0.0
1438905923,0.090042904,-0.10260496,-0.0047541866,0.03672448,0.016477888,-0.048738647,0.0
1438937877,0.07592744,-0.08834188,-0.0074224286,0.036747582,0.016470792,-0.04880612,0.0
1438965907,0.07659359,-0.08645989,0.006608398,0.036769345,0.016468188,-0.0488855,0.0
1438997885,0.08344484,-0.09533495,-0.0020906918,0.036795072,0.01647275,-0.04893078,0.0
1439029878,0.04562683,-0.101014145,-0.0016477215,0.036841422,0.01650837,-0.048974134,0.0
1439061835,0.063024506,-0.08773484,-0.0017721481,0.036894366,0.01657039,-0.049010634,0.0
1439093966,0.04709143,-0.10264916,-0.016343022,0.03695711,0.01665884,-0.04900542,0.0
1439125911,0.04478302,-0.1136075,-0.00472618,0.037017755,0.01677033,-0.049019318,0.0
1439154742,0.062751606,-0.10563505,0.00049427827,0.03705293,0.016906051,-0.049046583,0.0
1439186718,0.050285216,-0.11175792,0.0025190488,0.037098296,0.01708583,-0.049093995,0.0
1439218727,0.08648557,-0.06993969,-0.006365639,0.037118666,0.017249558,-0.04909503,0.0
1439250664,0.06282468,-0.05709312,-0.005800751,0.037141427,0.017397763,-0.049063917,0.0
1439282751,0.07333159,-0.032245353,-0.010655733,0.037150968,0.017518401,-0.04903472,0.0
1439314702,0.049353864,-0.027822616,-0.023779824,0.037163008,0.017636804,-0.048959535,0.0
1439347546,0.053361557,-0.02086819,-0.021250846,0.03716723,0.017754609,-0.048881724,0.0
1439379491,0.0660964,0.005904151,-0.01757418,0.037145115,0.017854702,-0.048800044,0.0
1439411536,0.07310763,-0.00343448,-0.02055728,0.03709333,0.017956512,-0.048702188,0.0
1439443549,0.054509465,0.0068648085,-0.013101034,0.037048977,0.018039983,-0.048608653,0.0
1439475518,0.037975032,0.049607754,-0.017334925,0.037013043,0.0180763,-0.04852267,0.0
1439507519,0.0500027,0.07569712,-0.02492226,0.036978118,0.018061485,-0.048401438,0.0
1439539504,0.00933136,0.06553448,-0.019614182,0.036969677,0.018019445,-0.04826185,0.0
1439571540,0.0012116347,0.08573492,-0.038236827,0.03696194,0.01795142,-0.04809725,0.0
1439604363,-0.0075746337,0.060322214,-0.023617096,0.036973182,0.017886067,-0.04793119,0.0
1439636300,-0.014754118,0.06222956,-0.031588033,0.036999613,0.017822186,-0.047731508,0.0
1439668316,-0.014334811,0.072909094,-0.030961886,0.037034526,0.017752955,-0.047479995,0.0
1439700305,-0.015881475,0.040814973,-0.028536417,0.037072197,0.017695744,-0.04721286,0.0
1439732392,-0.018064275,0.023832792,-0.03171968,0.037106365,0.017652614,-0.046959143,0.0
1439764262,-0.026348963,0.02194106,-0.036545347,0.03713249,0.017632438,-0.046692763,0.0
1439796334,0.0056460183,0.017186878,-0.0387432,0.037128102,0.01763494,-0.046411533,0.0
1439829101,0.0069248187,-0.0223829,-0.018982228,0.03711122,0.017668217,-0.04614512,0.0
1439861117,0.009036153,-0.020683786,-0.030043984,0.037068393,0.017721992,-0.04587365,0.0
1439893150,0.009163335,-0.016723016,-0.03189064,0.03701621,0.017790813,-0.04558661,0.0
1439921127,0.01748808,-0.018723955,-0.02207232,0.036965463,0.017852701,-0.045344505,0.0
1439953119,-0.00496718,-0.022999529,-0.02325704,0.03692279,0.017926134,-0.045073166,0.0
1439985061,-0.02492971,-0.00038394192,-0.030498888,0.036884915,0.01799221,-0.044789005,0.0
1440017868,-0.010432022,-0.015761033,-0.015880786,0.03684611,0.01806339,-0.044524953,0.0
1440049877,0.0056409175,-0.0085176695,-0.01580128,0.036792763,0.018139012,-0.044262275,0.0
1440081917,-0.03160914,-0.01189328,-0.018494463,0.036735386,0.018240232,-0.04400364,0.0
1440113857,-0.025107859,-0.029322658,-0.017100474,0.036673978,0.01835836,-0.043746285,0.0
1440145889,-0.015712474,-0.02226277,-0.016901977,0.036616515,0.01848743,-0.043507118,0.0
1440177862,-0.019784389,-0.027415818,-0.0082486905,0.036566872,0.018636556,-0.04328499,0.0
1440209919,-0.036397845,-0.021102706,-0.017065413,0.03651396,0.018799499,-0.043058537,0.0
1440241869,-0.043247722,-0.008674949,-0.005420666,0.036461834,0.018961068,-0.042849176,0.0
1440273886,-0.022063902,-0.009299602,0.0021342603,0.036407184,0.01912291,-0.042656157,0.0
1440306720,-0.054072984,-0.011762782,-0.00064394623,0.036357205,0.01929955,-0.042495623,0.0
1440338692,-0.039249163,0.011821826,-0.00091015873,0.03630673,0.019458117,-0.04235071,0.0
1440370732,-0.023490233,0.033587843,0.0027313721,0.036242533,0.01959028,-0.04222242,0.0
1440402677,-0.03001397,0.052270725,0.012531515,0.036176402,0.019680642,-0.042103298,0.0
1440434749,-0.037716694,0.09341565,0.008188543,0.036097594,0.019717032,-0.04202174,0.0
1440466718,-0.04057143,0.09574955,0.021135215,0.036034785,0.019709995,-0.041977357,0.0
1440498760,-0.025204824,0.12197188,0.023270734,0.03597529,0.019655814,-0.041949466,0.0
1440531467,-0.068004966,0.13423897,0.02229775,0.03592241,0.019570738,-0.041968722,0.0
1440563465,-0.09019247,0.11085845,0.015744383,0.035903744,0.019475726,-0.041983165,0.0
1440595556,-0.10149586,0.09535072,0.022141643,0.03593743,0.01938093,-0.04202373,0.0
1440627511,-0.097666144,0.08095988,0.023810374,0.03600559,0.019296182,-0.04206403,0.0
1440659553,-0.08514355,0.059953492,0.024922805,0.03608437,0.019242333,-0.04211872,0.0
1440691488,-0.11432479,0.027836695,0.029201336,0.03618389,0.019223753,-0.042179108,0.0
1440723551,-0.0988431,0.034105632,0.023684196,0.03629478,0.019211505,-0.04223471,0.0
1440756317,-0.11051482,-0.002829396,0.020110259,0.036438983,0.019216402,-0.042302135,0.0
1440788315,-0.084207535,0.022527289,0.012638575,0.036567245,0.019211171,-0.04235722,0.0
1440820266,-0.09664577,0.010329741,0.011824083,0.036695275,0.019212041,-0.042413697,0.0
1440852296,-0.067447536,0.021561276,0.011691505,0.03680795,0.019203473,-0.04247054,0.0
1440884339,-0.08180385,0.006895462,0.010840137,0.03692843,0.019185511,-0.042538147,0.0
1440916346,-0.049004566,0.008425163,0.007326637,0.037038077,0.019172577,-0.042603794,0.0
1440948321,-0.032602638,0.015638836,0.021170966,0.037152026,0.019163258,-0.0426851,0.0
1440981062,-0.032707464,0.015605464,0.015398573,0.037274335,0.019161617,-0.042773824,0.0
1441013076,-0.028308416,-0.0038517797,0.026434941,0.037384022,0.019182302,-0.042853907,0.0
1441041067,-0.042975567,-0.007500107,0.011215237,0.037480664,0.019199835,-0.042943396,0.0
1441073142,-0.026500452,-0.022737151,0.008503382,0.037585586,0.019229192,-0.043016087,0.0
1441105114,-0.03372817,-0.021046106,0.0066054696,0.03770281,0.019270306,-0.043116983,0.0
1441137186,0.0030894428,-0.016062114,0.008716401,0.03780084,0.019322287,-0.043221734,0.0
1441169852,-0.025333613,-0.036975704,0.007146745,0.037904657,0.019403553,-0.04333008,0.0
1441201837,-0.003809229,-0.018608557,0.027782982,0.0380126,0.019493623,-0.043454804,0.0
1441233937,0.00377548,-0.017430142,0.018070366,0.038114335,0.019564386,-0.043592427,0.0
1441265887,0.018723004,-0.006709708,0.012298081,0.038198255,0.019617315,-0.043736078,0.0
1441297873,0.02506356,0.017749235,0.020819154,0.038270783,0.019645719,-0.043912217,0.0
1441329839,0.019333435,0.038506187,0.016820578,0.038345832,0.019641258,-0.0440628,0.0
1441361921,0.01178705,0.050561633,0.023002312,0.03844065,0.019607179,-0.044235744,0.0
1441393884,-0.005322275,0.0326671,0.018401155,0.038554575,0.019550018,-0.0444227,0.0
1441425920,0.014990806,0.048684817,0.01043962,0.038664203,0.019476652,-0.044597667,0.0
1441458719,-0.00056661305,0.034026414,0.03297339,0.038792595,0.019396286,-0.044830244,0.0
1441490702,0.001313453,0.044878416,0.0263821,0.03892634,0.019315226,-0.04506773,0.0
1441522726,-0.004129129,0.0466182,0.028513923,0.039088592,0.019217541,-0.045339033,0.0
1441554665,-0.017213944,0.039147966,0.013405333,0.039272472,0.019093376,-0.045586623,0.0
1441586725,-0.027645033,0.036721732,0.023030724,0.039479967,0.018953785,-0.045874674,0.0
1441618707,-0.018420579,0.018658143,0.011117624,0.03969768,0.018800361,-0.046146117,0.0
1441650744,-0.029406892,0.025113385,0.018871363,0.039931934,0.018637566,-0.046435002,0.0
1441683655,-0.0001926329,0.017835747,0.008701706,0.040177196,0.01847182,-0.04666987,0.0
1441715479,-0.006054823,-0.00059635844,0.01744791,0.040441718,0.018325962,-0.04689634,0.0
1441747507,0.038924124,-0.005469083,0.01296712,0.040676173,0.018199535,-0.04707038,0.0
1441779510,0.047259755,-0.028698312,0.007558405,0.040884405,0.018092569,-0.047229454,0.0
1441811524,0.07034075,-0.020895809,-0.001064121,0.041057907,0.017980231,-0.047361594,0.0
1441843474,0.07944235,-0.053023487,-0.013212426,0.041207504,0.017887697,-0.04745626,0.0
1441875447,0.0931423,-0.063048005,-0.017541163,0.041343518,0.017808504,-0.04754692,0.0
1441908276,0.07883943,-0.06715746,-0.023917869,0.04147393,0.017749859,-0.04758115,0.0
1441940334,0.11810493,-0.06183251,-0.03355797,0.041568514,0.017709104,-0.047562268,0.0
1441972354,0.08075363,-0.09108189,-0.014309989,0.041669656,0.0176913,-0.047563367,0.0
1442004275,0.08994116,-0.107673265,-0.031600047,0.041747704,0.017711509,-0.047546092,0.0
1442036280,0.092195526,-0.11830445,-0.02523334,0.041832004,0.01778339,-0.04750428,0.0
1442068302,0.08013455,-0.114382856,-0.028769728,0.04192094,0.01787316,-0.04746465,0.0
1442100307,0.08211748,-0.08966105,-0.02893829,0.04198526,0.017947586,-0.047352005,0.0
1442133073,0.07899045,-0.08347319,-0.035585783,0.042055663,0.018019184,-0.04726935,0.0
1442165117,0.05674971,-0.071650036,-0.029696256,0.042138588,0.018063733,-0.04714053,0.0
1442197189,0.075543836,-0.04306494,-0.036552984,0.042195503,0.018093694,-0.047007803,0.0
1442229162,0.089538515,-0.06111228,-0.029525371,0.04223166,0.018158028,-0.04687246,0.0
1442261067,0.054427702,-0.0813544,-0.03140534,0.042277303,0.018264718,-0.04672969,0.0
1442293117,0.067035526,-0.05714716,-0.026615998,0.042321663,0.018389517,-0.046606183,0.0
1442325884,0.057928037,-0.081630915,-0.01729185,0.042391486,0.018534502,-0.046455517,0.0
1442357876,0.059073657,-0.045712046,-0.022075132,0.042456936,0.018656205,-0.04635159,0.0
1442389909,0.027353799,-0.032719195,-0.020762336,0.042525116,0.018778492,-0.046229437,0.0
1442421843,0.024110457,-0.052859757,-0.022288581,0.042611334,0.018913733,-0.04610832,0.0
1442453878,0.016604394,-0.035134874,-0.014660709,0.042709786,0.019052293,-0.046026286,0.0
1442485867,0.041049846,-0.013808622,-0.0026374087,0.04279913,0.019192467,-0.045962438,0.0
1442517906,0.02082933,-0.021411218,-0.009626798,0.04287101,0.019340744,-0.045894586,0.0
1442549887,0.024841629,-0.008296177,0.00080152135,0.042948544,0.019473702,-0.045843747,0.0
1442582672,-0.0020536934,0.012408253,0.003979717,0.043053277,0.019584946,-0.045833703,0.0
1442614732,0.015607778,0.027701981,-4.6483474e-05,0.043170433,0.019679522,-0.0458452,0.0
1442646704,-0.007942227,0.022470819,-0.0061235414,0.0432912,0.019772032,-0.045829985,0.0
1442678760,-0.008406107,0.026776893,-0.00481099,0.04340449,0.019844277,-0.045831457,0.0
1442710688,-0.00607159,0.05276101,-0.0055658706,0.043514926,0.019894121,-0.04583284,0.0
1442742701,-0.006515076,0.046814516,-0.0047162473,0.04364132,0.019935863,-0.0458379,0.0
1442774716,-0.016276155,0.054429818,-0.0073594972,0.043767966,0.019961802,-0.045837753,0.0
1442807515,0.020192754,0.058239773,-0.0032221165,0.043887947,0.019979445,-0.04583503,0.0
1442839465,0.014880211,0.049637474,-0.0058812536,0.043988373,0.01999834,-0.045806848,0.0
1442871478,0.036559463,0.07228415,0.0036026896,0.044066593,0.020008782,-0.045771204,0.0
1442903501,0.02603226,0.06257883,-0.01013344,0.04414353,0.020001177,-0.04572794,0.0
1442935505,0.020114832,0.04979346,-0.0034928578,0.04423073,0.019986155,-0.045672767,0.0
1442968308,0.01592156,0.05959352,-0.0052946536,0.04433579,0.01996176,-0.045613658,0.0
1443000260,0.015698202,0.049309514,-0.008673667,0.044442013,0.01994516,-0.045556422,0.0
1443032334,-0.028267015,0.037445236,-0.011231136,0.044569653,0.019931942,-0.045483705,0.0
1443064321,-0.04788007,0.03673736,-0.015976012,0.04472719,0.019909061,-0.045405116,0.0
1443096313,-0.03562589,0.025570752,-0.014228899,0.044900697,0.019888462,-0.04532131,0.0
1443128269,-0.034128185,0.01092628,-0.010347395,0.045082398,0.019889252,-0.04525617,0.0
1443160266,-0.050154567,0.014325468,-0.011566445,0.045270037,0.01990371,-0.04519707,0.0
1443192353,-0.056613155,-0.0072468105,-0.010275191,0.04546661,0.019934343,-0.045131817,0.0
1443224332,-0.034110982,-0.0074564945,-0.010878991,0.045661505,0.01996236,-0.045090128,0.0
1443256294,-0.023892997,-0.018489188,-0.0152907185,0.045842413,0.020015711,-0.045018893,0.0
1443285244,0.013343095,-0.006837058,-0.0029750143,0.045978833,0.020067735,-0.044971056,0.0
1443317148,-0.001592741,-0.011991362,-0.0068114377,0.046109136,0.020128962,-0.044955164,0.0
1443349058,0.0014128772,-0.028488895,4.4623623e-05,0.04622878,0.020196686,-0.044926632,0.0
1443381138,0.015561298,-0.016610688,-0.003196955,0.046339024,0.020268597,-0.0449037,0.0
1443413135,0.035182957,0.010894423,-0.0024391913,0.046423882,0.020314261,-0.044906136,0.0
1443445942,0.006230086,0.02503206,0.0020125154,0.04650283,0.020314503,-0.044902492,0.0
1443477845,0.007860601,0.033436265,-0.010802107,0.046580013,0.020283319,-0.0448839,0.0
1443509848,0.010318483,0.04883924,0.0067275213,0.0466614,0.020228898,-0.044915475,0.0
1443541879,0.017752767,0.04962661,0.0035889428,0.04673599,0.020149525,-0.04492845,0.0
1443573841,0.031631634,0.061583765,0.0067849923,0.04678307,0.020054657,-0.04497956,0.0
1443605886,0.021667752,0.042996246,0.007653432,0.046818156,0.019952111,-0.04502629,0.0
1443637862,-0.0021359522,0.01669527,-0.0076300395,0.04685205,0.01985652,-0.0450207,0.0
1443669934,0.025337124,0.0066037686,-0.00096277473,0.04688961,0.019793442,-0.045002572,0.0
1443702709,0.015476157,0.004528351,0.0020506873,0.04693436,0.019745938,-0.04496279,0.0
1443734658,0.008630435,-0.011915932,0.0016187645,0.046968956,0.019717066,-0.044904485,0.0
1443766660,-0.024031974,-0.03637528,-0.007574252,0.047029864,0.019711247,-0.044834632,0.0
1443798679,-0.040612575,-0.038694546,-0.003269644,0.047115352,0.01971753,-0.044759694,0.0
1443830759,-0.020247767,-0.024134994,-0.004086056,0.047199864,0.019732818,-0.04468208,0.0
1443862662,-0.034131136,-0.03602092,-0.0062242104,0.047285777,0.01975517,-0.044583045,0.0
1443894670,-0.04115192,-0.014075371,-0.012386447,0.047356647,0.019757388,-0.04450614,0.0
1443926707,-0.051629193,-0.015659371,-0.006876589,0.04743194,0.019740716,-0.044451777,0.0
1443959533,-0.03602258,0.004207317,-0.015537949,0.04751286,0.019685172,-0.044378556,0.0
1443991496,-0.029655194,0.03884845,-0.009039563,0.047595408,0.019596614,-0.044316236,0.0
1444023543,-0.019988773,0.038519524,-0.01076207,0.0476648,0.01947774,-0.04423965,0.0
1444055464,-0.048040133,0.019381125,-0.010037639,0.047743652,0.019345038,-0.044177763,0.0
1444087502,-0.02770523,0.030898072,-0.0050640632,0.047825903,0.01920978,-0.044105995,0.0
1444119499,-0.010345861,0.010788998,0.0070290025,0.047905862,0.019092245,-0.04405771,0.0
1444152319,-0.016253421,0.021975487,0.0058602393,0.04797894,0.01896101,-0.044045184,0.0
1444184324,-0.028791204,0.011943671,0.008866061,0.048049014,0.01882589,-0.04403225,0.0
1444216306,-0.02794571,-0.04105426,0.010782514,0.048137177,0.018719904,-0.044027567,0.0
1444248352,-0.02999861,-0.02303352,0.0046229283,0.04822887,0.01863344,-0.04401336,0.0
1444280318,-0.029821636,-0.0026052017,0.00867494,0.048330095,0.018546721,-0.044006992,0.0
1444312362,-0.025143167,-0.024844304,0.0036413127,0.04842409,0.018457046,-0.044006746,0.0
1444344251,-0.044787344,-0.041977007,0.0020938744,0.048531163,0.018379252,-0.0440068,0.0
1444376343,-0.022453502,-0.042966876,0.0011154246,0.048634805,0.018317856,-0.043973453,0.0
1444409170,-0.0075002154,-0.053513873,0.0026682627,0.048733383,0.018295048,-0.043936506,0.0
1444441074,0.0014967115,-0.03325463,0.0069378596,0.048814498,0.018271467,-0.043877285,0.0
1444473123,0.00069439807,-0.039147347,0.012735769,0.048889082,0.018246721,-0.04387545,0.0
1444505080,0.01109623,-0.07775469,0.0045751724,0.04895228,0.01825639,-0.043830935,0.0
1444537161,0.012977086,-0.08239964,0.008017714,0.049009934,0.0183037,-0.04380426,0.0
1444569052,0.023165299,-0.054835502,0.017258469,0.0490524,0.018364761,-0.04380202,0.0
1444601882,-0.0013004526,-0.060315356,0.014952487,0.049110223,0.01843452,-0.043856315,0.0
1444633882,-0.015000695,-0.078718916,0.013657468,0.049197335,0.018515019,-0.043884423,0.0
1444665869,-0.009468166,-0.061404716,0.018392844,0.049297113,0.018608715,-0.04392768,0.0
1444697878,0.033128254,-0.0518995,0.012105186,0.049355708,0.01871244,-0.04397512,0.0
1444729832,0.018944703,-0.040008493,0.017107869,0.049384974,0.018812621,-0.044025794,0.0
1444761872,0.015464746,-0.024220798,0.01987989,0.049401063,0.018906647,-0.04407585,0.0
1444793883,0.012203572,-0.020895224,0.015273674,0.049437914,0.018989634,-0.044176366,0.0
1444825917,0.006606682,-0.002824188,0.013114226,0.049494423,0.019049533,-0.044263672,0.0
1444858679,-0.010986102,0.029456254,0.022499973,0.04956351,0.01907052,-0.04438349,0.0
1444890685,-0.022713179,0.026041672,0.015355765,0.049643934,0.01907361,-0.04450202,0.0
1444922724,-0.05145972,0.019876419,0.01691499,0.049759883,0.019067965,-0.044634048,0.0
1444954715,-0.03269298,0.018952599,0.015930537,0.049876384,0.019078143,-0.044803917,0.0
1444986677,-0.0066413195,-0.00035723858,0.007913326,0.049977314,0.019108595,-0.044915427,0.0
1445018690,-0.016597783,0.007140273,0.016585343,0.05007011,0.01913846,-0.045083422,0.0
1445050694,-0.0073329015,0.006890962,0.012660036,0.050163552,0.019188823,-0.045247614,0.0
1445082719,-0.015856162,-0.031152481,0.012860185,0.050271288,0.019272937,-0.045406554,0.0
1445115565,0.0013894944,0.007139258,0.010429937,0.050357535,0.019334199,-0.045545593,0.0
1445147483,0.015136369,-0.02491604,0.018799465,0.050425425,0.019417312,-0.045688424,0.0
1445179581,0.0014562815,0.004435578,0.0074649723,0.05047834,0.019493701,-0.045834396,0.0
1445211529,0.029466938,-0.0025706976,-0.00238968,0.050514378,0.019575434,-0.045936137,0.0
1445243529,0.020800883,-0.023955842,0.009867683,0.050532356,0.019666843,-0.046087854,0.0
1445275476,0.025279084,0.0033260793,-0.0010336693,0.05054162,0.019745838,-0.046198603,0.0
1445303529,0.023487529,0.015727276,0.0034663423,0.05056618,0.019827802,-0.04626206,0.0
1445336249,0.020269766,-0.024368312,0.0021008425,0.05061196,0.019948754,-0.046385042,0.0
1445368265,-0.00936758,-0.012696641,0.0018858163,0.050677076,0.020084666,-0.046465684,0.0
1445400328,0.0067951526,0.011518486,-0.012275113,0.05075265,0.020206196,-0.046526127,0.0
1445432380,0.00050018413,0.01612888,-0.0031958912,0.050830796,0.020299518,-0.046586234,0.0
1445464311,0.01051529,0.037492856,-0.013586519,0.050881814,0.0203787,-0.04663228,0.0
1445496276,0.016750747,0.012061415,-0.008936125,0.050912414,0.020477014,-0.046665173,0.0
1445528354,0.017712552,0.04178805,-0.00774532,0.05093049,0.020554768,-0.046699934,0.0
1445561111,0.038794138,0.05968749,0.000666013,0.050945114,0.020604469,-0.04672842,0.0
1445593128,0.02881399,0.04569443,-0.0011143114,0.05095282,0.020646762,-0.046762995,0.0
1445625068,0.013639475,0.05066948,-0.00045441487,0.050951242,0.020692708,-0.046827514,0.0
1445657109,0.018005693,0.04970966,-0.001200778,0.050956856,0.020742146,-0.046865854,0.0
1445689127,0.018504411,0.042946577,-0.0072711245,0.05096341,0.020795641,-0.046906687,0.0
1445721103,0.015080357,0.03492386,-0.007325285,0.05095908,0.020860316,-0.046941943,0.0
1445753937,0.010223569,0.02717768,-0.006995732,0.05095218,0.02094877,-0.04701686,0.0
1445785850,0.0024701844,0.04367413,-0.010546549,0.05094866,0.021020392,-0.047052894,0.0
1445817905,0.006878721,0.05011952,-0.019393504,0.050944407,0.021081481,-0.047070593,0.0
1445849885,0.013875237,0.058443345,-0.0057591014,0.050936453,0.021117764,-0.047093794,0.0
1445881843,0.0032256162,0.05523312,-0.0074567813,0.050933614,0.021135755,-0.04711759,0.0
1445913838,0.015188287,0.07416279,0.0050304243,0.05092833,0.02114926,-0.047161568,0.0
1445945825,0.017686887,0.069857,-0.006060088,0.050919555,0.021150162,-0.047199063,0.0
1445977866,-0.008386428,0.053431887,-0.0021032712,0.05091884,0.021146044,-0.04720834,0.0
1446009842,-0.0013527254,0.05406838,-0.008970384,0.05093167,0.021135142,-0.047202386,0.0
1446042800,-0.024282012,0.035511136,-0.00904578,0.050949268,0.021134492,-0.047212165,0.0
1446074670,-0.020275388,0.03584217,-0.016102009,0.05097372,0.021147158,-0.047205105,0.0
1446106733,-0.0122328205,0.0012037086,-0.00988827,0.05098683,0.021200627,-0.047220916,0.0
1446138683,-0.018531036,-0.0013905556,-0.013798859,0.050986744,0.021264,-0.04720489,0.0
1446170659,-0.0054783113,0.0025604598,-0.012090315,0.05098178,0.021335546,-0.047181264,0.0
1446202675,-0.0065601305,-0.005598177,-0.009085279,0.050992023,0.021419771,-0.04712961,0.0
1446235685,-0.012653739,0.0046160743,-0.012283275,0.051014643,0.021499172,-0.047097147,0.0
1446267542,-0.016039733,0.0053594783,-0.012268205,0.05103321,0.021562798,-0.047046475,0.0
1446299515,-0.031097554,-0.039691634,-0.007396682,0.051062267,0.021664215,-0.047028463,0.0
1446331551,-0.018151298,-0.04057333,-0.0027722905,0.05107575,0.021818591,-0.04701692,0.0
1446363476,0.005348606,-0.050289042,-0.00045360252,0.051081304,0.022005526,-0.047018442,0.0
1446395562,-0.01436059,-0.0084338775,0.0064624073,0.05108864,0.022160165,-0.04704628,0.0
1446427539,-0.01075255,0.013703708,0.010161847,0.05110435,0.022268968,-0.047094014,0.0
1446459571,-0.02738865,-0.010629626,0.016522469,0.051139504,0.02236221,-0.047193218,0.0
1446492297,-0.030160474,0.027340237,-0.0050058844,0.05116861,0.02243831,-0.047232866,0.0
1446524307,-0.037481703,0.029611195,0.0020622131,0.051217288,0.022512566,-0.047306597,0.0
1446556345,-0.05749124,0.021260152,-0.0044360887,0.051282316,0.022574628,-0.04736643,0.0
1446588265,-0.06482518,0.01876347,-0.005668549,0.051369645,0.0226348,-0.047413975,0.0
1446620325,-0.039843936,0.017171053,-0.0067517753,0.05146707,0.022700395,-0.047447752,0.0
1446652299,-0.07189658,0.007651658,-0.008028887,0.051598586,0.022786045,-0.047477927,0.0
1446684354,-0.06338062,-0.0004946913,-0.00884621,0.051738434,0.02290061,-0.047527835,0.0
1446717189,-0.052180048,-0.02040104,-0.001089558,0.051896386,0.023042353,-0.04752444,0.0
1446749068,-0.055716638,-0.011088087,-0.002737389,0.05206116,0.023191502,-0.04750973,0.0
1446781102,-0.051602244,-0.022222416,-0.0054681255,0.052249856,0.023364952,-0.04748822,0.0
1446813125,-0.07483703,-0.034869306,-0.0057798987,0.052475646,0.023559203,-0.047463022,0.0
1446845179,-0.026366701,-0.0060078977,-0.008838482,0.052678008,0.023744287,-0.047436643,0.0
1446877126,0.0017573878,0.028454218,-0.0036128492,0.052847516,0.023896497,-0.047390744,0.0
1446909878,0.015085952,0.020601863,-0.011815723,0.052977163,0.024017092,-0.04734124,0.0
1446941859,0.0020103236,0.017704839,-0.013658769,0.053088382,0.024125816,-0.04723638,0.0
1446973881,0.04929672,0.05301998,-0.005378725,0.053192656,0.024224406,-0.047169935,0.0
1447005839,0.06782196,0.046964623,-0.010071073,0.053283464,0.02432672,-0.047067586,0.0
1447037844,0.04547871,0.021954795,-0.018490147,0.053359475,0.024413355,-0.046999715,0.0
1447069851,0.023940884,0.033624142,-0.0012922098,0.053454824,0.02449465,-0.046916656,0.0
1447101891,0.057739463,0.032301962,-0.0011391689,0.053548474,0.024605634,-0.04688214,0.0
1447134758,0.04207537,0.017724086,-0.0017749537,0.05364694,0.024737386,-0.04685228,0.0
1447166679,0.057617616,0.031899206,-0.0054483525,0.05370324,0.02483171,-0.046812348,0.0
1447198719,0.0665234,0.022578849,-0.0056049107,0.053733785,0.024923814,-0.04678571,0.0
1447230682,0.045135047,0.023239419,-0.0040454594,0.05378101,0.02501791,-0.046718713,0.0
1447262759,0.018050255,0.038416784,-0.006255038,0.05385975,0.02510004,-0.046671476,0.0
1447294669,0.03156503,0.03672156,-0.018623339,0.053944763,0.02516338,-0.04660382,0.0
1447326670,0.027013443,0.021130793,-0.014844359,0.054032985,0.025228672,-0.04651485,0.0
1447358678,-0.0011771244,0.012941668,-0.003957079,0.054136015,0.02530077,-0.046452206,0.0
1447391506,-0.013302927,0.035323106,-0.025466684,0.054249354,0.02536194,-0.04636238,0.0
1447423577,0.014962915,0.058066852,-0.01747891,0.054363884,0.025370015,-0.046253715,0.0
1447455475,0.005005924,0.05644509,-0.015582624,0.054472387,0.025335824,-0.046156045,0.0
1447487506,0.01087195,0.047771335,-0.012455557,0.054564167,0.02529205,-0.04603245,0.0
1447519510,0.005698788,0.06280209,-0.021183368,0.05465619,0.025239212,-0.045943357,0.0
1447551555,0.008557746,0.05244046,-0.014053525,0.054744374,0.025166718,-0.045793153,0.0
1447583461,0.005941938,0.017021477,-0.0033759866,0.054837584,0.025103696,-0.045760367,0.0
1447616262,0.039489962,0.002448453,-0.007892373,0.05492151,0.025078872,-0.045702633,0.0
1447648308,0.0402855,-0.0046562157,-0.008463527,0.054957382,0.025074312,-0.045654014,0.0
1447680314,0.06551358,-0.023274055,-0.008994897,0.05494778,0.025076633,-0.045585833,0.0
1447712394,0.03736781,-0.04613087,-0.0122941695,0.054941718,0.02509217,-0.045499306,0.0
1447744261,0.054162517,-0.04516405,-0.01728791,0.054944403,0.025119323,-0.045428835,0.0
1447776283,0.033446103,-0.039005715,-0.0045900317,0.054964468,0.025163958,-0.045344595,0.0
1447808318,0.030488145,-0.05667558,-0.015636181,0.054975003,0.025218932,-0.04525713,0.0
1447840332,0.016892731,-0.07336497,-0.014010152,0.05498729,0.025285628,-0.045159087,0.0
1447873077,0.045273893,-0.052374918,0.0047418717,0.0550074,0.02534916,-0.045114048,0.0
1447905066,0.041979387,-0.054815628,0.0005889449,0.05500312,0.025411075,-0.04501117,0.0
1447937162,0.058515616,-0.07242677,0.004534066,0.054965157,0.025492763,-0.044977706,0.0
1447969100,0.045065142,-0.06563708,0.0060064886,0.05492065,0.025578039,-0.044933338,0.0
1448001120,0.017937114,-0.062932886,0.00041559152,0.054901667,0.025661442,-0.044859957,0.0
1448033864,0.008080811,-0.068482816,0.00093922205,0.054912616,0.02576463,-0.044803023,0.0
1448065874,-0.013292799,-0.08628755,-0.0019722783,0.054953072,0.02588089,-0.044759866,0.0
1448097895,-0.017666247,-0.045271024,-0.00034370366,0.055000685,0.02597363,-0.044741552,0.0
1448129896,-0.014504069,-0.02512273,-0.001458419,0.055052027,0.026040738,-0.044721864,0.0
1448161854,-0.03128173,-0.035312936,0.0027186924,0.055109736,0.026079224,-0.04468523,0.0
1448193843,-0.03709892,-0.02576743,-0.00015702494,0.05518515,0.026103254,-0.044681076,0.0
1448225884,-0.01299628,-0.017127428,-0.0082509965,0.055253044,0.02613789,-0.044639494,0.0
1448257889,-0.012834451,-0.020996988,-0.0009707904,0.05532476,0.026173688,-0.044625174,0.0
1448289885,-0.017228981,-0.024923844,-0.0008992774,0.055393808,0.026212689,-0.044586718,0.0
1448322685,0.008010495,-0.04248781,-0.004973672,0.055453427,0.026267856,-0.044508107,0.0
1448354681,0.010218086,-0.03460423,0.018443584,0.05551671,0.026327575,-0.044473175,0.0
1448386687,0.027468273,-0.026074838,0.005734766,0.055547696,0.026383515,-0.04443043,0.0
1448418669,0.019990562,-0.050521355,0.0017223265,0.05556611,0.026448524,-0.04438555,0.0
1448450715,0.01988997,-0.046900503,0.0087871775,0.055586547,0.026509821,-0.04435367,0.0
1448482689,0.009164133,-0.026831621,0.0009996279,0.055612046,0.026570488,-0.04432159,0.0
1448514713,0.015504617,-0.043913517,-0.0015722974,0.055626404,0.026638858,-0.044288978,0.0
1448547488,-0.010915495,-0.042523958,0.0039717923,0.05564865,0.02669322,-0.044255484,0.0
1448579507,0.0032934323,-0.040540732,-0.00078932615,0.05566631,0.02674584,-0.044219457,0.0
1448611508,0.007931742,-0.04285028,0.012423653,0.05568369,0.026815621,-0.044211794,0.0
1448643579,0.0016125976,-0.049339376,0.0048198225,0.05570421,0.026890911,-0.044185113,0.0
1448675513,0.006902767,-0.042097665,0.014181451,0.055713948,0.026960965,-0.044178825,0.0
1448707472,0.019825928,-0.024877997,0.010474004,0.05571645,0.027017122,-0.044184703,0.0
1448740256,-0.01702648,-0.06918973,0.012197582,0.055735905,0.027084608,-0.044171046,0.0
1448772271,-0.012836555,-0.027963651,-0.00053058425,0.05574098,0.027127314,-0.044180356,0.0
1448804333,-0.012576822,-0.033335283,-0.001905496,0.05576615,0.027175486,-0.04415708,0.0
1448836322,-0.036606725,-0.05486911,-0.011379862,0.055800106,0.027231812,-0.04412759,0.0
1448868270,-0.037018515,-0.03451533,-0.0006058845,0.05584667,0.027277654,-0.044081315,0.0
1448900280,-0.015798131,-0.025186991,-0.007619184,0.05588195,0.027322125,-0.044052076,0.0
1448932387,-0.02790866,-0.04167497,0.0005678807,0.05591602,0.027358549,-0.044022005,0.0
1448964309,-0.01856731,-0.007934879,-0.004154047,0.05594296,0.02736728,-0.043984763,0.0
1448993127,-0.019623186,-0.013869738,0.0016003072,0.055973724,0.027371818,-0.04396275,0.0
1449025127,0.0012773399,-0.032081835,0.0012340122,0.056000583,0.027382758,-0.04394359,0.0
1449057104,-0.028172867,-0.025277741,-0.001201083,0.056043167,0.027388826,-0.043913532,0.0
1449089076,-0.009189283,-0.0028546855,0.0044752443,0.05607731,0.027392479,-0.043929882,0.0
1449121119,-0.02480647,-0.045892335,0.006693181,0.056122206,0.02739993,-0.04389201,0.0
1449153135,-0.017984383,-0.02769971,-0.008804599,0.056161158,0.027399542,-0.04384723,0.0
1449185876,0.00019484526,-0.012968971,-0.0003060603,0.056198176,0.027399994,-0.043764614,0.0
1449217919,0.0025744836,-0.026107013,-0.0012123615,0.056228213,0.027402358,-0.04367935,0.0
1449249907,-0.02841729,-0.023391359,-0.010327026,0.056271426,0.027396545,-0.043569125,0.0
1449282028,0.0007172077,-0.0095441695,-0.005944374,0.05630858,0.027390372,-0.04346056,0.0
1449313837,-0.015943188,-0.033364367,-0.007928463,0.056365635,0.027401708,-0.043345757,0.0
1449345841,-0.012510026,-0.0344868,-0.009219989,0.05641554,0.027415412,-0.04325507,0.0
1449377835,-0.017509455,-0.03611646,-0.011208873,0.056456663,0.027441505,-0.043199006,0.0
1449406678,0.002901247,-0.048061725,0.005577264,0.05648264,0.027480075,-0.0431381,0.0
1449438678,0.008081956,-0.031154254,0.011685111,0.056524772,0.02752642,-0.04309808,0.0
1449470707,-0.010625986,-0.032046527,0.006363625,0.05658098,0.02757159,-0.043063004,0.0
1449502718,-0.00039536145,-0.028461536,0.0035287587,0.056625623,0.027601734,-0.043041743,0.0
1449534665,-0.00015002396,-0.020327818,0.0025343124,0.056666963,0.027623255,-0.04303249,0.0
1449566715,-0.028697928,-0.015838508,0.008725451,0.05673825,0.027653318,-0.04301716,0.0
1449598717,-0.028314736,-0.03455809,0.005699817,0.056817397,0.027694728,-0.04301952,0.0
1449630757,0.0003294428,-0.013004704,-0.0014043762,0.056883045,0.027732726,-0.043010373,0.0
1449663477,-0.015352422,-0.028119272,0.0020297288,0.056957982,0.027790148,-0.04301899,0.0
1449695467,-0.022775581,-0.014108611,0.013733364,0.057019126,0.027845502,-0.04308384,0.0
1449727505,-0.0075981175,-0.024487497,0.006521399,0.057079073,0.027915595,-0.043145694,0.0
1449759505,-0.024823895,-0.027069578,0.015226906,0.05716765,0.027985608,-0.043206785,0.0
1449791527,-0.012471279,-0.007115446,0.005884773,0.057262164,0.028050674,-0.043261655,0.0
1449823482,-0.0061016693,0.0060970215,0.020106018,0.05734821,0.028113853,-0.043357555,0.0
1449855509,-0.020399667,-0.035457466,0.008044887,0.057444777,0.028202338,-0.043456174,0.0
1449887509,-0.033661123,-0.006969178,0.024293989,0.057563975,0.028301882,-0.04358287,0.0
1449920316,0.015154178,0.009263106,0.017578037,0.057683542,0.028404528,-0.043751907,0.0
1449952298,-0.008015698,-0.006954603,0.030442083,0.057796948,0.028504347,-0.043921392,0.0
1449984236,-0.0011425418,0.008463727,0.020046685,0.05788704,0.028592974,-0.04411502,0.0
1450016282,0.0029754671,0.013359752,0.01513396,0.057979833,0.028695583,-0.044335682,0.0
1450048296,0.0070546176,0.02342739,0.021367766,0.058080394,0.028802374,-0.044503607,0.0
1450080262,0.016596822,0.04174985,0.014878684,0.058169287,0.0288928,-0.04470683,0.0
1450113068,0.030656407,0.02471288,0.0063288035,0.05821733,0.028976817,-0.04485945,0.0
1450145111,0.03261039,0.024495753,-0.0052507417,0.058237273,0.029058738,-0.044996604,0.0
1450177128,0.03030177,0.02628864,0.008577843,0.05825522,0.029165976,-0.04511226,0.0
1450209185,0.07298483,0.034531686,-0.0151457945,0.058253776,0.029302858,-0.045197323,0.0
1450241072,0.07617781,0.0075780232,0.007918561,0.058232736,0.029469881,-0.045277018,0.0
1450273104,0.08380957,0.009147566,-0.021360502,0.058149643,0.029651785,-0.045304317,0.0
1450305937,0.07056863,0.032427475,-0.021785265,0.058046814,0.029840756,-0.045277517,0.0
1450337889,0.06491594,0.038160168,-0.028838646,0.05794218,0.030017098,-0.045211587,0.0
1450369902,0.02847412,0.03850648,-0.022767719,0.05785117,0.030187324,-0.045139205,0.0
1450401871,0.046102673,0.07884074,-0.034878224,0.05773932,0.030317388,-0.045037884,0.0
1450433947,0.012432683,0.061361045,-0.016361402,0.057656337,0.030461201,-0.044965647,0.0
1450465898,0.005774677,0.076751016,-0.022976788,0.057587437,0.030595709,-0.044891305,0.0
1450497876,-0.0014857202,0.10486193,-0.027695645,0.057515666,0.030704366,-0.04478376,0.0
1450529842,0.027901238,0.10949338,-0.013460144,0.05742137,0.03078454,-0.044671845,0.0
1450561986,-0.011590599,0.10326807,-0.028260292,0.057342604,0.03084544,-0.044552185,0.0
1450594717,-0.044324193,0.1087504,-0.035309274,0.05730777,0.030904364,-0.0444185,0.0
1450626740,-0.06349271,0.122815005,-0.027217796,0.05730659,0.030935595,-0.044281278,0.0
1450658725,-0.05628045,0.12773135,-0.026393684,0.057322737,0.0309585,-0.044151615,0.0
1450690682,-0.100276865,0.10143465,-0.00975266,0.057383515,0.03096855,-0.044117413,0.0
1450722751,-0.1155555,0.14478453,0.010113036,0.05749727,0.03094559,-0.044118315,0.0
1450754705,-0.121855326,0.14408134,0.004011147,0.057664406,0.030893434,-0.044166345,0.0
1450786705,-0.100757785,0.12273723,0.017871682,0.05785161,0.030820273,-0.044241548,0.0
1450819467,-0.10064415,0.113153905,0.02133703,0.058040652,0.030753914,-0.044390082,0.0
1450851531,-0.07125853,0.08864182,0.014656398,0.058197595,0.030717792,-0.044498377,0.0
1450883539,-0.069183365,0.08186661,0.016289134,0.05836145,0.030699436,-0.04460971,0.0
1450915516,-0.03362946,0.07873998,0.007673816,0.058502164,0.030673992,-0.04472879,0.0
1450947469,-0.019076493,0.042428,0.0047175726,0.058618788,0.03064578,-0.04479618,0.0
1450979497,-0.0013436335,0.07092959,0.014454478,0.058703642,0.03060595,-0.04489486,0.0
1451011541,0.021364057,0.07299233,-0.0035090055,0.05875715,0.0305604,-0.04492643,0.0
1451044308,0.0061283377,0.028333131,0.008942094,0.05880415,0.030530965,-0.044984773,0.0
1451076241,0.03021012,0.060986467,0.00023282669,0.05885521,0.030488493,-0.045032516,0.0
1451108253,0.037536975,0.044343688,-0.00066354196,0.05889562,0.03044428,-0.045034684,0.0
1451140281,0.03251485,0.027873019,-0.008473925,0.058926485,0.030407887,-0.045034956,0.0
1451172320,0.01045431,0.06999897,-0.00806889,0.058962423,0.030335365,-0.04499785,0.0
1451204301,0.020237476,0.081704155,-0.003407036,0.05901987,0.030217038,-0.044973664,0.0
1451236273,-0.022607813,0.053352505,-0.0034293812,0.059118006,0.030071983,-0.044965725,0.0
1451268278,0.017099563,0.09526548,-0.0014567359,0.059217114,0.029897647,-0.04497468,0.0
1451301146,0.005925598,0.0774184,0.009011472,0.059313457,0.02970253,-0.04499647,0.0
1451333101,-0.022855075,0.09031762,-0.010202647,0.059407126,0.029462682,-0.04503362,0.0
1451365116,-0.023351768,0.09875108,0.005677934,0.059532527,0.029188743,-0.04510349,0.0
1451397113,0.0066626603,0.0624364,-0.0028455055,0.059664756,0.028917193,-0.04515913,0.0
1451429110,0.020540386,0.049752593,0.0004195019,0.059770063,0.02866322,-0.045168005,0.0
1451462011,0.051900744,0.02002224,-0.018607322,0.05981043,0.028420616,-0.04518222,0.0
1451493874,0.04373778,-0.008340059,-0.007678843,0.059827507,0.028221125,-0.045128707,0.0
1451525919,0.0667444,-0.028417615,-0.0053006667,0.05982802,0.028051542,-0.04512123,0.0
1451557894,0.07506033,-0.05414602,-0.00678533,0.059813496,0.027925894,-0.045044407,0.0
1451589932,0.058480155,-0.04990592,-0.009185426,0.059786353,0.027801787,-0.044968534,0.0
1451621899,0.046488665,-0.072602585,-0.009879119,0.059775755,0.027686674,-0.04486349,0.0
1451653886,0.023852756,-0.10106588,-0.009842239,0.059782065,0.02761454,-0.044774607,0.0
1451685850,0.038700417,-0.1166034,-0.020470055,0.059787046,0.027616939,-0.044658046,0.0
1451717916,0.029776175,-0.14393571,-0.028714601,0.059786536,0.027678696,-0.044469528,0.0
1451750733,0.043413732,-0.15115394,-0.031568367,0.05976301,0.027786683,-0.04426446,0.0
1451782674,0.04708679,-0.17468995,-0.023521975,0.059729915,0.027939629,-0.044022907,0.0
1451810717,0.03942028,-0.16666648,-0.030920897,0.05968202,0.02810868,-0.043830454,0.0
1451842662,0.046756674,-0.13760582,-0.03829503,0.059605625,0.028298365,-0.043560732,0.0
1451874656,0.059569523,-0.11599243,-0.028101929,0.059516266,0.02847111,-0.0432895,0.0
1451906687,0.078273505,-0.08077404,-0.028755974,0.059406273,0.028614825,-0.04299325,0.0
1451938747,0.043605153,-0.086557865,-0.028312305,0.05929432,0.028771473,-0.042701636,0.0
1451971473,0.011872204,-0.049727097,-0.022706551,0.059202265,0.028938573,-0.04244807,0.0
1452003540,0.0046711885,0.008474274,-0.014141176,0.059151545,0.029042738,-0.04222127,0.0
1452035518,0.011405213,0.037385713,-0.011612156,0.059106212,0.029068321,-0.04204819,0.0
1452067552,-0.0077983504,0.027571201,-0.0052782143,0.05906467,0.029068181,-0.041906916,0.0
1452099474,-0.013917245,0.03135099,0.0043753083,0.059044342,0.029084895,-0.04179108,0.0
1452131466,-0.0028315452,0.005261462,0.020306366,0.059041843,0.029151546,-0.04173122,0.0
1452163525,-0.009981606,-0.00687959,0.006463103,0.059032395,0.029247766,-0.041673444,0.0
1452192315,-0.00031405617,-0.045497008,0.013979746,0.059002966,0.029373618,-0.041658025,0.0
1452224314,0.0016244274,-0.076280594,0.010108044,0.058970302,0.029581968,-0.04159138,0.0
1452256268,-0.017683899,-0.07823681,-0.0010330179,0.058970988,0.029860513,-0.041537605,0.0
1452288331,-0.028303199,-0.07669441,-0.003010384,0.058986384,0.030173494,-0.041458465,0.0
1452320265,-0.013759869,-0.06324064,-0.009478756,0.05900126,0.030493118,-0.041353,0.0
1452352329,-0.0010431851,-0.029297493,0.0077149104,0.05899753,0.030808244,-0.041277256,0.0
1452384295,-0.04168903,-0.018234648,0.008666876,0.059024554,0.031107325,-0.041229155,0.0
1452416363,-0.044297278,0.030380191,0.0033258845,0.05905731,0.03135989,-0.041183703,0.0
