timestamp,voltage_v,voltage_filtered_v,current_a,current_filtered_a,average_current_a,discharged_mah,remaining,scale,temperature,cell_count,capacity,cycle_count,run_time_to_empty,average_time_to_empty,serial_number,connected,system_source,priority,is_powering_off,warning
1244762606,25.124893,25.115131,0.0744,0.06738605,0.0,21.70891,1.0,1.0,0.0,6,0,0,0,0,0,1,1,0,0,0
1245254538,25.0845,25.104446,0.062,0.06764359,0.0,21.71825,1.0,1.0,0.0,6,0,0,0,0,0,1,1,0,0,0
1245770750,24.55938,25.078243,0.062,0.06752815,0.0,21.727888,1.0,1.0,0.0,6,0,0,0,0,0,1,1,0,0,0
1246274624,24.660364,24.797615,0.062,0.06759253,0.0,21.737307,1.0,1.0,0.0,6,0,0,0,0,0,1,1,0,0,0
1246766726,24.498789,24.702341,0.062,0.06568046,0.0,21.74611,1.0,1.0,0.0,6,0,0,0,0,0,1,1,0,0,0
1247270595,24.478592,24.630037,0.0744,0.06831619,0.0,21.755985,1.0,1.0,0.0,6,0,0,0,0,0,1,1,0,0,0
1247774472,24.418003,24.573944,0.0744,0.0678233,0.0,21.765404,1.0,1.0,0.0,6,0,0,0,0,0,1,1,0,0,0
1248278562,24.418003,24.523275,0.0744,0.06741906,0.0,21.774742,1.0,1.0,0.0,6,0,0,0,0,0,1,1,0,0,0
1248782587,24.4382,24.488358,0.062,0.06676163,0.0,21.78409,1.0,1.0,0.0,6,0,0,0,0,0,1,1,0,0,0
1249286550,24.4382,24.46811,0.049599998,0.06622093,0.0,21.793354,1.0,1.0,0.0,6,0,0,0,0,0,1,1,0,0,0
1249790489,24.397806,24.454813,0.0744,0.0668008,0.0,21.80273,1.0,1.0,0.0,6,0,0,0,0,0,1,1,0,0,0
1253318597,24.357412,24.395205,0.0744,0.06788689,0.0,21.868591,1.0,1.0,0.0,6,0,0,0,0,0,1,1,0,0,0
1253822548,24.337215,24.369995,0.062,0.06733886,0.0,21.877928,1.0,1.0,0.0,6,0,0,0,0,0,1,1,0,0,0
1254326586,24.256428,24.342876,0.0744,0.06723441,0.0,21.887354,1.0,1.0,0.0,6,0,0,0,0,0,1,1,0,0,0
1254830505,24.317019,24.32766,0.0744,0.06680941,0.0,21.896605,1.0,1.0,0.0,6,0,0,0,0,0,1,1,0,0,0
1255334510,24.317019,24.323645,0.062,0.065591805,0.0,21.90574,1.0,1.0,0.0,6,0,0,0,0,0,1,1,0,0,0
1255838547,24.37761,24.329433,0.0744,0.065238535,0.0,21.91488,1.0,1.0,0.0,6,0,0,0,0,0,1,1,0,0,0
1256342620,24.357412,24.337715,0.062,0.06638118,0.0,21.9243,1.0,1.0,0.0,6,0,0,0,0,0,1,1,0,0,0
1256846489,24.357412,24.34279,0.062,0.066926904,0.0,21.93364,1.0,1.0,0.0,6,0,0,0,0,0,1,1,0,0,0
1257350729,24.357412,24.336277,0.062,0.06592967,0.0,21.942772,1.0,1.0,0.0,6,0,0,0,0,0,1,1,0,0,0
1257854621,24.276625,24.3321,0.049599998,0.06562699,0.0,21.951948,1.0,1.0,0.0,6,0,0,0,0,0,1,1,0,0,0
1258358610,24.256428,24.318125,0.062,0.0659693,0.0,21.961208,1.0,1.0,0.0,6,0,0,0,0,0,1,1,0,0,0
1258862718,24.296822,24.306,0.062,0.06518668,0.0,21.97026,1.0,1.0,0.0,6,0,0,0,0,0,1,1,0,0,0
1259366499,24.256428,24.288666,0.0744,0.065824606,0.0,21.979519,1.0,1.0,0.0,6,0,0,0,0,0,1,1,0,0,0
1259870561,24.317019,24.28652,0.049599998,0.0664232,0.0,21.988945,1.0,1.0,0.0,6,0,0,0,0,0,1,1,0,0,0
1260374591,24.296822,24.29316,0.0744,0.066646025,0.0,21.998283,1.0,1.0,0.0,6,0,0,0,0,0,1,1,0,0,0
1260878487,24.317019,24.300228,0.0868,0.06707108,0.0,22.00771,1.0,1.0,0.0,6,0,0,0,0,0,1,1,0,0,0
1261382539,24.276625,24.29503,0.062,0.06747792,0.0,22.01722,1.0,1.0,0.0,6,0,0,0,0,0,1,1,0,0,0
1261886483,24.23623,24.27584,0.062,0.067169756,0.0,22.026602,1.0,1.0,0.0,6,0,0,0,0,0,1,1,0,0,0
1262390625,24.135246,24.244577,0.049599998,0.06483154,0.0,22.035574,1.0,1.0,0.0,6,0,0,0,0,0,1,1,0,0,0
1262894563,24.11505,24.21502,0.062,0.06553617,0.0,22.044796,1.0,1.0,0.0,6,0,0,0,0,0,1,1,0,0,0
1263398571,24.17564,24.200161,0.0744,0.06709783,0.0,22.054388,1.0,1.0,0.0,6,0,0,0,0,0,1,1,0,0,0
1263902581,24.155443,24.192434,0.062,0.06648855,0.0,22.063646,1.0,1.0,0.0,6,0,0,0,0,0,1,1,0,0,0
1264406499,24.155443,24.18203,0.0744,0.065741226,0.0,22.072693,1.0,1.0,0.0,6,0,0,0,0,0,1,1,0,0,0
1264910474,24.094852,24.167646,0.062,0.06617925,0.0,22.082035,1.0,1.0,0.0,6,0,0,0,0,0,1,1,0,0,0
1265414588,24.135246,24.162535,0.062,0.06605472,0.0,22.09125,1.0,1.0,0.0,6,0,0,0,0,0,1,1,0,0,0
1265918490,24.256428,24.180307,0.062,0.06537205,0.0,22.100336,1.0,1.0,0.0,6,0,0,0,0,0,1,1,0,0,0
1266422606,24.216034,24.193174,0.062,0.064548165,0.0,22.109308,1.0,1.0,0.0,6,0,0,0,0,0,1,1,0,0,0
1266926510,24.216034,24.20202,0.062,0.06534856,0.0,22.118525,1.0,1.0,0.0,6,0,0,0,0,0,1,1,0,0,0
1267430555,24.155443,24.202835,0.062,0.064728506,0.0,22.127457,1.0,1.0,0.0,6,0,0,0,0,0,1,1,0,0,0
1267934575,24.216034,24.210012,0.062,0.06493084,0.0,22.136663,1.0,1.0,0.0,6,0,0,0,0,0,1,1,0,0,0
1268438530,24.216034,24.21241,0.0744,0.06629896,0.0,22.146088,1.0,1.0,0.0,6,0,0,0,0,0,1,1,0,0,0
1268942722,24.23623,24.214289,0.062,0.06697006,0.0,22.15547,1.0,1.0,0.0,6,0,0,0,0,0,1,1,0,0,0
1269446669,24.17564,24.21158,0.062,0.06692552,0.0,22.164808,1.0,1.0,0.0,6,0,0,0,0,0,1,1,0,0,0
1269950615,24.195837,24.206274,0.099199995,0.066811204,0.0,22.174107,1.0,1.0,0.0,6,0,0,0,0,0,1,1,0,0,0
1270454614,24.155443,24.191868,0.062,0.066315725,0.0,22.183369,1.0,1.0,0.0,6,0,0,0,0,0,1,1,0,0,0
1270958618,24.17564,24.179045,0.062,0.06682113,0.0,22.192795,1.0,1.0,0.0,6,0,0,0,0,0,1,1,0,0,0
1271462446,24.17564,24.18721,0.062,0.06684601,0.0,22.202137,1.0,1.0,0.0,6,0,0,0,0,0,1,1,0,0,0
1271954739,23.933277,24.168623,0.062,0.066111155,0.0,22.211111,1.0,1.0,0.0,6,0,0,0,0,0,1,1,0,0,0
1272458513,24.195837,24.150627,0.062,0.06689469,0.0,22.220533,1.0,1.0,0.0,6,0,0,0,0,0,1,1,0,0,0
1272963298,24.195837,24.152163,0.062,0.06627762,0.0,22.229763,1.0,1.0,0.0,6,0,0,0,0,0,1,1,0,0,0
1273466620,24.195837,24.175697,0.062,0.06597404,0.0,22.238932,1.0,1.0,0.0,6,0,0,0,0,0,1,1,0,0,0
1273958534,24.23623,24.189987,0.062,0.066753924,0.0,22.248144,1.0,1.0,0.0,6,0,0,0,0,0,1,1,0,0,0
1274474743,24.195837,24.201818,0.062,0.06593142,0.0,22.257483,1.0,1.0,0.0,6,0,0,0,0,0,1,1,0,0,0
1274966752,24.195837,24.212965,0.0744,0.06659705,0.0,22.26662,1.0,1.0,0.0,6,0,0,0,0,0,1,1,0,0,0
1275470457,24.276625,24.216507,0.0744,0.066499464,0.0,22.27587,1.0,1.0,0.0,6,0,0,0,0,0,1,1,0,0,0
1275974506,24.155443,24.210121,0.0744,0.06671125,0.0,22.28521,1.0,1.0,0.0,6,0,0,0,0,0,1,1,0,0,0
1276478524,24.195837,24.20228,0.0744,0.067660406,0.0,22.29475,1.0,1.0,0.0,6,0,0,0,0,0,1,1,0,0,0
1276982777,24.195837,24.191847,0.062,0.06522475,0.0,22.303642,1.0,1.0,0.0,6,0,0,0,0,0,1,1,0,0,0
1277486493,24.11505,24.175335,0.0744,0.06599087,0.0,22.312897,1.0,1.0,0.0,6,0,0,0,0,0,1,1,0,0,0
1277978785,24.155443,24.151295,0.0744,0.06673604,0.0,22.322151,1.0,1.0,0.0,6,0,0,0,0,0,1,1,0,0,0
1278482736,24.014065,24.14151,0.0744,0.06794795,0.0,22.331696,1.0,1.0,0.0,6,0,0,0,0,0,1,1,0,0,0
1278986750,24.11505,24.131458,0.099199995,0.067140125,0.0,22.340952,1.0,1.0,0.0,6,0,0,0,0,0,1,1,0,0,0
1279490509,24.216034,24.14884,0.062,0.067033485,0.0,22.350367,1.0,1.0,0.0,6,0,0,0,0,0,1,1,0,0,0
1279994538,24.23623,24.170502,0.062,0.06744964,0.0,22.359869,1.0,1.0,0.0,6,0,0,0,0,0,1,1,0,0,0
1280498619,24.256428,24.197065,0.062,0.067311265,0.0,22.369255,1.0,1.0,0.0,6,0,0,0,0,0,1,1,0,0,0
1281002629,24.256428,24.209154,0.062,0.06632941,0.0,22.378428,1.0,1.0,0.0,6,0,0,0,0,0,1,1,0,0,0
1281506721,24.195837,24.213213,0.062,0.06513613,0.0,22.38744,1.0,1.0,0.0,6,0,0,0,0,0,1,1,0,0,0
1282010767,24.317019,24.216171,0.062,0.065301985,0.0,22.396692,1.0,1.0,0.0,6,0,0,0,0,0,1,1,0,0,0
1282514560,24.317019,24.254103,0.062,0.065450676,0.0,22.405869,1.0,1.0,0.0,6,0,0,0,0,0,1,1,0,0,0
1283018543,24.317019,24.26825,0.0744,0.0668265,0.0,22.415382,1.0,1.0,0.0,6,0,0,0,0,0,1,1,0,0,0
1283522587,24.317019,24.278809,0.062,0.066108905,0.0,22.424551,1.0,1.0,0.0,6,0,0,0,0,0,1,1,0,0,0
1284026754,24.276625,24.26812,0.062,0.06643683,0.0,22.433815,1.0,1.0,0.0,6,0,0,0,0,0,1,1,0,0,0
1284530569,24.317019,24.27968,0.062,0.065707535,0.0,22.442905,1.0,1.0,0.0,6,0,0,0,0,0,1,1,0,0,0
1285034561,24.276625,24.285757,0.0744,0.06537161,0.0,22.45204,1.0,1.0,0.0,6,0,0,0,0,0,1,1,0,0,0
1285538726,24.317019,24.284344,0.0744,0.06484527,0.0,22.461018,1.0,1.0,0.0,6,0,0,0,0,0,1,1,0,0,0
1286042755,24.317019,24.294525,0.0744,0.066180184,0.0,22.470442,1.0,1.0,0.0,6,0,0,0,0,0,1,1,0,0,0
1286546633,24.317019,24.29382,0.0744,0.066031754,0.0,22.479696,1.0,1.0,0.0,6,0,0,0,0,0,1,1,0,0,0
1287050767,24.337215,24.302626,0.062,0.06549318,0.0,22.488832,1.0,1.0,0.0,6,0,0,0,0,0,1,1,0,0,0
1287554505,24.317019,24.310045,0.062,0.066947654,0.0,22.498425,1.0,1.0,0.0,6,0,0,0,0,0,1,1,0,0,0
1288058603,24.256428,24.29668,0.062,0.06647648,0.0,22.507767,1.0,1.0,0.0,6,0,0,0,0,0,1,1,0,0,0
1288562520,24.276625,24.284767,0.062,0.065204345,0.0,22.516855,1.0,1.0,0.0,6,0,0,0,0,0,1,1,0,0,0
1289066525,24.216034,24.270918,0.062,0.066059396,0.0,22.526201,1.0,1.0,0.0,6,0,0,0,0,0,1,1,0,0,0
1289570750,24.195837,24.250881,0.0744,0.06574109,0.0,22.535393,1.0,1.0,0.0,6,0,0,0,0,0,1,1,0,0,0
1290074614,24.17564,24.223791,0.0744,0.06584845,0.0,22.544647,1.0,1.0,0.0,6,0,0,0,0,0,1,1,0,0,0
1290578634,24.155443,24.208313,0.062,0.064558044,0.0,22.553532,1.0,1.0,0.0,6,0,0,0,0,0,1,1,0,0,0
1291082768,24.11505,24.194328,0.0744,0.06548081,0.0,22.562792,1.0,1.0,0.0,6,0,0,0,0,0,1,1,0,0,0
1291586820,24.17564,24.177382,0.062,0.06568355,0.0,22.572042,1.0,1.0,0.0,6,0,0,0,0,0,1,1,0,0,0
1292090772,24.17564,24.164612,0.049599998,0.0660478,0.0,22.581383,1.0,1.0,0.0,6,0,0,0,0,0,1,1,0,0,0
1292582842,24.155443,24.170246,0.062,0.06664008,0.0,22.590563,1.0,1.0,0.0,6,0,0,0,0,0,1,1,0,0,0
1293086592,24.135246,24.155205,0.0744,0.0669405,0.0,22.60002,1.0,1.0,0.0,6,0,0,0,0,0,1,1,0,0,0
1293590894,24.155443,24.140074,0.062,0.06617677,0.0,22.609278,1.0,1.0,0.0,6,0,0,0,0,0,1,1,0,0,0
1294082535,24.094852,24.132975,0.062,0.064746484,0.0,22.618073,1.0,1.0,0.0,6,0,0,0,0,0,1,1,0,0,0
1294586783,24.155443,24.130836,0.062,0.065396406,0.0,22.627335,1.0,1.0,0.0,6,0,0,0,0,0,1,1,0,0,0
1295090634,24.11505,24.12954,0.062,0.06731907,0.0,22.636955,1.0,1.0,0.0,6,0,0,0,0,0,1,1,0,0,0
1295594718,24.17564,24.129086,0.0744,0.06646983,0.0,22.646215,1.0,1.0,0.0,6,0,0,0,0,0,1,1,0,0,0
1296098594,24.11505,24.13162,0.0744,0.06733556,0.0,22.655636,1.0,1.0,0.0,6,0,0,0,0,0,1,1,0,0,0
1296602561,24.155443,24.12634,0.062,0.06641673,0.0,22.664852,1.0,1.0,0.0,6,0,0,0,0,0,1,1,0,0,0
1297106738,24.155443,24.134867,0.062,0.066364065,0.0,22.674114,1.0,1.0,0.0,6,0,0,0,0,0,1,1,0,0,0
1297610512,24.11505,24.135881,0.0744,0.066640206,0.0,22.683403,1.0,1.0,0.0,6,0,0,0,0,0,1,1,0,0,0
1298114732,24.11505,24.13067,0.0744,0.066905886,0.0,22.692791,1.0,1.0,0.0,6,0,0,0,0,0,1,1,0,0,0
1298618812,24.074656,24.122372,0.0744,0.067161895,0.0,22.70222,1.0,1.0,0.0,6,0,0,0,0,0,1,1,0,0,0
1299122534,24.11505,24.123756,0.062,0.06629511,0.0,22.711348,1.0,1.0,0.0,6,0,0,0,0,0,1,1,0,0,0
1299626621,24.11505,24.12855,0.0744,0.065853335,0.0,22.720568,1.0,1.0,0.0,6,0,0,0,0,0,1,1,0,0,0
1300130605,24.155443,24.129507,0.0744,0.06554491,0.0,22.72966,1.0,1.0,0.0,6,0,0,0,0,0,1,1,0,0,0
1300634577,24.034262,24.118013,0.062,0.06529853,0.0,22.738794,1.0,1.0,0.0,6,0,0,0,0,0,1,1,0,0,0
1301138540,24.155443,24.118553,0.0744,0.06491889,0.0,22.74772,1.0,1.0,0.0,6,0,0,0,0,0,1,1,0,0,0
1301642771,24.155443,24.129572,0.0744,0.06416164,0.0,22.75661,1.0,1.0,0.0,6,0,0,0,0,0,1,1,0,0,0
1302134592,24.17564,24.133904,0.0744,0.066324525,0.0,22.765905,1.0,1.0,0.0,6,0,0,0,0,0,1,1,0,0,0
1302638610,24.11505,24.130104,0.0744,0.066423275,0.0,22.775248,1.0,1.0,0.0,6,0,0,0,0,0,1,1,0,0,0
1303142760,24.11505,24.120876,0.062,0.06562826,0.0,22.784384,1.0,1.0,0.0,6,0,0,0,0,0,1,1,0,0,0
1303646628,24.11505,24.120932,0.062,0.064894326,0.0,22.793428,1.0,1.0,0.0,6,0,0,0,0,0,1,1,0,0,0
1304138537,24.155443,24.121334,0.0744,0.06794864,0.0,22.802979,1.0,1.0,0.0,6,0,0,0,0,0,1,1,0,0,0
1304642824,24.155443,24.126833,0.0744,0.06863365,0.0,22.812572,1.0,1.0,0.0,6,0,0,0,0,0,1,1,0,0,0
1305146494,24.17564,24.12857,0.062,0.06618105,0.0,22.821527,1.0,1.0,0.0,6,0,0,0,0,0,1,1,0,0,0
1305650584,24.276625,24.148195,0.062,0.066396445,0.0,22.83087,1.0,1.0,0.0,6,0,0,0,0,0,1,1,0,0,0
1306154519,24.155443,24.161283,0.062,0.06660732,0.0,22.840168,1.0,1.0,0.0,6,0,0,0,0,0,1,1,0,0,0
1306658573,24.216034,24.16253,0.0744,0.066306375,0.0,22.84943,1.0,1.0,0.0,6,0,0,0,0,0,1,1,0,0,0
1307162588,24.155443,24.162975,0.062,0.06570233,0.0,22.85856,1.0,1.0,0.0,6,0,0,0,0,0,1,1,0,0,0
1307666511,24.11505,24.157145,0.099199995,0.06582022,0.0,22.867735,1.0,1.0,0.0,6,0,0,0,0,0,1,1,0,0,0
1308170552,24.074656,24.142141,0.0744,0.06594326,0.0,22.876995,1.0,1.0,0.0,6,0,0,0,0,0,1,1,0,0,0
1308674596,24.11505,24.134617,0.062,0.0649601,0.0,22.886055,1.0,1.0,0.0,6,0,0,0,0,0,1,1,0,0,0
1309178555,24.11505,24.129396,0.049599998,0.064891495,0.0,22.89515,1.0,1.0,0.0,6,0,0,0,0,0,1,1,0,0,0
1309682730,24.17564,24.130655,0.062,0.065551445,0.0,22.904411,1.0,1.0,0.0,6,0,0,0,0,0,1,1,0,0,0
1310186512,23.650522,24.11336,0.062,0.06553499,0.0,22.913622,1.0,1.0,0.0,6,0,0,0,0,0,1,1,0,0,0
1310690493,23.993868,24.023432,0.062,0.06598717,0.0,22.922882,1.0,1.0,0.0,6,0,0,0,0,0,1,1,0,0,0
1311194537,24.014065,24.027996,0.062,0.06474992,0.0,22.931892,1.0,1.0,0.0,6,0,0,0,0,0,1,1,0,0,0
1311698494,24.034262,24.021114,0.062,0.06575985,0.0,22.941187,1.0,1.0,0.0,6,0,0,0,0,0,1,1,0,0,0
1312202486,23.973671,24.023264,0.0744,0.06619212,0.0,22.95049,1.0,1.0,0.0,6,0,0,0,0,0,1,1,0,0,0
1312706545,23.993868,24.021757,0.062,0.06473168,0.0,22.959373,1.0,1.0,0.0,6,0,0,0,0,0,1,1,0,0,0
1313210576,24.014065,24.031857,0.0744,0.06525693,0.0,22.968592,1.0,1.0,0.0,6,0,0,0,0,0,1,1,0,0,0
1313714610,23.953474,24.02322,0.049599998,0.06461986,0.0,22.977568,1.0,1.0,0.0,6,0,0,0,0,0,1,1,0,0,0
1314218453,24.014065,24.020456,0.0744,0.06549196,0.0,22.986858,1.0,1.0,0.0,6,0,0,0,0,0,1,1,0,0,0
1314722584,23.973671,24.012852,0.062,0.06429515,0.0,22.995747,1.0,1.0,0.0,6,0,0,0,0,0,1,1,0,0,0
1315226595,24.155443,24.02317,0.062,0.06424325,0.0,23.004845,1.0,1.0,0.0,6,0,0,0,0,0,1,1,0,0,0
1315730484,23.953474,24.02422,0.062,0.06547505,0.0,23.01415,1.0,1.0,0.0,6,0,0,0,0,0,1,1,0,0,0
1316234509,23.953474,24.003088,0.062,0.06619754,0.0,23.023493,1.0,1.0,0.0,6,0,0,0,0,0,1,1,0,0,0
1316738488,23.973671,23.987154,0.062,0.06587567,0.0,23.03271,1.0,1.0,0.0,6,0,0,0,0,0,1,1,0,0,0
1317242599,23.953474,23.971245,0.0744,0.068104655,0.0,23.042377,1.0,1.0,0.0,6,0,0,0,0,0,1,1,0,0,0
1317746600,23.953474,23.964699,0.062,0.06543378,0.0,23.051268,1.0,1.0,0.0,6,0,0,0,0,0,1,1,0,0,0
1318250596,24.014065,23.972343,0.062,0.06485825,0.0,23.060272,1.0,1.0,0.0,6,0,0,0,0,0,1,1,0,0,0
1318754566,23.973671,23.97781,0.062,0.06645795,0.0,23.069782,1.0,1.0,0.0,6,0,0,0,0,0,1,1,0,0,0
1319258612,24.014065,23.974674,0.062,0.06619638,0.0,23.078995,1.0,1.0,0.0,6,0,0,0,0,0,1,1,0,0,0
1319762632,24.014065,23.991297,0.062,0.06502528,0.0,23.088005,1.0,1.0,0.0,6,0,0,0,0,0,1,1,0,0,0
1320266483,24.054459,23.994637,0.062,0.06615039,0.0,23.097342,1.0,1.0,0.0,6,0,0,0,0,0,1,1,0,0,0
1320770520,24.014065,24.014252,0.062,0.06626279,0.0,23.106646,1.0,1.0,0.0,6,0,0,0,0,0,1,1,0,0,0
1321274701,24.11505,24.027014,0.0744,0.066005826,0.0,23.115786,1.0,1.0,0.0,6,0,0,0,0,0,1,1,0,0,0
1321778592,24.034262,24.04101,0.0744,0.065485545,0.0,23.124954,1.0,1.0,0.0,6,0,0,0,0,0,1,1,0,0,0
1322282574,24.034262,24.055153,0.062,0.06521324,0.0,23.134005,1.0,1.0,0.0,6,0,0,0,0,0,1,1,0,0,0
1322786555,23.953474,24.053057,0.049599998,0.06463061,0.0,23.143057,1.0,1.0,0.0,6,0,0,0,0,0,1,1,0,0,0
1323290697,23.933277,24.027754,0.062,0.065490365,0.0,23.152275,1.0,1.0,0.0,6,0,0,0,0,0,1,1,0,0,0
1323794623,23.953474,24.021744,0.024799999,0.06486116,0.0,23.16137,1.0,1.0,0.0,6,0,0,0,0,0,1,1,0,0,0
1324298699,24.054459,24.022514,0.0744,0.06569232,0.0,23.170671,1.0,1.0,0.0,6,0,0,0,0,0,1,1,0,0,0
1324802595,24.034262,24.019749,0.0744,0.066544056,0.0,23.180054,1.0,1.0,0.0,6,0,0,0,0,0,1,1,0,0,0
1325306482,23.993868,24.023731,0.062,0.06604383,0.0,23.189219,1.0,1.0,0.0,6,0,0,0,0,0,1,1,0,0,0
1325810550,23.993868,24.008543,0.062,0.06616432,0.0,23.198515,1.0,1.0,0.0,6,0,0,0,0,0,1,1,0,0,0
1326314499,23.993868,24.001766,0.0744,0.06616761,0.0,23.207731,1.0,1.0,0.0,6,0,0,0,0,0,1,1,0,0,0
1326818487,23.933277,23.986479,0.062,0.06533142,0.0,23.216864,1.0,1.0,0.0,6,0,0,0,0,0,1,1,0,0,0
1327322540,23.933277,23.964794,0.062,0.064291,0.0,23.225794,1.0,1.0,0.0,6,0,0,0,0,0,1,1,0,0,0
1327826543,23.973671,23.965345,0.062,0.06551557,0.0,23.235102,1.0,1.0,0.0,6,0,0,0,0,0,1,1,0,0,0
1328330597,23.872686,23.94957,0.062,0.0649969,0.0,23.244158,1.0,1.0,0.0,6,0,0,0,0,0,1,1,0,0,0
1328834548,23.993868,23.956253,0.062,0.064370885,0.0,23.253126,1.0,1.0,0.0,6,0,0,0,0,0,1,1,0,0,0
1329338519,23.973671,23.95086,0.0744,0.06552221,0.0,23.26242,1.0,1.0,0.0,6,0,0,0,0,0,1,1,0,0,0
1329842584,24.054459,23.972721,0.0744,0.0661251,0.0,23.271679,1.0,1.0,0.0,6,0,0,0,0,0,1,1,0,0,0
1330346476,23.973671,23.979584,0.062,0.06538392,0.0,23.280733,1.0,1.0,0.0,6,0,0,0,0,0,1,1,0,0,0
1330850613,23.993868,23.979616,0.0744,0.06469616,0.0,23.289742,1.0,1.0,0.0,6,0,0,0,0,0,1,1,0,0,0
1331354520,23.973671,23.97022,0.0744,0.065388426,0.0,23.298996,1.0,1.0,0.0,6,0,0,0,0,0,1,1,0,0,0
1331858505,23.993868,23.96695,0.0744,0.06577993,0.0,23.308167,1.0,1.0,0.0,6,0,0,0,0,0,1,1,0,0,0
1332362714,23.953474,23.967417,0.0744,0.065677494,0.0,23.317343,1.0,1.0,0.0,6,0,0,0,0,0,1,1,0,0,0
1332854483,24.074656,23.98582,0.0744,0.066546455,0.0,23.326468,1.0,1.0,0.0,6,0,0,0,0,0,1,1,0,0,0
1333358726,24.014065,23.991814,0.062,0.06512994,0.0,23.335484,1.0,1.0,0.0,6,0,0,0,0,0,1,1,0,0,0
1333862740,23.933277,23.975779,0.0744,0.067093596,0.0,23.34507,1.0,1.0,0.0,6,0,0,0,0,0,1,1,0,0,0
1334366721,23.91308,23.969126,0.062,0.06671229,0.0,23.354368,1.0,1.0,0.0,6,0,0,0,0,0,1,1,0,0,0
1334870496,23.91308,23.949732,0.062,0.065949894,0.0,23.363544,1.0,1.0,0.0,6,0,0,0,0,0,1,1,0,0,0
1335374532,23.973671,23.94455,0.062,0.065405905,0.0,23.3726,1.0,1.0,0.0,6,0,0,0,0,0,1,1,0,0,0
1335878728,23.85249,23.946753,0.0744,0.06416406,0.0,23.38136,1.0,1.0,0.0,6,0,0,0,0,0,1,1,0,0,0
1336382694,23.832293,23.918175,0.062,0.06432338,0.0,23.390404,1.0,1.0,0.0,6,0,0,0,0,0,1,1,0,0,0
1336886629,23.872686,23.891796,0.062,0.0658709,0.0,23.399792,1.0,1.0,0.0,6,0,0,0,0,0,1,1,0,0,0
1337390626,23.832293,23.878242,0.062,0.06473212,0.0,23.408802,1.0,1.0,0.0,6,0,0,0,0,0,1,1,0,0,0
1337894696,23.812096,23.856655,0.062,0.06565321,0.0,23.418102,1.0,1.0,0.0,6,0,0,0,0,0,1,1,0,0,0
1338398691,23.771704,23.830042,0.0744,0.06556434,0.0,23.427277,1.0,1.0,0.0,6,0,0,0,0,0,1,1,0,0,0
1338902606,23.85249,23.822762,0.062,0.06542123,0.0,23.436447,1.0,1.0,0.0,6,0,0,0,0,0,1,1,0,0,0
1339406722,23.933277,23.856945,0.062,0.0657257,0.0,23.445667,1.0,1.0,0.0,6,0,0,0,0,0,1,1,0,0,0
1339910512,23.953474,23.871252,0.062,0.065909475,0.0,23.454922,1.0,1.0,0.0,6,0,0,0,0,0,1,1,0,0,0
1340414542,23.872686,23.89075,0.024799999,0.06470001,0.0,23.463934,1.0,1.0,0.0,6,0,0,0,0,0,1,1,0,0,0
1340918565,23.751507,23.89187,0.062,0.06557361,0.0,23.473188,1.0,1.0,0.0,6,0,0,0,0,0,1,1,0,0,0
1341422498,23.812096,23.867723,0.062,0.06483439,0.0,23.48207,1.0,1.0,0.0,6,0,0,0,0,0,1,1,0,0,0
1344446721,23.751507,23.835285,0.062,0.0645863,0.0,23.537386,1.0,1.0,0.0,6,0,0,0,0,0,1,1,0,0,0
1344938582,23.73131,23.803946,0.0744,0.06555894,0.0,23.546432,1.0,1.0,0.0,6,0,0,0,0,0,1,1,0,0,0
1345442718,23.953474,23.821714,0.062,0.064544484,0.0,23.555405,1.0,1.0,0.0,6,0,0,0,0,0,1,1,0,0,0
1345946497,24.014065,23.84062,0.062,0.06398537,0.0,23.564323,1.0,1.0,0.0,6,0,0,0,0,0,1,1,0,0,0
1346450529,23.812096,23.84408,0.0744,0.06462347,0.0,23.573376,1.0,1.0,0.0,6,0,0,0,0,0,1,1,0,0,0
1346942759,23.832293,23.835892,0.0744,0.06598955,0.0,23.582516,1.0,1.0,0.0,6,0,0,0,0,0,1,1,0,0,0
1347446744,23.832293,23.839474,0.062,0.06519866,0.0,23.591614,1.0,1.0,0.0,6,0,0,0,0,0,1,1,0,0,0
1347950710,23.832293,23.823128,0.0744,0.065490335,0.0,23.600786,1.0,1.0,0.0,6,0,0,0,0,0,1,1,0,0,0
1348454590,23.771704,23.809217,0.062,0.064412944,0.0,23.609747,1.0,1.0,0.0,6,0,0,0,0,0,1,1,0,0,0
1348958562,23.751507,23.796,0.062,0.06487916,0.0,23.618881,1.0,1.0,0.0,6,0,0,0,0,0,1,1,0,0,0
1349462530,23.791899,23.794258,0.0744,0.06480878,0.0,23.627974,1.0,1.0,0.0,6,0,0,0,0,0,1,1,0,0,0
1349966553,23.832293,23.792746,0.062,0.064170025,0.0,23.636904,1.0,1.0,0.0,6,0,0,0,0,0,1,1,0,0,0
1350458757,23.812096,23.79087,0.062,0.06607177,0.0,23.646166,1.0,1.0,0.0,6,0,0,0,0,0,1,1,0,0,0
1350962695,23.812096,23.80363,0.0744,0.06564088,0.0,23.655342,1.0,1.0,0.0,6,0,0,0,0,0,1,1,0,0,0
1351466624,23.791899,23.804134,0.0744,0.06341163,0.0,23.664062,1.0,1.0,0.0,6,0,0,0,0,0,1,1,0,0,0
1351958588,23.812096,23.802649,0.0744,0.06507199,0.0,23.673077,1.0,1.0,0.0,6,0,0,0,0,0,1,1,0,0,0
1352462634,23.771704,23.791983,0.0744,0.06527409,0.0,23.682245,1.0,1.0,0.0,6,0,0,0,0,0,1,1,0,0,0
1352966614,23.791899,23.795887,0.062,0.0648297,0.0,23.691296,1.0,1.0,0.0,6,0,0,0,0,0,1,1,0,0,0
1353470626,23.771704,23.79388,0.062,0.06591052,0.0,23.700632,1.0,1.0,0.0,6,0,0,0,0,0,1,1,0,0,0
1353974589,23.812096,23.792208,0.0744,0.06565399,0.0,23.709768,1.0,1.0,0.0,6,0,0,0,0,0,1,1,0,0,0
1354478573,23.771704,23.785124,0.062,0.06612454,0.0,23.71911,1.0,1.0,0.0,6,0,0,0,0,0,1,1,0,0,0
1354982541,23.711113,23.786465,0.0744,0.06574912,0.0,23.728287,1.0,1.0,0.0,6,0,0,0,0,0,1,1,0,0,0
1355486510,23.791899,23.784754,0.062,0.06629505,0.0,23.737623,1.0,1.0,0.0,6,0,0,0,0,0,1,1,0,0,0
1355990558,23.812096,23.789396,0.062,0.06567288,0.0,23.746714,1.0,1.0,0.0,6,0,0,0,0,0,1,1,0,0,0
1356496210,23.771704,23.78274,0.062,0.064997576,0.0,23.755798,1.0,1.0,0.0,6,0,0,0,0,0,1,1,0,0,0
1357000330,23.791899,23.785727,0.0744,0.06509269,0.0,23.764942,1.0,1.0,0.0,6,0,0,0,0,0,1,1,0,0,0
1357492070,23.85249,23.788504,0.062,0.06429602,0.0,23.773663,1.0,1.0,0.0,6,0,0,0,0,0,1,1,0,0,0
1357996190,23.751507,23.787165,0.0744,0.065702856,0.0,23.783012,1.0,1.0,0.0,6,0,0,0,0,0,1,1,0,0,0
1358500158,23.791899,23.77734,0.062,0.064919084,0.0,23.79202,1.0,1.0,0.0,6,0,0,0,0,0,1,1,0,0,0
1359004156,23.771704,23.781065,0.0744,0.06580752,0.0,23.801233,1.0,1.0,0.0,6,0,0,0,0,0,1,1,0,0,0
1359508344,23.791899,23.77345,0.062,0.06497148,0.0,23.810247,1.0,1.0,0.0,6,0,0,0,0,0,1,1,0,0,0
1360012351,23.690916,23.760666,0.062,0.06553992,0.0,23.819458,1.0,1.0,0.0,6,0,0,0,0,0,1,1,0,0,0
1360516221,23.690916,23.73675,0.062,0.0643937,0.0,23.828259,1.0,1.0,0.0,6,0,0,0,0,0,1,1,0,0,0
1361020336,23.791899,23.728403,0.0744,0.0634008,0.0,23.837067,1.0,1.0,0.0,6,0,0,0,0,0,1,1,0,0,0
1361524109,23.711113,23.7337,0.062,0.063653626,0.0,23.84599,1.0,1.0,0.0,6,0,0,0,0,0,1,1,0,0,0
1362028217,23.791899,23.728836,0.062,0.063843876,0.0,23.854956,1.0,1.0,0.0,6,0,0,0,0,0,1,1,0,0,0
1362532158,23.711113,23.72696,0.062,0.06342334,0.0,23.863838,1.0,1.0,0.0,6,0,0,0,0,0,1,1,0,0,0
1363036091,23.751507,23.728281,0.062,0.06387268,0.0,23.872803,1.0,1.0,0.0,6,0,0,0,0,0,1,1,0,0,0
1363540215,23.751507,23.732721,0.049599998,0.063119024,0.0,23.881605,1.0,1.0,0.0,6,0,0,0,0,0,1,1,0,0,0
1364044218,23.73131,23.745768,0.062,0.063305266,0.0,23.89049,1.0,1.0,0.0,6,0,0,0,0,0,1,1,0,0,0
1364548340,23.812096,23.765688,0.062,0.064632796,0.0,23.899662,1.0,1.0,0.0,6,0,0,0,0,0,1,1,0,0,0
1365052218,23.872686,23.787241,0.062,0.06436504,0.0,23.908758,1.0,1.0,0.0,6,0,0,0,0,0,1,1,0,0,0
1365556068,23.751507,23.806084,0.062,0.06357492,0.0,23.917599,1.0,1.0,0.0,6,0,0,0,0,0,1,1,0,0,0
1366060175,23.91308,23.842216,0.062,0.06475273,0.0,23.926737,1.0,1.0,0.0,6,0,0,0,0,0,1,1,0,0,0
1366564188,23.771704,23.835888,0.062,0.0651839,0.0,23.935915,1.0,1.0,0.0,6,0,0,0,0,0,1,1,0,0,0
1367068325,23.711113,23.79399,0.0744,0.064967364,0.0,23.944977,1.0,1.0,0.0,6,0,0,0,0,0,1,1,0,0,0
1367572172,23.791899,23.785973,0.0744,0.06481952,0.0,23.953987,1.0,1.0,0.0,6,0,0,0,0,0,1,1,0,0,0
1368076204,23.751507,23.787184,0.062,0.063777156,0.0,23.96275,1.0,1.0,0.0,6,0,0,0,0,0,1,1,0,0,0
1368580212,23.771704,23.774647,0.062,0.06340257,0.0,23.971546,1.0,1.0,0.0,6,0,0,0,0,0,1,1,0,0,0
1369084187,23.791899,23.77714,0.062,0.06412876,0.0,23.98056,1.0,1.0,0.0,6,0,0,0,0,0,1,1,0,0,0
1369588125,23.771704,23.76947,0.049599998,0.06295405,0.0,23.989326,1.0,1.0,0.0,6,0,0,0,0,0,1,1,0,0,0
1370092052,23.832293,23.756119,0.0744,0.06469883,0.0,23.9985,1.0,1.0,0.0,6,0,0,0,0,0,1,1,0,0,0
1370596180,23.690916,23.76249,0.062,0.06407951,0.0,24.00743,1.0,1.0,0.0,6,0,0,0,0,0,1,1,0,0,0
1371100360,23.751507,23.749998,0.062,0.063061275,0.0,24.016151,1.0,1.0,0.0,6,0,0,0,0,0,1,1,0,0,0
1371604101,23.751507,23.74727,0.062,0.06374473,0.0,24.025076,1.0,1.0,0.0,6,0,0,0,0,0,1,1,0,0,0
1372108168,23.812096,23.766119,0.062,0.06393883,0.0,24.034046,1.0,1.0,0.0,6,0,0,0,0,0,1,1,0,0,0
1372612093,23.85249,23.802824,0.062,0.06441688,0.0,24.043093,1.0,1.0,0.0,6,0,0,0,0,0,1,1,0,0,0
1373116111,23.832293,23.80653,0.062,0.0649132,0.0,24.052149,1.0,1.0,0.0,6,0,0,0,0,0,1,1,0,0,0
1373620200,23.953474,23.838984,0.062,0.064085886,0.0,24.061031,1.0,1.0,0.0,6,0,0,0,0,0,1,1,0,0,0
1374124232,22.196348,23.861351,0.062,0.0649314,0.0,24.070166,1.0,1.0,0.0,6,0,0,0,0,0,1,1,0,0,0
1374628210,23.933277,23.890978,0.062,0.06436293,0.0,24.079132,1.0,1.0,0.0,6,0,0,0,0,0,1,1,0,0,0
1375132219,23.953474,23.909794,0.062,0.063138604,0.0,24.087805,1.0,1.0,0.0,6,0,0,0,0,0,1,1,0,0,0
1375636134,23.91308,23.916073,0.049599998,0.06310378,0.0,24.096647,1.0,1.0,0.0,6,0,0,0,0,0,1,1,0,0,0
1376140207,23.812096,23.884306,0.062,0.06314329,0.0,24.105495,1.0,1.0,0.0,6,0,0,0,0,0,1,1,0,0,0
1376644323,23.812096,23.844227,0.062,0.062573425,0.0,24.114138,1.0,1.0,0.0,6,0,0,0,0,0,1,1,0,0,0
1377148194,23.52934,23.774296,0.062,0.062356915,0.0,24.122856,1.0,1.0,0.0,6,0,0,0,0,0,1,1,0,0,0
1377652175,23.791899,23.759438,0.0744,0.063638575,0.0,24.131863,1.0,1.0,0.0,6,0,0,0,0,0,1,1,0,0,0
1378156165,23.832293,23.787273,0.062,0.063143104,0.0,24.140663,1.0,1.0,0.0,6,0,0,0,0,0,1,1,0,0,0
1378660189,23.791899,23.793762,0.0744,0.06373999,0.0,24.14964,1.0,1.0,0.0,6,0,0,0,0,0,1,1,0,0,0
1379176191,23.791899,23.784506,0.0744,0.062607266,0.0,24.15853,1.0,1.0,0.0,6,0,0,0,0,0,1,1,0,0,0
1379668221,23.751507,23.781843,0.062,0.06400954,0.0,24.167423,1.0,1.0,0.0,6,0,0,0,0,0,1,1,0,0,0
1380172324,23.751507,23.781998,0.012399999,0.06301016,0.0,24.176191,1.0,1.0,0.0,6,0,0,0,0,0,1,1,0,0,0
1380676348,23.791899,23.781576,0.062,0.06252223,0.0,24.184874,1.0,1.0,0.0,6,0,0,0,0,0,1,1,0,0,0
1381180320,23.771704,23.788013,0.0744,0.06487494,0.0,24.194124,1.0,1.0,0.0,6,0,0,0,0,0,1,1,0,0,0
1381684122,23.791899,23.793488,0.062,0.06313852,0.0,24.202797,1.0,1.0,0.0,6,0,0,0,0,0,1,1,0,0,0
1382188122,23.832293,23.809568,0.049599998,0.06383384,0.0,24.211725,1.0,1.0,0.0,6,0,0,0,0,0,1,1,0,0,0
1382692146,23.85249,23.817232,0.062,0.0636068,0.0,24.220568,1.0,1.0,0.0,6,0,0,0,0,0,1,1,0,0,0
1383196154,23.832293,23.82801,0.062,0.0631642,0.0,24.229246,1.0,1.0,0.0,6,0,0,0,0,0,1,1,0,0,0
1383712235,23.812096,23.826792,0.062,0.062896185,0.0,24.238258,1.0,1.0,0.0,6,0,0,0,0,0,1,1,0,0,0
1384204231,23.832293,23.823664,0.062,0.062417805,0.0,24.246819,1.0,1.0,0.0,6,0,0,0,0,0,1,1,0,0,0
1384708101,23.832293,23.820429,0.0744,0.062177867,0.0,24.255495,1.0,1.0,0.0,6,0,0,0,0,0,1,1,0,0,0
1385212225,23.85249,23.821207,0.062,0.06405512,0.0,24.264591,1.0,1.0,0.0,6,0,0,0,0,0,1,1,0,0,0
1385716104,23.812096,23.81868,0.062,0.06486891,0.0,24.273767,1.0,1.0,0.0,6,0,0,0,0,0,1,1,0,0,0
1386220347,23.791899,23.81467,0.062,0.06394401,0.0,24.282612,1.0,1.0,0.0,6,0,0,0,0,0,1,1,0,0,0
1386724177,23.791899,23.81031,0.0744,0.06344608,0.0,24.291374,1.0,1.0,0.0,6,0,0,0,0,0,1,1,0,0,0
1387228205,23.812096,23.805561,0.062,0.06358204,0.0,24.300266,1.0,1.0,0.0,6,0,0,0,0,0,1,1,0,0,0
1387732185,23.892883,23.81369,0.062,0.062480636,0.0,24.30883,1.0,1.0,0.0,6,0,0,0,0,0,1,1,0,0,0
1388236159,23.892883,23.826378,0.062,0.06241024,0.0,24.317554,1.0,1.0,0.0,6,0,0,0,0,0,1,1,0,0,0
1388740204,23.872686,23.827637,0.062,0.064050004,0.0,24.326647,1.0,1.0,0.0,6,0,0,0,0,0,1,1,0,0,0
1389244231,23.771704,23.82485,0.062,0.064772226,0.0,24.33574,1.0,1.0,0.0,6,0,0,0,0,0,1,1,0,0,0
1389748356,23.812096,23.819942,0.062,0.06508622,0.0,24.344921,1.0,1.0,0.0,6,0,0,0,0,0,1,1,0,0,0
1390252151,23.872686,23.823431,0.062,0.06252919,0.0,24.353384,1.0,1.0,0.0,6,0,0,0,0,0,1,1,0,0,0
1390756208,23.85249,23.821768,0.062,0.06204225,0.0,24.361982,1.0,1.0,0.0,6,0,0,0,0,0,1,1,0,0,0
1391260220,23.832293,23.8201,0.062,0.061898716,0.0,24.370667,1.0,1.0,0.0,6,0,0,0,0,0,1,1,0,0,0
1391764225,23.832293,23.816204,0.062,0.06220496,0.0,24.379469,1.0,1.0,0.0,6,0,0,0,0,0,1,1,0,0,0
1392268186,23.771704,23.804304,0.062,0.061702427,0.0,24.38811,1.0,1.0,0.0,6,0,0,0,0,0,1,1,0,0,0
1392772322,23.812096,23.799105,0.0744,0.06269375,0.0,24.396996,1.0,1.0,0.0,6,0,0,0,0,0,1,1,0,0,0
1393276358,23.832293,23.810453,0.062,0.06301745,0.0,24.405916,1.0,1.0,0.0,6,0,0,0,0,0,1,1,0,0,0
1393780186,23.85249,23.819683,0.062,0.06276744,0.0,24.414719,1.0,1.0,0.0,6,0,0,0,0,0,1,1,0,0,0
1394284149,23.791899,23.828915,0.062,0.06245058,0.0,24.423475,1.0,1.0,0.0,6,0,0,0,0,0,1,1,0,0,0
1394789165,23.85249,23.83719,0.062,0.06306037,0.0,24.432419,1.0,1.0,0.0,6,0,0,0,0,0,1,1,0,0,0
1395293007,23.872686,23.84853,0.0744,0.064025775,0.0,24.441427,1.0,1.0,0.0,6,0,0,0,0,0,1,1,0,0,0
1395797177,23.872686,23.854937,0.062,0.06423695,0.0,24.450483,1.0,1.0,0.0,6,0,0,0,0,0,1,1,0,0,0
1396301123,23.812096,23.847204,0.062,0.06351367,0.0,24.45932,1.0,1.0,0.0,6,0,0,0,0,0,1,1,0,0,0
1396804911,23.832293,23.834188,0.049599998,0.062579244,0.0,24.468082,1.0,1.0,0.0,6,0,0,0,0,0,1,1,0,0,0
1397308947,23.791899,23.824207,0.062,0.06341923,0.0,24.477093,1.0,1.0,0.0,6,0,0,0,0,0,1,1,0,0,0
1397812919,23.791899,23.828154,0.062,0.06388395,0.0,24.486057,1.0,1.0,0.0,6,0,0,0,0,0,1,1,0,0,0
1398316980,23.832293,23.827618,0.062,0.06377493,0.0,24.494982,1.0,1.0,0.0,6,0,0,0,0,0,1,1,0,0,0
1398821023,23.791899,23.824492,0.0744,0.06385092,0.0,24.503954,1.0,1.0,0.0,6,0,0,0,0,0,1,1,0,0,0
1399325027,23.73131,23.809595,0.0744,0.06349725,0.0,24.512796,1.0,1.0,0.0,6,0,0,0,0,0,1,1,0,0,0
1399829211,23.832293,23.80342,0.0744,0.06388551,0.0,24.521683,1.0,1.0,0.0,6,0,0,0,0,0,1,1,0,0,0
1400332948,23.832293,23.807178,0.062,0.06336361,0.0,24.530527,1.0,1.0,0.0,6,0,0,0,0,0,1,1,0,0,0
1400825264,23.711113,23.80579,0.062,0.062933356,0.0,24.539122,1.0,1.0,0.0,6,0,0,0,0,0,1,1,0,0,0
1401328969,23.832293,23.803707,0.062,0.06330747,0.0,24.54804,1.0,1.0,0.0,6,0,0,0,0,0,1,1,0,0,0
1401833304,23.892883,23.81789,0.062,0.06281184,0.0,24.556765,1.0,1.0,0.0,6,0,0,0,0,0,1,1,0,0,0
1402337013,23.812096,23.816456,0.062,0.062680304,0.0,24.565523,1.0,1.0,0.0,6,0,0,0,0,0,1,1,0,0,0
1402841159,23.85249,23.821661,0.062,0.06338313,0.0,24.574451,1.0,1.0,0.0,6,0,0,0,0,0,1,1,0,0,0
1403345273,23.791899,23.823694,0.062,0.06495189,0.0,24.583675,1.0,1.0,0.0,6,0,0,0,0,0,1,1,0,0,0
1403848998,23.711113,23.81049,0.049599998,0.06323328,0.0,24.59243,1.0,1.0,0.0,6,0,0,0,0,0,1,1,0,0,0
1404353151,23.751507,23.795584,0.062,0.06392795,0.0,24.601484,1.0,1.0,0.0,6,0,0,0,0,0,1,1,0,0,0
1404856835,23.73131,23.787273,0.062,0.06467752,0.0,24.610579,1.0,1.0,0.0,6,0,0,0,0,0,1,1,0,0,0
1405349173,23.832293,23.785604,0.049599998,0.06298084,0.0,24.618975,1.0,1.0,0.0,6,0,0,0,0,0,1,1,0,0,0
1405853124,23.791899,23.776443,0.062,0.06277326,0.0,24.627693,1.0,1.0,0.0,6,0,0,0,0,0,1,1,0,0,0
1406357034,23.791899,23.773127,0.0744,0.06381761,0.0,24.636621,1.0,1.0,0.0,6,0,0,0,0,0,1,1,0,0,0
1406861177,23.771704,23.772087,0.0744,0.06438082,0.0,24.645718,1.0,1.0,0.0,6,0,0,0,0,0,1,1,0,0,0
1407353006,23.812096,23.76584,0.0744,0.06375375,0.0,24.654346,1.0,1.0,0.0,6,0,0,0,0,0,1,1,0,0,0
1407856971,23.751507,23.763071,0.062,0.06317743,0.0,24.663107,1.0,1.0,0.0,6,0,0,0,0,0,1,1,0,0,0
1408360953,23.771704,23.746983,0.0744,0.06389888,0.0,24.672073,1.0,1.0,0.0,6,0,0,0,0,0,1,1,0,0,0
1408864983,23.73131,23.753315,0.062,0.06315011,0.0,24.68084,1.0,1.0,0.0,6,0,0,0,0,0,1,1,0,0,0
1409369152,23.812096,23.757109,0.049599998,0.06305493,0.0,24.68961,1.0,1.0,0.0,6,0,0,0,0,0,1,1,0,0,0
1409872974,23.771704,23.758305,0.062,0.06358933,0.0,24.698496,1.0,1.0,0.0,6,0,0,0,0,0,1,1,0,0,0
1410377124,23.751507,23.758814,0.0744,0.062497146,0.0,24.707092,1.0,1.0,0.0,6,0,0,0,0,0,1,1,0,0,0
1410881017,23.791899,23.764908,0.062,0.06303094,0.0,24.715971,1.0,1.0,0.0,6,0,0,0,0,0,1,1,0,0,0
1411384998,23.751507,23.764267,0.062,0.06291783,0.0,24.72473,1.0,1.0,0.0,6,0,0,0,0,0,1,1,0,0,0
1411889923,23.771704,23.758121,0.062,0.06274901,0.0,24.733425,1.0,1.0,0.0,6,0,0,0,0,0,1,1,0,0,0
1412393824,23.771704,23.75314,0.062,0.062440556,0.0,24.742264,1.0,1.0,0.0,6,0,0,0,0,0,1,1,0,0,0
1412897726,23.751507,23.756927,0.062,0.06223524,0.0,24.750948,1.0,1.0,0.0,6,0,0,0,0,0,1,1,0,0,0
1413401822,23.711113,23.747448,0.0744,0.062286686,0.0,24.759663,1.0,1.0,0.0,6,0,0,0,0,0,1,1,0,0,0
1413905989,23.690916,23.741499,0.062,0.06263386,0.0,24.76851,1.0,1.0,0.0,6,0,0,0,0,0,1,1,0,0,0
1414409973,23.791899,23.742865,0.049599998,0.061593182,0.0,24.777029,1.0,1.0,0.0,6,0,0,0,0,0,1,1,0,0,0
1414913945,23.73131,23.743525,0.062,0.062335655,0.0,24.785835,1.0,1.0,0.0,6,0,0,0,0,0,1,1,0,0,0
1415417653,23.771704,23.742517,0.062,0.06345988,0.0,24.794765,1.0,1.0,0.0,6,0,0,0,0,0,1,1,0,0,0
1415921740,23.751507,23.744501,0.062,0.063828275,0.0,24.803732,1.0,1.0,0.0,6,0,0,0,0,0,1,1,0,0,0
1416425949,23.751507,23.743885,0.049599998,0.06311516,0.0,24.812542,1.0,1.0,0.0,6,0,0,0,0,0,1,1,0,0,0
1416929962,23.771704,23.7443,0.0744,0.06347659,0.0,24.821465,1.0,1.0,0.0,6,0,0,0,0,0,1,1,0,0,0
1417433826,23.73131,23.741682,0.062,0.06460407,0.0,24.830597,1.0,1.0,0.0,6,0,0,0,0,0,1,1,0,0,0
1417937714,23.771704,23.747374,0.0744,0.063512854,0.0,24.839354,1.0,1.0,0.0,6,0,0,0,0,0,1,1,0,0,0
1418441727,23.73131,23.749619,0.062,0.061922852,0.0,24.847828,1.0,1.0,0.0,6,0,0,0,0,0,1,1,0,0,0
1418945969,23.67072,23.747026,0.062,0.061804693,0.0,24.85647,1.0,1.0,0.0,6,0,0,0,0,0,1,1,0,0,0
1419449716,23.751507,23.740267,0.062,0.06305862,0.0,24.865387,1.0,1.0,0.0,6,0,0,0,0,0,1,1,0,0,0
1419953743,23.73131,23.732336,0.049599998,0.062005475,0.0,24.873941,1.0,1.0,0.0,6,0,0,0,0,0,1,1,0,0,0
1420457835,23.711113,23.7224,0.062,0.06290372,0.0,24.882875,1.0,1.0,0.0,6,0,0,0,0,0,1,1,0,0,0
1420961991,23.73131,23.709879,0.062,0.063369066,0.0,24.89185,1.0,1.0,0.0,6,0,0,0,0,0,1,1,0,0,0
1421465961,23.711113,23.702116,0.062,0.06427837,0.0,24.900942,1.0,1.0,0.0,6,0,0,0,0,0,1,1,0,0,0
1421969988,23.690916,23.694645,0.0744,0.06340314,0.0,24.909739,1.0,1.0,0.0,6,0,0,0,0,0,1,1,0,0,0
1422462586,23.711113,23.68642,0.062,0.062469624,0.0,24.91822,1.0,1.0,0.0,6,0,0,0,0,0,1,1,0,0,0
1422966618,23.690916,23.681559,0.062,0.06220396,0.0,24.926853,1.0,1.0,0.0,6,0,0,0,0,0,1,1,0,0,0
1423470740,23.650522,23.67475,0.062,0.06296194,0.0,24.935696,1.0,1.0,0.0,6,0,0,0,0,0,1,1,0,0,0
1423974508,23.67072,23.663187,0.062,0.06302972,0.0,24.94453,1.0,1.0,0.0,6,0,0,0,0,0,1,1,0,0,0
1424478569,23.610128,23.656507,0.062,0.062999666,0.0,24.95338,1.0,1.0,0.0,6,0,0,0,0,0,1,1,0,0,0
1424982572,23.630325,23.65196,0.062,0.062936835,0.0,24.962181,1.0,1.0,0.0,6,0,0,0,0,0,1,1,0,0,0
1425486760,23.610128,23.632994,0.062,0.063241385,0.0,24.971027,1.0,1.0,0.0,6,0,0,0,0,0,1,1,0,0,0
1425990748,23.630325,23.624252,0.062,0.0626284,0.0,24.97974,1.0,1.0,0.0,6,0,0,0,0,0,1,1,0,0,0
1426494901,23.610128,23.610788,0.0744,0.062176306,0.0,24.988417,1.0,1.0,0.0,6,0,0,0,0,0,1,1,0,0,0
1426998714,23.630325,23.618471,0.062,0.061742604,0.0,24.99702,1.0,1.0,0.0,6,0,0,0,0,0,1,1,0,0,0
1427502616,23.630325,23.618416,0.0744,0.062288627,0.0,25.005823,1.0,1.0,0.0,6,0,0,0,0,0,1,1,0,0,0
1428006584,23.589931,23.615429,0.062,0.062191818,0.0,25.014498,1.0,1.0,0.0,6,0,0,0,0,0,1,1,0,0,0
1428510623,23.650522,23.613184,0.062,0.063448064,0.0,25.023546,1.0,1.0,0.0,6,0,0,0,0,0,1,1,0,0,0
1429014796,23.610128,23.612247,0.062,0.06367629,0.0,25.03248,1.0,1.0,0.0,6,0,0,0,0,0,1,1,0,0,0
1429518528,23.630325,23.60821,0.062,0.063400924,0.0,25.041319,1.0,1.0,0.0,6,0,0,0,0,0,1,1,0,0,0
1430022535,23.650522,23.614073,0.049599998,0.062028676,0.0,25.049873,1.0,1.0,0.0,6,0,0,0,0,0,1,1,0,0,0
1430526540,23.610128,23.619596,0.062,0.06251898,0.0,25.05872,1.0,1.0,0.0,6,0,0,0,0,0,1,1,0,0,0
1431031525,23.569735,23.615767,0.062,0.06294605,0.0,25.067583,1.0,1.0,0.0,6,0,0,0,0,0,1,1,0,0,0
1431523338,23.52934,23.605898,0.0744,0.06255503,0.0,25.076054,1.0,1.0,0.0,6,0,0,0,0,0,1,1,0,0,0
1432027353,23.569735,23.60155,0.062,0.061720442,0.0,25.084568,1.0,1.0,0.0,6,0,0,0,0,0,1,1,0,0,0
1432531338,23.549538,23.59497,0.062,0.062095057,0.0,25.093328,1.0,1.0,0.0,6,0,0,0,0,0,1,1,0,0,0
1433035401,23.549538,23.589203,0.062,0.06277226,0.0,25.102125,1.0,1.0,0.0,6,0,0,0,0,0,1,1,0,0,0
1433539352,23.589931,23.587662,0.049599998,0.06109619,0.0,25.11056,1.0,1.0,0.0,6,0,0,0,0,0,1,1,0,0,0
1434031359,23.549538,23.582771,0.062,0.060411464,0.0,25.118713,1.0,1.0,0.0,6,0,0,0,0,0,1,1,0,0,0
1434535411,23.549538,23.578775,0.049599998,0.06021603,0.0,25.127151,1.0,1.0,0.0,6,0,0,0,0,0,1,1,0,0,0
1435039519,23.549538,23.564009,0.049599998,0.061690222,0.0,25.13587,1.0,1.0,0.0,6,0,0,0,0,0,1,1,0,0,0
1435543533,23.448553,23.550705,0.062,0.063204125,0.0,25.144875,1.0,1.0,0.0,6,0,0,0,0,0,1,1,0,0,0
1436035554,23.40816,23.521254,0.024799999,0.06168446,0.0,25.153225,1.0,1.0,0.0,6,0,0,0,0,0,1,1,0,0,0
1436539399,23.448553,23.495459,0.062,0.062226582,0.0,25.161936,1.0,1.0,0.0,6,0,0,0,0,0,1,1,0,0,0
1437043414,23.428356,23.476439,0.062,0.061255906,0.0,25.17045,1.0,1.0,0.0,6,0,0,0,0,0,1,1,0,0,0
1437547460,23.488947,23.47505,0.062,0.061727367,0.0,25.179218,1.0,1.0,0.0,6,0,0,0,0,0,1,1,0,0,0
1438052380,23.52934,23.49058,0.062,0.06179487,0.0,25.187792,1.0,1.0,0.0,6,0,0,0,0,0,1,1,0,0,0
1438556150,23.569735,23.507456,0.062,0.061212003,0.0,25.196344,1.0,1.0,0.0,6,0,0,0,0,0,1,1,0,0,0
1439060117,23.509144,23.513926,0.062,0.062136304,0.0,25.205143,1.0,1.0,0.0,6,0,0,0,0,0,1,1,0,0,0
1439564132,23.488947,23.511168,0.062,0.061420232,0.0,25.213657,1.0,1.0,0.0,6,0,0,0,0,0,1,1,0,0,0
1440068105,23.509144,23.504078,0.062,0.0623565,0.0,25.222504,1.0,1.0,0.0,6,0,0,0,0,0,1,1,0,0,0
1440572334,23.46875,23.500341,0.062,0.0631399,0.0,25.231432,1.0,1.0,0.0,6,0,0,0,0,0,1,1,0,0,0
1441076341,23.428356,23.494608,0.062,0.061258234,0.0,25.239782,1.0,1.0,0.0,6,0,0,0,0,0,1,1,0,0,0
1441580366,23.509144,23.491617,0.062,0.060839433,0.0,25.248283,1.0,1.0,0.0,6,0,0,0,0,0,1,1,0,0,0
1442084220,23.428356,23.484879,0.062,0.06075814,0.0,25.256756,1.0,1.0,0.0,6,0,0,0,0,0,1,1,0,0,0
1442588139,23.428356,23.475346,0.062,0.060410265,0.0,25.26519,1.0,1.0,0.0,6,0,0,0,0,0,1,1,0,0,0
1443092136,23.428356,23.467205,0.0744,0.06168036,0.0,25.273907,1.0,1.0,0.0,6,0,0,0,0,0,1,1,0,0,0
1443596148,23.488947,23.462778,0.062,0.06132188,0.0,25.282421,1.0,1.0,0.0,6,0,0,0,0,0,1,1,0,0,0
1444100129,23.448553,23.459269,0.049599998,0.060854796,0.0,25.290895,1.0,1.0,0.0,6,0,0,0,0,0,1,1,0,0,0
1444604150,23.46875,23.45529,0.062,0.060221374,0.0,25.299238,1.0,1.0,0.0,6,0,0,0,0,0,1,1,0,0,0
1445108167,23.46875,23.455091,0.062,0.060628947,0.0,25.30776,1.0,1.0,0.0,6,0,0,0,0,0,1,1,0,0,0
1445612133,23.448553,23.453787,0.062,0.060896847,0.0,25.316315,1.0,1.0,0.0,6,0,0,0,0,0,1,1,0,0,0
1446104980,23.46875,23.45561,0.062,0.06213664,0.0,25.324928,1.0,1.0,0.0,6,0,0,0,0,0,1,1,0,0,0
1446608974,23.448553,23.454035,0.062,0.061267182,0.0,25.3334,1.0,1.0,0.0,6,0,0,0,0,0,1,1,0,0,0
1447112934,23.448553,23.446321,0.062,0.06305495,0.0,25.342365,1.0,1.0,0.0,6,0,0,0,0,0,1,1,0,0,0
1447617016,23.428356,23.445143,0.062,0.063398294,0.0,25.351254,1.0,1.0,0.0,6,0,0,0,0,0,1,1,0,0,0
1448121000,23.448553,23.438774,0.062,0.061175615,0.0,25.3596,1.0,1.0,0.0,6,0,0,0,0,0,1,1,0,0,0
1448613003,23.46875,23.439604,0.062,0.06095748,0.0,25.36792,1.0,1.0,0.0,6,0,0,0,0,0,1,1,0,0,0
1449116965,23.428356,23.438234,0.062,0.060965557,0.0,25.376474,1.0,1.0,0.0,6,0,0,0,0,0,1,1,0,0,0
1449621006,23.46875,23.437243,0.0744,0.062622316,0.0,25.385359,1.0,1.0,0.0,6,0,0,0,0,0,1,1,0,0,0
1450125034,23.428356,23.435074,0.062,0.062227085,0.0,25.394085,1.0,1.0,0.0,6,0,0,0,0,0,1,1,0,0,0
1450616852,23.387962,23.430855,0.062,0.062746435,0.0,25.402721,1.0,1.0,0.0,6,0,0,0,0,0,1,1,0,0,0
1451120856,23.428356,23.422094,0.0744,0.06363831,0.0,25.411602,1.0,1.0,0.0,6,0,0,0,0,0,1,1,0,0,0
1451625253,23.387962,23.417934,0.062,0.06247715,0.0,25.420202,1.0,1.0,0.0,6,0,0,0,0,0,1,1,0,0,0
1452129830,23.428356,23.413277,0.0744,0.061902326,0.0,25.428802,1.0,1.0,0.0,6,0,0,0,0,0,1,1,0,0,0
1452633680,23.387962,23.406918,0.062,0.06084911,0.0,25.43727,1.0,1.0,0.0,6,0,0,0,0,0,1,1,0,0,0
1453125999,23.367765,23.4005,0.062,0.060193144,0.0,25.44545,1.0,1.0,0.0,6,0,0,0,0,0,1,1,0,0,0
1453630000,23.347569,23.389727,0.062,0.06043308,0.0,25.45392,0.99574727,1.0003927,0.0,6,0,0,0,0,0,1,1,0,0,0
1454133814,23.387962,23.385218,0.062,0.06098178,0.0,25.462473,0.99366444,1.0005852,0.0,6,0,0,0,0,0,1,1,0,0,0
1454637944,23.347569,23.377512,0.049599998,0.0616712,0.0,25.471235,0.99010247,1.0009145,0.0,6,0,0,0,0,0,1,1,0,0,0
1455141756,23.347569,23.374952,0.062,0.06116918,0.0,25.479792,0.98891324,1.0010244,0.0,6,0,0,0,0,0,1,1,0,0,0
1455645807,23.387962,23.37585,0.0744,0.061752986,0.0,25.488474,0.9893338,1.0009855,0.0,6,0,0,0,0,0,1,1,0,0,0
1456149806,23.40816,23.3754,0.062,0.061986458,0.0,25.49719,0.9891278,1.0010046,0.0,6,0,0,0,0,0,1,1,0,0,0
1456653926,23.40816,23.375374,0.062,0.061894197,0.0,25.505913,0.98911446,1.0010059,0.0,6,0,0,0,0,0,1,1,0,0,0
1457157969,23.690916,23.375366,0.049599998,0.06128847,0.0,25.514387,0.9891059,1.0010066,0.0,6,0,0,0,0,0,1,1,0,0,0
1457661745,23.367765,23.373524,0.062,0.060598668,0.0,25.522736,0.9882476,1.001086,0.0,6,0,0,0,0,0,1,1,0,0,0
1458165811,23.387962,23.368618,0.062,0.06156096,0.0,25.531494,0.9859845,1.0012954,0.0,6,0,0,0,0,0,1,1,0,0,0
1458670574,23.367765,23.369282,0.062,0.06249357,0.0,25.540354,0.9862992,1.0012662,0.0,6,0,0,0,0,0,1,1,0,0,0
1459174629,23.367765,23.367212,0.0372,0.06115189,0.0,25.54874,0.98532933,1.001356,0.0,6,0,0,0,0,0,1,1,0,0,0
1459678587,23.347569,23.36762,0.0744,0.061233975,0.0,25.557335,0.98552006,1.0013384,0.0,6,0,0,0,0,0,1,1,0,0,0
1460182736,23.327372,23.343863,0.049599998,0.06163243,0.0,25.565975,0.9745242,1.0023571,0.0,6,0,0,0,0,0,1,1,0,0,0
1460686619,23.26678,23.323956,0.0744,0.06130679,0.0,25.574457,0.96530503,1.0032129,0.0,6,0,0,0,0,0,1,1,0,0,0
1461178727,23.26678,23.300047,0.049599998,0.061496112,0.0,25.582886,0.95423764,1.0042422,0.0,6,0,0,0,0,0,1,1,0,0,0
1461682581,23.125402,23.277954,0.062,0.060824268,0.0,25.591276,0.94400376,1.0051957,0.0,6,0,0,0,0,0,1,1,0,0,0
1462186733,23.26678,23.264013,0.062,0.063030265,0.0,25.600248,0.93756837,1.0057963,0.0,6,0,0,0,0,0,1,1,0,0,0
1462690571,23.367765,23.28564,0.062,0.06193582,0.0,25.60877,0.94757146,1.004863,0.0,6,0,0,0,0,0,1,1,0,0,0
1463194572,23.40816,23.324175,0.062,0.062030148,0.0,25.617445,0.9654128,1.0032029,0.0,6,0,0,0,0,0,1,1,0,0,0
1463699348,23.347569,23.344095,0.062,0.061036587,0.0,25.625883,0.97462624,1.0023477,0.0,6,0,0,0,0,0,1,1,0,0,0
1464203423,23.40816,23.35832,0.062,0.06257596,0.0,25.634811,0.9812247,1.0017362,0.0,6,0,0,0,0,0,1,1,0,0,0
1464707546,23.387962,23.359722,0.049599998,0.06177525,0.0,25.643408,0.98186654,1.0016767,0.0,6,0,0,0,0,0,1,1,0,0,0
1465211398,23.367765,23.367317,0.062,0.062052637,0.0,25.652092,0.98538655,1.0013508,0.0,6,0,0,0,0,0,1,1,0,0,0
1465703297,23.367765,23.370956,0.062,0.060245425,0.0,25.660187,0.9870555,1.0011964,0.0,6,0,0,0,0,0,1,1,0,0,0
1466207299,23.428356,23.38302,0.062,0.060210366,0.0,25.668617,0.99264115,1.0006797,0.0,6,0,0,0,0,0,1,1,0,0,0
1466711660,23.40816,23.39832,0.062,0.060042527,0.0,25.677011,0.9997222,1.0000256,0.0,6,0,0,0,0,0,1,1,0,0,0
1467215709,23.327372,23.397749,0.062,0.059826873,0.0,25.685406,0.9994561,1.0000502,0.0,6,0,0,0,0,0,1,1,0,0,0
1467719403,23.448553,23.40071,0.062,0.061494347,0.0,25.694122,1.0,1.0,0.0,6,0,0,0,0,0,1,1,0,0,0
1468211542,23.428356,23.405766,0.062,0.06283899,0.0,25.702848,1.0,1.0,0.0,6,0,0,0,0,0,1,1,0,0,0
1468715396,23.428356,23.40591,0.062,0.06084995,0.0,25.711151,1.0,1.0,0.0,6,0,0,0,0,0,1,1,0,0,0
1469220179,23.387962,23.411901,0.062,0.061402403,0.0,25.71976,1.0,1.0,0.0,6,0,0,0,0,0,1,1,0,0,0
1469724145,23.428356,23.417044,0.062,0.06109,0.0,25.728235,1.0,1.0,0.0,6,0,0,0,0,0,1,1,0,0,0
1470228168,23.307175,23.398645,0.049599998,0.06128223,0.0,25.73683,0.99988335,1.0000107,0.0,6,0,0,0,0,0,1,1,0,0,0
1470732315,23.387962,23.39027,0.062,0.059938498,0.0,25.745018,0.99599427,1.0003699,0.0,6,0,0,0,0,0,1,1,0,0,0
1471236321,23.327372,23.381247,0.062,0.0602133,0.0,25.753408,0.99182004,1.0007557,0.0,6,0,0,0,0,0,1,1,0,0,0
1471740111,23.327372,23.373459,0.062,0.060181823,0.0,25.761753,0.98821324,1.0010892,0.0,6,0,0,0,0,0,1,1,0,0,0
1472244375,23.327372,23.365637,0.062,0.060243815,0.0,25.770145,0.9845931,1.0014242,0.0,6,0,0,0,0,0,1,1,0,0,0
1472748156,23.387962,23.36483,0.062,0.06104382,0.0,25.778738,0.9842259,1.0014582,0.0,6,0,0,0,0,0,1,1,0,0,0
1473252369,23.347569,23.361374,0.062,0.061128322,0.0,25.787216,0.9826266,1.0016062,0.0,6,0,0,0,0,0,1,1,0,0,0
1473756381,23.40816,23.355907,0.062,0.060069773,0.0,25.795523,0.980087,1.0018415,0.0,6,0,0,0,0,0,1,1,0,0,0
1474260155,23.387962,23.357307,0.062,0.0608471,0.0,25.80407,0.98074216,1.0017807,0.0,6,0,0,0,0,0,1,1,0,0,0
1474752891,23.347569,23.352474,0.062,0.06169333,0.0,25.812561,0.9785115,1.0019876,0.0,6,0,0,0,0,0,1,1,0,0,0
1475256966,23.367765,23.35205,0.062,0.06098205,0.0,25.821033,0.97830933,1.0020063,0.0,6,0,0,0,0,0,1,1,0,0,0
1475760952,23.367765,23.350372,0.049599998,0.061840277,0.0,25.829792,0.97753876,1.0020776,0.0,6,0,0,0,0,0,1,1,0,0,0
1476264898,23.347569,23.352018,0.049599998,0.06267689,0.0,25.838583,0.9783084,1.0020063,0.0,6,0,0,0,0,0,1,1,0,0,0
1476769169,23.327372,23.346579,0.062,0.06180576,0.0,25.847103,0.97578305,1.0022404,0.0,6,0,0,0,0,0,1,1,0,0,0
1477272887,23.347569,23.344805,0.062,0.06182183,0.0,25.855732,0.974961,1.0023167,0.0,6,0,0,0,0,0,1,1,0,0,0
1477777014,23.367765,23.342827,0.062,0.061204456,0.0,25.864248,0.9740407,1.002402,0.0,6,0,0,0,0,0,1,1,0,0,0
1478280894,23.327372,23.341976,0.062,0.061742608,0.0,25.872932,0.9736516,1.0024381,0.0,6,0,0,0,0,0,1,1,0,0,0
1478784913,23.347569,23.338608,0.0744,0.061196398,0.0,25.881453,0.97208756,1.0025831,0.0,6,0,0,0,0,0,1,1,0,0,0
1479289996,23.347569,23.328808,0.0744,0.06051519,0.0,25.889948,0.96754426,1.0030049,0.0,6,0,0,0,0,0,1,1,0,0,0
1479793830,23.26678,23.321135,0.062,0.060790047,0.0,25.898504,0.9639947,1.0033346,0.0,6,0,0,0,0,0,1,1,0,0,0
1480297754,23.307175,23.316164,0.0744,0.060818005,0.0,25.906973,0.96169347,1.0035485,0.0,6,0,0,0,0,0,1,1,0,0,0
1480801816,23.307175,23.309603,0.062,0.060745567,0.0,25.915443,0.95865506,1.0038311,0.0,6,0,0,0,0,0,1,1,0,0,0
1481305818,23.327372,23.306608,0.062,0.061542153,0.0,25.924131,0.9572751,1.0039594,0.0,6,0,0,0,0,0,1,1,0,0,0
1481809747,23.26678,23.302313,0.062,0.06172459,0.0,25.932848,0.9552886,1.0041443,0.0,6,0,0,0,0,0,1,1,0,0,0
1482313927,23.286978,23.296568,0.062,0.06046086,0.0,25.941198,0.9526183,1.0043929,0.0,6,0,0,0,0,0,1,1,0,0,0
1482817930,23.26678,23.292719,0.062,0.061115,0.0,25.949835,0.9508416,1.0045584,0.0,6,0,0,0,0,0,1,1,0,0,0
1483321827,23.307175,23.292046,0.049599998,0.061062515,0.0,25.958433,0.95052975,1.0045874,0.0,6,0,0,0,0,0,1,1,0,0,0
1483814615,23.347569,23.290588,0.0744,0.06218293,0.0,25.967003,0.9498641,1.0046495,0.0,6,0,0,0,0,0,1,1,0,0,0
1484318591,23.307175,23.290344,0.062,0.061862674,0.0,25.97556,0.9497487,1.0046602,0.0,6,0,0,0,0,0,1,1,0,0,0
1484822762,23.226387,23.28705,0.062,0.060716204,0.0,25.983913,0.94821423,1.0048032,0.0,6,0,0,0,0,0,1,1,0,0,0
1485326474,23.246584,23.282175,0.049599998,0.06183396,0.0,25.992754,0.9459664,1.0050128,0.0,6,0,0,0,0,0,1,1,0,0,0
1485830515,23.26678,23.275858,0.062,0.062050942,0.0,26.00152,0.9430434,1.0052854,0.0,6,0,0,0,0,0,1,1,0,0,0
1486334485,23.26678,23.27145,0.062,0.062510826,0.0,26.01033,0.9410073,1.0054753,0.0,6,0,0,0,0,0,1,1,0,0,0
1486838477,23.20619,23.266495,0.062,0.062010974,0.0,26.019012,0.93870896,1.0056899,0.0,6,0,0,0,0,0,1,1,0,0,0
1487342586,23.307175,23.265772,0.062,0.06337457,0.0,26.028032,0.9383847,1.0057201,0.0,6,0,0,0,0,0,1,1,0,0,0
1487846505,23.246584,23.269138,0.062,0.062279295,0.0,26.036581,0.9399354,1.0055754,0.0,6,0,0,0,0,0,1,1,0,0,0
1488350538,23.226387,23.268705,0.062,0.06185721,0.0,26.045135,0.93973035,1.0055945,0.0,6,0,0,0,0,0,1,1,0,0,0
1488855412,23.26678,23.261448,0.062,0.06132046,0.0,26.053705,0.93636674,1.0059085,0.0,6,0,0,0,0,0,1,1,0,0,0
1489347532,23.26678,23.259771,0.062,0.062269334,0.0,26.062384,0.9355981,1.0059804,0.0,6,0,0,0,0,0,1,1,0,0,0
1489851399,23.246584,23.261866,0.062,0.061114073,0.0,26.070776,0.9365584,1.0058907,0.0,6,0,0,0,0,0,1,1,0,0,0
1490355529,23.246584,23.263224,0.062,0.059975088,0.0,26.079046,0.93717736,1.0058328,0.0,6,0,0,0,0,0,1,1,0,0,0
1490859419,23.286978,23.262579,0.049599998,0.060374983,0.0,26.08756,0.9368817,1.0058604,0.0,6,0,0,0,0,0,1,1,0,0,0
1491363525,23.26678,23.25675,0.0744,0.061824556,0.0,26.096416,0.9341962,1.0061113,0.0,6,0,0,0,0,0,1,1,0,0,0
1491867280,23.185993,23.255552,0.062,0.060838956,0.0,26.104841,0.93363255,1.0061641,0.0,6,0,0,0,0,0,1,1,0,0,0
1492371570,23.26678,23.257145,0.062,0.060218632,0.0,26.113243,0.934365,1.0060955,0.0,6,0,0,0,0,0,1,1,0,0,0
1492876114,23.226387,23.25126,0.062,0.060349695,0.0,26.121723,0.9316413,1.00635,0.0,6,0,0,0,0,0,1,1,0,0,0
1493380106,23.20619,23.238993,0.062,0.061531343,0.0,26.130487,0.9259717,1.0068804,0.0,6,0,0,0,0,0,1,1,0,0,0
1493884064,23.226387,23.24076,0.062,0.061816648,0.0,26.139166,0.9267928,1.0068035,0.0,6,0,0,0,0,0,1,1,0,0,0
1494388383,23.246584,23.239935,0.049599998,0.060720965,0.0,26.147566,0.9264018,1.0068402,0.0,6,0,0,0,0,0,1,1,0,0,0
1494892076,23.226387,23.234118,0.062,0.06164433,0.0,26.156364,0.92371625,1.0070915,0.0,6,0,0,0,0,0,1,1,0,0,0
1495396398,23.26678,23.23167,0.062,0.06239302,0.0,26.165174,0.922589,1.007197,0.0,6,0,0,0,0,0,1,1,0,0,0
1495900146,23.246584,23.232075,0.062,0.061916817,0.0,26.173769,0.9227721,1.0071799,0.0,6,0,0,0,0,0,1,1,0,0,0
1496392343,23.246584,23.233654,0.049599998,0.06032547,0.0,26.18196,0.9234902,1.0071126,0.0,6,0,0,0,0,0,1,1,0,0,0
1496896165,23.246584,23.23077,0.062,0.06041961,0.0,26.190426,0.92215604,1.0072376,0.0,6,0,0,0,0,0,1,1,0,0,0
1497401150,23.20619,23.22291,0.0744,0.0624972,0.0,26.199375,0.918534,1.007577,0.0,6,0,0,0,0,0,1,1,0,0,0
1497905018,23.20619,23.21787,0.062,0.062342536,0.0,26.208092,0.9161994,1.0077958,0.0,6,0,0,0,0,0,1,1,0,0,0
1498409019,23.185993,23.2167,0.062,0.062323853,0.0,26.216812,0.9156577,1.0078466,0.0,6,0,0,0,0,0,1,1,0,0,0
1498913149,23.226387,23.213186,0.062,0.06323723,0.0,26.225744,0.9140393,1.0079982,0.0,6,0,0,0,0,0,1,1,0,0,0
1499416997,23.165796,23.209412,0.062,0.062270183,0.0,26.234379,0.9122836,1.008163,0.0,6,0,0,0,0,0,1,1,0,0,0
1499921133,23.347569,23.247715,0.062,0.062028434,0.0,26.243061,0.9300143,1.0065023,0.0,6,0,0,0,0,0,1,1,0,0,0
1500424963,23.125402,23.20903,0.062,0.061670274,0.0,26.25162,0.91210145,1.00818,0.0,6,0,0,0,0,0,1,1,0,0,0
1500928995,23.185993,23.17637,0.062,0.06222014,0.0,26.26043,0.8969857,1.0096003,0.0,6,0,0,0,0,0,1,1,0,0,0
1501433663,23.08501,23.145851,0.062,0.06171981,0.0,26.269085,0.8828532,1.0109317,0.0,6,0,0,0,0,0,1,1,0,0,0
1501937916,23.064814,23.1186,0.0744,0.061617382,0.0,26.277733,0.87023515,1.0121235,0.0,6,0,0,0,0,0,1,1,0,0,0
1502441811,23.165796,23.120987,0.062,0.06244931,0.0,26.286612,0.8713471,1.0120183,0.0,6,0,0,0,0,0,1,1,0,0,0
1502945989,23.20619,23.143732,0.062,0.062020298,0.0,26.295246,0.8818738,1.0110242,0.0,6,0,0,0,0,0,1,1,0,0,0
1503449812,23.226387,23.171385,0.062,0.061087,0.0,26.303677,0.8946683,1.0098184,0.0,6,0,0,0,0,0,1,1,0,0,0
1503953670,23.185993,23.180952,0.049599998,0.060868744,0.0,26.31223,0.8990962,1.0094018,0.0,6,0,0,0,0,0,1,1,0,0,0
1504458015,23.185993,23.190992,0.062,0.062343597,0.0,26.321087,0.9037568,1.0089636,0.0,6,0,0,0,0,0,1,1,0,0,0
1504961967,23.165796,23.189783,0.0744,0.06195115,0.0,26.329685,0.9031932,1.0090165,0.0,6,0,0,0,0,0,1,1,0,0,0
1505454716,23.1456,23.181147,0.062,0.062875286,0.0,26.338373,0.899203,1.0093917,0.0,6,0,0,0,0,0,1,1,0,0,0
1505958765,23.185993,23.168558,0.062,0.062251534,0.0,26.347048,0.8933694,1.0099406,0.0,6,0,0,0,0,0,1,1,0,0,0
1506462575,23.1456,23.154442,0.062,0.06258421,0.0,26.35585,0.8868367,1.0105561,0.0,6,0,0,0,0,0,1,1,0,0,0
1506966561,23.165796,23.144989,0.062,0.06251084,0.0,26.364561,0.8824603,1.0109688,0.0,6,0,0,0,0,0,1,1,0,0,0
1507470512,23.1456,23.14331,0.062,0.06323777,0.0,26.373404,0.8816897,1.0110415,0.0,6,0,0,0,0,0,1,1,0,0,0
1507974544,23.105206,23.142277,0.062,0.06295533,0.0,26.382208,0.8812081,1.011087,0.0,6,0,0,0,0,0,1,1,0,0,0
1508478734,23.165796,23.147755,0.062,0.06385875,0.0,26.391224,0.8837516,1.010847,0.0,6,0,0,0,0,0,1,1,0,0,0
1508982727,23.105206,23.148897,0.062,0.06390443,0.0,26.400148,0.88428086,1.0107971,0.0,6,0,0,0,0,0,1,1,0,0,0
1509487396,23.20619,23.149261,0.062,0.06266333,0.0,26.40884,0.8844392,1.0107821,0.0,6,0,0,0,0,0,1,1,0,0,0
1509991522,23.08501,23.154863,0.0744,0.062565155,0.0,26.417553,0.8870322,1.0105377,0.0,6,0,0,0,0,0,1,1,0,0,0
1510495565,23.20619,23.169146,0.062,0.062448107,0.0,26.426315,0.8936431,1.0099149,0.0,6,0,0,0,0,0,1,1,0,0,0
1510999573,23.165796,23.1773,0.062,0.061802007,0.0,26.43487,0.89741296,1.0095601,0.0,6,0,0,0,0,0,1,1,0,0,0
1511503359,23.226387,23.18784,0.062,0.06128449,0.0,26.443419,0.90228814,1.0091016,0.0,6,0,0,0,0,0,1,1,0,0,0
1512007423,23.185993,23.196455,0.062,0.06038349,0.0,26.451855,0.9062688,1.0087276,0.0,6,0,0,0,0,0,1,1,0,0,0
1512511405,23.1456,23.185534,0.062,0.061471913,0.0,26.460575,0.90122193,1.0092019,0.0,6,0,0,0,0,0,1,1,0,0,0
1513004340,23.185993,23.184324,0.049599998,0.061321724,0.0,26.468983,0.9006612,1.0092546,0.0,6,0,0,0,0,0,1,1,0,0,0
1513508131,23.1456,23.19485,0.062,0.061799902,0.0,26.477674,0.90553826,1.0087963,0.0,6,0,0,0,0,0,1,1,0,0,0
1514012162,23.226387,23.207006,0.062,0.06087588,0.0,26.486105,0.91115826,1.0082686,0.0,6,0,0,0,0,0,1,1,0,0,0
1514516149,23.165796,23.208588,0.062,0.06067383,0.0,26.494581,0.9118888,1.0082,0.0,6,0,0,0,0,0,1,1,0,0,0
1515020322,23.226387,23.209925,0.049599998,0.06043154,0.0,26.503017,0.91250485,1.0081422,0.0,6,0,0,0,0,0,1,1,0,0,0
1515524172,23.185993,23.204933,0.062,0.061673228,0.0,26.511858,0.9102046,1.0083581,0.0,6,0,0,0,0,0,1,1,0,0,0
1516028215,23.1456,23.193295,0.062,0.060074408,0.0,26.519999,0.904803,1.0088654,0.0,6,0,0,0,0,0,1,1,0,0,0
1516532152,23.20619,23.181395,0.0744,0.061142523,0.0,26.528675,0.8993022,1.0093824,0.0,6,0,0,0,0,0,1,1,0,0,0
1517037015,23.1456,23.174942,0.049599998,0.06047306,0.0,26.537083,0.8963105,1.0096638,0.0,6,0,0,0,0,0,1,1,0,0,0
1517541005,23.125402,23.17052,0.062,0.06136655,0.0,26.545763,0.8942706,1.0098559,0.0,6,0,0,0,0,0,1,1,0,0,0
1518045016,23.226387,23.172535,0.062,0.06109518,0.0,26.554325,0.8952014,1.0097682,0.0,6,0,0,0,0,0,1,1,0,0,0
1518549194,23.226387,23.19238,0.062,0.061902296,0.0,26.563051,0.90439576,1.0089036,0.0,6,0,0,0,0,0,1,1,0,0,0
1519053001,23.26678,23.226486,0.062,0.060874,0.0,26.571486,0.92017716,1.0074229,0.0,6,0,0,0,0,0,1,1,0,0,0
1519557207,23.26678,23.232805,0.049599998,0.060902778,0.0,26.580044,0.9231021,1.007149,0.0,6,0,0,0,0,0,1,1,0,0,0
1520060995,23.20619,23.2387,0.0744,0.06052842,0.0,26.588469,0.92582864,1.0068938,0.0,6,0,0,0,0,0,1,1,0,0,0
1520553742,23.226387,23.228561,0.062,0.06164208,0.0,26.597,0.9211442,1.0073323,0.0,6,0,0,0,0,0,1,1,0,0,0
1521057826,23.246584,23.220692,0.062,0.061455444,0.0,26.605555,0.9174983,1.007674,0.0,6,0,0,0,0,0,1,1,0,0,0
1521561729,23.20619,23.220009,0.049599998,0.061807223,0.0,26.61419,0.91718644,1.0077032,0.0,6,0,0,0,0,0,1,1,0,0,0
1522065950,23.185993,23.207424,0.049599998,0.0613655,0.0,26.622795,0.9113557,1.00825,0.0,6,0,0,0,0,0,1,1,0,0,0
1522569767,23.185993,23.194164,0.062,0.061019108,0.0,26.631304,0.905214,1.0088267,0.0,6,0,0,0,0,0,1,1,0,0,0
1523073780,23.1456,23.180746,0.062,0.06149494,0.0,26.639948,0.8990056,1.0094104,0.0,6,0,0,0,0,0,1,1,0,0,0
1523577942,23.1456,23.1723,0.0744,0.062205624,0.0,26.648678,0.8951022,1.0097775,0.0,6,0,0,0,0,0,1,1,0,0,0
1524082818,23.105206,23.162283,0.062,0.061806127,0.0,26.657288,0.89046067,1.0102146,0.0,6,0,0,0,0,0,1,1,0,0,0
1524586748,23.165796,23.161531,0.062,0.06328568,0.0,26.66629,0.890125,1.0102463,0.0,6,0,0,0,0,0,1,1,0,0,0
1525090768,23.185993,23.152552,0.062,0.063719496,0.0,26.675303,0.8859717,1.0106376,0.0,6,0,0,0,0,0,1,1,0,0,0
1525594796,23.165796,23.154049,0.049599998,0.063272476,0.0,26.684147,0.8866603,1.0105727,0.0,6,0,0,0,0,0,1,1,0,0,0
1526098548,23.165796,23.152832,0.062,0.06201986,0.0,26.692701,0.8860871,1.0106268,0.0,6,0,0,0,0,0,1,1,0,0,0
1526602727,23.125402,23.148146,0.062,0.06241044,0.0,26.70151,0.8839204,1.0108311,0.0,6,0,0,0,0,0,1,1,0,0,0
1527106738,23.105206,23.138903,0.062,0.061894175,0.0,26.710104,0.8796374,1.0112352,0.0,6,0,0,0,0,0,1,1,0,0,0
1527610751,23.105206,23.132496,0.062,0.06170216,0.0,26.718742,0.8766696,1.0115155,0.0,6,0,0,0,0,0,1,1,0,0,0
1528103279,23.125402,23.134422,0.0744,0.062011786,0.0,26.727215,0.8775632,1.011431,0.0,6,0,0,0,0,0,1,1,0,0,0
1528607545,23.08501,23.11092,0.062,0.06317187,0.0,26.736141,0.8666932,1.0124586,0.0,6,0,0,0,0,0,1,1,0,0,0
1529111324,23.1456,23.116488,0.062,0.06194546,0.0,26.74469,0.86925954,1.0122159,0.0,6,0,0,0,0,0,1,1,0,0,0
1529615383,23.125402,23.152657,0.062,0.061066825,0.0,26.75324,0.8859975,1.0106353,0.0,6,0,0,0,0,0,1,1,0,0,0
1530119537,23.02442,23.122879,0.062,0.062098056,0.0,26.762089,0.8722207,1.0119358,0.0,6,0,0,0,0,0,1,1,0,0,0
1530623688,23.1456,23.093727,0.0744,0.06200243,0.0,26.770771,0.85872334,1.0132133,0.0,6,0,0,0,0,0,1,1,0,0,0
1531127424,23.125402,23.082327,0.062,0.06204797,0.0,26.779413,0.8534457,1.0137136,0.0,6,0,0,0,0,0,1,1,0,0,0
1531632350,23.044617,23.085066,0.062,0.061502654,0.0,26.787987,0.8547093,1.0135938,0.0,6,0,0,0,0,0,1,1,0,0,0
1532124165,23.1456,23.08979,0.0744,0.06165579,0.0,26.79641,0.856898,1.0133862,0.0,6,0,0,0,0,0,1,1,0,0,0
1532640156,23.064814,23.090729,0.049599998,0.061048914,0.0,26.805136,0.85732716,1.0133456,0.0,6,0,0,0,0,0,1,1,0,0,0
1533132111,23.105206,23.095207,0.062,0.060226087,0.0,26.813229,0.8593938,1.0131497,0.0,6,0,0,0,0,0,1,1,0,0,0
1533636129,23.064814,23.10388,0.062,0.061524518,0.0,26.822027,0.8634202,1.0127684,0.0,6,0,0,0,0,0,1,1,0,0,0
1534140396,23.08501,23.107162,0.062,0.06088225,0.0,26.830471,0.86493367,1.0126251,0.0,6,0,0,0,0,0,1,1,0,0,0
1534644186,23.125402,23.10703,0.0744,0.061663087,0.0,26.83919,0.8648793,1.0126302,0.0,6,0,0,0,0,0,1,1,0,0,0
1535149005,23.08501,23.088633,0.062,0.06248328,0.0,26.848007,0.8563687,1.0134364,0.0,6,0,0,0,0,0,1,1,0,0,0
1535652893,23.064814,23.07938,0.062,0.06209614,0.0,26.856642,0.85208195,1.0138429,0.0,6,0,0,0,0,0,1,1,0,0,0
1536157031,23.044617,23.071861,0.062,0.062445864,0.0,26.86541,0.8486039,1.0141732,0.0,6,0,0,0,0,0,1,1,0,0,0
1536660930,23.08501,23.07066,0.062,0.06186348,0.0,26.873964,0.8480422,1.0142264,0.0,6,0,0,0,0,0,1,1,0,0,0
1537165010,23.08501,23.078354,0.0868,0.06334858,0.0,26.88302,0.8516175,1.013887,0.0,6,0,0,0,0,0,1,1,0,0,0
1537669017,23.1456,23.086662,0.062,0.06259877,0.0,26.891745,0.85545796,1.0135227,0.0,6,0,0,0,0,0,1,1,0,0,0
1538161815,23.20619,23.100214,0.062,0.06246507,0.0,26.900267,0.8617303,1.0129284,0.0,6,0,0,0,0,0,1,1,0,0,0
1538665812,23.08501,23.108418,0.049599998,0.062017646,0.0,26.908947,0.86552495,1.0125692,0.0,6,0,0,0,0,0,1,1,0,0,0
1539169963,23.1456,23.11496,0.099199995,0.06255957,0.0,26.917677,0.86855763,1.0122821,0.0,6,0,0,0,0,0,1,1,0,0,0
1539673833,23.185993,23.125923,0.049599998,0.063318275,0.0,26.926607,0.87363976,1.0118017,0.0,6,0,0,0,0,0,1,1,0,0,0
1540165988,23.26678,23.1374,0.062,0.063677944,0.0,26.935415,0.8789565,1.0112995,0.0,6,0,0,0,0,0,1,1,0,0,0
1540669932,23.165796,23.19759,0.062,0.061693568,0.0,26.943848,0.9068057,1.0086772,0.0,6,0,0,0,0,0,1,1,0,0,0
1541173954,23.307175,23.216858,0.062,0.061736386,0.0,26.952448,0.91572636,1.0078402,0.0,6,0,0,0,0,0,1,1,0,0,0
1541678533,23.125402,23.225458,0.062,0.062053867,0.0,26.961096,0.9197108,1.0074667,0.0,6,0,0,0,0,0,1,1,0,0,0
1542182617,23.105206,23.1898,0.062,0.06231561,0.0,26.969816,0.90320367,1.0090157,0.0,6,0,0,0,0,0,1,1,0,0,0
1542674520,23.185993,23.175959,0.062,0.06184205,0.0,26.978209,0.8967921,1.0096185,0.0,6,0,0,0,0,0,1,1,0,0,0
1543178815,23.185993,23.16819,0.062,0.062492177,0.0,26.987022,0.89320153,1.0099565,0.0,6,0,0,0,0,0,1,1,0,0,0
1543682594,23.185993,23.172375,0.0744,0.062740274,0.0,26.995821,0.89514035,1.009774,0.0,6,0,0,0,0,0,1,1,0,0,0
1544186547,23.20619,23.17296,0.062,0.06304997,0.0,27.004786,0.89541405,1.0097482,0.0,6,0,0,0,0,0,1,1,0,0,0
1544679377,23.185993,23.175999,0.062,0.06293075,0.0,27.013357,0.8968198,1.0096159,0.0,6,0,0,0,0,0,1,1,0,0,0
1545183416,23.165796,23.178606,0.0744,0.061754037,0.0,27.021868,0.8980176,1.0095032,0.0,6,0,0,0,0,0,1,1,0,0,0
1545687358,23.20619,23.173866,0.062,0.061277874,0.0,27.030474,0.89581937,1.0097101,0.0,6,0,0,0,0,0,1,1,0,0,0
1546191378,23.165796,23.169744,0.062,0.061260805,0.0,27.039034,0.8939101,1.0098897,0.0,6,0,0,0,0,0,1,1,0,0,0
1546695402,23.185993,23.168373,0.062,0.060611777,0.0,27.047462,0.8932702,1.00995,0.0,6,0,0,0,0,0,1,1,0,0,0
1547199612,23.20619,23.162212,0.062,0.06123585,0.0,27.056063,0.8904235,1.0102181,0.0,6,0,0,0,0,0,1,1,0,0,0
1547703361,23.20619,23.158356,0.062,0.061331667,0.0,27.06466,0.8886382,1.0103863,0.0,6,0,0,0,0,0,1,1,0,0,0
1548208234,23.165796,23.155317,0.062,0.06076873,0.0,27.07302,0.8872277,1.0105193,0.0,6,0,0,0,0,0,1,1,0,0,0
1548700135,23.165796,23.155993,0.062,0.061938062,0.0,27.08166,0.8875491,1.010489,0.0,6,0,0,0,0,0,1,1,0,0,0
1549204355,23.105206,23.146635,0.062,0.060235154,0.0,27.090014,0.8832032,1.0108987,0.0,6,0,0,0,0,0,1,1,0,0,0
