timestamp,time_utc_usec,lat,lon,alt,alt_ellipsoid,s_variance_m_s,c_variance_rad,eph,epv,hdop,vdop,noise_per_ms,jamming_indicator,vel_m_s,vel_n_m_s,vel_e_m_s,vel_d_m_s,cog_rad,timestamp_time_relative,fix_type,vel_ned_valid,satellites_used
1244961516,1686685077799558,371025530,-763884625,-3273,-39043,0.208,0.6492525,0.64400005,0.822,0.61,0.87,102,13,0.014,0.013,0.006,-0.045,0.45116147,0,4,1,19
1245164666,1686685077999559,371025530,-763884622,-3263,-39033,0.224,0.6492619,0.643,0.82000005,0.61,0.87,102,13,0.034,-0.007,-0.034,-0.026,0.45116147,0,4,1,19
1245365749,1686685078199557,371025529,-763884620,-3248,-39018,0.23400001,0.64927185,0.642,0.81900007,0.61,0.87,102,13,0.034,0.034,0.003,0.041,0.45116147,0,4,1,19
1245560485,1686685078399557,371025528,-763884617,-3229,-38999,0.23900001,0.649282,0.642,0.81700003,0.61,0.87,102,13,0.041,0.017,0.037,0.061000004,0.45116147,0,4,1,19
1245777139,1686685078599557,371025526,-763884615,-3215,-38985,0.177,0.6492895,0.64100003,0.81600004,0.61,0.87,101,12,0.024,-0.018000001,-0.016,0.0050000004,0.45116147,0,4,1,19
1245961527,1686685078799557,371025525,-763884613,-3216,-38986,0.21800001,0.64929855,0.64100003,0.81500006,0.61,0.87,101,12,0.020000001,0.008,-0.018000001,0.116000004,0.45116147,0,4,1,19
1246164481,1686685078999558,371025524,-763884621,-3085,-38855,0.23900001,0.29223442,0.642,0.81700003,0.61,0.87,101,12,0.768,0.143,-0.754,-0.57100004,5.20879,0,4,1,19
1246361641,1686685079199557,371025524,-763884634,-2819,-38589,0.23600002,0.2837617,0.64100003,0.814,0.61,0.87,101,12,0.749,0.37100002,-0.65000004,-1.388,5.2201505,0,4,1,19
1246565514,1686685079399557,371025527,-763884645,-2550,-38320,0.215,0.22490329,0.63900006,0.809,0.61,0.87,101,12,0.89100003,0.441,-0.77500004,-1.187,5.22578,0,4,1,19
1246765527,1686685079599557,371025532,-763884660,-2350,-38120,0.22200002,0.18994173,0.637,0.809,0.61,0.87,101,10,1.0380001,0.563,-0.87200004,-1.284,5.260735,0,4,1,19
1246960710,1686685079799557,371025534,-763884675,-2098,-37868,0.215,0.22625539,0.634,0.80600005,0.61,0.87,101,10,0.883,0.312,-0.82600003,-1.19,5.1831264,0,4,1,19
1247173496,1686685079999558,371025536,-763884691,-1887,-37657,0.22500001,0.2343916,0.632,0.80500007,0.61,0.87,101,10,0.84700006,0.28800002,-0.79600006,-1.054,5.123263,0,4,1,19
1247364653,1686685080199557,371025535,-763884704,-1723,-37493,0.22600001,0.298164,0.63000005,0.80200005,0.61,0.87,101,10,0.68600005,0.19000001,-0.66,-1.0960001,5.073275,0,4,1,19
1247565778,1686685080399557,371025535,-763884714,-1575,-37345,0.23200001,0.38093904,0.628,0.80300003,0.61,0.87,101,10,0.52000004,0.15400001,-0.497,-1.049,5.04998,0,4,1,19
1247764915,1686685080599557,371025531,-763884722,-1356,-37126,0.23400001,0.54089725,0.62700003,0.80300003,0.61,0.87,101,10,0.37,0.001,-0.37,-1.121,4.9385448,0,4,1,19
1247961492,1686685080799557,371025528,-763884725,-1179,-36949,0.238,0.5409484,0.625,0.80200005,0.61,0.87,101,10,0.097,0.025,-0.094000004,-1.0020001,4.9385448,0,4,1,19
1248161492,1686685080999558,371025524,-763884725,-1026,-36796,0.23600002,0.5409943,0.623,0.8,0.61,0.87,101,10,0.112,0.030000001,-0.108,-0.90000004,4.9385448,0,4,1,19
1248365573,1686685081199557,371025522,-763884722,-928,-36698,0.21400002,0.54103774,0.62100005,0.79800004,0.61,0.87,101,10,0.19900002,0.18200001,0.082,-0.83300006,4.9385448,0,4,1,19
1248564787,1686685081399557,371025521,-763884719,-746,-36516,0.22100002,0.54108435,0.62,0.79700005,0.61,0.87,101,10,0.096,0.05,0.081,-0.91600007,4.9385448,0,4,1,19
1248760786,1686685081599557,371025520,-763884714,-587,-36357,0.21300001,0.64158386,0.61800003,0.79600006,0.61,0.87,101,10,0.29500002,0.21900001,0.19800001,-0.98,5.803081,0,4,1,19
1248961529,1686685081799557,371025521,-763884707,-408,-36178,0.22000001,0.76756364,0.61700004,0.79700005,0.61,0.87,101,10,0.277,-0.029000001,0.275,-0.86100006,0.4072853,0,4,1,19
1249165487,1686685081999558,371025522,-763884699,-263,-36033,0.21100001,0.59951586,0.61700004,0.79700005,0.61,0.87,101,10,0.35500002,0.13900001,0.32700002,-0.93600005,0.8806997,0,4,1,19
1249364013,1686685082199557,371025523,-763884693,-114,-35883,0.21800001,0.5995563,0.61700004,0.79700005,0.61,0.87,101,10,0.21100001,0.113000005,0.179,-0.86,0.8806997,0,4,1,19
1249556828,1686685082399557,371025524,-763884687,45,-35725,0.20300001,0.50447834,0.614,0.79300004,0.61,0.87,101,10,0.35000002,0.27400002,0.21800001,-0.9710001,0.75858516,0,4,1,19
1249761522,1686685082599557,371025529,-763884681,199,-35571,0.19800001,0.4935665,0.61300004,0.791,0.61,0.87,101,10,0.35900003,0.25300002,0.25500003,-0.95000005,0.7750668,0,4,1,19
1252565536,1686685085399557,371025550,-763884675,2959,-32811,0.24700001,0.7844422,0.624,0.80300003,0.61,0.87,101,10,0.10300001,-0.102000006,-0.015000001,-1.169,0.5039558,0,4,1,19
1252968483,1686685085799557,371025546,-763884671,3433,-32337,0.24000001,0.7845193,0.62700003,0.80600005,0.61,0.87,101,10,0.172,-0.123,0.120000005,-1.029,0.5039558,0,4,1,19
1253161840,1686685085999558,371025543,-763884667,3655,-32115,0.24200001,0.7845567,0.62700003,0.808,0.61,0.87,101,10,0.15300001,-0.128,0.08400001,-1.0600001,0.5039558,0,4,1,19
1253357527,1686685086199557,371025539,-763884664,3938,-31831,0.238,0.7845984,0.628,0.808,0.61,0.87,101,10,0.26500002,-0.24000001,0.112,-1.167,0.5039558,0,4,1,19
1253557579,1686685086399557,371025537,-763884661,4184,-31586,0.23500001,0.7846377,0.629,0.809,0.61,0.87,101,10,0.069000006,0.049000002,0.049000002,-1.12,0.5039558,0,4,1,19
1253757532,1686685086599557,371025536,-763884658,4441,-31329,0.23400001,0.7846794,0.63100004,0.81000006,0.61,0.87,101,11,0.143,-0.015000001,0.142,-1.184,0.5039558,0,4,1,19
1253957495,1686685086799557,371025536,-763884654,4701,-31069,0.22500001,0.784718,0.632,0.81100005,0.61,0.87,101,11,0.19600001,0.039,0.192,-1.0910001,0.5039558,0,4,1,19
1254160484,1686685086999558,371025536,-763884649,4939,-30831,0.22700001,0.7847579,0.633,0.81100005,0.61,0.87,101,11,0.16900001,0.091000006,0.142,-1.13,0.5039558,0,4,1,19
1254361583,1686685087199557,371025539,-763884644,5165,-30605,0.223,0.7410615,0.63500005,0.814,0.61,0.87,101,11,0.287,0.15100001,0.24400002,-1.0250001,0.7759896,0,4,1,19
1254565540,1686685087399557,371025542,-763884638,5400,-30370,0.22200002,0.6043504,0.63600004,0.81700003,0.61,0.87,101,11,0.358,0.19900002,0.298,-1.0480001,0.8990046,0,4,1,19
1254757664,1686685087599557,371025545,-763884631,5658,-30112,0.223,0.6055643,0.637,0.818,0.61,0.87,101,10,0.326,0.177,0.27400002,-1.199,0.94795334,0,4,1,19
1254960491,1686685087799557,371025547,-763884626,5927,-29843,0.23200001,0.60561943,0.638,0.81900007,0.61,0.87,101,10,0.19800001,0.16100001,0.11400001,-1.2010001,0.94795334,0,4,1,19
1255161487,1686685087999558,371025550,-763884623,6165,-29605,0.23200001,0.6056751,0.63900006,0.822,0.61,0.87,101,10,0.246,0.216,0.119,-1.207,0.94795334,0,4,1,19
1255368502,1686685088199556,371025554,-763884621,6427,-29343,0.23900001,0.6057336,0.64000005,0.82400006,0.61,0.87,101,10,0.172,0.162,0.059000004,-1.2780001,0.94795334,0,4,1,19
1255560487,1686685088399556,371025556,-763884618,6680,-29090,0.23600002,0.60579133,0.64100003,0.82500005,0.61,0.87,101,10,0.185,0.156,0.09900001,-1.2620001,0.94795334,0,4,1,19
1255760486,1686685088599556,371025558,-763884617,6981,-28789,0.24200001,0.60585594,0.64100003,0.82600003,0.61,0.87,101,10,0.086,0.086,0.009000001,-1.4250001,0.94795334,0,4,1,19
1255961491,1686685088799556,371025560,-763884618,7285,-28485,0.252,0.6059226,0.642,0.82800007,0.61,0.87,101,10,0.15400001,0.082,-0.13100001,-1.4640001,0.94795334,0,4,1,19
1256157500,1686685088999557,371025562,-763884622,7574,-28196,0.25500003,0.60598546,0.64400005,0.832,0.61,0.87,101,10,0.185,0.089,-0.163,-1.376,0.94795334,0,4,1,19
1256364517,1686685089199556,371025564,-763884626,7860,-27909,0.256,0.6060479,0.64500004,0.83400005,0.61,0.87,101,10,0.201,0.08800001,-0.18100001,-1.365,0.94795334,0,4,1,19
1256565521,1686685089399556,371025567,-763884632,8140,-27630,0.25300002,0.6081163,0.646,0.836,0.61,0.87,101,10,0.39000002,0.21400002,-0.32700002,-1.3870001,6.264768,0,4,1,19
1256761480,1686685089599556,371025570,-763884638,8431,-27339,0.25100002,0.6081835,0.648,0.83800006,0.61,0.87,101,11,0.24700001,0.15100001,-0.19600001,-1.4660001,6.264768,0,4,1,19
1256960876,1686685089799556,371025573,-763884645,8752,-27017,0.256,0.602595,0.64900005,0.84000003,0.61,0.87,101,11,0.393,0.132,-0.37,-1.496,5.6548595,0,4,1,19
1257160920,1686685089999557,371025574,-763884651,9044,-26725,0.254,0.60266113,0.65000004,0.84200007,0.61,0.87,101,11,0.172,0.038000003,-0.16800001,-1.442,5.6548595,0,4,1,19
1257357521,1686685090199556,371025575,-763884654,9300,-26470,0.26200002,0.60271853,0.651,0.845,0.61,0.87,101,11,0.18300001,0.08400001,-0.163,-1.248,5.6548595,0,4,1,19
1257557484,1686685090399556,371025575,-763884657,9602,-26168,0.259,0.60278064,0.652,0.84400004,0.61,0.87,101,11,0.16700001,0.028,-0.164,-1.3560001,5.6548595,0,4,1,19
1257760765,1686685090599556,371025575,-763884660,9908,-25862,0.25800002,0.60284853,0.65400004,0.846,0.61,0.87,101,10,0.171,0.018000001,-0.17,-1.4840001,5.6548595,0,4,1,19
1257965507,1686685090799556,371025576,-763884663,10175,-25595,0.256,0.60290843,0.65500003,0.84900004,0.61,0.87,101,10,0.14,0.083000004,-0.113000005,-1.307,5.6548595,0,4,1,19
1258160498,1686685090999557,371025576,-763884666,10437,-25333,0.263,0.60296726,0.657,0.851,0.61,0.87,101,10,0.18300001,0.016,-0.18200001,-1.284,5.6548595,0,4,1,19
1258361514,1686685091199556,371025575,-763884668,10696,-25074,0.26500002,0.6030294,0.65900004,0.85400003,0.61,0.87,101,10,0.18,-0.091000006,-0.155,-1.353,5.6548595,0,4,1,19
1258561674,1686685091399556,371025573,-763884670,10954,-24816,0.264,0.6030871,0.661,0.85700005,0.61,0.87,101,10,0.08800001,-0.074,-0.048,-1.266,5.6548595,0,4,1,19
1258757518,1686685091599556,371025569,-763884669,11193,-24577,0.27,0.6031446,0.66300005,0.86100006,0.64,0.89,101,10,0.23600002,-0.23500001,0.015000001,-1.2440001,5.6548595,0,4,1,17
1258960103,1686685091799556,371025566,-763884666,11409,-24361,0.266,0.6031997,0.666,0.86500007,0.61,0.87,101,10,0.102000006,-0.101,0.014,-1.207,5.6548595,0,4,1,19
1259168995,1686685091999557,371025564,-763884664,11715,-24055,0.24900001,0.6032561,0.66800004,0.86500007,0.61,0.87,101,10,0.209,-0.162,0.132,-1.2210001,5.6548595,0,4,1,19
1259376669,1686685092199556,371025559,-763884658,11916,-23854,0.24700001,0.7841057,0.66800004,0.86700004,0.61,0.87,101,10,0.28800002,-0.193,0.21300001,-1.07,0.46353585,0,4,1,19
1259560644,1686685092399556,371025554,-763884652,12119,-23651,0.25,0.784146,0.669,0.869,0.61,0.87,101,10,0.23200001,-0.164,0.163,-1.128,0.46353585,0,4,1,19
1259760643,1686685092599556,371025549,-763884648,12362,-23408,0.257,0.6755759,0.67,0.873,0.61,0.87,101,11,0.33,-0.284,0.16800001,-1.2290001,1.6948272,0,4,1,19
1259960532,1686685092799556,371025545,-763884645,12597,-23173,0.26200002,0.67562526,0.67200005,0.87600005,0.61,0.87,101,11,0.126,-0.113000005,0.056,-1.2110001,1.6948272,0,4,1,19
1260160487,1686685092999557,371025543,-763884644,12881,-22889,0.26500002,0.6756815,0.67300004,0.878,0.61,0.87,101,11,0.134,-0.13100001,-0.025,-1.3790001,1.6948272,0,4,1,19
1260356484,1686685093199556,371025541,-763884644,13115,-22655,0.25500003,0.6757321,0.674,0.87900007,0.61,0.87,101,11,0.124000005,-0.123,0.017,-1.241,1.6948272,0,4,1,19
1260560777,1686685093399556,371025539,-763884645,13405,-22365,0.259,0.67578745,0.675,0.88100004,0.61,0.87,101,11,0.127,-0.119,-0.046000004,-1.3590001,1.6948272,0,4,1,19
1260757497,1686685093599556,371025538,-763884646,13661,-22109,0.25800002,0.6758405,0.675,0.882,0.61,0.87,101,11,0.105000004,0.064,-0.083000004,-1.3030001,1.6948272,0,4,1,19
1260960734,1686685093799556,371025540,-763884647,13934,-21835,0.25100002,0.6758949,0.67600006,0.883,0.61,0.87,101,11,0.11000001,0.106000006,0.031000001,-1.338,1.6948272,0,4,1,19
1261161629,1686685093999557,371025542,-763884649,14216,-21553,0.259,0.67595375,0.67700005,0.88400006,0.61,0.87,101,11,0.13700001,0.07700001,-0.11400001,-1.442,1.6948272,0,4,1,19
1261361481,1686685094199556,371025543,-763884651,14525,-21245,0.25300002,0.6760103,0.67800003,0.88500005,0.61,0.87,101,11,0.046000004,0.034,-0.031000001,-1.3920001,1.6948272,0,4,1,19
1261557485,1686685094399556,371025544,-763884652,14795,-20975,0.252,0.6760583,0.67800003,0.88600004,0.61,0.87,101,11,0.028,0.006,0.028,-1.1800001,1.6948272,0,4,1,19
1261757535,1686685094599556,371025545,-763884652,15077,-20693,0.24300002,0.6761091,0.679,0.88500005,0.61,0.87,101,10,0.091000006,0.067,0.063,-1.251,1.6948272,0,4,1,19
1261960533,1686685094799556,371025547,-763884650,15341,-20429,0.22600001,0.6761571,0.679,0.88400006,0.61,0.87,101,10,0.27,0.113000005,0.245,-1.1520001,1.6948272,0,4,1,19
1262157802,1686685094999557,371025548,-763884643,15605,-20164,0.22000001,0.6209124,0.68,0.88400006,0.61,0.87,101,10,0.372,0.046000004,0.36900002,-1.2440001,1.5596482,0,4,1,19
1262360484,1686685095199556,371025548,-763884637,15872,-19898,0.23400001,0.62096435,0.68100005,0.88500005,0.61,0.87,101,10,0.27,-0.076000005,0.259,-1.148,1.5596482,0,4,1,19
1262557496,1686685095399556,371025546,-763884630,16099,-19671,0.23500001,0.5718405,0.68200004,0.887,0.61,0.87,101,10,0.42900002,-0.19800001,0.381,-1.077,1.8244519,0,4,1,19
1262767978,1686685095599556,371025544,-763884623,16337,-19432,0.21900001,0.69245654,0.683,0.887,0.61,0.87,101,10,0.333,-0.07,0.326,-1.006,1.8071269,0,4,1,19
1262965529,1686685095799556,371025542,-763884616,16566,-19204,0.22000001,0.599193,0.683,0.88600004,0.61,0.87,101,10,0.38000003,-0.25300002,0.28300002,-1.087,2.0884974,0,4,1,19
1263153571,1686685095999557,371025539,-763884611,16810,-18960,0.224,0.59924394,0.68200004,0.88500005,0.61,0.87,101,10,0.259,-0.163,0.202,-1.0840001,2.0884974,0,4,1,19
1263365489,1686685096199556,371025536,-763884609,17054,-18716,0.23500001,0.59930116,0.68200004,0.88500005,0.61,0.87,101,10,0.20500001,-0.194,0.066,-1.233,2.0884974,0,4,1,19
1263561551,1686685096399556,371025533,-763884608,17306,-18464,0.23600002,0.5993549,0.683,0.88500005,0.61,0.87,101,10,0.026,-0.022000002,0.015000001,-1.176,2.0884974,0,4,1,19
1263757518,1686685096599556,371025532,-763884609,17569,-18200,0.24100001,0.59941584,0.68200004,0.88400006,0.61,0.87,101,11,0.112,-0.1,-0.052,-1.327,2.0884974,0,4,1,19
1263957571,1686685096799556,371025531,-763884610,17843,-17927,0.23700002,0.59947306,0.68200004,0.88400006,0.61,0.87,101,11,0.054,0.021000002,-0.049000002,-1.2490001,2.0884974,0,4,1,19
1264157575,1686685096999557,371025531,-763884612,18127,-17642,0.24100001,0.5995396,0.68200004,0.883,0.61,0.87,101,11,0.16000001,-0.11100001,-0.115,-1.4480001,2.0884974,0,4,1,19
1264360486,1686685097199556,371025531,-763884614,18418,-17352,0.23400001,0.5995977,0.68100005,0.882,0.61,0.87,101,11,0.07,0.059000004,-0.037,-1.268,2.0884974,0,4,1,19
1264557524,1686685097399556,371025533,-763884614,18675,-17095,0.23300001,0.5996576,0.68100005,0.882,0.61,0.87,101,11,0.13800001,0.133,-0.033,-1.3010001,2.0884974,0,4,1,19
1264757531,1686685097599556,371025534,-763884616,18947,-16823,0.238,0.59971863,0.68100005,0.882,0.61,0.87,101,10,0.061000004,0.022000002,-0.057000004,-1.337,2.0884974,0,4,1,19
1264957508,1686685097799556,371025536,-763884616,19186,-16584,0.23700002,0.5997752,0.68100005,0.883,0.61,0.87,101,10,0.106000006,0.097,-0.042000003,-1.2290001,2.0884974,0,4,1,19
1265157729,1686685097999556,371025537,-763884617,19448,-16322,0.24100001,0.5998344,0.68200004,0.883,0.61,0.87,101,10,0.030000001,0.019000001,-0.024,-1.2950001,2.0884974,0,4,1,19
1265357485,1686685098199555,371025535,-763884617,19688,-16081,0.23900001,0.59988654,0.68200004,0.88400006,0.61,0.87,101,10,0.11800001,-0.11400001,0.029000001,-1.1350001,2.0884974,0,4,1,19
1265557480,1686685098399555,371025533,-763884618,19947,-15823,0.25,0.5999466,0.68200004,0.88500005,0.61,0.87,101,10,0.19700001,-0.120000005,-0.157,-1.299,2.0884974,0,4,1,19
1265753718,1686685098599555,371025532,-763884623,20235,-15535,0.24800001,0.78410655,0.68200004,0.88500005,0.61,0.87,101,10,0.256,-0.120000005,-0.22700001,-1.396,2.877928,0,4,1,19
1265956089,1686685098799555,371025531,-763884630,20543,-15227,0.25,0.49914983,0.68100005,0.88400006,0.61,0.87,101,10,0.42800003,-0.060000002,-0.423,-1.4970001,4.082566,0,4,1,19
1266157513,1686685098999556,371025532,-763884639,20832,-14938,0.24700001,0.5688115,0.68100005,0.88400006,0.61,0.87,101,10,0.397,0.098000005,-0.384,-1.4820001,4.4648824,0,4,1,19
1266361502,1686685099199555,371025534,-763884648,21147,-14623,0.246,0.5308707,0.68100005,0.88500005,0.61,0.87,101,10,0.423,0.17400001,-0.38500002,-1.572,4.8239326,0,4,1,19
1266557487,1686685099399555,371025536,-763884655,21457,-14313,0.245,0.7150018,0.68,0.883,0.61,0.87,101,10,0.29900002,0.022000002,-0.298,-1.419,4.810276,0,4,1,19
1266757817,1686685099599555,371025537,-763884661,21736,-14034,0.24100001,0.71505296,0.68,0.882,0.61,0.87,101,11,0.20400001,-0.007,-0.20400001,-1.319,4.810276,0,4,1,19
1266957497,1686685099799555,371025537,-763884664,22009,-13761,0.24300002,0.71510446,0.68,0.883,0.61,0.87,101,11,0.17,0.125,-0.115,-1.3310001,4.810276,0,4,1,19
1267157562,1686685099999556,371025538,-763884667,22296,-13474,0.25100002,0.71515435,0.68,0.883,0.61,0.87,101,11,0.128,-0.093,-0.08800001,-1.296,4.810276,0,4,1,19
1267360635,1686685100199555,371025536,-763884670,22589,-13181,0.25500003,0.71520567,0.68100005,0.88400006,0.61,0.87,101,11,0.21400002,-0.19700001,-0.082,-1.3230001,4.810276,0,4,1,19
1267557518,1686685100399555,371025537,-763884670,22861,-12909,0.23500001,0.7152575,0.68100005,0.883,0.61,0.87,101,11,0.135,0.053000003,0.124000005,-1.3410001,4.810276,0,4,1,19
1267757534,1686685100599555,371025538,-763884667,23128,-12642,0.23600002,0.715313,0.68100005,0.88400006,0.63,0.88,101,11,0.192,-0.011000001,0.192,-1.4380001,4.810276,0,4,1,18
1267960487,1686685100799555,371025539,-763884662,23407,-12362,0.23600002,0.7153677,0.68200004,0.88500005,0.63,0.88,101,11,0.23500001,-0.029000001,0.23400001,-1.404,4.810276,0,4,1,18
1268153504,1686685100999556,371025541,-763884658,23675,-12095,0.23400001,0.7154183,0.68200004,0.88600004,0.63,0.88,101,11,0.22700001,0.15200001,0.16900001,-1.3000001,4.810276,0,4,1,18
1268357814,1686685101199555,371025545,-763884652,23946,-11824,0.22600001,0.6399614,0.68200004,0.887,0.63,0.88,101,11,0.34,0.143,0.30900002,-1.3180001,6.2601523,0,4,1,18
1268552880,1686685101399555,371025548,-763884645,24212,-11558,0.22500001,0.6487055,0.683,0.8880001,0.63,0.88,101,11,0.35700002,0.085,0.347,-1.2900001,0.64440554,0,4,1,18
1268757812,1686685101599555,371025551,-763884638,24452,-11317,0.224,0.75604904,0.683,0.8880001,0.63,0.88,101,10,0.29700002,0.039,0.29500002,-1.3340001,0.9815921,0,4,1,18
1268956529,1686685101799555,371025555,-763884633,24727,-11043,0.22800002,0.756097,0.683,0.88900006,0.63,0.88,101,10,0.23200001,0.15,0.177,-1.302,0.9815921,0,4,1,18
1269157481,1686685101999556,371025559,-763884630,24987,-10782,0.23,0.756145,0.683,0.88900006,0.63,0.88,101,10,0.20300001,0.149,0.13800001,-1.309,0.9815921,0,4,1,18
1269361554,1686685102199555,371025562,-763884626,25289,-10481,0.22700001,0.7561937,0.683,0.89000005,0.63,0.88,101,10,0.24200001,0.08400001,0.22700001,-1.3180001,0.9815921,0,4,1,18
1269560622,1686685102399555,371025564,-763884622,25539,-10231,0.23500001,0.75624347,0.684,0.89100003,0.63,0.88,101,10,0.158,0.07300001,0.14,-1.3620001,0.9815921,0,4,1,18
1269765784,1686685102599555,371025566,-763884620,25833,-9937,0.23700002,0.75629073,0.684,0.892,0.63,0.88,101,10,0.098000005,0.023000002,0.095000006,-1.3000001,0.9815921,0,4,1,18
1269960486,1686685102799555,371025567,-763884619,26114,-9656,0.24000001,0.7563379,0.68500006,0.89300007,0.63,0.88,101,10,0.078,-0.007,0.078,-1.299,0.9815921,0,4,1,18
1270157540,1686685102999556,371025567,-763884619,26403,-9367,0.24400002,0.75638443,0.68600005,0.89400005,0.63,0.88,101,10,0.045,-0.034,0.030000001,-1.2870001,0.9815921,0,4,1,18
1270360716,1686685103199555,371025567,-763884620,26693,-9077,0.24700001,0.7564333,0.68600005,0.89500004,0.63,0.88,101,10,0.15100001,-0.15100001,-0.004,-1.3390001,0.9815921,0,4,1,18
1270557571,1686685103399555,371025565,-763884620,26958,-8812,0.24400002,0.7564789,0.68700004,0.896,0.63,0.88,101,10,0.112,-0.108,0.029000001,-1.251,0.9815921,0,4,1,18
1270757501,1686685103599555,371025565,-763884621,27217,-8553,0.245,0.75652534,0.688,0.89800006,0.63,0.88,101,10,0.057000004,-0.057000004,0.004,-1.281,0.9815921,0,4,1,18
1270957515,1686685103799555,371025564,-763884622,27467,-8303,0.252,0.756574,0.689,0.90000004,0.63,0.88,101,10,0.124000005,-0.101,-0.072000004,-1.338,0.9815921,0,4,1,18
1271157496,1686685103999556,371025563,-763884623,27739,-8031,0.24800001,0.7566178,0.69000006,0.901,0.65999997,0.88,101,10,0.13100001,-0.12900001,-0.024,-1.1980001,0.9815921,0,4,1,17
1271365500,1686685104199555,371025563,-763884625,28014,-7756,0.24900001,0.756663,0.69100004,0.90300006,0.65999997,0.88,101,10,0.081,-0.068,-0.045,-1.2490001,0.9815921,0,4,1,17
1271557596,1686685104399555,371025563,-763884627,28234,-7536,0.25100002,0.7567016,0.69100004,0.90400004,0.65999997,0.88,101,10,0.094000004,-0.058000002,-0.07300001,-1.0610001,0.9815921,0,4,1,17
1271757573,1686685104599555,371025564,-763884629,28433,-7336,0.259,0.7567358,0.69200003,0.906,0.65999997,0.88,101,10,0.187,-0.078,-0.17,-0.92800003,0.9815921,0,4,1,17
1271957517,1686685104799555,371025562,-763884631,28645,-7125,0.24700001,0.7027505,0.69200003,0.906,0.63,0.87,101,10,0.29200003,-0.291,0.017,-1.1550001,2.110605,0,4,1,18
1272140696,1686685104999556,371025555,-763884629,28854,-6916,0.25800002,0.63438123,0.69200003,0.906,0.63,0.87,101,10,0.36200002,-0.321,0.16900001,-0.93100005,2.4115825,0,4,1,18
1272364415,1686685105199555,371025544,-763884620,28959,-6811,0.231,0.30917075,0.69200003,0.90500003,0.63,0.87,101,10,0.79600006,-0.61700004,0.503,-0.563,2.44917,0,4,1,18
1272557606,1686685105399555,371025527,-763884603,28962,-6808,0.21900001,0.20263341,0.69200003,0.90700006,0.63,0.87,101,10,1.32,-0.95300007,0.91300005,-0.148,2.3992257,0,4,1,18
1272756487,1686685105599555,371025501,-763884581,28987,-6783,0.23300001,0.12840648,0.693,0.91,0.65999997,0.88,101,11,1.8850001,-1.603,0.99200004,-0.136,2.5334058,0,4,1,17
1272969546,1686685105799555,371025472,-763884554,29003,-6767,0.23900001,0.10778699,0.693,0.91200006,0.63,0.87,101,11,2.1320002,-1.705,1.2800001,-0.21800001,2.5125344,0,4,1,18
1273164513,1686685105999556,371025438,-763884527,29011,-6759,0.22100002,0.09619626,0.694,0.91300005,0.63,0.87,101,11,2.309,-1.9710001,1.202,-0.124000005,2.558142,0,4,1,18
1273361479,1686685106199555,371025401,-763884497,29056,-6714,0.261,0.094142705,0.69500005,0.91700006,0.63,0.88,101,11,2.6090002,-2.272,1.2830001,-0.523,2.593806,0,4,1,18
1273544600,1686685106399555,371025361,-763884469,29137,-6633,0.263,0.099550255,0.697,0.92200005,0.63,0.88,101,11,2.509,-2.273,1.064,-0.29500002,2.6461773,0,4,1,18
1273757522,1686685106599555,371025318,-763884445,29185,-6585,0.272,0.087093495,0.69900006,0.9250001,0.63,0.88,101,10,2.6890001,-2.47,1.0630001,-0.209,2.696823,0,4,1,18
1273957650,1686685106799555,371025277,-763884422,29173,-6597,0.26200002,0.09826919,0.70100003,0.929,0.63,0.88,101,10,2.4,-2.1720002,1.0200001,0.068,2.6993012,0,4,1,18
1274153555,1686685106999556,371025236,-763884399,29167,-6602,0.268,0.098699935,0.70400006,0.93500006,0.61,0.87,101,10,2.5540001,-2.3560002,0.98600006,-0.035,2.7224064,0,4,1,19
1274365514,1686685107199555,371025195,-763884378,29158,-6612,0.26700002,0.09470837,0.70600003,0.94100004,0.61,0.87,101,10,2.512,-2.331,0.938,-0.059000004,2.7415657,0,4,1,19
1274549171,1686685107399555,371025157,-763884359,29133,-6636,0.254,0.10408619,0.707,0.9480001,0.61,0.87,101,10,2.3630002,-2.2120001,0.832,0.027,2.7599146,0,4,1,19
1274760629,1686685107599555,371025118,-763884340,29118,-6652,0.256,0.10741489,0.70900005,0.95500004,0.61,0.87,101,10,2.41,-2.2150002,0.95100003,0.19500001,2.7482412,0,4,1,19
1274964768,1686685107799555,371025077,-763884325,29139,-6631,0.28100002,0.10807288,0.70900005,0.957,0.61,0.87,101,10,2.352,-2.1980002,0.837,-0.010000001,2.763043,0,4,1,19
1275145550,1686685107999555,371025044,-763884307,29129,-6641,0.25300002,0.13447481,0.71000004,0.96000004,0.63,0.87,101,10,1.9970001,-1.7300001,0.9990001,0.133,2.705707,0,4,1,18
1275368029,1686685108199554,371025020,-763884282,29080,-6690,0.22900002,0.17830108,0.71400005,0.966,0.63,0.87,101,10,1.7470001,-1.1680001,1.299,0.163,2.5592766,0,4,1,18
1275564213,1686685108399554,371025004,-763884252,29009,-6761,0.22600001,0.20592214,0.717,0.97300005,0.61,0.87,101,10,1.5600001,-0.721,1.383,0.055000003,2.3412192,0,4,1,19
1275765486,1686685108599554,371024995,-763884220,28956,-6814,0.246,0.22165173,0.72200006,0.97900003,0.61,0.87,101,11,1.631,-0.35500002,1.5920001,0.07300001,2.085593,0,4,1,19
1275965507,1686685108799554,371024994,-763884180,28912,-6858,0.29000002,0.17233345,0.72700006,0.98600006,0.63,0.87,101,11,1.9610001,0.177,1.9530001,0.307,1.7081565,0,4,1,18
1276140226,1686685108999555,371025002,-763884137,28956,-6813,0.257,0.13125084,0.72900003,0.98700005,0.63,0.87,101,11,2.216,0.628,2.125,0.22800002,1.43883,0,4,1,18
1276360529,1686685109199554,371025020,-763884089,28972,-6798,0.279,0.10292415,0.73,0.989,0.63,0.87,101,11,2.638,1.2370001,2.3300002,0.30800003,1.2176859,0,4,1,18
1276561521,1686685109399554,371025045,-763884039,28926,-6844,0.32900003,0.09601317,0.734,0.99600005,0.63,0.87,101,11,2.598,1.419,2.176,0.268,1.0967501,0,4,1,18
1276764524,1686685109599554,371025072,-763883990,28895,-6875,0.347,0.09851371,0.73800004,1.0040001,0.63,0.87,101,10,2.661,1.4430001,2.236,0.224,1.0481108,0,4,1,18
1276957518,1686685109799554,371025098,-763883943,28884,-6886,0.24800001,0.08797175,0.739,1.006,0.63,0.87,101,10,2.5630002,1.434,2.125,0.17400001,1.0083431,0,4,1,18
1277165529,1686685109999555,371025125,-763883896,28824,-6946,0.30900002,0.09503317,0.74,1.011,0.63,0.87,101,10,2.6820002,1.5410001,2.1950002,0.39200002,0.98515034,0,4,1,18
1277365494,1686685110199554,371025153,-763883850,28788,-6982,0.293,0.09655632,0.74200004,1.0170001,0.61,0.87,101,10,2.469,1.455,1.9940001,0.25500003,0.962992,0,4,1,19
1277548915,1686685110399554,371025181,-763883804,28739,-7031,0.275,0.08877547,0.744,1.0220001,0.61,0.87,101,10,2.5200002,1.4100001,2.088,0.223,0.97052884,0,4,1,19
1277761607,1686685110599554,371025208,-763883761,28737,-7033,0.252,0.101072185,0.74300003,1.023,0.61,0.87,101,10,2.3160002,1.4210001,1.8290001,0.098000005,0.9440775,0,4,1,19
1277961479,1686685110799554,371025234,-763883714,28722,-7048,0.30400002,0.09211306,0.74500006,1.029,0.63,0.88,101,10,2.742,1.5070001,2.2910001,0.19800001,0.96875155,0,4,1,18
1278160671,1686685110999555,371025263,-763883666,28667,-7102,0.27600002,0.08560874,0.74500006,1.0320001,0.63,0.88,101,10,2.7400002,1.6730001,2.17,0.18300001,0.939064,0,4,1,18
1278357490,1686685111199554,371025292,-763883619,28607,-7163,0.291,0.088113114,0.74600005,1.039,0.63,0.88,101,10,2.657,1.598,2.1230001,0.068,0.93238604,0,4,1,18
1278557784,1686685111399554,371025320,-763883572,28530,-7240,0.29700002,0.086855784,0.749,1.0430001,0.63,0.88,101,10,2.6680002,1.588,2.144,0.066,0.9329151,0,4,1,18
1278760542,1686685111599554,371025348,-763883522,28497,-7273,0.27400002,0.09050108,0.75000006,1.0450001,0.63,0.88,101,11,2.7580001,1.508,2.309,0.156,0.9616692,0,4,1,18
1278957498,1686685111799554,371025378,-763883471,28476,-7294,0.305,0.08714795,0.75200003,1.0500001,0.63,0.88,101,11,2.8470001,1.6980001,2.285,0.143,0.9460494,0,4,1,18
1279157486,1686685111999555,371025414,-763883420,28425,-7345,0.268,0.07920443,0.754,1.0530001,0.63,0.88,101,11,2.94,1.8470001,2.2870002,0.071,0.91592014,0,4,1,18
1279357488,1686685112199554,371025449,-763883370,28415,-7355,0.287,0.083419755,0.754,1.056,0.63,0.88,101,11,2.92,1.8820001,2.232,-0.037,0.8940141,0,4,1,18
1279540922,1686685112399554,371025485,-763883321,28406,-7364,0.29000002,0.07746731,0.75600004,1.0600001,0.63,0.88,101,11,2.982,1.9470001,2.2580001,-0.021000002,0.87512356,0,4,1,18
1279740049,1686685112599554,371025521,-763883272,28423,-7347,0.28800002,0.08258217,0.757,1.064,0.63,0.88,101,11,2.9550002,1.973,2.2,-0.051000003,0.85830224,0,4,1,18
1279964828,1686685112799554,371025556,-763883225,28451,-7319,0.284,0.07996033,0.75900006,1.067,0.63,0.88,101,11,2.8650002,1.914,2.1320002,-0.016,0.84839803,0,4,1,18
1280157510,1686685112999555,371025591,-763883178,28465,-7305,0.303,0.08194512,0.76100004,1.072,0.63,0.88,101,11,2.799,1.9120001,2.0440001,-0.062000003,0.83382016,0,4,1,18
1280357568,1686685113199554,371025624,-763883133,28475,-7295,0.293,0.08706627,0.763,1.0780001,0.63,0.88,101,11,2.7120001,1.7580001,2.065,-0.124000005,0.8488576,0,4,1,18
1280560661,1686685113399554,371025655,-763883088,28466,-7304,0.29700002,0.103708506,0.76600003,1.085,0.63,0.88,101,11,2.6260002,1.7530001,1.955,-0.045,0.8451604,0,4,1,18
1280757490,1686685113599554,371025689,-763883044,28438,-7332,0.26700002,0.09189106,0.76500005,1.085,0.63,0.88,101,10,2.615,1.674,2.009,0.038000003,0.8626689,0,4,1,18
1280960897,1686685113799554,371025721,-763882998,28443,-7327,0.277,0.09397079,0.76600003,1.088,0.63,0.88,101,10,2.5800002,1.5730001,2.046,0.080000006,0.8885785,0,4,1,18
1281160539,1686685113999555,371025751,-763882951,28432,-7338,0.29200003,0.09287594,0.767,1.092,0.63,0.88,101,10,2.651,1.6520001,2.0740001,0.012,0.8935331,0,4,1,18
1281360480,1686685114199554,371025785,-763882901,28387,-7383,0.26500002,0.09407464,0.767,1.0940001,0.63,0.88,101,10,2.749,1.6110001,2.2280002,-0.051000003,0.9190469,0,4,1,18
1281561147,1686685114399554,371025814,-763882852,28370,-7400,0.303,0.10469549,0.77000004,1.0990001,0.63,0.88,101,10,2.634,1.5280001,2.1460001,-0.009000001,0.93390834,0,4,1,18
1281761494,1686685114599554,371025842,-763882801,28347,-7423,0.298,0.08934829,0.772,1.1040001,0.63,0.88,101,10,2.815,1.5280001,2.365,0.15900001,0.97076845,0,4,1,18
1281960494,1686685114799554,371025872,-763882748,28291,-7479,0.25800002,0.091037065,0.771,1.1040001,0.63,0.88,101,10,2.7110002,1.4260001,2.306,0.07700001,0.99353176,0,4,1,18
1282144882,1686685114999555,371025900,-763882694,28238,-7532,0.256,0.091539375,0.77000004,1.105,0.63,0.88,101,10,2.6990001,1.409,2.301,-0.055000003,1.0074517,0,4,1,18
1282357518,1686685115199554,371025929,-763882641,28231,-7539,0.257,0.08715807,0.76900005,1.1060001,0.63,0.88,101,10,2.6720002,1.4900001,2.2180002,-0.11100001,0.9924364,0,4,1,18
1282563891,1686685115399554,371025959,-763882591,28218,-7552,0.25800002,0.09534646,0.768,1.11,0.63,0.88,101,10,2.5200002,1.3690001,2.1160002,-0.1,0.9943201,0,4,1,18
1282765492,1686685115599554,371025986,-763882543,28194,-7576,0.257,0.10469322,0.768,1.113,0.63,0.88,101,10,2.3850002,1.2980001,2.0010002,-0.078,0.9948031,0,4,1,18
1282960667,1686685115799554,371026009,-763882497,28174,-7596,0.279,0.10014891,0.76900005,1.118,0.63,0.88,101,10,2.4250002,1.337,2.023,0.097,0.9907155,0,4,1,18
1283180485,1686685115999555,371026032,-763882451,28122,-7648,0.28,0.10531316,0.77000004,1.123,0.63,0.88,101,10,2.3530002,1.146,2.0540001,0.09,1.0247365,0,4,1,18
1283357529,1686685116199554,371026053,-763882404,28120,-7650,0.284,0.10510669,0.772,1.128,0.61,0.87,101,10,2.4650002,1.24,2.131,0.062000003,1.0343201,0,4,1,19
1283557527,1686685116399554,371026076,-763882354,28102,-7668,0.28100002,0.101591595,0.77300006,1.133,0.61,0.87,101,10,2.5570002,1.322,2.1890001,0.066,1.0307518,0,4,1,19
1283757833,1686685116599554,371026100,-763882304,28084,-7686,0.279,0.09802676,0.77400005,1.138,0.61,0.87,101,11,2.542,1.2240001,2.2280002,0.14400001,1.0503548,0,4,1,19
1283960493,1686685116799554,371026123,-763882253,28047,-7723,0.277,0.0945347,0.77500004,1.143,0.61,0.87,101,11,2.6290002,1.289,2.292,0.142,1.0546373,0,4,1,19
1284169484,1686685116999555,371026146,-763882201,28035,-7735,0.26700002,0.10774685,0.777,1.148,0.61,0.87,101,11,2.584,1.2490001,2.262,-0.079,1.0597993,0,4,1,19
1284360506,1686685117199554,371026167,-763882153,27990,-7780,0.27400002,0.11640071,0.77900004,1.1520001,0.61,0.87,101,11,2.2580001,0.975,2.036,-0.061000004,1.0896577,0,4,1,19
1284560526,1686685117399554,371026188,-763882107,27994,-7776,0.272,0.09957888,0.78000003,1.1570001,0.61,0.87,101,11,2.4710002,1.245,2.134,-0.104,1.0624067,0,4,1,19
1284761501,1686685117599554,371026214,-763882058,28028,-7742,0.26700002,0.09236771,0.78000003,1.159,0.61,0.87,101,11,2.631,1.491,2.1680002,-0.115,1.011414,0,4,1,19
1284965492,1686685117799553,371026238,-763882010,28082,-7688,0.282,0.1056912,0.78000003,1.1620001,0.61,0.87,101,11,2.368,1.2,2.0410001,-0.19600001,1.0235873,0,4,1,19
1285160444,1686685117999554,371026261,-763881964,28129,-7641,0.27,0.095651716,0.781,1.1650001,0.61,0.87,101,11,2.4620001,1.348,2.061,-0.13000001,1.0059116,0,4,1,19
1285365552,1686685118199553,371026289,-763881916,28127,-7643,0.28300002,0.08554417,0.781,1.166,0.61,0.87,101,11,2.6060002,1.48,2.1450002,-0.032,0.9841742,0,4,1,19
1285561493,1686685118399553,371026316,-763881868,28162,-7608,0.29200003,0.093208954,0.78200006,1.1680001,0.61,0.87,101,11,2.551,1.498,2.065,-0.155,0.96518725,0,4,1,19
1285765480,1686685118599553,371026346,-763881820,28214,-7556,0.24700001,0.08855695,0.781,1.1680001,0.61,0.87,101,11,2.5830002,1.483,2.114,-0.216,0.96205264,0,4,1,19
1285961520,1686685118799553,371026375,-763881768,28299,-7471,0.273,0.08353494,0.78200006,1.1700001,0.61,0.87,101,11,2.7610002,1.5320001,2.2970002,-0.291,0.9730952,0,4,1,19
1286161589,1686685118999554,371026402,-763881717,28349,-7421,0.289,0.09086341,0.78300005,1.172,0.61,0.87,101,11,2.6660001,1.5430001,2.1750002,-0.171,0.96412224,0,4,1,19
1286364484,1686685119199553,371026430,-763881669,28365,-7405,0.28300002,0.09427622,0.78400004,1.1750001,0.61,0.87,101,11,2.536,1.473,2.0640001,-0.15100001,0.95771426,0,4,1,19
1286557509,1686685119399553,371026457,-763881621,28385,-7385,0.28300002,0.09506389,0.786,1.1780001,0.61,0.87,101,11,2.549,1.4940001,2.0640001,-0.095000006,0.95095235,0,4,1,19
1286761538,1686685119599553,371026486,-763881573,28393,-7377,0.284,0.08908736,0.78700006,1.1800001,0.61,0.87,101,10,2.6330001,1.621,2.075,-0.187,0.927798,0,4,1,19
1286957509,1686685119799553,371026516,-763881525,28416,-7354,0.279,0.09084735,0.78800005,1.1830001,0.61,0.87,101,10,2.584,1.572,2.051,-0.209,0.9222893,0,4,1,19
1287157490,1686685119999554,371026546,-763881478,28442,-7328,0.273,0.08497257,0.78900003,1.184,0.61,0.87,101,10,2.6720002,1.674,2.082,-0.115,0.90681803,0,4,1,19
1287365521,1686685120199553,371026578,-763881429,28419,-7351,0.27800003,0.08136655,0.79,1.1860001,0.61,0.87,101,10,2.7800002,1.774,2.141,-0.044000003,0.8921625,0,4,1,19
1287557723,1686685120399553,371026615,-763881379,28399,-7371,0.261,0.07953517,0.78900003,1.187,0.61,0.87,101,10,2.756,1.6980001,2.171,-0.029000001,0.8999018,0,4,1,19
1287757522,1686685120599553,371026649,-763881330,28363,-7407,0.26000002,0.083375074,0.78800005,1.187,0.61,0.87,101,11,2.6350002,1.5460001,2.134,0.015000001,0.92099553,0,4,1,19
1287953494,1686685120799553,371026681,-763881280,28325,-7445,0.254,0.08125502,0.78700006,1.187,0.61,0.87,101,11,2.795,1.651,2.255,0.061000004,0.93021154,0,4,1,19
1288160489,1686685120999554,371026715,-763881231,28267,-7503,0.24800001,0.07885851,0.78400004,1.1860001,0.61,0.87,101,11,2.7680001,1.6480001,2.2240002,-0.006,0.9316825,0,4,1,19
1288361546,1686685121199553,371026746,-763881181,28232,-7538,0.279,0.08198265,0.78400004,1.1880001,0.61,0.87,101,11,2.841,1.7930001,2.204,0.023000002,0.9103263,0,4,1,19
1288560914,1686685121399553,371026778,-763881132,28189,-7581,0.29500002,0.0865315,0.785,1.1910001,0.61,0.87,101,11,2.8240001,1.7550001,2.213,0.015000001,0.90555894,0,4,1,19
1288757494,1686685121599553,371026812,-763881084,28123,-7647,0.28100002,0.08112604,0.786,1.194,0.61,0.87,101,10,2.8390002,1.868,2.137,0.067,0.8770502,0,4,1,19
1288957495,1686685121799553,371026847,-763881036,28064,-7706,0.28100002,0.08272319,0.78700006,1.1980001,0.61,0.87,101,10,2.802,1.8410001,2.112,0.049000002,0.86544764,0,4,1,19
1289165515,1686685121999554,371026882,-763880986,28000,-7770,0.282,0.085773155,0.78800005,1.2,0.61,0.87,101,10,2.8430002,1.8210001,2.184,0.194,0.87051207,0,4,1,19
1289357502,1686685122199553,371026914,-763880934,27924,-7847,0.27800003,0.08502615,0.78800005,1.202,0.61,0.87,101,10,2.926,1.7170001,2.3700001,0.23500001,0.9078635,0,4,1,19
1289557539,1686685122399553,371026944,-763880882,27825,-7945,0.266,0.0819741,0.78900003,1.2040001,0.61,0.87,101,10,2.6590002,1.57,2.1450002,0.15100001,0.9241017,0,4,1,19
1289756498,1686685122599553,371026971,-763880831,27803,-7967,0.282,0.09197466,0.78900003,1.2060001,0.61,0.87,101,11,2.7170002,1.519,2.253,0.273,0.94805914,0,4,1,19
1289957535,1686685122799553,371026999,-763880779,27706,-8064,0.26000002,0.086298496,0.79,1.2060001,0.61,0.87,101,11,2.6950002,1.48,2.252,0.104,0.9702686,0,4,1,19
1290156726,1686685122999554,371027025,-763880727,27633,-8137,0.27400002,0.08098554,0.79,1.207,0.61,0.87,101,11,2.857,1.565,2.39,0.28300002,0.9814216,0,4,1,19
1290356673,1686685123199553,371027053,-763880671,27539,-8231,0.25800002,0.08564417,0.79,1.2080001,0.61,0.87,101,11,2.8630002,1.4540001,2.467,0.259,1.008575,0,4,1,19
1290556787,1686685123399553,371027077,-763880617,27457,-8313,0.275,0.08920133,0.791,1.2090001,0.61,0.87,101,11,2.6780002,1.363,2.305,0.20600002,1.0221533,0,4,1,19
1290756517,1686685123599553,371027103,-763880564,27399,-8371,0.24900001,0.08281587,0.791,1.21,0.61,0.87,101,11,2.6950002,1.337,2.3400002,0.066,1.0380749,0,4,1,19
1290960128,1686685123799553,371027127,-763880513,27368,-8402,0.259,0.10519326,0.79,1.21,0.61,0.87,101,11,2.6320002,1.4100001,2.223,0.112,1.025457,0,4,1,19
1291157489,1686685123999554,371027152,-763880461,27321,-8449,0.257,0.08754624,0.79,1.2110001,0.61,0.87,101,11,2.778,1.434,2.3790002,0.127,1.027199,0,4,1,19
1291357514,1686685124199553,371027180,-763880409,27243,-8527,0.268,0.08831243,0.78900003,1.213,0.61,0.87,101,11,2.621,1.44,2.19,0.20500001,1.0082141,0,4,1,19
1291557482,1686685124399553,371027210,-763880358,27128,-8642,0.26900002,0.08915089,0.78900003,1.215,0.61,0.87,101,11,2.782,1.516,2.332,0.127,1.0012938,0,4,1,19
1291757534,1686685124599553,371027237,-763880307,27090,-8680,0.286,0.093210176,0.79,1.218,0.61,0.87,101,11,2.6320002,1.473,2.181,0.07,0.9895779,0,4,1,19
1291944953,1686685124799553,371027266,-763880258,27016,-8754,0.27,0.08993716,0.791,1.22,0.61,0.87,101,11,2.71,1.603,2.1850002,0.031000001,0.96261936,0,4,1,19
1292160436,1686685124999554,371027296,-763880208,26958,-8812,0.268,0.08918946,0.791,1.2210001,0.61,0.87,101,11,2.7240002,1.6340001,2.1790001,0.039,0.94476116,0,4,1,19
1292357564,1686685125199553,371027328,-763880158,26887,-8883,0.26200002,0.08555795,0.791,1.223,0.61,0.87,101,11,2.673,1.5840001,2.1520002,-0.030000001,0.94031197,0,4,1,19
1292565525,1686685125399553,371027360,-763880110,26830,-8940,0.257,0.08442977,0.79,1.223,0.61,0.87,101,11,2.6880002,1.6700001,2.1060002,-0.021000002,0.91986895,0,4,1,19
1292757589,1686685125599553,371027392,-763880063,26775,-8995,0.259,0.08330997,0.79,1.223,0.61,0.87,101,10,2.664,1.7400001,2.0170002,0.12100001,0.88864046,0,4,1,19
1292957517,1686685125799553,371027425,-763880015,26717,-9053,0.24900001,0.0777991,0.78900003,1.222,0.61,0.87,101,10,2.8460002,1.7550001,2.24,0.09900001,0.8981109,0,4,1,19
1293157502,1686685125999554,371027455,-763879967,26697,-9073,0.24700001,0.08990766,0.78900003,1.2210001,0.61,0.87,101,10,2.6360002,1.5500001,2.1330001,0.018000001,0.917286,0,4,1,19
1293357538,1686685126199553,371027484,-763879919,26672,-9099,0.25300002,0.09415684,0.78900003,1.2210001,0.61,0.87,101,10,2.719,1.7630001,2.0700002,0.042000003,0.89224106,0,4,1,19
1293553480,1686685126399553,371027516,-763879870,26668,-9102,0.266,0.08771029,0.79,1.222,0.61,0.87,101,10,2.7040002,1.6190001,2.1660001,0.014,0.91209036,0,4,1,19
1293760490,1686685126599553,371027545,-763879821,26609,-9161,0.25300002,0.09089657,0.79,1.223,0.61,0.87,101,10,2.6780002,1.6,2.148,0.062000003,0.9210367,0,4,1,19
1293957484,1686685126799553,371027572,-763879772,26584,-9186,0.27100003,0.09691917,0.79,1.225,0.61,0.87,101,10,2.6320002,1.496,2.1650002,-0.011000001,0.9423018,0,4,1,19
1294157538,1686685126999554,371027599,-763879724,26567,-9203,0.261,0.09259146,0.791,1.2270001,0.61,0.87,101,10,2.63,1.565,2.115,0.038000003,0.93779224,0,4,1,19
1294357717,1686685127199553,371027626,-763879674,26511,-9259,0.259,0.089941345,0.79200006,1.228,0.61,0.87,101,10,2.6880002,1.465,2.2540002,-0.002,0.96723247,0,4,1,19
1294556527,1686685127399553,371027652,-763879624,26461,-9309,0.25300002,0.09385246,0.79200006,1.2290001,0.61,0.87,101,10,2.5640001,1.3750001,2.164,-0.10300001,0.9854317,0,4,1,19
1294753724,1686685127599553,371027679,-763879574,26401,-9370,0.257,0.0862395,0.79200006,1.2290001,0.61,0.87,101,10,2.624,1.462,2.1790001,-0.066,0.9823168,0,4,1,19
1294957516,1686685127799552,371027707,-763879525,26333,-9437,0.259,0.091138296,0.791,1.23,0.61,0.87,101,10,2.483,1.3790001,2.065,-0.036000002,0.9821084,0,4,1,19
1295160493,1686685127999553,371027734,-763879477,26259,-9511,0.254,0.08916171,0.791,1.23,0.61,0.87,101,10,2.5170002,1.4640001,2.048,-0.064,0.96556306,0,4,1,19
1295356489,1686685128199552,371027763,-763879430,26173,-9597,0.254,0.095921546,0.79,1.2290001,0.61,0.87,101,10,2.46,1.4720001,1.9710001,-0.049000002,0.94863284,0,4,1,19
1295557495,1686685128399552,371027791,-763879384,26068,-9702,0.254,0.0941715,0.79,1.2290001,0.61,0.87,101,10,2.5080001,1.4840001,2.023,-0.008,0.94310117,0,4,1,19
1295757492,1686685128599552,371027819,-763879338,25944,-9827,0.31300002,0.124979354,0.79,1.2290001,0.61,0.87,101,11,2.3160002,1.3620001,1.8730001,0.051000003,0.94273955,0,4,1,19
1295957535,1686685128799552,371027848,-763879293,25803,-9967,0.30200002,0.10786274,0.78900003,1.228,0.61,0.87,101,11,2.551,1.5550001,2.023,0.22100002,0.92707676,0,4,1,19
1296157491,1686685128999553,371027878,-763879248,25702,-10068,0.307,0.11740009,0.78800005,1.2270001,0.61,0.87,101,11,2.3720002,1.447,1.8790001,0.11100001,0.9212615,0,4,1,19
1296357494,1686685129199552,371027905,-763879204,25619,-10151,0.30800003,0.11834012,0.78700006,1.2270001,0.61,0.87,101,11,2.4280002,1.3230001,2.036,0.177,0.95773417,0,4,1,19
1296557507,1686685129399552,371027932,-763879158,25543,-10227,0.279,0.112415954,0.78700006,1.2270001,0.61,0.87,101,11,2.45,1.4200001,1.9970001,0.11000001,0.9550862,0,4,1,19
1296757726,1686685129599552,371027959,-763879110,25496,-10274,0.25100002,0.100252055,0.78700006,1.2270001,0.61,0.87,101,10,2.529,1.406,2.102,0.013,0.9696281,0,4,1,19
1296957499,1686685129799552,371027987,-763879062,25467,-10303,0.25300002,0.08607178,0.78700006,1.2260001,0.61,0.87,101,10,2.6120002,1.452,2.171,0.0050000004,0.9763815,0,4,1,19
1297157526,1686685129999553,371028014,-763879012,25454,-10316,0.26200002,0.08552968,0.78700006,1.2260001,0.61,0.87,101,10,2.7040002,1.46,2.275,-0.032,0.9885361,0,4,1,19
1297357489,1686685130199552,371028042,-763878962,25439,-10331,0.25300002,0.09142837,0.786,1.2260001,0.61,0.87,101,10,2.611,1.4380001,2.18,-0.038000003,0.9882207,0,4,1,19
1297557591,1686685130399552,371028069,-763878913,25407,-10363,0.24800001,0.08944707,0.786,1.225,0.61,0.87,101,10,2.5,1.268,2.1550002,-0.113000005,1.0144467,0,4,1,19
1297757488,1686685130599552,371028094,-763878864,25357,-10413,0.25,0.09711814,0.785,1.223,0.61,0.87,101,10,2.532,1.2830001,2.183,0.040000003,1.0260195,0,4,1,19
1297957513,1686685130799552,371028118,-763878814,25324,-10446,0.254,0.09640709,0.785,1.222,0.61,0.87,101,10,2.5470002,1.3180001,2.18,-0.029000001,1.0264702,0,4,1,19
1298157510,1686685130999553,371028145,-763878763,25263,-10507,0.25,0.09713908,0.78400004,1.2210001,0.63,0.87,101,10,2.48,1.263,2.135,0.14500001,1.0315157,0,4,1,18
1298357530,1686685131199552,371028171,-763878714,25225,-10545,0.246,0.08796808,0.78300005,1.22,0.61,0.87,101,10,2.4770002,1.2340001,2.148,0.002,1.041291,0,4,1,19
1298564480,1686685131399552,371028196,-763878663,25186,-10585,0.245,0.08716366,0.78200006,1.2190001,0.61,0.87,101,10,2.502,1.223,2.183,0.055000003,1.0508841,0,4,1,19
1298757566,1686685131599552,371028221,-763878613,25111,-10659,0.24300002,0.08842553,0.781,1.218,0.61,0.87,101,11,2.4620001,1.2060001,2.147,0.044000003,1.0548291,0,4,1,19
1298953495,1686685131799552,371028245,-763878564,25029,-10741,0.24900001,0.08832832,0.78000003,1.218,0.61,0.87,101,11,2.5860002,1.215,2.283,0.008,1.068497,0,4,1,19
1299157514,1686685131999553,371028265,-763878515,25019,-10751,0.263,0.09994854,0.781,1.218,0.61,0.87,101,11,2.421,1.184,2.111,0.071,1.0645975,0,4,1,19
1299357485,1686685132199552,371028287,-763878468,25022,-10748,0.254,0.094987094,0.78200006,1.218,0.61,0.87,101,11,2.45,1.2830001,2.0870001,-0.026,1.040759,0,4,1,19
1299560542,1686685132399552,371028308,-763878424,25040,-10730,0.25500003,0.09887499,0.78300005,1.2190001,0.61,0.87,101,11,2.3460002,1.2420001,1.991,-0.058000002,1.0273745,0,4,1,19
1299761528,1686685132599552,371028331,-763878379,25046,-10724,0.266,0.09322693,0.78400004,1.22,0.61,0.87,101,11,2.4770002,1.4150001,2.033,0.012,0.993019,0,4,1,19
1299957484,1686685132799552,371028356,-763878333,25047,-10723,0.266,0.089665584,0.785,1.2210001,0.61,0.87,101,11,2.548,1.501,2.059,-0.065000005,0.9655906,0,4,1,19
1300157542,1686685132999553,371028381,-763878288,25052,-10718,0.261,0.096125744,0.786,1.222,0.61,0.87,101,11,2.384,1.36,1.9580001,-0.064,0.9646497,0,4,1,19
1300357824,1686685133199552,371028404,-763878242,25047,-10723,0.256,0.09085765,0.786,1.223,0.61,0.87,101,11,2.447,1.409,2.0010002,-0.015000001,0.96076983,0,4,1,19
1300557511,1686685133399552,371028428,-763878195,25026,-10744,0.25,0.08761448,0.786,1.223,0.61,0.87,101,11,2.4950001,1.416,2.0540001,-0.071,0.96405,0,4,1,19
1300757491,1686685133599552,371028450,-763878147,25001,-10770,0.22600001,0.08400479,0.78300005,1.22,0.61,0.87,100,11,2.4290001,1.348,2.0210001,-0.008,0.97382003,0,4,1,19
1300960710,1686685133799552,371028468,-763878092,25061,-10709,0.22500001,0.08322951,0.77900004,1.2160001,0.61,0.87,100,11,2.545,1.3850001,2.135,-0.034,0.9847412,0,4,1,19
1301161510,1686685133999553,371028490,-763878042,25057,-10713,0.23,0.08400461,0.776,1.213,0.61,0.87,100,11,2.5330002,1.44,2.084,-0.009000001,0.9754484,0,4,1,19
1301357520,1686685134199552,371028511,-763877991,25106,-10664,0.223,0.08133827,0.77300006,1.21,0.61,0.87,100,11,2.5170002,1.348,2.125,-0.208,0.9911394,0,4,1,19
1301557486,1686685134399552,371028533,-763877942,25163,-10608,0.223,0.08163725,0.771,1.207,0.61,0.87,100,11,2.5010002,1.4950001,2.005,-0.307,0.9604246,0,4,1,19
1301749489,1686685134599552,371028556,-763877893,25222,-10548,0.23,0.08177129,0.76900005,1.205,0.61,0.87,100,11,2.509,1.4710001,2.032,-0.193,0.9523577,0,4,1,19
1301957494,1686685134799552,371028579,-763877844,25280,-10490,0.22900002,0.08982598,0.767,1.2040001,0.61,0.87,100,11,2.476,1.47,1.9920001,-0.134,0.94441015,0,4,1,19
1302156540,1686685134999553,371028603,-763877796,25303,-10467,0.22500001,0.08818048,0.76500005,1.202,0.61,0.87,100,11,2.4770002,1.534,1.945,-0.11400001,0.92311853,0,4,1,19
1302360106,1686685135199552,371028632,-763877749,25256,-10514,0.21300001,0.08517992,0.762,1.1980001,0.61,0.87,100,11,2.469,1.5780001,1.899,-0.064,0.8993105,0,4,1,19
1302557552,1686685135399552,371028662,-763877702,25180,-10590,0.216,0.0854309,0.75900006,1.194,0.61,0.87,100,11,2.466,1.5530001,1.9150001,-0.046000004,0.8943475,0,4,1,19
1302753519,1686685135599552,371028689,-763877656,25168,-10603,0.22800002,0.079806745,0.75600004,1.1910001,0.61,0.87,100,10,2.5080001,1.5730001,1.9540001,0.026,0.89368916,0,4,1,19
1302956000,1686685135799552,371028716,-763877610,25163,-10607,0.22600001,0.07807154,0.753,1.1880001,0.61,0.87,100,10,2.539,1.672,1.9110001,0.014,0.8721729,0,4,1,19
1303164486,1686685135999553,371028745,-763877566,25184,-10586,0.22900002,0.07759402,0.75000006,1.1850001,0.61,0.87,100,10,2.536,1.718,1.866,0.033,0.8489738,0,4,1,19
1303361490,1686685136199552,371028774,-763877522,25185,-10585,0.22600001,0.07526435,0.74700004,1.1810001,0.61,0.87,100,10,2.6160002,1.8060001,1.8920001,-0.051000003,0.8279908,0,4,1,19
1303553483,1686685136399552,371028804,-763877479,25190,-10581,0.22800002,0.0774249,0.74500006,1.1780001,0.61,0.87,100,10,2.5560002,1.7620001,1.8520001,0.040000003,0.8192624,0,4,1,19
1303769722,1686685136599552,371028835,-763877435,25180,-10590,0.216,0.073608555,0.74200004,1.174,0.61,0.87,100,10,2.6250002,1.7680001,1.94,-0.049000002,0.82582957,0,4,1,19
1303957771,1686685136799552,371028867,-763877390,25135,-10635,0.21900001,0.07310712,0.74,1.1700001,0.61,0.87,100,10,2.638,1.8130001,1.9160001,-0.002,0.8193568,0,4,1,19
1304157565,1686685136999553,371028899,-763877346,25103,-10667,0.21900001,0.07503554,0.73700005,1.166,0.61,0.87,100,10,2.5790002,1.7140001,1.927,0.044000003,0.83147603,0,4,1,19
1304357508,1686685137199552,371028929,-763877301,25066,-10704,0.216,0.076596215,0.735,1.1630001,0.61,0.87,100,10,2.548,1.6910001,1.9070001,-0.125,0.83827287,0,4,1,19
1304561229,1686685137399552,371028960,-763877256,25020,-10750,0.22100002,0.08101137,0.73300004,1.161,0.61,0.87,100,10,2.545,1.7370001,1.8590001,-0.015000001,0.8292122,0,4,1,19
1304757522,1686685137599552,371028992,-763877211,24952,-10818,0.21800001,0.08087227,0.73200005,1.159,0.61,0.87,100,11,2.525,1.6860001,1.8790001,-0.132,0.8344307,0,4,1,19
1304956491,1686685137799551,371029022,-763877166,24905,-10865,0.22200002,0.07774377,0.73,1.1570001,0.61,0.87,100,11,2.5400002,1.6610001,1.922,-0.115,0.8469969,0,4,1,19
1305161628,1686685137999552,371029050,-763877122,24909,-10861,0.231,0.08270644,0.72900003,1.156,0.61,0.87,100,11,2.5110002,1.695,1.853,-0.12900001,0.83895177,0,4,1,19
1305357527,1686685138199551,371029078,-763877078,24919,-10851,0.231,0.079964876,0.72900003,1.1550001,0.61,0.87,100,11,2.503,1.644,1.8870001,-0.116000004,0.8468271,0,4,1,19
1305557552,1686685138399551,371029106,-763877033,24915,-10855,0.22100002,0.08185855,0.72700006,1.154,0.65999997,0.96999997,100,11,2.47,1.5510001,1.9230001,-0.24700001,0.8691326,0,4,1,18
1305757478,1686685138599551,371029132,-763876990,24953,-10817,0.22100002,0.08465579,0.726,1.153,0.65999997,0.96999997,100,11,2.378,1.6090001,1.751,-0.193,0.8488211,0,4,1,18
1305957537,1686685138799551,371029159,-763876949,24987,-10783,0.21700001,0.085103124,0.725,1.151,0.65999997,0.96999997,100,11,2.354,1.6150001,1.713,-0.256,0.8318532,0,4,1,18
1306157518,1686685138999552,371029185,-763876910,25079,-10691,0.22100002,0.08408018,0.72400004,1.149,0.65999997,0.96999997,100,11,2.348,1.5760001,1.741,-0.22000001,0.83351547,0,4,1,18
1306357521,1686685139199551,371029213,-763876868,25108,-10662,0.224,0.07679204,0.72200006,1.146,0.65999997,0.96999997,100,11,2.5540001,1.7490001,1.8610001,-0.096,0.8241181,0,4,1,18
1306557500,1686685139399551,371029241,-763876826,25158,-10612,0.21900001,0.08119167,0.72,1.144,0.65999997,0.96999997,100,11,2.4350002,1.595,1.84,-0.19500001,0.83971554,0,4,1,18
1306757564,1686685139599551,371029267,-763876783,25216,-10554,0.22600001,0.08702089,0.71900004,1.1420001,0.65999997,0.96999997,100,10,2.49,1.6170001,1.894,-0.15900001,0.85124415,0,4,1,18
1306957569,1686685139799551,371029295,-763876739,25252,-10518,0.22800002,0.07834434,0.71800005,1.141,0.65999997,0.96999997,100,10,2.546,1.6850001,1.9080001,-0.082,0.84917665,0,4,1,18
1307161543,1686685139999552,371029323,-763876694,25304,-10466,0.223,0.07745561,0.717,1.1400001,0.65999997,0.96999997,100,10,2.605,1.6750001,1.9950001,-0.22600001,0.861128,0,4,1,18
1307357502,1686685140199551,371029349,-763876649,25376,-10394,0.224,0.08651405,0.716,1.138,0.65999997,0.96999997,100,10,2.509,1.631,1.9070001,-0.22500001,0.86207306,0,4,1,18
1307557544,1686685140399551,371029376,-763876605,25423,-10347,0.22700001,0.08648106,0.71500003,1.136,0.65999997,0.96999997,100,10,2.5210001,1.595,1.9520001,-0.108,0.87391144,0,4,1,18
1307760496,1686685140599551,371029403,-763876560,25426,-10344,0.21900001,0.07815706,0.71400005,1.1350001,0.65999997,0.96999997,100,11,2.5800002,1.598,2.026,-0.148,0.8901676,0,4,1,18
1307957525,1686685140799551,371029430,-763876514,25450,-10320,0.22200002,0.078624636,0.712,1.133,0.65999997,0.96999997,100,11,2.551,1.5840001,2.0,-0.081,0.89551234,0,4,1,18
1308157518,1686685140999552,371029458,-763876468,25446,-10324,0.224,0.075300656,0.711,1.131,0.65999997,0.96999997,100,11,2.657,1.6750001,2.0630002,0.022000002,0.89187837,0,4,1,18
1308357488,1686685141199551,371029487,-763876420,25445,-10325,0.22600001,0.070404135,0.71000004,1.1290001,0.65999997,0.96999997,100,11,2.821,1.7990001,2.174,0.055000003,0.8851955,0,4,1,18
1308557505,1686685141399551,371029518,-763876371,25431,-10339,0.22200002,0.071724124,0.70900005,1.128,0.65999997,0.96999997,100,11,2.762,1.8040001,2.091,0.014,0.87216663,0,4,1,18
1308757568,1686685141599551,371029549,-763876322,25454,-10316,0.22000001,0.070104115,0.708,1.1270001,0.65999997,0.96999997,100,10,2.8260002,1.8230001,2.16,-0.047000002,0.87090003,0,4,1,18
1308960463,1686685141799551,371029582,-763876272,25434,-10336,0.21900001,0.067161486,0.707,1.126,0.65999997,0.96999997,100,10,2.956,1.9670001,2.206,-0.032,0.8560286,0,4,1,18
1309160698,1686685141999552,371029618,-763876222,25416,-10354,0.22000001,0.06593766,0.70500004,1.1240001,0.65999997,0.96999997,100,10,2.9940002,2.0310001,2.2,-0.009000001,0.8401578,0,4,1,18
1309357603,1686685142199551,371029654,-763876173,25434,-10336,0.216,0.068701394,0.70400006,1.1220001,0.65999997,0.96999997,100,10,2.841,1.904,2.1090002,-0.05,0.838303,0,4,1,18
1309556489,1686685142399551,371029685,-763876124,25434,-10337,0.209,0.06837781,0.702,1.118,0.65999997,0.96999997,100,10,2.887,1.8850001,2.187,-0.062000003,0.84907067,0,4,1,18
1309757775,1686685142599551,371029716,-763876074,25435,-10335,0.20600002,0.07040762,0.69900006,1.115,0.65999997,0.96999997,100,10,2.8390002,1.825,2.174,-0.097,0.8606495,0,4,1,18
1309957496,1686685142799551,371029748,-763876023,25413,-10357,0.208,0.07077728,0.697,1.113,0.65999997,0.96999997,100,10,2.8260002,1.7900001,2.187,-0.028,0.8729096,0,4,1,18
1310157534,1686685142999552,371029778,-763875974,25362,-10408,0.20600002,0.074317165,0.69600004,1.11,0.65999997,0.96999997,100,10,2.72,1.6890001,2.1320002,-0.051000003,0.88641655,0,4,1,18
1310357536,1686685143199551,371029805,-763875924,25351,-10419,0.209,0.075488456,0.694,1.108,0.65999997,0.96999997,100,10,2.766,1.7270001,2.161,0.043,0.89142984,0,4,1,18
1310560480,1686685143399551,371029837,-763875872,25430,-10340,0.21400002,0.07457041,0.694,1.108,0.65999997,0.96999997,100,10,3.0140002,1.848,2.381,-0.437,0.9013606,0,4,1,18
1310740477,1686685143599551,371029874,-763875813,25570,-10200,0.238,0.06527007,0.69500005,1.1110001,0.66999996,0.96999997,100,11,3.6820002,2.233,2.9280002,-1.0780001,0.9116795,0,4,1,17
1310956977,1686685143799551,371029917,-763875745,25804,-9966,0.24900001,0.066079736,0.698,1.115,0.66999996,0.96999997,100,11,4.098,2.496,3.2500002,-1.3570001,0.91385835,0,4,1,17
1311156096,1686685143999552,371029964,-763875665,26050,-9721,0.25800002,0.06068562,0.703,1.12,0.66999996,0.96999997,100,11,4.7860003,2.776,3.8980002,-1.271,0.93507385,0,4,1,17
1311356007,1686685144199551,371030015,-763875572,26320,-9451,0.25100002,0.050769005,0.707,1.1220001,0.66999996,0.96999997,100,11,5.401,2.96,4.518,-1.3850001,0.96896225,0,4,1,17
1311540709,1686685144399551,371030067,-763875465,26590,-9180,0.24700001,0.045810528,0.71000004,1.125,0.66999996,0.96999997,100,11,5.7520003,2.8960001,4.9700003,-1.1170001,1.0120082,0,4,1,17
1311740025,1686685144599551,371030118,-763875353,26870,-8900,0.24000001,0.040723242,0.71300006,1.1240001,0.66999996,0.96999997,100,10,5.754,2.8190002,5.0160003,-1.2260001,1.0397277,0,4,1,17
1311953602,1686685144799551,371030167,-763875239,27066,-8705,0.24900001,0.04207971,0.71500003,1.1270001,0.66999996,0.96999997,100,10,5.821,2.651,5.183,-1.156,1.0704687,0,4,1,17
1312152498,1686685144999552,371030210,-763875122,27370,-8400,0.23500001,0.03867126,0.717,1.125,0.65999997,0.96999997,100,10,5.688,2.394,5.1590004,-1.172,1.1088713,0,4,1,18
1312349608,1686685145199551,371030252,-763875003,27577,-8193,0.246,0.041539706,0.71900004,1.1270001,0.65999997,0.96999997,100,10,5.925,2.3430002,5.4420004,-1.1220001,1.137343,0,4,1,18
1312549512,1686685145399551,371030293,-763874876,27863,-7907,0.24200001,0.040767748,0.721,1.1270001,0.66999996,0.96999997,100,10,6.1460004,2.213,5.734,-1.2110001,1.1734943,0,4,1,17
1312757499,1686685145599551,371030332,-763874741,28132,-7638,0.246,0.04005129,0.72400004,1.1290001,0.66999996,0.96999997,100,11,6.4950004,2.227,6.102,-1.218,1.1999499,0,4,1,17
1312965296,1686685145799551,371030371,-763874600,28413,-7357,0.25100002,0.038873017,0.726,1.1320001,0.66999996,0.96999997,100,11,6.701,2.207,6.327,-1.302,1.2198905,0,4,1,17
1313153488,1686685145999552,371030409,-763874457,28650,-7120,0.254,0.039664175,0.72900003,1.136,0.66999996,0.96999997,100,11,6.7050004,2.0900002,6.3710003,-1.2570001,1.2383566,0,4,1,17
1313340422,1686685146199551,371030447,-763874313,28988,-6782,0.23500001,0.035795826,0.731,1.1340001,0.66999996,0.96999997,100,11,6.7830005,2.183,6.4230003,-1.4120001,1.2412943,0,4,1,17
1313557637,1686685146399551,371030484,-763874167,29292,-6479,0.245,0.037661932,0.73300004,1.136,0.66999996,0.96999997,100,11,6.88,2.1260002,6.544,-1.2720001,1.2495939,0,4,1,17
1313757526,1686685146599551,371030522,-763874020,29566,-6204,0.246,0.038961157,0.735,1.1370001,0.66999996,0.96999997,100,10,6.899,2.197,6.5400004,-1.21,1.2480195,0,4,1,17
1313952519,1686685146799551,371030562,-763873873,29820,-5951,0.24700001,0.03770539,0.73800004,1.139,0.66999996,0.96999997,100,10,6.9430003,2.285,6.556,-1.156,1.2407986,0,4,1,17
1314152769,1686685146999552,371030604,-763873727,30050,-5721,0.25100002,0.03742614,0.74,1.144,0.66999996,0.96999997,100,10,6.9760003,2.4380002,6.5360003,-1.274,1.2255583,0,4,1,17
1314356724,1686685147199551,371030648,-763873579,30304,-5466,0.24900001,0.035908926,0.74200004,1.1470001,0.66999996,0.96999997,100,10,7.1260004,2.456,6.689,-1.284,1.2217065,0,4,1,17
1314553480,1686685147399551,371030694,-763873432,30545,-5225,0.25,0.036341242,0.74300003,1.151,0.66999996,0.96999997,100,10,7.05,2.591,6.556,-1.1980001,1.20641,0,4,1,17
1314753538,1686685147599551,371030741,-763873286,30794,-4976,0.24800001,0.036298834,0.74500006,1.1550001,0.66999996,0.96999997,100,11,7.0420003,2.63,6.5330005,-1.3160001,1.1960149,0,4,1,17
1314949484,1686685147799551,371030790,-763873142,31034,-4736,0.25100002,0.03637615,0.74600005,1.1580001,0.66999996,0.96999997,100,11,6.9990005,2.7220001,6.4490004,-1.3590001,1.182144,0,4,1,17
1315157518,1686685147999551,371030840,-763872998,31294,-4477,0.25100002,0.03612709,0.748,1.1620001,0.66999996,0.96999997,100,11,7.025,2.811,6.438,-1.327,1.169087,0,4,1,17
1315360704,1686685148199550,371030891,-763872855,31569,-4202,0.25,0.036074556,0.75000006,1.1650001,0.66999996,0.96999997,100,11,7.0160003,2.8270001,6.4210005,-1.4540001,1.1616722,0,4,1,17
1315557482,1686685148399550,371030942,-763872711,31867,-3904,0.25100002,0.03728913,0.75100005,1.1680001,0.66999996,0.96999997,100,11,7.0480003,2.8500001,6.446,-1.4050001,1.1577369,0,4,1,17
1315757485,1686685148599550,371030993,-763872566,32152,-3618,0.25100002,0.037010577,0.753,1.1700001,0.66999996,0.96999997,100,11,7.0450006,2.8620002,6.4370003,-1.304,1.1547024,0,4,1,17
1315964523,1686685148799550,371031044,-763872423,32405,-3365,0.25,0.036431827,0.75500005,1.172,0.66999996,0.96999997,100,11,6.9040003,2.802,6.3090005,-1.22,1.1536211,0,4,1,17
1316157481,1686685148999551,371031092,-763872279,32663,-3107,0.24900001,0.03858399,0.75600004,1.174,0.66999996,0.96999997,100,11,6.977,2.71,6.4290004,-1.2720001,1.163371,0,4,1,17
1316355883,1686685149199550,371031139,-763872134,32910,-2861,0.25800002,0.038327254,0.75900006,1.177,0.65999997,0.96999997,100,11,6.9690003,2.598,6.4670005,-1.2440001,1.1776582,0,4,1,18
1316557502,1686685149399550,371031185,-763871988,33121,-2650,0.257,0.036480173,0.76100004,1.179,0.65999997,0.96999997,100,11,6.9560003,2.496,6.4930005,-1.1810001,1.1928554,0,4,1,18
1316757535,1686685149599550,371031230,-763871842,33403,-2367,0.24800001,0.035446413,0.762,1.179,0.65999997,0.96999997,100,11,6.9210005,2.44,6.477,-1.253,1.2030793,0,4,1,18
1316957485,1686685149799550,371031273,-763871694,33682,-2088,0.256,0.037372906,0.76400006,1.1810001,0.65999997,0.96999997,100,11,6.985,2.3690002,6.571,-1.2800001,1.2148255,0,4,1,18
1317157483,1686685149999551,371031316,-763871545,33934,-1836,0.25300002,0.03684756,0.76600003,1.182,0.65999997,0.96999997,100,11,7.0750003,2.4510002,6.637,-1.2040001,1.2160707,0,4,1,18
1317357794,1686685150199550,371031359,-763871394,34191,-1579,0.252,0.03671963,0.768,1.1850001,0.65999997,0.96999997,100,11,7.1770005,2.3820002,6.7700005,-1.3520001,1.2253405,0,4,1,18
