timestamp,ref_timestamp,ref_lat,ref_lon,x,y,z,delta_xy[0],delta_xy[1],delta_z,vx,vy,vz,z_deriv,delta_vxy[0],delta_vxy[1],delta_vz,ax,ay,az,yaw,ref_alt,dist_bottom,dist_bottom_rate,eph,epv,evh,evv,vxy_max,vz_max,hagl_min,hagl_max,xy_valid,z_valid,v_xy_valid,v_z_valid,xy_reset_counter,z_reset_counter,vxy_reset_counter,vz_reset_counter,xy_global,z_global,dist_bottom_valid
1244966764,23301968,37.102497299999996,-76.3883551,6.182562,-9.290245,0.11914706,-0.00047961375,-0.0036008249,0.0,-0.028622411,0.12862523,-0.003011739,0.029876662,0.0028893964,-0.0026843061,-0.061254453,0.009176128,0.00071630825,-0.017398937,-0.11019784,2.573936,0.1,0.003011739,0.3213827,0.23617455,0.15695848,0.09563666,inf,inf,inf,inf,1,1,1,1,2,0,2,2,1,1,0
1245066748,23301968,37.102497299999996,-76.3883551,6.17385,-9.275485,0.12146757,-0.00047961375,-0.0036008249,0.0,-0.0276989,0.13202964,-0.0037168916,0.028452503,0.0028893964,-0.0026843061,-0.061254453,-0.18942057,0.92255265,0.09373203,-0.110227674,2.573936,0.1,0.0037168916,0.30932558,0.23546931,0.15233766,0.09519972,inf,inf,inf,inf,1,1,1,1,2,0,2,2,1,1,0
1245170755,23301968,37.102497299999996,-76.3883551,6.1648936,-9.260009,0.123608135,-0.00047961375,-0.0036008249,0.0,-0.026976852,0.12833287,-0.009492272,0.021558674,0.0028893964,-0.0026843061,-0.061254453,-0.36283362,-1.7726378,0.023692107,-0.1102877,2.573936,0.1,0.009492272,0.32133254,0.23643991,0.15698583,0.0956891,inf,inf,inf,inf,1,1,1,1,2,0,2,2,1,1,0
1245274526,23301968,37.102497299999996,-76.3883551,6.15592,-9.245554,0.12529615,-0.00047961375,-0.0036008249,0.0,-0.032916408,0.16248617,0.0024641438,0.03201373,0.0028893964,-0.0026843061,-0.061254453,1.3652323,0.4327077,0.8343075,-0.11013172,2.573936,0.1,-0.0024641438,0.3101329,0.23629658,0.15269978,0.095402785,inf,inf,inf,inf,1,1,1,1,2,0,2,2,1,1,0
1245374823,23301968,37.102497299999996,-76.3883551,6.1477833,-9.231976,0.12811598,-0.00047961375,-0.0036008249,0.0,-0.038016953,0.110682346,0.0053639445,0.034589827,0.0028893964,-0.0026843061,-0.061254453,-0.19465637,0.6910708,0.32204887,-0.10972915,2.573936,0.1,-0.0053639445,0.3221861,0.23562968,0.15734857,0.09550778,inf,inf,inf,inf,1,1,1,1,2,0,2,2,1,1,0
1245478721,23301968,37.102497299999996,-76.3883551,6.1396213,-9.216784,0.13419549,-0.00047961375,-0.0036008249,0.0,-0.030964099,0.123506926,0.004205975,0.036143687,0.0028893964,-0.0026843061,-0.061254453,0.09171192,-0.104617804,0.42056972,-0.1099032,2.573936,0.1,-0.004205975,0.31090763,0.2355096,0.15305418,0.0952331,inf,inf,inf,inf,1,1,1,1,2,0,2,2,1,1,0
1245578777,23301968,37.102497299999996,-76.3883551,6.1324224,-9.2026005,0.13973093,-0.00047961375,-0.0036008249,0.0,-0.024299072,0.13321477,0.005560226,0.039365213,0.0028893964,-0.0026843061,-0.061254453,0.3657316,-0.5796635,0.2253707,-0.11021977,2.573936,0.1,-0.005560226,0.32205275,0.23592006,0.1573559,0.09557427,inf,inf,inf,inf,1,1,1,1,2,0,2,2,1,1,0
1245678811,23301968,37.102497299999996,-76.3883551,6.124494,-9.187667,0.14649424,-0.00047961375,-0.0036008249,0.0,-0.035318848,0.1365979,0.00651061,0.04277115,0.0028893964,-0.0026843061,-0.061254453,0.6887843,0.48899594,-0.33067358,-0.10998375,2.573936,0.1,-0.00651061,0.31091198,0.23578382,0.1531135,0.09529524,inf,inf,inf,inf,1,1,1,1,2,0,2,2,1,1,0
1245782810,23301968,37.102497299999996,-76.3883551,6.1174455,-9.172064,0.15574974,-0.00047961375,-0.0036008249,0.0,-0.041814286,0.13513061,-0.005647839,0.0352984,0.0028893964,-0.0026843061,-0.061254453,0.26652667,0.4523262,-0.23376535,-0.1102912,2.573936,0.1,0.005647839,0.32301438,0.23676258,0.15776713,0.09578794,inf,inf,inf,inf,1,1,1,1,2,0,2,2,1,1,0
1245882792,23301968,37.102497299999996,-76.3883551,6.110053,-9.157782,0.1617747,-0.00047961375,-0.0036008249,0.0,-0.02516712,0.104871705,-0.020797476,0.02361764,0.0028893964,-0.0026843061,-0.061254453,-0.8725075,-3.4232397,-7.266319,-0.111994624,2.573936,0.1,0.020797476,0.31052405,0.2360494,0.15296127,0.09534838,inf,inf,inf,inf,1,1,1,1,2,0,2,2,1,1,0
1245986806,23301968,37.102497299999996,-76.3883551,6.108549,-9.164453,0.1511773,-0.00047961375,-0.0036008249,0.0,0.1250226,-0.31125522,-0.3850481,-0.337239,0.0028893964,-0.0026843061,-0.061254453,-1.0369185,-8.094424,-10.489344,-0.11331372,2.573936,0.1,0.3850481,0.32261002,0.23703943,0.15763997,0.09584555,inf,inf,inf,inf,1,1,1,1,2,0,2,2,1,1,0
1246086743,23301968,37.102497299999996,-76.3883551,6.1223917,-9.211658,0.10226679,-0.00047961375,-0.0036008249,0.0,0.17349626,-0.5043707,-0.7122545,-0.66744477,0.0028893964,-0.0026843061,-0.061254453,-0.009100961,1.4431705,-7.297998,-0.116924234,2.573936,0.105036676,0.7122545,0.31132466,0.23524821,0.1537464,0.095171206,inf,inf,inf,inf,1,1,1,1,2,0,2,2,1,1,0
1246186766,23301968,37.102497299999996,-76.3883551,6.136262,-9.259247,0.010738321,-0.00047961375,-0.0036008249,0.0,0.22494374,-0.55896974,-0.92869323,-0.89572453,0.0028893964,-0.0026843061,-0.061254453,3.4373145,-3.6782527,0.54120076,-0.1112752,2.573936,0.19656515,0.92869323,0.32256514,0.23563989,0.1599389,0.09551962,inf,inf,inf,inf,1,1,1,1,2,0,2,2,1,1,0
1246290730,23301968,37.102497299999996,-76.3883551,6.155516,-9.334411,-0.09982794,-0.00047961375,-0.0036008249,0.0,0.253235,-0.7306225,-1.029088,-1.0068759,0.0028893964,-0.0026843061,-0.061254453,-3.2946267,0.8819705,-1.3772053,-0.10681501,2.573936,0.3071314,1.029088,0.311398,0.23551819,0.15654796,0.09522485,inf,inf,inf,inf,1,1,1,1,2,0,2,2,1,1,0
1246391048,23301968,37.102497299999996,-76.3883551,6.1760974,-9.412637,-0.20444594,-0.00047961375,-0.0036008249,0.0,0.2907085,-0.7965292,-1.0211394,-1.002769,0.0028893964,-0.0026843061,-0.061254453,-2.7879496,-0.10648428,-2.627648,-0.102750994,2.573936,0.41174942,1.0211394,0.32375365,0.23650822,0.16243125,0.09574397,inf,inf,inf,inf,1,1,1,1,2,0,2,2,1,1,0
1246494593,23301968,37.102497299999996,-76.3883551,6.200952,-9.497908,-0.31308976,-0.00047961375,-0.0036008249,0.0,0.30536222,-0.8272055,-1.0286776,-1.014266,0.0028893964,-0.0026843061,-0.061254453,-0.87815356,0.5687736,-2.215315,-0.09951763,2.573936,0.52039325,1.0286776,0.31247085,0.23476572,0.15789117,0.09509305,inf,inf,inf,inf,1,1,1,1,2,0,2,2,1,1,0
1246594731,23301968,37.102497299999996,-76.3883551,6.2280836,-9.581743,-0.42792007,-0.00047961375,-0.0036008249,0.0,0.32740724,-0.86484766,-1.0304117,-1.0288248,0.0028893964,-0.0026843061,-0.061254453,0.43404496,-0.6690818,3.5698895,-0.0956969,2.573936,0.6352235,1.0304117,0.32392377,0.23681508,0.16232546,0.09583296,inf,inf,inf,inf,1,1,1,1,2,0,2,2,1,1,0
1246694797,23301968,37.102497299999996,-76.3883551,6.2549977,-9.662331,-0.5561068,-0.00047961375,-0.0036008249,0.0,0.32483205,-0.8394296,-1.0392134,-1.0608375,0.0028893964,-0.0026843061,-0.061254453,-0.016911056,0.39291093,2.1444316,-0.09126595,2.573936,0.7634103,1.0392134,0.3124994,0.23504661,0.15763575,0.095170826,inf,inf,inf,inf,1,1,1,1,2,0,2,2,1,1,0
1246798563,23301968,37.102497299999996,-76.3883551,6.284715,-9.7447815,-0.69640654,-0.00047961375,-0.0036008249,0.0,0.3118393,-0.8065705,-1.0533414,-1.1023309,0.0028893964,-0.0026843061,-0.061254453,-0.18536393,-0.14856203,-2.7799428,-0.08671148,2.573936,0.90371,1.0533414,0.32493058,0.23603056,0.1623323,0.09567003,inf,inf,inf,inf,1,1,1,1,2,0,2,2,1,1,0
1246902797,23301968,37.102497299999996,-76.3883551,6.3139877,-9.820074,-0.83300894,-0.00047961375,-0.0036008249,0.0,0.28961945,-0.75077784,-1.0473002,-1.1156354,0.0028893964,-0.0026843061,-0.061254453,-2.2130804,1.1243898,-3.2216272,-0.08194772,2.573936,1.0403124,1.0473002,0.3133425,0.23592356,0.15759896,0.09539854,inf,inf,inf,inf,1,1,1,1,2,0,2,2,1,1,0
1247002730,23301968,37.102497299999996,-76.3883551,6.340344,-9.887084,-0.9514968,-0.00047961375,-0.0036008249,0.0,0.26028532,-0.6690413,-1.0386815,-1.111773,0.0028893964,-0.0026843061,-0.061254453,-0.004924362,0.78765804,0.13960525,-0.07878741,2.573936,1.1588002,1.0386815,0.32482857,0.2363462,0.16185509,0.095731825,inf,inf,inf,inf,1,1,1,1,2,0,2,2,1,1,0
1247106737,23301968,37.102497299999996,-76.3883551,6.357676,-9.946696,-1.0620694,-0.00047961375,-0.0036008249,0.0,0.21411572,-0.5816515,-1.0358117,-1.1016878,0.0028893964,-0.0026843061,-0.061254453,-0.9138687,2.7259562,-0.2336432,-0.076993704,2.573936,1.2693729,1.0358117,0.3130852,0.23461838,0.15704677,0.09507407,inf,inf,inf,inf,1,1,1,1,2,0,2,2,1,1,0
1247206817,23301968,37.102497299999996,-76.3883551,6.3709326,-9.996193,-1.1593128,-0.00047961375,-0.0036008249,0.0,0.17077868,-0.49366015,-1.0292816,-1.080265,0.0028893964,-0.0026843061,-0.061254453,-1.5485348,0.5373466,0.96186954,-0.07692424,2.573936,1.3666162,1.0292816,0.32552746,0.23563008,0.16158657,0.09555874,inf,inf,inf,inf,1,1,1,1,2,0,2,2,1,1,0
1247306601,23301968,37.102497299999996,-76.3883551,6.376347,-10.0384245,-1.255525,-0.00047961375,-0.0036008249,0.0,0.13357684,-0.41102058,-1.0361571,-1.073863,0.0028893964,-0.0026843061,-0.061254453,1.5810077,-0.7924877,0.63461083,-0.07747963,2.573936,1.4628284,1.0361571,0.3126118,0.2349677,0.1562997,0.09512785,inf,inf,inf,inf,1,1,1,1,2,0,2,2,1,1,0
1247410793,23301968,37.102497299999996,-76.3883551,6.3793344,-10.074901,-1.3558769,-0.00047961375,-0.0036008249,0.0,0.08770963,-0.32387426,-1.027737,-1.0533535,0.0028893964,-0.0026843061,-0.061254453,-1.1564045,1.5014919,-4.3013506,-0.07767785,2.573936,1.5631804,1.027737,0.32500607,0.23596661,0.16090642,0.09560994,inf,inf,inf,inf,1,1,1,1,2,0,2,2,1,1,0
1247510751,23301968,37.102497299999996,-76.3883551,6.3729863,-10.104047,-1.4576448,-0.00047961375,-0.0036008249,0.0,0.06367927,-0.26131138,-1.0450948,-1.0661277,0.0028893964,-0.0026843061,-0.061254453,1.936233,0.8780613,5.647002,-0.07852327,2.573936,1.6649482,1.0450948,0.31311697,0.23586573,0.15622956,0.095335044,inf,inf,inf,inf,1,1,1,1,2,0,2,2,1,1,0
1247610796,23301968,37.102497299999996,-76.3883551,6.368172,-10.126526,-1.560214,-0.00047961375,-0.0036008249,0.0,0.03280761,-0.18174687,-1.0060787,-1.0246341,0.0028893964,-0.0026843061,-0.061254453,0.2501249,0.66782486,-5.066442,-0.08005336,2.573936,1.7675176,1.0060787,0.32455173,0.23629135,0.16048683,0.095668264,inf,inf,inf,inf,1,1,1,1,2,0,2,2,1,1,0
1247714629,23301968,37.102497299999996,-76.3883551,6.356113,-10.144348,-1.6672416,-0.00047961375,-0.0036008249,0.0,0.008987568,-0.11301712,-0.97649527,-0.9955245,0.0028893964,-0.0026843061,-0.061254453,-1.201934,3.3457386,-2.1142228,-0.08250278,2.573936,1.8745451,0.97649527,0.31262195,0.23457012,0.1558304,0.09502089,inf,inf,inf,inf,1,1,1,1,2,0,2,2,1,1,0
1247814596,23301968,37.102497299999996,-76.3883551,6.3464174,-10.154644,-1.76975,-0.00047961375,-0.0036008249,0.0,-0.0062114513,-0.058092955,-0.95173925,-0.97381073,0.0028893964,-0.0026843061,-0.061254453,-1.3386551,1.0146861,0.14753912,-0.08622274,2.573936,1.9770534,0.95173925,0.32500237,0.23558182,0.16048451,0.09551673,inf,inf,inf,inf,1,1,1,1,2,0,2,2,1,1,0
1247918595,23301968,37.102497299999996,-76.3883551,6.3280435,-10.160916,-1.8737212,-0.00047961375,-0.0036008249,0.0,-0.0062880674,0.015706351,-0.9334345,-0.9585683,0.0028893964,-0.0026843061,-0.061254453,-0.71279454,3.651569,-3.6466856,-0.089809425,2.573936,2.0810246,0.9334345,0.31305325,0.23547676,0.15570712,0.09524759,inf,inf,inf,inf,1,1,1,1,2,0,2,2,1,1,0
1248022594,23301968,37.102497299999996,-76.3883551,6.3139358,-10.159532,-1.9805747,-0.00047961375,-0.0036008249,0.0,-7.922464e-05,0.07352839,-0.9334677,-0.9651229,0.0028893964,-0.0026843061,-0.061254453,0.49678746,-0.4737701,2.4558318,-0.09202539,2.573936,2.1878781,0.9334677,0.30161622,0.23536704,0.15098155,0.09496603,inf,inf,inf,inf,1,1,1,1,2,0,2,2,1,1,0
1248126779,23301968,37.102497299999996,-76.3883551,6.295286,-10.148954,-2.089391,-0.00047961375,-0.0036008249,0.0,0.00037069403,0.1327205,-0.91878563,-0.95823944,0.0028893964,-0.0026843061,-0.061254453,-2.894834,1.9500613,-5.3786497,-0.09267644,2.573936,2.2966945,0.91878563,0.31341457,0.23637894,0.1555294,0.0954756,inf,inf,inf,inf,1,1,1,1,2,0,2,2,1,1,0
1248230632,23301968,37.102497299999996,-76.3883551,6.2817054,-10.133702,-2.1976438,-0.00047961375,-0.0036008249,0.0,0.015723126,0.17577331,-0.92012805,-0.9659424,0.0028893964,-0.0026843061,-0.061254453,-1.7660638,2.2866898,-2.0794468,-0.092706926,2.573936,2.4049473,0.92012805,0.30191243,0.23461567,0.15103619,0.09480853,inf,inf,inf,inf,1,1,1,1,2,0,2,2,1,1,0
1248330813,23301968,37.102497299999996,-76.3883551,6.2666645,-10.116419,-2.3002243,-0.00047961375,-0.0036008249,0.0,0.031657197,0.2167581,-0.92084384,-0.970869,0.0028893964,-0.0026843061,-0.061254453,-0.8712748,1.497729,-5.1055236,-0.092306726,2.573936,2.5075278,0.92084384,0.31280136,0.2350243,0.15529677,0.095154546,inf,inf,inf,inf,1,1,1,1,2,0,2,2,1,1,0
1248430790,23301968,37.102497299999996,-76.3883551,6.256025,-10.095212,-2.4007885,-0.00047961375,-0.0036008249,0.0,0.048311032,0.24213733,-0.94367826,-0.99419695,0.0028893964,-0.0026843061,-0.061254453,-1.662119,1.5236032,-2.7341137,-0.090944804,2.573936,2.608092,0.94367826,0.30129358,0.23491557,0.15080543,0.09488062,inf,inf,inf,inf,1,1,1,1,2,0,2,2,1,1,0
1248534775,23301968,37.102497299999996,-76.3883551,6.245915,-10.069287,-2.5003767,-0.00047961375,-0.0036008249,0.0,0.07255389,0.25989652,-0.94721454,-0.9926867,0.0028893964,-0.0026843061,-0.061254453,0.318213,0.33344617,-1.7832024,-0.089785814,2.573936,2.7076802,0.94721454,0.31308916,0.23591271,0.1554176,0.095387295,inf,inf,inf,inf,1,1,1,1,2,0,2,2,1,1,0
1248638634,23301968,37.102497299999996,-76.3883551,6.240114,-10.041554,-2.5977552,-0.00047961375,-0.0036008249,0.0,0.087664336,0.28396586,-0.946507,-0.98505265,0.0028893964,-0.0026843061,-0.061254453,-0.5960663,-0.30618998,-1.170347,-0.089906394,2.573936,2.8050587,0.946507,0.30159023,0.23578253,0.1509628,0.09510565,inf,inf,inf,inf,1,1,1,1,2,0,2,2,1,1,0
1248738618,23301968,37.102497299999996,-76.3883551,6.232976,-10.014818,-2.6919897,-0.00047961375,-0.0036008249,0.0,0.109054826,0.29471833,-0.94688195,-0.9807466,0.0028893964,-0.0026843061,-0.061254453,0.25311396,0.10490096,-2.355932,-0.09083944,2.573936,2.8992932,0.94688195,0.31248504,0.23619474,0.15520123,0.09545298,inf,inf,inf,inf,1,1,1,1,2,0,2,2,1,1,0
1248842793,23301968,37.102497299999996,-76.3883551,6.230627,-9.985964,-2.7859547,-0.00047961375,-0.0036008249,0.0,0.13236322,0.295992,-0.94843215,-0.9736729,0.0028893964,-0.0026843061,-0.061254453,1.8949506,1.7590762,-2.8963058,-0.09216111,2.573936,2.9932582,0.94843215,0.30097842,0.23444918,0.15075362,0.09479578,inf,inf,inf,inf,1,1,1,1,2,0,2,2,1,1,0
1248942836,23301968,37.102497299999996,-76.3883551,6.2290535,-9.957432,-2.8751204,-0.00047961375,-0.0036008249,0.0,0.14379032,0.2960737,-0.94715124,-0.96288633,0.0028893964,-0.0026843061,-0.061254453,-1.4357408,1.0908009,-3.3977764,-0.09345389,2.573936,3.082424,0.94715124,0.31278932,0.23545107,0.15531823,0.09530253,inf,inf,inf,inf,1,1,1,1,2,0,2,2,1,1,0
1249042830,23301968,37.102497299999996,-76.3883551,6.2311172,-9.928361,-2.9693387,-0.00047961375,-0.0036008249,0.0,0.1648934,0.2859593,-0.96547717,-0.9775076,0.0028893964,-0.0026843061,-0.061254453,0.36968875,-1.9850627,2.0601106,-0.094930306,2.573936,3.1766422,0.96547717,0.30040202,0.23477378,0.15062802,0.09487794,inf,inf,inf,inf,1,1,1,1,2,0,2,2,1,1,0
1249146731,23301968,37.102497299999996,-76.3883551,6.2284546,-9.897113,-3.0680914,-0.00047961375,-0.0036008249,0.0,0.17711072,0.280485,-0.96790576,-0.97680724,0.0028893964,-0.0026843061,-0.061254453,1.5360879,-0.45378518,3.5459697,-0.09623227,2.573936,3.275395,0.96790576,0.3121958,0.2357728,0.15520601,0.095383115,inf,inf,inf,inf,1,1,1,1,2,0,2,2,1,1,0
1249246632,23301968,37.102497299999996,-76.3883551,6.2291045,-9.867166,-3.164084,-0.00047961375,-0.0036008249,0.0,0.1910576,0.26848614,-0.98723716,-0.9931219,0.0028893964,-0.0026843061,-0.061254453,0.686538,0.8690186,0.37979963,-0.096894026,2.573936,3.3713875,0.98723716,0.30080768,0.23565888,0.15077752,0.095106125,inf,inf,inf,inf,1,1,1,1,2,0,2,2,1,1,0
1249350629,23301968,37.102497299999996,-76.3883551,6.2306933,-9.835754,-3.2631238,-0.00047961375,-0.0036008249,0.0,0.19920117,0.254356,-0.9910952,-0.9918995,0.0028893964,-0.0026843061,-0.061254453,-1.0686647,-1.2397499,-1.3817763,-0.09723773,2.573936,3.4704273,0.9910952,0.3126328,0.23664553,0.15540926,0.09560448,inf,inf,inf,inf,1,1,1,1,2,0,2,2,1,1,0
1249454726,23301968,37.102497299999996,-76.3883551,6.2348657,-9.807605,-3.3627348,-0.00047961375,-0.0036008249,0.0,0.20319588,0.23031883,-0.9946365,-0.9911985,0.0028893964,-0.0026843061,-0.061254453,-0.93567467,-0.14718354,-2.8598657,-0.09706657,2.573936,3.5700383,0.9946365,0.30128175,0.2348701,0.15102427,0.09493573,inf,inf,inf,inf,1,1,1,1,2,0,2,2,1,1,0
1249554832,23301968,37.102497299999996,-76.3883551,6.239254,-9.783706,-3.460426,-0.00047961375,-0.0036008249,0.0,0.21025886,0.19943495,-1.0023997,-0.9967939,0.0028893964,-0.0026843061,-0.061254453,0.029362898,-0.3904895,1.749194,-0.09683883,2.573936,3.6677296,1.0023997,0.3122162,0.2352714,0.1552817,0.095274076,inf,inf,inf,inf,1,1,1,1,2,0,2,2,1,1,0
1249658850,23301968,37.102497299999996,-76.3883551,6.245544,-9.760606,-3.5614212,-0.00047961375,-0.0036008249,0.0,0.20836216,0.18396735,-0.99241424,-0.9846872,0.0028893964,-0.0026843061,-0.061254453,-0.06770626,-1.4571038,-3.8655107,-0.09701139,2.573936,3.7687247,0.99241424,0.30088627,0.23516072,0.15099607,0.09500236,inf,inf,inf,inf,1,1,1,1,2,0,2,2,1,1,0
1249758766,23301968,37.102497299999996,-76.3883551,6.252559,-9.74015,-3.660402,-0.00047961375,-0.0036008249,0.0,0.20350453,0.16987088,-0.999349,-0.99121165,0.0028893964,-0.0026843061,-0.061254453,-2.959713,2.6774333,0.23551758,-0.09697423,2.573936,3.8677056,0.999349,0.31275326,0.23615138,0.15560228,0.09550059,inf,inf,inf,inf,1,1,1,1,2,0,2,2,1,1,0
1251082746,23301968,37.102497299999996,-76.3883551,6.3416724,-9.619649,-4.929477,-0.00047961375,-0.0036008249,0.0,0.05009334,-0.0055312044,-1.0421386,-1.0087835,0.0028893964,-0.0026843061,-0.061254453,1.7667283,-2.3740532,1.2534784,-0.100299016,2.573936,5.1367807,1.0421386,0.30154407,0.23548476,0.15152697,0.095082834,inf,inf,inf,inf,1,1,1,1,2,0,2,2,1,1,0
1252510747,23301968,37.102497299999996,-76.3883551,6.2881365,-9.715,-6.454955,-0.00047961375,-0.0036008249,0.0,-0.18489522,-0.049855854,-1.1324981,-1.081518,0.0028893964,-0.0026843061,-0.061254453,-0.9708829,-0.9857991,4.926822,-0.10702754,2.573936,6.6622586,1.1324981,0.3070519,0.23507227,0.15370224,0.09503044,inf,inf,inf,inf,1,1,1,1,2,0,2,2,1,1,0
1252614752,23301968,37.102497299999996,-76.3883551,6.268398,-9.7148695,-6.561538,-0.00047961375,-0.0036008249,0.0,-0.19959101,-0.01991802,-1.0879725,-1.0334724,0.0028893964,-0.0026843061,-0.061254453,-2.4677227,1.3440397,-7.5130095,-0.11054076,2.573936,6.7688417,1.0879725,0.31933564,0.23605186,0.15840894,0.0955109,inf,inf,inf,inf,1,1,1,1,2,0,2,2,1,1,0
1252918588,23301968,37.102497299999996,-76.3883551,6.2221017,-9.693616,-6.879432,-0.00047961375,-0.0036008249,0.0,-0.14992079,0.049851038,-1.0995132,-1.0456855,0.0028893964,-0.0026843061,-0.061254453,-2.592316,2.4782298,-4.1184645,-0.11641264,2.573936,7.0867357,1.0995132,0.3085962,0.23621784,0.15401141,0.09528708,inf,inf,inf,inf,1,1,1,1,2,0,2,2,1,1,0
1253018829,23301968,37.102497299999996,-76.3883551,6.2119565,-9.684612,-6.988624,-0.00047961375,-0.0036008249,0.0,-0.118104175,0.05463192,-1.1075022,-1.0571837,0.0028893964,-0.0026843061,-0.061254453,-0.2438009,-0.33802342,-1.8742064,-0.11637972,2.573936,7.1959276,1.1075022,0.31996128,0.23661825,0.15826419,0.095611006,inf,inf,inf,inf,1,1,1,1,2,0,2,2,1,1,0
1253122615,23301968,37.102497299999996,-76.3883551,6.2038927,-9.669114,-7.104252,-0.00047961375,-0.0036008249,0.0,-0.09249005,0.06318458,-1.1019574,-1.0576123,0.0028893964,-0.0026843061,-0.061254453,-0.8498174,-0.27279803,-0.59049207,-0.11605485,2.573936,7.3115554,1.1019574,0.30890858,0.23647183,0.1539789,0.095325306,inf,inf,inf,inf,1,1,1,1,2,0,2,2,1,1,0
1253226758,23301968,37.102497299999996,-76.3883551,6.1979566,-9.654626,-7.2189193,-0.00047961375,-0.0036008249,0.0,-0.057260536,0.07081967,-1.0990936,-1.0592527,0.0028893964,-0.0026843061,-0.061254453,3.9608378,-1.1584427,8.197149,-0.115638904,2.573936,7.426223,1.0990936,0.29830885,0.2346943,0.1496496,0.09464807,inf,inf,inf,inf,1,1,1,1,2,0,2,2,1,1,0
1253326620,23301968,37.102497299999996,-76.3883551,6.193717,-9.63729,-7.3320704,-0.00047961375,-0.0036008249,0.0,-0.043545168,0.09496844,-1.0752563,-1.0435262,0.0028893964,-0.0026843061,-0.061254453,-2.5466933,1.9040859,-5.067237,-0.11677076,2.573936,7.539374,1.0752563,0.31009296,0.23566377,0.1541801,0.09513805,inf,inf,inf,inf,1,1,1,1,2,0,2,2,1,1,0
1253430763,23301968,37.102497299999996,-76.3883551,6.1905766,-9.619711,-7.449368,-0.00047961375,-0.0036008249,0.0,-0.010235178,0.099128336,-1.0619643,-1.0389011,0.0028893964,-0.0026843061,-0.061254453,-0.33778286,0.43753698,-4.1727057,-0.11834476,2.573936,7.6566715,1.0619643,0.29956454,0.23554064,0.15001963,0.0948557,inf,inf,inf,inf,1,1,1,1,2,0,2,2,1,1,0
1253530626,23301968,37.102497299999996,-76.3883551,6.1857395,-9.600768,-7.5598607,-0.00047961375,-0.0036008249,0.0,0.0048548887,0.12161603,-1.0345763,-1.017549,0.0028893964,-0.0026843061,-0.061254453,-3.7461605,2.214677,-7.385747,-0.1188129,2.573936,7.767164,1.0345763,0.3104715,0.23595357,0.1542688,0.095197365,inf,inf,inf,inf,1,1,1,1,2,0,2,2,1,1,0
1253630752,23301968,37.102497299999996,-76.3883551,6.1845436,-9.58199,-7.6718044,-0.00047961375,-0.0036008249,0.0,0.03735889,0.12012394,-1.0626905,-1.0526943,0.0028893964,-0.0026843061,-0.061254453,-1.646058,0.5259306,1.0445976,-0.11831196,2.573936,7.879108,1.0626905,0.29992777,0.23421945,0.14991064,0.094541825,inf,inf,inf,inf,1,1,1,1,2,0,2,2,1,1,0
1253734736,23301968,37.102497299999996,-76.3883551,6.1873646,-9.5622225,-7.790534,-0.00047961375,-0.0036008249,0.0,0.06271286,0.13179268,-1.0537709,-1.0529087,0.0028893964,-0.0026843061,-0.061254453,2.5519047,-1.6687886,1.7698632,-0.1179049,2.573936,7.9978375,1.0537709,0.31176344,0.2352164,0.15454754,0.09504174,inf,inf,inf,inf,1,1,1,1,2,0,2,2,1,1,0
1253834774,23301968,37.102497299999996,-76.3883551,6.191992,-9.5438,-7.9017644,-0.00047961375,-0.0036008249,0.0,0.0823731,0.14387457,-1.0550785,-1.0589354,0.0028893964,-0.0026843061,-0.061254453,0.73843044,2.36858,-0.76987875,-0.11707035,2.573936,8.109068,1.0550785,0.3003342,0.2345492,0.14999038,0.094617836,inf,inf,inf,inf,1,1,1,1,2,0,2,2,1,1,0
1253938798,23301968,37.102497299999996,-76.3883551,6.197141,-9.52294,-8.014153,-0.00047961375,-0.0036008249,0.0,0.1014112,0.1426679,-1.05459,-1.0596514,0.0028893964,-0.0026843061,-0.061254453,-0.5512307,2.008288,2.6134927,-0.11581271,2.573936,8.221456,1.05459,0.31217784,0.23556091,0.15461816,0.09512351,inf,inf,inf,inf,1,1,1,1,2,0,2,2,1,1,0
1254038633,23301968,37.102497299999996,-76.3883551,6.203859,-9.503003,-8.118997,-0.00047961375,-0.0036008249,0.0,0.117343076,0.14091899,-1.0433108,-1.0466461,0.0028893964,-0.0026843061,-0.061254453,-0.49605107,0.87773836,-4.864028,-0.114752956,2.573936,8.3263,1.0433108,0.3016206,0.2354792,0.15036078,0.09485865,inf,inf,inf,inf,1,1,1,1,2,0,2,2,1,1,0
1254138766,23301968,37.102497299999996,-76.3883551,6.211528,-9.482575,-8.224351,-0.00047961375,-0.0036008249,0.0,0.12898119,0.13778174,-1.0443548,-1.047399,0.0028893964,-0.0026843061,-0.061254453,0.11329689,1.220435,0.07533428,-0.1138269,2.573936,8.431654,1.0443548,0.31257913,0.23589736,0.15464962,0.09520061,inf,inf,inf,inf,1,1,1,1,2,0,2,2,1,1,0
1254242765,23301968,37.102497299999996,-76.3883551,6.220629,-9.462275,-8.331933,-0.00047961375,-0.0036008249,0.0,0.13004647,0.13433295,-1.0353792,-1.0365671,0.0028893964,-0.0026843061,-0.061254453,-2.451358,0.6386156,-2.7917788,-0.11317964,2.573936,8.539236,1.0353792,0.3020064,0.23417313,0.15039782,0.09454885,inf,inf,inf,inf,1,1,1,1,2,0,2,2,1,1,0
1254342747,23301968,37.102497299999996,-76.3883551,6.2289495,-9.442516,-8.433251,-0.00047961375,-0.0036008249,0.0,0.13630947,0.12830774,-1.0405545,-1.0378687,0.0028893964,-0.0026843061,-0.061254453,-0.15316711,-1.2420038,-1.2392523,-0.11234323,2.573936,8.640554,1.0405545,0.31390372,0.23517479,0.15498616,0.0950491,inf,inf,inf,inf,1,1,1,1,2,0,2,2,1,1,0
1254442759,23301968,37.102497299999996,-76.3883551,6.2383385,-9.423981,-8.536329,-0.00047961375,-0.0036008249,0.0,0.12871742,0.12203186,-1.0653616,-1.0600755,0.0028893964,-0.0026843061,-0.061254453,1.1007239,-0.559854,0.87925315,-0.11075143,2.573936,8.743632,1.0653616,0.30232427,0.23451188,0.150443,0.09462465,inf,inf,inf,inf,1,1,1,1,2,0,2,2,1,1,0
1254546822,23301968,37.102497299999996,-76.3883551,6.2477617,-9.4023485,-8.645194,-0.00047961375,-0.0036008249,0.0,0.11835229,0.115796424,-1.0719692,-1.0638603,0.0028893964,-0.0026843061,-0.061254453,-2.4143858,0.17312467,-5.9559407,-0.10956552,2.573936,8.852497,1.0719692,0.3142224,0.23552893,0.15503323,0.09512951,inf,inf,inf,inf,1,1,1,1,2,0,2,2,1,1,0
1254646773,23301968,37.102497299999996,-76.3883551,6.2574506,-9.382231,-8.75023,-0.00047961375,-0.0036008249,0.0,0.12173039,0.1006471,-1.110128,-1.0979831,0.0028893964,-0.0026843061,-0.061254453,0.5356344,0.35423616,2.1436424,-0.10814312,2.573936,8.957533,1.110128,0.30353096,0.23383573,0.15084915,0.09448601,inf,inf,inf,inf,1,1,1,1,2,0,2,2,1,1,0
1254750743,23301968,37.102497299999996,-76.3883551,6.2686706,-9.359423,-8.858431,-0.00047961375,-0.0036008249,0.0,0.11776716,0.09515091,-1.1115203,-1.0933055,0.0028893964,-0.0026843061,-0.061254453,-1.1181628,-0.25851473,0.5752625,-0.10666664,2.573936,9.065734,1.1115203,0.31547973,0.23485748,0.15560685,0.09499126,inf,inf,inf,inf,1,1,1,1,2,0,2,2,1,1,0
1254854767,23301968,37.102497299999996,-76.3883551,6.280987,-9.336445,-8.969398,-0.00047961375,-0.0036008249,0.0,0.12756282,0.08837491,-1.1263129,-1.1046045,0.0028893964,-0.0026843061,-0.061254453,0.9800619,0.9258497,4.6740804,-0.104911014,2.573936,9.176701,1.1263129,0.30486032,0.23479688,0.15145361,0.0947346,inf,inf,inf,inf,1,1,1,1,2,0,2,2,1,1,0
1254954540,23301968,37.102497299999996,-76.3883551,6.293793,-9.314374,-9.080296,-0.00047961375,-0.0036008249,0.0,0.12939002,0.09345695,-1.1478754,-1.1256177,0.0028893964,-0.0026843061,-0.061254453,1.2674022,-0.70376253,-1.937856,-0.10328153,2.573936,9.287599,1.1478754,0.31592706,0.23525658,0.15575801,0.09508814,inf,inf,inf,inf,1,1,1,1,2,0,2,2,1,1,0
1255058874,23301968,37.102497299999996,-76.3883551,6.307396,-9.29316,-9.199523,-0.00047961375,-0.0036008249,0.0,0.14080249,0.08004971,-1.1777529,-1.1568421,0.0028893964,-0.0026843061,-0.061254453,4.57111,-1.3060067,6.621002,-0.101685524,2.573936,9.406826,1.1777529,0.30528575,0.2335922,0.15165852,0.09445729,inf,inf,inf,inf,1,1,1,1,2,0,2,2,1,1,0
1255158714,23301968,37.102497299999996,-76.3883551,6.32051,-9.274489,-9.314643,-0.00047961375,-0.0036008249,0.0,0.1293459,0.069849096,-1.1863725,-1.1649821,0.0028893964,-0.0026843061,-0.061254453,-1.7715236,1.6184437,-0.53789026,-0.10098871,2.573936,9.521946,1.1863725,0.31731263,0.23463027,0.15636507,0.09496607,inf,inf,inf,inf,1,1,1,1,2,0,2,2,1,1,0
1255258715,23301968,37.102497299999996,-76.3883551,6.334172,-9.258827,-9.432301,-0.00047961375,-0.0036008249,0.0,0.12632573,0.059061456,-1.1971174,-1.176047,0.0028893964,-0.0026843061,-0.061254453,0.41788206,1.6673877,-1.0187459,-0.10130456,2.573936,9.639604,1.1971174,0.30559355,0.23401256,0.151815,0.09455813,inf,inf,inf,inf,1,1,1,1,2,0,2,2,1,1,0
1255362854,23301968,37.102497299999996,-76.3883551,6.348127,-9.243984,-9.558712,-0.00047961375,-0.0036008249,0.0,0.110405944,0.042754516,-1.2326511,-1.2135837,0.0028893964,-0.0026843061,-0.061254453,-1.1382066,1.2921137,-3.7616234,-0.102364816,2.573936,9.766015,1.2326511,0.31762657,0.23506108,0.15654227,0.09507007,inf,inf,inf,inf,1,1,1,1,2,0,2,2,1,1,0
1255462739,23301968,37.102497299999996,-76.3883551,6.3598466,-9.232179,-9.683354,-0.00047961375,-0.0036008249,0.0,0.0935487,0.022218373,-1.2550199,-1.2386017,0.0028893964,-0.0026843061,-0.061254453,0.18598042,-1.9850376,2.6761308,-0.10437156,2.573936,9.890657,1.2550199,0.30681896,0.23499532,0.1523594,0.094806015,inf,inf,inf,inf,1,1,1,1,2,0,2,2,1,1,0
1255566719,23301968,37.102497299999996,-76.3883551,6.37,-9.223234,-9.81622,-0.00047961375,-0.0036008249,0.0,0.06617096,0.005156316,-1.2476476,-1.2352388,0.0028893964,-0.0026843061,-0.061254453,-1.8244737,-0.008591134,-6.2638493,-0.106431834,2.573936,10.023523,1.2476476,0.31890067,0.23440002,0.15704459,0.09492646,inf,inf,inf,inf,1,1,1,1,2,0,2,2,1,1,0
1255670891,23301968,37.102497299999996,-76.3883551,6.3785276,-9.215402,-9.946212,-0.00047961375,-0.0036008249,0.0,0.046711314,-0.015833536,-1.2826653,-1.2681295,0.0028893964,-0.0026843061,-0.061254453,-1.7593447,0.5278748,-6.207951,-0.10872701,2.573936,10.153515,1.2826653,0.30815598,0.23434585,0.15284023,0.09467175,inf,inf,inf,inf,1,1,1,1,2,0,2,2,1,1,0
1255770723,23301968,37.102497299999996,-76.3883551,6.3851066,-9.2115555,-10.070919,-0.00047961375,-0.0036008249,0.0,0.032267995,-0.048618246,-1.3061045,-1.2872732,0.0028893964,-0.0026843061,-0.061254453,-1.6774526,-1.1111724,-3.373861,-0.11122883,2.573936,10.278222,1.3061045,0.31934848,0.23478854,0.15726535,0.095013075,inf,inf,inf,inf,1,1,1,1,2,0,2,2,1,1,0
1255870608,23301968,37.102497299999996,-76.3883551,6.390413,-9.209988,-10.20045,-0.00047961375,-0.0036008249,0.0,0.02699518,-0.08279149,-1.3500193,-1.329908,0.0028893964,-0.0026843061,-0.061254453,-1.6538297,-0.5538415,0.47028318,-0.11305551,2.573936,10.407753,1.3500193,0.30852932,0.2347091,0.1531275,0.09474849,inf,inf,inf,inf,1,1,1,1,2,0,2,2,1,1,0
1255974743,23301968,37.102497299999996,-76.3883551,6.394981,-9.214302,-10.337566,-0.00047961375,-0.0036008249,0.0,0.031658724,-0.1468925,-1.3786429,-1.357748,0.0028893964,-0.0026843061,-0.061254453,1.5244297,-0.73402995,2.272818,-0.11314406,2.573936,10.544869,1.3786429,0.32069388,0.23572844,0.15780576,0.095244616,inf,inf,inf,inf,1,1,1,1,2,0,2,2,1,1,0
1256078602,23301968,37.102497299999996,-76.3883551,6.4007893,-9.224712,-10.475627,-0.00047961375,-0.0036008249,0.0,0.027402325,-0.1852902,-1.3433236,-1.3226584,0.0028893964,-0.0026843061,-0.061254453,0.047616314,-1.3096007,4.6031504,-0.11212533,2.573936,10.68293,1.3433236,0.30970782,0.23403396,0.15354206,0.09460118,inf,inf,inf,inf,1,1,1,1,2,0,2,2,1,1,0
1256178727,23301968,37.102497299999996,-76.3883551,6.406569,-9.241155,-10.608155,-0.00047961375,-0.0036008249,0.0,0.04214706,-0.23546797,-1.3474922,-1.3266742,0.0028893964,-0.0026843061,-0.061254453,0.2936543,-0.5148328,6.2677665,-0.109871104,2.573936,10.815458,1.3474922,0.320958,0.23608959,0.1578975,0.09531955,inf,inf,inf,inf,1,1,1,1,2,0,2,2,1,1,0
1256282761,23301968,37.102497299999996,-76.3883551,6.4144993,-9.262616,-10.746732,-0.00047961375,-0.0036008249,0.0,0.060654253,-0.2767808,-1.3290606,-1.3096899,0.0028893964,-0.0026843061,-0.061254453,2.0532818,-1.0488389,2.4318945,-0.106856085,2.573936,10.954035,1.3290606,0.31014627,0.23436798,0.15362093,0.09466961,inf,inf,inf,inf,1,1,1,1,2,0,2,2,1,1,0
1256382601,23301968,37.102497299999996,-76.3883551,6.4234757,-9.287294,-10.880886,-0.00047961375,-0.0036008249,0.0,0.07269322,-0.29567927,-1.3483949,-1.3308346,0.0028893964,-0.0026843061,-0.061254453,2.459994,-0.38047594,5.857772,-0.103996314,2.573936,11.088189,1.3483949,0.3223686,0.23537284,0.15826002,0.09516159,inf,inf,inf,inf,1,1,1,1,2,0,2,2,1,1,0
1256486777,23301968,37.102497299999996,-76.3883551,6.434777,-9.313888,-11.016861,-0.00047961375,-0.0036008249,0.0,0.08505461,-0.3091689,-1.3598635,-1.3398266,0.0028893964,-0.0026843061,-0.061254453,-1.500853,-0.35331047,1.3188704,-0.10084505,2.573936,11.224164,1.3598635,0.31137642,0.23529135,0.15403104,0.09489748,inf,inf,inf,inf,1,1,1,1,2,0,2,2,1,1,0
1256590724,23301968,37.102497299999996,-76.3883551,6.447337,-9.341733,-11.157653,-0.00047961375,-0.0036008249,0.0,0.10310403,-0.3122462,-1.3465015,-1.328966,0.0028893964,-0.0026843061,-0.061254453,0.090308316,1.4705567,-7.461077,-0.09791137,2.573936,11.364956,1.3465015,0.32363576,0.23630477,0.1587186,0.09539187,inf,inf,inf,inf,1,1,1,1,2,0,2,2,1,1,0
1256690741,23301968,37.102497299999996,-76.3883551,6.4637656,-9.368925,-11.296349,-0.00047961375,-0.0036008249,0.0,0.11712938,-0.31697863,-1.3521678,-1.3397706,0.0028893964,-0.0026843061,-0.061254453,0.46133277,-0.07477294,1.800695,-0.095261686,2.573936,11.503652,1.3521678,0.31167892,0.23561925,0.15393874,0.09496186,inf,inf,inf,inf,1,1,1,1,2,0,2,2,1,1,0
1256794777,23301968,37.102497299999996,-76.3883551,6.481203,-9.398073,-11.439618,-0.00047961375,-0.0036008249,0.0,0.11965009,-0.30310106,-1.3464652,-1.3380429,0.0028893964,-0.0026843061,-0.061254453,-3.1105058,0.1563561,-2.5597322,-0.09361689,2.573936,11.646921,1.3464652,0.32393873,0.23498434,0.1586194,0.09506527,inf,inf,inf,inf,1,1,1,1,2,0,2,2,1,1,0
1256894732,23301968,37.102497299999996,-76.3883551,6.498288,-9.421804,-11.580404,-0.00047961375,-0.0036008249,0.0,0.120025486,-0.29390818,-1.3496011,-1.3473066,0.0028893964,-0.0026843061,-0.061254453,2.0248973,-0.6218133,3.1998491,-0.09410525,2.573936,11.787707,1.3496011,0.31295922,0.23489814,0.15440017,0.09480031,inf,inf,inf,inf,1,1,1,1,2,0,2,2,1,1,0
1256994727,23301968,37.102497299999996,-76.3883551,6.513637,-9.444865,-11.723082,-0.00047961375,-0.0036008249,0.0,0.1096003,-0.26782432,-1.3381008,-1.343654,0.0028893964,-0.0026843061,-0.061254453,-1.7467185,2.0204177,-3.3210084,-0.09692387,2.573936,11.930385,1.3381008,0.32429916,0.23532915,0.15866335,0.095134445,inf,inf,inf,inf,1,1,1,1,2,0,2,2,1,1,0
1257098728,23301968,37.102497299999996,-76.3883551,6.530273,-9.468355,-11.867748,-0.00047961375,-0.0036008249,0.0,0.11140021,-0.23657124,-1.2863998,-1.2988386,0.0028893964,-0.0026843061,-0.061254453,0.93194115,1.0633354,-4.450938,-0.10156563,2.573936,12.075051,1.2863998,0.31330174,0.23524192,0.15429038,0.09486798,inf,inf,inf,inf,1,1,1,1,2,0,2,2,1,1,0
1257198881,23301968,37.102497299999996,-76.3883551,6.545627,-9.488638,-12.004997,-0.00047961375,-0.0036008249,0.0,0.1024635,-0.20241143,-1.2695377,-1.2889922,0.0028893964,-0.0026843061,-0.061254453,-1.2620437,1.6084415,3.2701702,-0.10599929,2.573936,12.2123,1.2695377,0.32559907,0.23623352,0.15875867,0.09534927,inf,inf,inf,inf,1,1,1,1,2,0,2,2,1,1,0
1257298809,23301968,37.102497299999996,-76.3883551,6.558608,-9.504259,-12.145604,-0.00047961375,-0.0036008249,0.0,0.10240087,-0.17885585,-1.301163,-1.3303398,0.0028893964,-0.0026843061,-0.061254453,0.7704461,-1.2784295,5.111508,-0.11048348,2.573936,12.352907,1.301163,0.3136268,0.23555343,0.15396622,0.09492056,inf,inf,inf,inf,1,1,1,1,2,0,2,2,1,1,0
1257402763,23301968,37.102497299999996,-76.3883551,6.5705175,-9.518712,-12.296699,-0.00047961375,-0.0036008249,0.0,0.092782326,-0.15892902,-1.3022896,-1.3425065,0.0028893964,-0.0026843061,-0.061254453,0.65400094,0.15514588,-3.8791988,-0.1125509,2.573936,12.504002,1.3022896,0.32590252,0.23655877,0.15848896,0.0954071,inf,inf,inf,inf,1,1,1,1,2,0,2,2,1,1,0
1257502777,23301968,37.102497299999996,-76.3883551,6.580683,-9.529874,-12.438415,-0.00047961375,-0.0036008249,0.0,0.072307885,-0.14034727,-1.3014884,-1.3456664,0.0028893964,-0.0026843061,-0.061254453,-3.7433546,2.4865713,-7.997503,-0.11244015,2.573936,12.645718,1.3014884,0.31497258,0.23480357,0.15447816,0.09474669,inf,inf,inf,inf,1,1,1,1,2,0,2,2,1,1,0
1257606741,23301968,37.102497299999996,-76.3883551,6.5889616,-9.542112,-12.579737,-0.00047961375,-0.0036008249,0.0,0.061559554,-0.14721091,-1.3192762,-1.3614496,0.0028893964,-0.0026843061,-0.061254453,-0.8745226,-0.45700672,5.1543903,-0.112065524,2.573936,12.78704,1.3192762,0.3273071,0.23578343,0.15915643,0.095224485,inf,inf,inf,inf,1,1,1,1,2,0,2,2,1,1,0
1257710765,23301968,37.102497299999996,-76.3883551,6.5936017,-9.553416,-12.717366,-0.00047961375,-0.0036008249,0.0,0.03858067,-0.14327432,-1.2883242,-1.326855,0.0028893964,-0.0026843061,-0.061254453,-0.68147993,0.5054469,-3.2414615,-0.11243692,2.573936,12.924669,1.2883242,0.31631967,0.2356858,0.15488113,0.09495866,inf,inf,inf,inf,1,1,1,1,2,0,2,2,1,1,0
1257810597,23301968,37.102497299999996,-76.3883551,6.596005,-9.564824,-12.849864,-0.00047961375,-0.0036008249,0.0,0.019321425,-0.12864354,-1.2989651,-1.336497,0.0028893964,-0.0026843061,-0.061254453,1.8528779,0.88517463,2.1416323,-0.11300362,2.573936,13.057167,1.2989651,0.32772517,0.23609199,0.15920433,0.09528317,inf,inf,inf,inf,1,1,1,1,2,0,2,2,1,1,0
1257914781,23301968,37.102497299999996,-76.3883551,6.5950823,-9.575845,-12.987437,-0.00047961375,-0.0036008249,0.0,-0.010449501,-0.12984319,-1.2799805,-1.3174671,0.0028893964,-0.0026843061,-0.061254453,-1.0831572,2.216114,0.8654659,-0.11324201,2.573936,13.19474,1.2799805,0.31664494,0.23596844,0.15478627,0.09500545,inf,inf,inf,inf,1,1,1,1,2,0,2,2,1,1,0
1258014736,23301968,37.102497299999996,-76.3883551,6.591495,-9.587005,-13.123231,-0.00047961375,-0.0036008249,0.0,-0.038012974,-0.1259421,-1.2872157,-1.3278354,0.0028893964,-0.0026843061,-0.061254453,-1.0661998,1.0194944,-4.813103,-0.11252957,2.573936,13.330534,1.2872157,0.329023,0.23694508,0.15933296,0.09547967,inf,inf,inf,inf,1,1,1,1,2,0,2,2,1,1,0
1258114752,23301968,37.102497299999996,-76.3883551,6.586806,-9.596464,-13.257755,-0.00047961375,-0.0036008249,0.0,-0.068715036,-0.1219557,-1.280089,-1.322257,0.0028893964,-0.0026843061,-0.061254453,-2.0123408,0.90926784,-3.0068314,-0.11159921,2.573936,13.465058,1.280089,0.31696308,0.23621842,0.15468067,0.095040254,inf,inf,inf,inf,1,1,1,1,2,0,2,2,1,1,0
1258214778,23301968,37.102497299999996,-76.3883551,6.5800066,-9.606522,-13.395829,-0.00047961375,-0.0036008249,0.0,-0.09377525,-0.11411923,-1.2843472,-1.3309686,0.0028893964,-0.0026843061,-0.061254453,-0.6867353,2.8435557,-4.732367,-0.11108014,2.573936,13.603132,1.2843472,0.30653545,0.23444888,0.15058462,0.09436908,inf,inf,inf,inf,1,1,1,1,2,0,2,2,1,1,0
1258318604,23301968,37.102497299999996,-76.3883551,6.5712028,-9.616556,-13.535483,-0.00047961375,-0.0036008249,0.0,-0.11449052,-0.0998268,-1.2541738,-1.3022943,0.0028893964,-0.0026843061,-0.061254453,-1.6025926,-0.20362675,-0.843458,-0.11134376,2.573936,13.742786,1.2541738,0.3183759,0.23541972,0.1551423,0.09485762,inf,inf,inf,inf,1,1,1,1,2,0,2,2,1,1,0
1258422613,23301968,37.102497299999996,-76.3883551,6.5603013,-9.624827,-13.672727,-0.00047961375,-0.0036008249,0.0,-0.114540845,-0.07158414,-1.2528967,-1.3015522,0.0028893964,-0.0026843061,-0.061254453,5.598225,-2.871443,7.340699,-0.112693496,2.573936,13.88003,1.2528967,0.30782044,0.2352812,0.15100217,0.094567545,inf,inf,inf,inf,1,1,1,1,2,0,2,2,1,1,0
1258522741,23301968,37.102497299999996,-76.3883551,6.548883,-9.63032,-13.801436,-0.00047961375,-0.0036008249,0.0,-0.13350652,-0.036908355,-1.2392405,-1.2856563,0.0028893964,-0.0026843061,-0.061254453,-2.5415616,1.9806215,-2.427743,-0.11425633,2.573936,14.008739,1.2392405,0.31877023,0.23566231,0.15518564,0.09489561,inf,inf,inf,inf,1,1,1,1,2,0,2,2,1,1,0
1258622858,23301968,37.102497299999996,-76.3883551,6.5365634,-9.633184,-13.933437,-0.00047961375,-0.0036008249,0.0,-0.12866206,-0.0091302125,-1.2367929,-1.284407,0.0028893964,-0.0026843061,-0.061254453,0.1292872,0.3036925,-1.3501663,-0.11581204,2.573936,14.14074,1.2367929,0.30824435,0.2355211,0.15096061,0.09460502,inf,inf,inf,inf,1,1,1,1,2,0,2,2,1,1,0
1258726785,23301968,37.102497299999996,-76.3883551,6.5241733,-9.631296,-14.074967,-0.00047961375,-0.0036008249,0.0,-0.13544665,0.0122032305,-1.2331349,-1.2865319,0.0028893964,-0.0026843061,-0.061254453,-0.042483024,0.36521927,-3.2747252,-0.11650213,2.573936,14.28227,1.2331349,0.3201236,0.23486169,0.15557675,0.0947131,inf,inf,inf,inf,1,1,1,1,2,0,2,2,1,1,0
1258830628,23301968,37.102497299999996,-76.3883551,6.511005,-9.627122,-14.215921,-0.00047961375,-0.0036008249,0.0,-0.12888192,0.038905226,-1.2542633,-1.3117571,0.0028893964,-0.0026843061,-0.061254453,0.27088824,-1.5855396,2.744772,-0.11745621,2.573936,14.423224,1.2542633,0.30969656,0.234738,0.15139024,0.09443479,inf,inf,inf,inf,1,1,1,1,2,0,2,2,1,1,0
1258934807,23301968,37.102497299999996,-76.3883551,6.4952226,-9.619361,-14.35736,-0.00047961375,-0.0036008249,0.0,-0.11256092,0.0641339,-1.2568033,-1.3182117,0.0028893964,-0.0026843061,-0.061254453,-0.5509892,0.24188854,1.0853322,-0.118500754,2.573936,14.564663,1.2568033,0.3216332,0.23569189,0.15604639,0.09491746,inf,inf,inf,inf,1,1,1,1,2,0,2,2,1,1,0
1259038744,23301968,37.102497299999996,-76.3883551,6.481081,-9.609673,-14.495844,-0.00047961375,-0.0036008249,0.0,-0.10661005,0.0782526,-1.2380774,-1.3015125,0.0028893964,-0.0026843061,-0.061254453,1.7933786,1.4153063,0.0941602,-0.11862432,2.573936,14.703147,1.2380774,0.31122345,0.23554929,0.15194634,0.0946336,inf,inf,inf,inf,1,1,1,1,2,0,2,2,1,1,0
1259142798,23301968,37.102497299999996,-76.3883551,6.469036,-9.597328,-14.629414,-0.00047961375,-0.0036008249,0.0,-0.09352359,0.107467465,-1.1803349,-1.2442573,0.0028893964,-0.0026843061,-0.061254453,-1.808503,1.957507,-3.9722288,-0.11844956,2.573936,14.836717,1.1803349,0.32321912,0.23649506,0.15652491,0.095112674,inf,inf,inf,inf,1,1,1,1,2,0,2,2,1,1,0
1259246794,23301968,37.102497299999996,-76.3883551,6.4581795,-9.582793,-14.75887,-0.00047961375,-0.0036008249,0.0,-0.093111634,0.13040604,-1.1536479,-1.2162112,0.0028893964,-0.0026843061,-0.061254453,-0.9542354,2.4500403,-5.9383893,-0.11804912,2.573936,14.966173,1.1536479,0.31254408,0.23632182,0.15224223,0.09481397,inf,inf,inf,inf,1,1,1,1,2,0,2,2,1,1,0
1259346718,23301968,37.102497299999996,-76.3883551,6.4467,-9.565754,-14.874795,-0.00047961375,-0.0036008249,0.0,-0.08097795,0.13395588,-1.1900582,-1.2433596,0.0028893964,-0.0026843061,-0.061254453,2.5525084,1.1242356,2.9722722,-0.117508106,2.573936,15.082098,1.1900582,0.3236263,0.23667736,0.15637656,0.09513439,inf,inf,inf,inf,1,1,1,1,2,0,2,2,1,1,0
1259450740,23301968,37.102497299999996,-76.3883551,6.434391,-9.547541,-14.992219,-0.00047961375,-0.0036008249,0.0,-0.09260128,0.12886396,-1.2197026,-1.2590915,0.0028893964,-0.0026843061,-0.061254453,-1.1394892,0.03535011,0.31284514,-0.117052235,2.573936,15.199522,1.2197026,0.31277242,0.2348685,0.15198153,0.09445443,inf,inf,inf,inf,1,1,1,1,2,0,2,2,1,1,0
1259550632,23301968,37.102497299999996,-76.3883551,6.418101,-9.526519,-15.10629,-0.00047961375,-0.0036008249,0.0,-0.09786326,0.11756545,-1.2398565,-1.2660906,0.0028893964,-0.0026843061,-0.061254453,2.2575026,-2.251745,4.6272926,-0.11641736,2.573936,15.313593,1.2398565,0.32478294,0.23581254,0.15670347,0.09493607,inf,inf,inf,inf,1,1,1,1,2,0,2,2,1,1,0
1259650720,23301968,37.102497299999996,-76.3883551,6.401079,-9.507888,-15.223407,-0.00047961375,-0.0036008249,0.0,-0.104825564,0.1116836,-1.2547507,-1.2708876,0.0028893964,-0.0026843061,-0.061254453,1.1820999,-1.1453565,-3.2414615,-0.115653224,2.573936,15.43071,1.2547507,0.31332067,0.23509727,0.15239856,0.094505474,inf,inf,inf,inf,1,1,1,1,2,0,2,2,1,1,0
1259754752,23301968,37.102497299999996,-76.3883551,6.3819933,-9.489786,-15.344326,-0.00047961375,-0.0036008249,0.0,-0.114343874,0.08399277,-1.2596947,-1.263958,0.0028893964,-0.0026843061,-0.061254453,0.6387029,-0.8990591,-0.749906,-0.11438538,2.573936,15.551629,1.2596947,0.32535887,0.23606189,0.15715916,0.09499528,inf,inf,inf,inf,1,1,1,1,2,0,2,2,1,1,0
1259854570,23301968,37.102497299999996,-76.3883551,6.3609147,-9.473714,-15.462397,-0.00047961375,-0.0036008249,0.0,-0.106434785,0.06944217,-1.2642255,-1.2593681,0.0028893964,-0.0026843061,-0.061254453,1.9711028,-1.0197834,-3.7192173,-0.1139044,2.573936,15.6697,1.2642255,0.31476137,0.23590532,0.1530628,0.094713174,inf,inf,inf,inf,1,1,1,1,2,0,2,2,1,1,0
1259958741,23301968,37.102497299999996,-76.3883551,6.3380938,-9.459272,-15.586855,-0.00047961375,-0.0036008249,0.0,-0.0975515,0.03772325,-1.2876947,-1.2750139,0.0028893964,-0.0026843061,-0.061254453,2.7198796,-2.1342435,9.252296,-0.113949314,2.573936,15.794158,1.2876947,0.32686904,0.23521976,0.15767932,0.09481475,inf,inf,inf,inf,1,1,1,1,2,0,2,2,1,1,0
1260062720,23301968,37.102497299999996,-76.3883551,6.3178487,-9.447843,-15.714009,-0.00047961375,-0.0036008249,0.0,-0.09276793,0.020187195,-1.286912,-1.2699293,0.0028893964,-0.0026843061,-0.061254453,-0.2975494,-0.38450336,-0.24272062,-0.1142567,2.573936,15.921312,1.286912,0.31612614,0.23508458,0.15356867,0.094541565,inf,inf,inf,inf,1,1,1,1,2,0,2,2,1,1,0
1260162765,23301968,37.102497299999996,-76.3883551,6.3011293,-9.439571,-15.836844,-0.00047961375,-0.0036008249,0.0,-0.073931865,0.0111109195,-1.2810817,-1.2601153,0.0028893964,-0.0026843061,-0.061254453,0.41162357,-0.6414157,1.3397211,-0.11476168,2.573936,16.044147,1.2810817,0.32732642,0.23547378,0.15788703,0.09487708,inf,inf,inf,inf,1,1,1,1,2,0,2,2,1,1,0
1260267022,23301968,37.102497299999996,-76.3883551,6.2858195,-9.433878,-15.967025,-0.00047961375,-0.0036008249,0.0,-0.04883708,-0.0029746154,-1.2994893,-1.2769779,0.0028893964,-0.0026843061,-0.061254453,1.4878348,0.19741705,0.06690149,-0.114780955,2.573936,16.174328,1.2994893,0.31667104,0.23535769,0.15378183,0.09461332,inf,inf,inf,inf,1,1,1,1,2,0,2,2,1,1,0
1260370756,23301968,37.102497299999996,-76.3883551,6.2734766,-9.43136,-16.095078,-0.00047961375,-0.0036008249,0.0,-0.03223856,-0.025180345,-1.3228284,-1.2958933,0.0028893964,-0.0026843061,-0.061254453,-1.3257984,0.5920416,2.3819067,-0.11427431,2.573936,16.302382,1.3228284,0.3288449,0.23471016,0.1585107,0.09472897,inf,inf,inf,inf,1,1,1,1,2,0,2,2,1,1,0
1260470782,23301968,37.102497299999996,-76.3883551,6.2628794,-9.42975,-16.217093,-0.00047961375,-0.0036008249,0.0,-0.011187506,-0.044806197,-1.3350445,-1.3022705,0.0028893964,-0.0026843061,-0.061254453,1.3394861,-1.057541,5.026283,-0.11326162,2.573936,16.424397,1.3350445,0.31810874,0.23458481,0.15435585,0.09446234,inf,inf,inf,inf,1,1,1,1,2,0,2,2,1,1,0
1260574766,23301968,37.102497299999996,-76.3883551,6.2550764,-9.430502,-16.34676,-0.00047961375,-0.0036008249,0.0,0.002161087,-0.046125133,-1.3158705,-1.2787681,0.0028893964,-0.0026843061,-0.061254453,-1.066475,-1.507212,-4.69977,-0.112846315,2.573936,16.554064,1.3158705,0.3303429,0.23554957,0.15900381,0.09495132,inf,inf,inf,inf,1,1,1,1,2,0,2,2,1,1,0
1260678739,23301968,37.102497299999996,-76.3883551,6.247241,-9.433355,-16.4739,-0.00047961375,-0.0036008249,0.0,0.008619471,-0.07050419,-1.3410249,-1.2963252,0.0028893964,-0.0026843061,-0.061254453,-3.7629602,1.958179,-4.7350383,-0.11139653,2.573936,16.681204,1.3410249,0.31942263,0.2354374,0.15487362,0.094687425,inf,inf,inf,inf,1,1,1,1,2,0,2,2,1,1,0
1260778938,23301968,37.102497299999996,-76.3883551,6.2414203,-9.439069,-16.596737,-0.00047961375,-0.0036008249,0.0,0.029402418,-0.09958317,-1.3557447,-1.3037612,0.0028893964,-0.0026843061,-0.061254453,-0.8726178,-0.11032654,-4.19099,-0.11040319,2.573936,16.80404,1.3557447,0.33074147,0.23584175,0.15920767,0.0950275,inf,inf,inf,inf,1,1,1,1,2,0,2,2,1,1,0
1260882770,23301968,37.102497299999996,-76.3883551,6.237803,-9.445946,-16.720602,-0.00047961375,-0.0036008249,0.0,0.045731954,-0.11345949,-1.3616161,-1.2998134,0.0028893964,-0.0026843061,-0.061254453,0.8584802,1.4119395,5.410448,-0.10925875,2.573936,16.927906,1.3616161,0.3198632,0.23572597,0.15510936,0.09476449,inf,inf,inf,inf,1,1,1,1,2,0,2,2,1,1,0
1260982771,23301968,37.102497299999996,-76.3883551,6.237166,-9.453972,-16.837687,-0.00047961375,-0.0036008249,0.0,0.06227008,-0.10991229,-1.325706,-1.2556385,0.0028893964,-0.0026843061,-0.061254453,2.3027198,-0.27372524,-0.7574359,-0.108741716,2.573936,17.04499,1.325706,0.3321617,0.23669823,0.15973496,0.09525427,inf,inf,inf,inf,1,1,1,1,2,0,2,2,1,1,0
1261082718,23301968,37.102497299999996,-76.3883551,6.2406178,-9.458291,-16.959654,-0.00047961375,-0.0036008249,0.0,0.08451253,-0.0955373,-1.3212498,-1.2490945,0.0028893964,-0.0026843061,-0.061254453,1.7767495,0.45373157,1.0280672,-0.10947608,2.573936,17.166958,1.3212498,0.3201814,0.23596774,0.15506238,0.094819486,inf,inf,inf,inf,1,1,1,1,2,0,2,2,1,1,0
1261186608,23301968,37.102497299999996,-76.3883551,6.2482824,-9.459898,-17.087435,-0.00047961375,-0.0036008249,0.0,0.12194292,-0.05373403,-1.2928169,-1.222,0.0028893964,-0.0026843061,-0.061254453,4.020803,-1.5611197,4.6159544,-0.1115817,2.573936,17.294739,1.2928169,0.33247438,0.23528206,0.15972345,0.09491887,inf,inf,inf,inf,1,1,1,1,2,0,2,2,1,1,0
1261286631,23301968,37.102497299999996,-76.3883551,6.258807,-9.459088,-17.213974,-0.00047961375,-0.0036008249,0.0,0.1550968,-0.019980842,-1.2876445,-1.2236913,0.0028893964,-0.0026843061,-0.061254453,3.4734476,1.3034736,5.189548,-0.11278889,2.573936,17.421278,1.2876445,0.32141447,0.2351493,0.15538177,0.09464798,inf,inf,inf,inf,1,1,1,1,2,0,2,2,1,1,0
1261390829,23301968,37.102497299999996,-76.3883551,6.2741165,-9.454774,-17.338795,-0.00047961375,-0.0036008249,0.0,0.18263073,0.024913587,-1.2420502,-1.179412,0.0028893964,-0.0026843061,-0.061254453,2.0202837,-1.3691819,0.051904406,-0.11370855,2.573936,17.546099,1.2420502,0.33374834,0.23608935,0.15996124,0.095123,inf,inf,inf,inf,1,1,1,1,2,0,2,2,1,1,0
1261494614,23301968,37.102497299999996,-76.3883551,6.2897143,-9.445842,-17.460163,-0.00047961375,-0.0036008249,0.0,0.20927413,0.086501434,-1.225133,-1.1629312,0.0028893964,-0.0026843061,-0.061254453,1.4108088,1.5090293,0.05070393,-0.11383833,2.573936,17.667467,1.225133,0.3226362,0.2359458,0.15559252,0.0948498,inf,inf,inf,inf,1,1,1,1,2,0,2,2,1,1,0
1261594715,23301968,37.102497299999996,-76.3883551,6.307724,-9.433369,-17.578026,-0.00047961375,-0.0036008249,0.0,0.22543678,0.12722221,-1.2054796,-1.1465313,0.0028893964,-0.0026843061,-0.061254453,-0.39860573,0.10949042,-5.8451552,-0.11364482,2.573936,17.78533,1.2054796,0.33403206,0.23630491,0.15987554,0.09516919,inf,inf,inf,inf,1,1,1,1,2,0,2,2,1,1,0
1261694753,23301968,37.102497299999996,-76.3883551,6.3214364,-9.417472,-17.692423,-0.00047961375,-0.0036008249,0.0,0.21765289,0.16596869,-1.1971369,-1.139504,0.0028893964,-0.0026843061,-0.061254453,0.20695354,-1.071857,0.13573276,-0.11263882,2.573936,17.899727,1.1971369,0.32298633,0.23615128,0.15557708,0.09489331,inf,inf,inf,inf,1,1,1,1,2,0,2,2,1,1,0
1261798755,23301968,37.102497299999996,-76.3883551,6.33779,-9.398418,-17.815865,-0.00047961375,-0.0036008249,0.0,0.23295304,0.1994083,-1.2059208,-1.1533289,0.0028893964,-0.0026843061,-0.061254453,-1.2665651,1.1960483,-1.8917701,-0.11227982,2.573936,18.023169,1.2059208,0.33534643,0.23708592,0.16022749,0.09536779,inf,inf,inf,inf,1,1,1,1,2,0,2,2,1,1,0
1261898600,23301968,37.102497299999996,-76.3883551,6.3503146,-9.3806095,-17.935913,-0.00047961375,-0.0036008249,0.0,0.22042362,0.1951075,-1.2099838,-1.161594,0.0028893964,-0.0026843061,-0.061254453,-1.2387776,1.9182891,-2.6810122,-0.11175219,2.573936,18.143217,1.2099838,0.32332003,0.2363364,0.15557343,0.09493129,inf,inf,inf,inf,1,1,1,1,2,0,2,2,1,1,0
1262002836,23301968,37.102497299999996,-76.3883551,6.3633757,-9.360315,-18.060537,-0.00047961375,-0.0036008249,0.0,0.19157203,0.2239011,-1.1723545,-1.1291957,0.0028893964,-0.0026843061,-0.061254453,0.50708413,-0.8246205,1.3577234,-0.11085247,2.573936,18.267841,1.1723545,0.33568862,0.23562567,0.16036867,0.09502106,inf,inf,inf,inf,1,1,1,1,2,0,2,2,1,1,0
1262102776,23301968,37.102497299999996,-76.3883551,6.370223,-9.33741,-18.17284,-0.00047961375,-0.0036008249,0.0,0.1543082,0.24456815,-1.1289988,-1.0872563,0.0028893964,-0.0026843061,-0.061254453,-3.4011254,0.4247892,1.271215,-0.11120807,2.573936,18.380144,1.1289988,0.32453737,0.23548469,0.15612979,0.094752826,inf,inf,inf,inf,1,1,1,1,2,0,2,2,1,1,0
1262202615,23301968,37.102497299999996,-76.3883551,6.376128,-9.312493,-18.279905,-0.00047961375,-0.0036008249,0.0,0.111738905,0.25803068,-1.0933601,-1.0520636,0.0028893964,-0.0026843061,-0.061254453,-2.122042,-0.41081646,-1.8745611,-0.11301245,2.573936,18.48721,1.0933601,0.3359808,0.23585983,0.1602945,0.09507852,inf,inf,inf,inf,1,1,1,1,2,0,2,2,1,1,0
1262306682,23301968,37.102497299999996,-76.3883551,6.3737135,-9.280328,-18.390203,-0.00047961375,-0.0036008249,0.0,0.05545365,0.29235065,-1.0771949,-1.0381578,0.0028893964,-0.0026843061,-0.061254453,-2.1988988,1.7596228,2.1816728,-0.11522183,2.573936,18.597507,1.0771949,0.3248233,0.23573568,0.15587355,0.09481399,inf,inf,inf,inf,1,1,1,1,2,0,2,2,1,1,0
1262406619,23301968,37.102497299999996,-76.3883551,6.369051,-9.248175,-18.491629,-0.00047961375,-0.0036008249,0.0,0.006825493,0.3102826,-1.0437703,-1.0042465,0.0028893964,-0.0026843061,-0.061254453,-2.692937,-0.5010574,-5.1092763,-0.11685801,2.573936,18.698933,1.0437703,0.33722332,0.23669434,0.16038188,0.09529436,inf,inf,inf,inf,1,1,1,1,2,0,2,2,1,1,0
1262506729,23301968,37.102497299999996,-76.3883551,6.3553257,-9.2162695,-18.591412,-0.00047961375,-0.0036008249,0.0,-0.040612042,0.30657884,-1.0449694,-1.0035957,0.0028893964,-0.0026843061,-0.061254453,-0.92769694,0.9671847,-0.88808644,-0.11727966,2.573936,18.798716,1.0449694,0.32509765,0.2359747,0.15572026,0.09486882,inf,inf,inf,inf,1,1,1,1,2,0,2,2,1,1,0
1262610713,23301968,37.102497299999996,-76.3883551,6.3394065,-9.184248,-18.697227,-0.00047961375,-0.0036008249,0.0,-0.08334081,0.2897158,-1.0602567,-1.0191365,0.0028893964,-0.0026843061,-0.061254453,-1.9576077,-1.3453565,-4.3717804,-0.117872685,2.573936,18.904531,1.0602567,0.3374912,0.23529096,0.16039647,0.09496553,inf,inf,inf,inf,1,1,1,1,2,0,2,2,1,1,0
1262710753,23301968,37.102497299999996,-76.3883551,6.313994,-9.153389,-18.792664,-0.00047961375,-0.0036008249,0.0,-0.11446418,0.26152244,-1.0643641,-1.016949,0.0028893964,-0.0026843061,-0.061254453,0.9676281,-1.6635373,-3.016493,-0.11865774,2.573936,18.999968,1.0643641,0.3263056,0.23517701,0.15614812,0.09470616,inf,inf,inf,inf,1,1,1,1,2,0,2,2,1,1,0
1262814725,23301968,37.102497299999996,-76.3883551,6.2895308,-9.125947,-18.89205,-0.00047961375,-0.0036008249,0.0,-0.14297682,0.2257109,-1.0774144,-1.022689,0.0028893964,-0.0026843061,-0.061254453,-2.3985083,-0.14928976,-5.044729,-0.11929879,2.573936,19.099354,1.0774144,0.33874702,0.23614842,0.16089785,0.095191054,inf,inf,inf,inf,1,1,1,1,2,0,2,2,1,1,0
1262918758,23301968,37.102497299999996,-76.3883551,6.264902,-9.102155,-18.98832,-0.00047961375,-0.0036008249,0.0,-0.1480326,0.16910045,-1.095136,-1.0294496,0.0028893964,-0.0026843061,-0.061254453,1.7364165,-1.508503,3.160222,-0.11931066,2.573936,19.195623,1.095136,0.32740846,0.23601906,0.15668069,0.09492271,inf,inf,inf,inf,1,1,1,1,2,0,2,2,1,1,0
1263018632,23301968,37.102497299999996,-76.3883551,6.2437525,-9.085067,-19.080667,-0.00047961375,-0.0036008249,0.0,-0.14953822,0.1283826,-1.106574,-1.030054,0.0028893964,-0.0026843061,-0.061254453,-1.5747843,0.9045206,-1.7362137,-0.11942755,2.573936,19.287971,1.106574,0.33892086,0.23640195,0.16110323,0.095247544,inf,inf,inf,inf,1,1,1,1,2,0,2,2,1,1,0
1263122645,23301968,37.102497299999996,-76.3883551,6.217694,-9.069905,-19.178488,-0.00047961375,-0.0036008249,0.0,-0.14506751,0.0791345,-1.1234876,-1.0380204,0.0028893964,-0.0026843061,-0.061254453,2.4716163,0.4527045,2.1898537,-0.11966459,2.573936,19.385792,1.1234876,0.32755592,0.23464814,0.15685934,0.094601505,inf,inf,inf,inf,1,1,1,1,2,0,2,2,1,1,0
1263222762,23301968,37.102497299999996,-76.3883551,6.195231,-9.060621,-19.277195,-0.00047961375,-0.0036008249,0.0,-0.14058587,0.03434272,-1.1249084,-1.0357774,0.0028893964,-0.0026843061,-0.061254453,1.7778026,-2.3141787,4.1460624,-0.119442746,2.573936,19.484499,1.1249084,0.31672463,0.23453748,0.15273434,0.094332516,inf,inf,inf,inf,1,1,1,1,2,0,2,2,1,1,0
1263322758,23301968,37.102497299999996,-76.3883551,6.174815,-9.055109,-19.375843,-0.00047961375,-0.0036008249,0.0,-0.124485865,-0.017720781,-1.1225172,-1.0292752,0.0028893964,-0.0026843061,-0.061254453,1.0886219,-0.39483306,1.9446683,-0.11925327,2.573936,19.583147,1.1225172,0.32774824,0.23494555,0.15711342,0.09467857,inf,inf,inf,inf,1,1,1,1,2,0,2,2,1,1,0
1263426845,23301968,37.102497299999996,-76.3883551,6.157536,-9.0547495,-19.478216,-0.00047961375,-0.0036008249,0.0,-0.09574518,-0.057207007,-1.1292256,-1.0323436,0.0028893964,-0.0026843061,-0.061254453,1.8883765,0.2760705,-0.738744,-0.11939034,2.573936,19.68552,1.1292256,0.31677836,0.23484424,0.1528824,0.09441023,inf,inf,inf,inf,1,1,1,1,2,0,2,2,1,1,0
1263526633,23301968,37.102497299999996,-76.3883551,6.141803,-9.057536,-19.57984,-0.00047961375,-0.0036008249,0.0,-0.08400888,-0.08209155,-1.1433417,-1.04627,0.0028893964,-0.0026843061,-0.061254453,-1.3933738,-0.4031263,-4.1254745,-0.11907862,2.573936,19.787144,1.1433417,0.3287424,0.23581466,0.1575231,0.094906054,inf,inf,inf,inf,1,1,1,1,2,0,2,2,1,1,0
1263626787,23301968,37.102497299999996,-76.3883551,6.130908,-9.064475,-19.684225,-0.00047961375,-0.0036008249,0.0,-0.054677676,-0.120099895,-1.1441293,-1.0479465,0.0028893964,-0.0026843061,-0.061254453,-0.9801037,0.06333796,0.40772977,-0.118223354,2.573936,19.89153,1.1441293,0.31687322,0.23511824,0.15293527,0.094476946,inf,inf,inf,inf,1,1,1,1,2,0,2,2,1,1,0
1263730962,23301968,37.102497299999996,-76.3883551,6.1237698,-9.072423,-19.789648,-0.00047961375,-0.0036008249,0.0,-0.027440047,-0.12703969,-1.135361,-1.0370866,0.0028893964,-0.0026843061,-0.061254453,-0.16848084,-1.6090649,0.3817344,-0.11747905,2.573936,19.996952,1.135361,0.3288389,0.23447806,0.15767238,0.09460033,inf,inf,inf,inf,1,1,1,1,2,0,2,2,1,1,0
1263830745,23301968,37.102497299999996,-76.3883551,6.1195707,-9.082732,-19.891495,-0.00047961375,-0.0036008249,0.0,-0.017395755,-0.14300492,-1.136056,-1.0365226,0.0028893964,-0.0026843061,-0.061254453,-2.3508406,1.7977556,-5.102165,-0.11647971,2.573936,20.098799,1.136056,0.31790933,0.23438211,0.15351234,0.09433979,inf,inf,inf,inf,1,1,1,1,2,0,2,2,1,1,0
1263934742,23301968,37.102497299999996,-76.3883551,6.115683,-9.0946865,-19.998774,-0.00047961375,-0.0036008249,0.0,0.0133752115,-0.1623197,-1.1587143,-1.0579926,0.0028893964,-0.0026843061,-0.061254453,1.6187241,0.88783896,2.9340203,-0.11576583,2.573936,20.206078,1.1587143,0.32992876,0.23535582,0.15817189,0.09483709,inf,inf,inf,inf,1,1,1,1,2,0,2,2,1,1,0
1264038618,23301968,37.102497299999996,-76.3883551,6.1147447,-9.107608,-20.108427,-0.00047961375,-0.0036008249,0.0,0.025939126,-0.16770402,-1.1531992,-1.0531054,0.0028893964,-0.0026843061,-0.061254453,1.5466517,-1.2720377,-1.1610044,-0.11569504,2.573936,20.315731,1.1531992,0.31893477,0.2352399,0.1540067,0.09456854,inf,inf,inf,inf,1,1,1,1,2,0,2,2,1,1,0
1264138614,23301968,37.102497299999996,-76.3883551,6.116139,-9.119877,-20.216276,-0.00047961375,-0.0036008249,0.0,0.0423823,-0.1720915,-1.1566857,-1.059145,0.0028893964,-0.0026843061,-0.061254453,0.5489243,0.122737624,-1.6305568,-0.11596543,2.573936,20.42358,1.1566857,0.33005786,0.23564947,0.1583161,0.094914846,inf,inf,inf,inf,1,1,1,1,2,0,2,2,1,1,0
1264242741,23301968,37.102497299999996,-76.3883551,6.1181765,-9.133601,-20.329166,-0.00047961375,-0.0036008249,0.0,0.047298558,-0.18121365,-1.1527259,-1.0593507,0.0028893964,-0.0026843061,-0.061254453,-2.422429,-0.8054679,1.9101944,-0.11649345,2.573936,20.53647,1.1527259,0.31904775,0.23552388,0.15409267,0.09464219,inf,inf,inf,inf,1,1,1,1,2,0,2,2,1,1,0
1264346791,23301968,37.102497299999996,-76.3883551,6.119762,-9.147396,-20.44149,-0.00047961375,-0.0036008249,0.0,0.081726454,-0.17487444,-1.132338,-1.0431961,0.0028893964,-0.0026843061,-0.061254453,1.4563159,-0.91277415,-2.8712287,-0.117107995,2.573936,20.648794,1.132338,0.33112383,0.2364981,0.15874635,0.095137425,inf,inf,inf,inf,1,1,1,1,2,0,2,2,1,1,0
1264446621,23301968,37.102497299999996,-76.3883551,6.1244535,-9.159784,-20.548622,-0.00047961375,-0.0036008249,0.0,0.09991158,-0.180567,-1.1379268,-1.0522509,0.0028893964,-0.0026843061,-0.061254453,0.4254272,0.022375816,-1.284014,-0.11710808,2.573936,20.755926,1.1379268,0.31999782,0.23471005,0.15437014,0.094473965,inf,inf,inf,inf,1,1,1,1,2,0,2,2,1,1,0
1264550746,23301968,37.102497299999996,-76.3883551,6.1328053,-9.170903,-20.662472,-0.00047961375,-0.0036008249,0.0,0.1269373,-0.16578145,-1.1156596,-1.0353457,0.0028893964,-0.0026843061,-0.061254453,-1.5372943,-0.6795368,-3.6992033,-0.11737048,2.573936,20.869776,1.1156596,0.33211717,0.23566462,0.15908492,0.09496156,inf,inf,inf,inf,1,1,1,1,2,0,2,2,1,1,0
1264654764,23301968,37.102497299999996,-76.3883551,6.1445193,-9.180167,-20.780636,-0.00047961375,-0.0036008249,0.0,0.14254834,-0.15348893,-1.1136181,-1.0433797,0.0028893964,-0.0026843061,-0.061254453,1.0487293,0.11147919,-0.54263747,-0.11685183,2.573936,20.98794,1.1136181,0.3209436,0.23553616,0.15481474,0.09468975,inf,inf,inf,inf,1,1,1,1,2,0,2,2,1,1,0
1264754738,23301968,37.102497299999996,-76.3883551,6.1580176,-9.187645,-20.89374,-0.00047961375,-0.0036008249,0.0,0.15160222,-0.14972216,-1.1145136,-1.0519152,0.0028893964,-0.0026843061,-0.061254453,0.5352406,0.37819567,-0.77060145,-0.11595715,2.573936,21.101044,1.1145136,0.33215347,0.23593491,0.1590671,0.095029466,inf,inf,inf,inf,1,1,1,1,2,0,2,2,1,1,0
