timestamp,vel_pos_innov[0],vel_pos_innov[1],vel_pos_innov[2],vel_pos_innov[3],vel_pos_innov[4],vel_pos_innov[5],mag_innov[0],mag_innov[1],mag_innov[2],heading_innov,airspeed_innov,beta_innov,flow_innov[0],flow_innov[1],hagl_innov,vel_pos_innov_var[0],vel_pos_innov_var[1],vel_pos_innov_var[2],vel_pos_innov_var[3],vel_pos_innov_var[4],vel_pos_innov_var[5],mag_innov_var[0],mag_innov_var[1],mag_innov_var[2],heading_innov_var,airspeed_innov_var,beta_innov_var,flow_innov_var[0],flow_innov_var[1],hagl_innov_var,output_tracking_error[0],output_tracking_error[1],output_tracking_error[2],drag_innov[0],drag_innov[1],drag_innov_var[0],drag_innov_var[1],aux_vel_innov[0],aux_vel_innov[1]
1244762829,-0.026264949,0.13134438,0.05412195,0.10387993,-0.12322426,0.032089233,0.0,0.0,0.0,-0.020390436,0.0,0.0,0.0,0.0,0.0,0.26275542,0.26275504,0.5716858,0.470025,0.4700249,4.0561504,0.0,0.0,0.0,0.090168074,0.0,0.0,0.0,0.0,0.0,0.00011510169,0.0038034203,0.009699922,0.0,0.0,0.0,0.0,0.0,0.0
1244966764,-0.0066155605,0.099693894,0.010680946,0.109603405,-0.11904144,0.12652206,0.0,0.0,0.0,0.0023391694,0.0,0.0,0.0,0.0,0.0,0.26292896,0.26292858,0.5717147,0.4696863,0.46968618,4.056285,0.0,0.0,0.0,0.09016803,0.0,0.0,0.0,0.0,0.0,0.00010792445,0.0033361958,0.008900491,0.0,0.0,0.0,0.0,0.0,0.0
1245170755,-0.048545234,0.11774662,0.044531226,0.11408663,-0.1181097,-0.38211823,0.0,0.0,0.0,-0.013944954,0.0,0.0,0.0,0.0,0.0,0.26271868,0.2627183,0.5717078,0.4685591,0.46855897,4.0564127,0.0,0.0,0.0,0.09016845,0.0,0.0,0.0,0.0,0.0,0.00012769878,0.0022076934,0.0055595273,0.0,0.0,0.0,0.0,0.0,0.0
1245370761,-0.027971998,0.15941513,0.028860914,0.09842253,-0.1153183,-0.46040344,0.0,0.0,0.0,-0.009999521,0.0,0.0,0.0,0.0,0.0,0.26272255,0.26272216,0.5717173,0.46725556,0.46725544,4.056255,0.0,0.0,0.0,0.09016835,0.0,0.0,0.0,0.0,0.0,0.00025194293,0.0035554077,0.008850235,0.0,0.0,0.0,0.0,0.0,0.0
1245574760,-0.05711008,0.09967667,-0.0016158274,0.0943737,-0.10808754,-0.15332413,0.0,0.0,0.0,-0.008850232,0.0,0.0,0.0,0.0,0.0,0.26272187,0.26272145,0.5717279,0.4659394,0.46593928,4.056162,0.0,0.0,0.0,0.09016843,0.0,0.0,0.0,0.0,0.0,0.00037246518,0.0026607173,0.0076125236,0.0,0.0,0.0,0.0,0.0,0.0
1245774620,-0.034632854,0.09707039,-0.08268103,0.09258461,-0.10473633,-0.12976074,0.0,0.0,0.0,0.014086202,0.0,0.0,0.0,0.0,0.0,0.26266703,0.2626667,0.57171005,0.4655784,0.46557826,4.0562873,0.0,0.0,0.0,0.09016836,0.0,0.0,0.0,0.0,0.0,5.0127746e-05,0.0044448543,0.013722187,0.0,0.0,0.0,0.0,0.0,0.0
1245978750,-0.021075444,0.14340614,0.030391484,0.100367546,-0.090005875,0.09806061,0.0,0.0,0.0,-0.0008618161,0.0,0.0,0.0,0.0,0.0,0.26284927,0.26284882,0.571737,0.46525806,0.46525794,4.0564203,0.0,0.0,0.0,0.09016827,0.0,0.0,0.0,0.0,0.0,0.00014256751,0.0038963198,0.012508998,0.0,0.0,0.0,0.0,0.0,0.0
1246182791,-0.045393046,0.09472458,0.24178414,0.096615314,-0.08769989,-0.22633362,0.0,0.0,0.0,-0.02168896,0.0,0.0,0.0,0.0,0.0,0.26269954,0.26269907,0.57168686,0.46448123,0.46448112,4.056308,0.0,0.0,0.0,0.09016827,0.0,0.0,0.0,0.0,0.0,0.0001393057,0.009832442,0.028067881,0.0,0.0,0.0,0.0,0.0,0.0
1246382766,0.05443786,0.23013788,-0.00800997,0.11274004,-0.053681374,-0.52604675,0.0,0.0,0.0,-0.054858446,0.0,0.0,0.0,0.0,0.0,0.26312798,0.26306814,0.57169944,0.46576744,0.4657671,4.0561643,0.0,0.0,0.0,0.09016796,0.0,0.0,0.0,0.0,0.0,0.00035863326,0.0062667653,0.012796075,0.0,0.0,0.0,0.0,0.0,0.0
1246586792,-0.10886037,-0.06378758,0.14317167,0.1393547,-0.05812359,0.73531723,0.0,0.0,0.0,-0.0007096231,0.0,0.0,0.0,0.0,0.0,0.26348117,0.2633827,0.57171404,0.46457186,0.46456966,4.056312,0.0,0.0,0.0,0.090167925,0.0,0.0,0.0,0.0,0.0,0.0002657096,0.014408326,0.047670655,0.0,0.0,0.0,0.0,0.0,0.0
1246790774,-0.1498124,-0.033501804,0.035055757,0.15515327,-0.09870052,0.29523087,0.0,0.0,0.0,-0.010000631,0.0,0.0,0.0,0.0,0.0,0.26346162,0.26335523,0.5717296,0.4620707,0.46206418,4.0562153,0.0,0.0,0.0,0.09016772,0.0,0.0,0.0,0.0,0.0,0.0004257483,0.022384917,0.076109044,0.0,0.0,0.0,0.0,0.0,0.0
1246994773,-0.23889014,0.070210576,0.09173536,0.15753603,-0.11353397,-0.74422073,0.0,0.0,0.0,0.039851062,0.0,0.0,0.0,0.0,0.0,0.26339284,0.26329967,0.57166797,0.45953044,0.45951813,4.056086,0.0,0.0,0.0,0.09016765,0.0,0.0,0.0,0.0,0.0,0.00030508338,0.0077074096,0.021411039,0.0,0.0,0.0,0.0,0.0,0.0
1247194791,-0.00605461,0.07899767,0.054983974,0.20106268,-0.1307888,-0.6096306,0.0,0.0,0.0,0.054428726,0.0,0.0,0.0,0.0,0.0,0.26330292,0.26323807,0.5716803,0.45568484,0.45566726,4.0559688,0.0,0.0,0.0,0.09016786,0.0,0.0,0.0,0.0,0.0,0.0002963782,0.008343321,0.024592537,0.0,0.0,0.0,0.0,0.0,0.0
1247398729,-0.051462635,0.17827737,0.0083630085,0.21188402,-0.12160778,0.0142326355,0.0,0.0,0.0,0.03923934,0.0,0.0,0.0,0.0,0.0,0.26323792,0.26320457,0.5716469,0.4533842,0.4533634,4.0561843,0.0,0.0,0.0,0.09016772,0.0,0.0,0.0,0.0,0.0,0.00063637336,0.006606872,0.020539455,0.0,0.0,0.0,0.0,0.0,0.0
1247602818,-0.042783618,0.20106876,0.07826972,0.2379055,-0.10945606,-0.3657341,0.0,0.0,0.0,0.012210518,0.0,0.0,0.0,0.0,0.0,0.26307052,0.2630605,0.5717011,0.4503636,0.45034364,4.05606,0.0,0.0,0.0,0.09016759,0.0,0.0,0.0,0.0,0.0,0.0004738521,0.0051689325,0.013139059,0.0,0.0,0.0,0.0,0.0,0.0
1247806722,-0.087933056,0.19173327,0.03571582,0.23551035,-0.100385666,-0.18705368,0.0,0.0,0.0,0.020679668,0.0,0.0,0.0,0.0,0.0,0.26299617,0.2629968,0.5716382,0.44769624,0.44767928,4.055999,0.0,0.0,0.0,0.090167336,0.0,0.0,0.0,0.0,0.0,0.00040617754,0.005038825,0.012662671,0.0,0.0,0.0,0.0,0.0,0.0
1248006653,-0.0064500906,0.2072891,0.07807994,0.26676846,-0.079935074,0.011875153,0.0,0.0,0.0,0.054042123,0.0,0.0,0.0,0.0,0.0,0.26294047,0.2629419,0.5716534,0.44626668,0.44625413,4.0561485,0.0,0.0,0.0,0.09016718,0.0,0.0,0.0,0.0,0.0,0.0004369568,0.008448221,0.023734143,0.0,0.0,0.0,0.0,0.0,0.0
1248210749,-0.030107338,0.031268384,0.11274934,0.2673235,-0.08242512,0.43218994,0.0,0.0,0.0,0.024413414,0.0,0.0,0.0,0.0,0.0,0.26283017,0.2628247,0.5716655,0.44358298,0.44357514,4.0562944,0.0,0.0,0.0,0.09016748,0.0,0.0,0.0,0.0,0.0,0.00041437478,0.008653115,0.02668668,0.0,0.0,0.0,0.0,0.0,0.0
1248414715,-0.03985408,0.18614358,0.0056256056,0.27987003,-0.07251263,-0.21378708,0.0,0.0,0.0,0.06901025,0.0,0.0,0.0,0.0,0.0,0.26278862,0.26276898,0.5716788,0.44089124,0.44088766,4.056158,0.0,0.0,0.0,0.09016777,0.0,0.0,0.0,0.0,0.0,0.00042611605,0.0043218913,0.012622742,0.0,0.0,0.0,0.0,0.0,0.0
1248618625,-0.15187748,0.089068905,-0.06955832,0.27178097,-0.079452515,-0.17271805,0.0,0.0,0.0,0.004066214,0.0,0.0,0.0,0.0,0.0,0.26274884,0.26271695,0.57169247,0.43819392,0.43819323,4.056301,0.0,0.0,0.0,0.090167575,0.0,0.0,0.0,0.0,0.0,0.00047813708,0.0049671293,0.015167085,0.0,0.0,0.0,0.0,0.0,0.0
1248818597,0.0046211444,0.16173562,-0.013453126,0.2696743,-0.061538696,-0.9990692,0.0,0.0,0.0,0.0476091,0.0,0.0,0.0,0.0,0.0,0.26272076,0.26268113,0.5717063,0.4367377,0.4367381,4.0562124,0.0,0.0,0.0,0.09016788,0.0,0.0,0.0,0.0,0.0,0.00063053396,0.009850589,0.031207234,0.0,0.0,0.0,0.0,0.0,0.0
1249022811,0.13240361,0.012583971,-0.11280805,0.24901485,-0.06384182,0.16217041,0.0,0.0,0.0,0.034354456,0.0,0.0,0.0,0.0,0.0,0.26265213,0.26261517,0.5716611,0.4326199,0.43261847,4.0560865,0.0,0.0,0.0,0.09016776,0.0,0.0,0.0,0.0,0.0,0.00078043435,0.016838364,0.040296804,0.0,0.0,0.0,0.0,0.0,0.0
1249227109,0.006735638,-0.040763825,-0.022532463,0.22384834,-0.070254326,-0.19474792,0.0,0.0,0.0,0.036524363,0.0,0.0,0.0,0.0,0.0,0.26261786,0.26258764,0.5716755,0.43242785,0.4324247,4.056237,0.0,0.0,0.0,0.09016758,0.0,0.0,0.0,0.0,0.0,0.00079849845,0.01577397,0.036545053,0.0,0.0,0.0,0.0,0.0,0.0
1249430746,0.045051545,0.092944145,-0.13546509,0.2173419,-0.056287766,0.31214905,0.0,0.0,0.0,-0.008542128,0.0,0.0,0.0,0.0,0.0,0.26259735,0.2625766,0.5716869,0.432267,0.43226236,4.055887,0.0,0.0,0.0,0.09016755,0.0,0.0,0.0,0.0,0.0,0.00070836634,0.013740541,0.031449445,0.0,0.0,0.0,0.0,0.0,0.0
1249630727,-0.08420369,0.021056935,-0.035608947,0.21236467,-0.06158352,0.45794296,0.0,0.0,0.0,-0.014327526,0.0,0.0,0.0,0.0,0.0,0.26251298,0.26250216,0.5716686,0.42813095,0.42812568,4.055748,0.0,0.0,0.0,0.09016781,0.0,0.0,0.0,0.0,0.0,0.0004719228,0.007232919,0.019220177,0.0,0.0,0.0,0.0,0.0,0.0
1251046641,-0.036808893,0.020351075,-0.06879419,0.07398224,-0.030418396,0.2718506,0.0,0.0,0.0,0.027853265,0.0,0.0,0.0,0.0,0.0,0.26247427,0.26248214,0.57162297,0.42768645,0.4276907,4.055623,0.0,0.0,0.0,0.09016709,0.0,0.0,0.0,0.0,0.0,0.00021230959,0.005954258,0.017502382,0.0,0.0,0.0,0.0,0.0,0.0
1252866748,-0.090821885,0.0003153244,0.10374653,0.0021100044,-0.06592655,-0.06418228,0.0,0.0,0.0,0.051458552,0.0,0.0,0.0,0.0,0.0,0.2625066,0.26252434,0.57163227,0.44168577,0.44169524,4.055931,0.0,0.0,0.0,0.09016663,0.0,0.0,0.0,0.0,0.0,0.00041237782,0.010621334,0.024007019,0.0,0.0,0.0,0.0,0.0,0.0
1253066792,-0.011052415,-0.10002628,-0.015393496,0.007206917,-0.082592964,0.38738632,0.0,0.0,0.0,-0.008552723,0.0,0.0,0.0,0.0,0.0,0.26256728,0.26258272,0.57167137,0.44462228,0.4446327,4.056057,0.0,0.0,0.0,0.09016644,0.0,0.0,0.0,0.0,0.0,0.00064731133,0.011482216,0.026580365,0.0,0.0,0.0,0.0,0.0,0.0
1253266742,0.017671414,-0.024470165,-0.023749948,0.014707565,-0.08996582,-0.46031952,0.0,0.0,0.0,0.010180861,0.0,0.0,0.0,0.0,0.0,0.26257125,0.26258302,0.5716779,0.44472477,0.4447356,4.0558968,0.0,0.0,0.0,0.09016662,0.0,0.0,0.0,0.0,0.0,0.00059070584,0.008542721,0.020785,0.0,0.0,0.0,0.0,0.0,0.0
1253470751,0.19683221,-0.02206821,0.07235134,0.041133404,-0.0889616,-0.12752533,0.0,0.0,0.0,0.068655826,0.0,0.0,0.0,0.0,0.0,0.2625056,0.2625147,0.5716573,0.44574863,0.4457592,4.0558014,0.0,0.0,0.0,0.09016702,0.0,0.0,0.0,0.0,0.0,0.0006594015,0.009797652,0.021775385,0.0,0.0,0.0,0.0,0.0,0.0
1253674774,-0.06839835,0.048223905,0.07384193,0.035879135,-0.083823204,0.48923874,0.0,0.0,0.0,-0.009188391,0.0,0.0,0.0,0.0,0.0,0.2624931,0.2625008,0.57159585,0.4471277,0.4471379,4.055672,0.0,0.0,0.0,0.09016671,0.0,0.0,0.0,0.0,0.0,0.00046168212,0.008774146,0.029138638,0.0,0.0,0.0,0.0,0.0,0.0
1253878741,0.05102457,-0.014684305,0.13295114,0.051782608,-0.08139324,0.2169075,0.0,0.0,0.0,-0.051366575,0.0,0.0,0.0,0.0,0.0,0.26249555,0.262503,0.5716103,0.4497636,0.4497732,4.0556073,0.0,0.0,0.0,0.0901665,0.0,0.0,0.0,0.0,0.0,0.00016564396,0.005165617,0.014347143,0.0,0.0,0.0,0.0,0.0,0.0
1254078615,0.03346136,-0.0622568,0.054377437,0.054018497,-0.07953167,0.2203598,0.0,0.0,0.0,-0.0014196485,0.0,0.0,0.0,0.0,0.0,0.26250574,0.26251337,0.5716268,0.45116204,0.45117098,4.0557733,0.0,0.0,0.0,0.0901666,0.0,0.0,0.0,0.0,0.0,0.00029355314,0.00573933,0.011569353,0.0,0.0,0.0,0.0,0.0,0.0
1254278790,0.022863142,0.00018286705,0.07731986,0.06458092,-0.08101654,-0.18372726,0.0,0.0,0.0,0.037298106,0.0,0.0,0.0,0.0,0.0,0.26251715,0.26252523,0.5716405,0.45255768,0.45256594,4.05565,0.0,0.0,0.0,0.09016683,0.0,0.0,0.0,0.0,0.0,0.00041121303,0.004310644,0.0096169,0.0,0.0,0.0,0.0,0.0,0.0
1254482761,-0.019849107,-0.11261825,-0.002746582,0.047410488,-0.08736992,-0.4492569,0.0,0.0,0.0,-0.0046380535,0.0,0.0,0.0,0.0,0.0,0.2625717,0.26257965,0.5716117,0.45553353,0.45554128,4.0555906,0.0,0.0,0.0,0.090166755,0.0,0.0,0.0,0.0,0.0,0.00030703907,0.007574581,0.015425057,0.0,0.0,0.0,0.0,0.0,0.0
1254686628,-0.06855146,-0.16972339,-0.00056028366,0.036750793,-0.095303535,-0.5530586,0.0,0.0,0.0,0.011785068,0.0,0.0,0.0,0.0,0.0,0.26259768,0.2626037,0.5716277,0.4569092,0.45691642,4.0554905,0.0,0.0,0.0,0.090166554,0.0,0.0,0.0,0.0,0.0,0.0004467688,0.01212068,0.02538742,0.0,0.0,0.0,0.0,0.0,0.0
1254886774,-0.051225916,-0.157119,0.10260844,0.030010223,-0.10963917,0.0107421875,0.0,0.0,0.0,0.04818002,0.0,0.0,0.0,0.0,0.0,0.26256102,0.26256466,0.5716151,0.45797187,0.45797843,4.055455,0.0,0.0,0.0,0.090166114,0.0,0.0,0.0,0.0,0.0,0.00054294826,0.012525635,0.02400168,0.0,0.0,0.0,0.0,0.0,0.0
1255086740,-0.023932114,-0.0047256947,0.09145701,0.034679413,-0.106012344,0.17611313,0.0,0.0,0.0,0.030096397,0.0,0.0,0.0,0.0,0.0,0.26259354,0.26259476,0.5715609,0.45939466,0.45940056,4.0553756,0.0,0.0,0.0,0.09016587,0.0,0.0,0.0,0.0,0.0,0.00036073854,0.007176307,0.01565082,0.0,0.0,0.0,0.0,0.0,0.0
1255290771,-0.09340896,-0.025702588,0.025342584,0.027369022,-0.098908424,0.20207596,0.0,0.0,0.0,0.049331434,0.0,0.0,0.0,0.0,0.0,0.26270616,0.26270515,0.5716106,0.4611345,0.46113968,4.055302,0.0,0.0,0.0,0.09016597,0.0,0.0,0.0,0.0,0.0,0.00036140898,0.0073714415,0.016541237,0.0,0.0,0.0,0.0,0.0,0.0
1255494733,-0.036525473,-0.0052482523,0.08664632,0.013417244,-0.08786869,-0.24189377,0.0,0.0,0.0,-0.04600571,0.0,0.0,0.0,0.0,0.0,0.262719,0.26271433,0.57162964,0.46251845,0.4625227,4.0555468,0.0,0.0,0.0,0.09016613,0.0,0.0,0.0,0.0,0.0,0.00018904154,0.0056129894,0.013276307,0.0,0.0,0.0,0.0,0.0,0.0
1255698521,-0.062088646,-0.0729801,0.011419177,0.013570309,-0.095591545,-0.118637085,0.0,0.0,0.0,-0.00041745603,0.0,0.0,0.0,0.0,0.0,0.26268286,0.26267394,0.571616,0.46358794,0.46359095,4.0554605,0.0,0.0,0.0,0.09016612,0.0,0.0,0.0,0.0,0.0,0.00027459307,0.0071389936,0.018710492,0.0,0.0,0.0,0.0,0.0,0.0
1255898585,-0.04353389,-0.026495993,0.14085889,0.009566784,-0.086167336,0.041622162,0.0,0.0,0.0,0.00034932047,0.0,0.0,0.0,0.0,0.0,0.26272643,0.26271278,0.57163215,0.46373636,0.4637378,4.0556326,0.0,0.0,0.0,0.090166286,0.0,0.0,0.0,0.0,0.0,0.00026129372,0.004637245,0.010367279,0.0,0.0,0.0,0.0,0.0,0.0
1256102814,-0.042527396,0.03999769,0.15628457,-0.0023021698,-0.07523155,-0.15823746,0.0,0.0,0.0,-0.07176865,0.0,0.0,0.0,0.0,0.0,0.26282084,0.26279938,0.5716032,0.46546823,0.46546748,4.0555873,0.0,0.0,0.0,0.090166286,0.0,0.0,0.0,0.0,0.0,0.00041094524,0.0045913286,0.010849922,0.0,0.0,0.0,0.0,0.0,0.0
1256306733,-0.02817316,-0.0076787323,0.05932021,-0.0134010315,-0.057724953,0.11191177,0.0,0.0,0.0,0.00398349,0.0,0.0,0.0,0.0,0.0,0.26277187,0.2627412,0.5715871,0.46780914,0.46780592,4.055744,0.0,0.0,0.0,0.090166286,0.0,0.0,0.0,0.0,0.0,0.0002591461,0.0054520452,0.014514234,0.0,0.0,0.0,0.0,0.0,0.0
1256510592,-0.027775705,-0.07890631,-0.007459998,-0.021095753,-0.058493614,0.33136368,0.0,0.0,0.0,0.002236724,0.0,0.0,0.0,0.0,0.0,0.26284155,0.26279694,0.571631,0.46956655,0.46955958,4.0556345,0.0,0.0,0.0,0.09016613,0.0,0.0,0.0,0.0,0.0,0.00020183146,0.0034651873,0.009801077,0.0,0.0,0.0,0.0,0.0,0.0
1256710621,-0.1042707,0.021983564,0.04511702,-0.033136845,-0.048089027,-0.08652878,0.0,0.0,0.0,0.019814849,0.0,0.0,0.0,0.0,0.0,0.26284963,0.26280284,0.57164466,0.47096008,0.4709491,4.055791,0.0,0.0,0.0,0.09016624,0.0,0.0,0.0,0.0,0.0,0.00027719268,0.007836392,0.020671137,0.0,0.0,0.0,0.0,0.0,0.0
1256914852,-0.0031832606,-0.11288014,0.14313984,-0.031705856,-0.05151844,0.7419014,0.0,0.0,0.0,-0.016999759,0.0,0.0,0.0,0.0,0.0,0.26281968,0.26277733,0.5715823,0.47364804,0.47363332,4.0557227,0.0,0.0,0.0,0.09016641,0.0,0.0,0.0,0.0,0.0,0.00034187204,0.009249732,0.028353272,0.0,0.0,0.0,0.0,0.0,0.0
1257118615,-0.044841975,0.07329008,0.09754145,-0.037289143,-0.034503937,0.117435455,0.0,0.0,0.0,-0.011129245,0.0,0.0,0.0,0.0,0.0,0.26283634,0.26279938,0.57159585,0.47506413,0.47504634,4.0558853,0.0,0.0,0.0,0.09016642,0.0,0.0,0.0,0.0,0.0,0.00021576928,0.008247026,0.023151051,0.0,0.0,0.0,0.0,0.0,0.0
1257318739,0.03680501,-0.079564855,0.052788377,-0.019509792,-0.03785324,-0.17749786,0.0,0.0,0.0,0.08795076,0.0,0.0,0.0,0.0,0.0,0.26278758,0.26276073,0.57160664,0.47647268,0.47645304,4.055759,0.0,0.0,0.0,0.090166524,0.0,0.0,0.0,0.0,0.0,0.00027505236,0.009921192,0.033910446,0.0,0.0,0.0,0.0,0.0,0.0
1257522756,0.0050994307,-0.033107713,-0.04798186,-0.01275444,-0.043411255,-0.68546677,0.0,0.0,0.0,0.0032719001,0.0,0.0,0.0,0.0,0.0,0.2626876,0.2626712,0.57158774,0.4775528,0.4775332,4.0559034,0.0,0.0,0.0,0.090166524,0.0,0.0,0.0,0.0,0.0,0.00030204852,0.00134069,0.006354429,0.0,0.0,0.0,0.0,0.0,0.0
1257722739,0.05223018,0.011475056,0.012043953,0.0053129196,-0.044347763,-0.13235855,0.0,0.0,0.0,0.0037457496,0.0,0.0,0.0,0.0,0.0,0.26272357,0.2627129,0.57159734,0.47899762,0.47897866,4.05582,0.0,0.0,0.0,0.090166464,0.0,0.0,0.0,0.0,0.0,0.0002172351,0.0036307327,0.007957309,0.0,0.0,0.0,0.0,0.0,0.0
1257926795,0.010883104,0.027396694,0.15894544,0.012889385,-0.044016838,0.093559265,0.0,0.0,0.0,-0.031014442,0.0,0.0,0.0,0.0,0.0,0.26279068,0.26278347,0.5716382,0.48206854,0.48205057,4.0559554,0.0,0.0,0.0,0.09016662,0.0,0.0,0.0,0.0,0.0,7.457552e-05,0.0059007755,0.015540154,0.0,0.0,0.0,0.0,0.0,0.0
1258130772,-0.0729028,-0.025397971,0.057207704,0.0044202805,-0.041762352,0.3674202,0.0,0.0,0.0,-0.027530618,0.0,0.0,0.0,0.0,0.0,0.262749,0.2627445,0.57164603,0.48348218,0.483466,4.0560737,0.0,0.0,0.0,0.0901667,0.0,0.0,0.0,0.0,0.0,0.00017998373,0.006013933,0.017857375,0.0,0.0,0.0,0.0,0.0,0.0
1258330808,-0.053193405,0.05265294,0.02052474,0.007185936,-0.033076286,-0.52251816,0.0,0.0,0.0,-0.022631496,0.0,0.0,0.0,0.0,0.0,0.26270318,0.26270264,0.57162285,0.4858869,0.48587266,4.0559216,0.0,0.0,0.0,0.09016652,0.0,0.0,0.0,0.0,0.0,0.00022604845,0.005367791,0.011078443,0.0,0.0,0.0,0.0,0.0,0.0
1258530808,-0.018036373,0.051939987,0.047341585,0.007000923,-0.04044819,-0.2344017,0.0,0.0,0.0,-0.021248065,0.0,0.0,0.0,0.0,0.0,0.2627795,0.2627831,0.57158756,0.4890021,0.48898962,4.0560384,0.0,0.0,0.0,0.09016661,0.0,0.0,0.0,0.0,0.0,0.00025870366,0.005486318,0.01072658,0.0,0.0,0.0,0.0,0.0,0.0
1258730745,-0.039232172,-0.026372474,0.029833198,0.006787777,-0.039634705,-0.92593765,0.0,0.0,0.0,-0.006666474,0.0,0.0,0.0,0.0,0.0,0.26276806,0.26277348,0.5715949,0.49176818,0.49175787,4.055931,0.0,0.0,0.0,0.09016659,0.0,0.0,0.0,0.0,0.0,0.00012238312,0.0051829373,0.016459843,0.0,0.0,0.0,0.0,0.0,0.0
1258934807,0.10924939,-0.030297257,0.009209037,0.0298872,-0.04979992,0.077171326,0.0,0.0,0.0,0.013143316,0.0,0.0,0.0,0.0,0.0,0.2627173,0.2627226,0.5715756,0.49423417,0.4942264,4.0560536,0.0,0.0,0.0,0.09016627,0.0,0.0,0.0,0.0,0.0,0.00019873191,0.005477425,0.014644372,0.0,0.0,0.0,0.0,0.0,0.0
1259138766,-0.039407678,0.018250834,-0.03899169,0.024519444,-0.06582165,0.48670197,0.0,0.0,0.0,0.028171286,0.0,0.0,0.0,0.0,0.0,0.26273647,0.2627407,0.5715843,0.49841017,0.49840492,4.056161,0.0,0.0,0.0,0.09016604,0.0,0.0,0.0,0.0,0.0,0.00016101432,0.0040050964,0.013831791,0.0,0.0,0.0,0.0,0.0,0.0
1259338827,0.050336637,-0.040323764,-0.03982246,0.022058487,-0.064006805,-0.07357025,0.0,0.0,0.0,0.020040482,0.0,0.0,0.0,0.0,0.0,0.26287013,0.2628713,0.57165,0.50194424,0.50194126,4.0562496,0.0,0.0,0.0,0.09016598,0.0,0.0,0.0,0.0,0.0,0.00021032663,0.007636756,0.020980852,0.0,0.0,0.0,0.0,0.0,0.0
1259538770,0.11370177,-0.108748555,-0.017927766,0.051397324,-0.08523369,0.39266968,0.0,0.0,0.0,-0.011896506,0.0,0.0,0.0,0.0,0.0,0.26290074,0.26289946,0.5716096,0.5024047,0.5024034,4.0560675,0.0,0.0,0.0,0.0901661,0.0,0.0,0.0,0.0,0.0,0.00036469646,0.01113257,0.028295422,0.0,0.0,0.0,0.0,0.0,0.0
1259738734,0.06043292,-0.031803206,-0.05249834,0.075320244,-0.09875584,-0.3580742,0.0,0.0,0.0,0.0050068647,0.0,0.0,0.0,0.0,0.0,0.26275203,0.26275024,0.57160234,0.5028289,0.5028284,4.0559525,0.0,0.0,0.0,0.09016652,0.0,0.0,0.0,0.0,0.0,0.00036250355,0.011774084,0.03389322,0.0,0.0,0.0,0.0,0.0,0.0
1259942726,0.17226885,-0.05686505,0.021645308,0.09618521,-0.095433235,-0.010002136,0.0,0.0,0.0,-0.04019033,0.0,0.0,0.0,0.0,0.0,0.26280102,0.2628005,0.57161313,0.5043643,0.5043645,4.056059,0.0,0.0,0.0,0.090166554,0.0,0.0,0.0,0.0,0.0,0.00043721864,0.012007327,0.030299988,0.0,0.0,0.0,0.0,0.0,0.0
1260142805,-0.004930809,0.011504106,-0.04595828,0.09184027,-0.08766556,-0.24623871,0.0,0.0,0.0,-0.02045092,0.0,0.0,0.0,0.0,0.0,0.26290962,0.26290974,0.57157916,0.50756484,0.50756526,4.0559015,0.0,0.0,0.0,0.090166576,0.0,0.0,0.0,0.0,0.0,0.0002661484,0.007828605,0.023882195,0.0,0.0,0.0,0.0,0.0,0.0
1260342620,0.019779861,0.06536113,0.07835245,0.08334589,-0.07801247,-0.6787605,0.0,0.0,0.0,-0.075884245,0.0,0.0,0.0,0.0,0.0,0.26287535,0.2628752,0.57156223,0.5087382,0.5087385,4.05581,0.0,0.0,0.0,0.090166874,0.0,0.0,0.0,0.0,0.0,0.00022943925,0.0086148735,0.02772161,0.0,0.0,0.0,0.0,0.0,0.0
1260546720,0.040740572,-0.017291557,-0.07381976,0.078382015,-0.071294785,-0.3360672,0.0,0.0,0.0,0.054680005,0.0,0.0,0.0,0.0,0.0,0.2629085,0.26290798,0.57157725,0.51027614,0.5102761,4.055938,0.0,0.0,0.0,0.090167016,0.0,0.0,0.0,0.0,0.0,0.0001605761,0.007532554,0.023591664,0.0,0.0,0.0,0.0,0.0,0.0
1260746776,0.108049646,0.008650739,0.08035576,0.08014488,-0.057735443,0.2022667,0.0,0.0,0.0,-0.0023530424,0.0,0.0,0.0,0.0,0.0,0.26299515,0.26299515,0.5715466,0.51213646,0.51213586,4.055798,0.0,0.0,0.0,0.09016695,0.0,0.0,0.0,0.0,0.0,0.00058359426,0.009433336,0.029817685,0.0,0.0,0.0,0.0,0.0,0.0
1260950773,-0.04390902,0.01026763,0.008343101,0.07203293,-0.05370903,-0.12522888,0.0,0.0,0.0,-0.0076442286,0.0,0.0,0.0,0.0,0.0,0.2629758,0.2629767,0.57153225,0.5119417,0.51194054,4.0559335,0.0,0.0,0.0,0.09016682,0.0,0.0,0.0,0.0,0.0,0.0003812496,0.008196946,0.02867082,0.0,0.0,0.0,0.0,0.0,0.0
1261154800,-0.055752873,-0.12605992,-0.0149354935,0.050260067,-0.057388306,0.114845276,0.0,0.0,0.0,-0.031627826,0.0,0.0,0.0,0.0,0.0,0.26304638,0.26304728,0.5715737,0.5137783,0.5137767,4.056044,0.0,0.0,0.0,0.09016744,0.0,0.0,0.0,0.0,0.0,0.00023366915,0.0034135273,0.009700817,0.0,0.0,0.0,0.0,0.0,0.0
1261358808,-0.0042216033,0.034659043,0.08037603,0.03849125,-0.040305138,-0.46945572,0.0,0.0,0.0,0.020549126,0.0,0.0,0.0,0.0,0.0,0.26303798,0.2630409,0.5715838,0.5152361,0.5152342,4.056202,0.0,0.0,0.0,0.0901677,0.0,0.0,0.0,0.0,0.0,0.00011480528,0.004783509,0.014486537,0.0,0.0,0.0,0.0,0.0,0.0
1261558750,0.07852206,0.00248136,0.08424461,0.04311657,-0.03168583,0.41547775,0.0,0.0,0.0,-0.039273933,0.0,0.0,0.0,0.0,0.0,0.26302618,0.2630357,0.571593,0.5166919,0.5166902,4.056307,0.0,0.0,0.0,0.09016802,0.0,0.0,0.0,0.0,0.0,0.0003472285,0.003175353,0.007738047,0.0,0.0,0.0,0.0,0.0,0.0
1261762587,0.17246373,0.032277018,-0.08042419,0.052030087,-0.016636848,0.3411827,0.0,0.0,0.0,0.031673,0.0,0.0,0.0,0.0,0.0,0.26294276,0.26295784,0.5715719,0.51645637,0.5164554,4.056405,0.0,0.0,0.0,0.09016802,0.0,0.0,0.0,0.0,0.0,0.0003160062,0.006092983,0.013804019,0.0,0.0,0.0,0.0,0.0,0.0
1261966754,0.14225532,0.0750713,0.07763851,0.061074257,0.0024728775,-0.019607544,0.0,0.0,0.0,0.020129636,0.0,0.0,0.0,0.0,0.0,0.26293793,0.2629543,0.57158005,0.5179271,0.51792747,4.0562162,0.0,0.0,0.0,0.09016814,0.0,0.0,0.0,0.0,0.0,0.00037509922,0.007796725,0.01803909,0.0,0.0,0.0,0.0,0.0,0.0
1262166760,0.10726372,-0.07739249,0.02038145,0.064137936,0.010104179,0.112586975,0.0,0.0,0.0,-0.0007374957,0.0,0.0,0.0,0.0,0.0,0.26296338,0.2629776,0.5715882,0.5180422,0.51804394,4.056089,0.0,0.0,0.0,0.09016865,0.0,0.0,0.0,0.0,0.0,0.00029204972,0.004398455,0.011374064,0.0,0.0,0.0,0.0,0.0,0.0
1262366865,0.101819605,-0.13158377,0.012739897,0.073615074,-0.0049858093,-0.02552414,0.0,0.0,0.0,0.005242549,0.0,0.0,0.0,0.0,0.0,0.262958,0.2629659,0.571599,0.5194994,0.5195023,4.056213,0.0,0.0,0.0,0.09016847,0.0,0.0,0.0,0.0,0.0,0.00034106345,0.0036017809,0.0077573853,0.0,0.0,0.0,0.0,0.0,0.0
1262566718,0.14936179,0.0038140714,0.10563433,0.08067703,0.0034322739,0.112342834,0.0,0.0,0.0,0.0057537183,0.0,0.0,0.0,0.0,0.0,0.2629159,0.26291445,0.57161057,0.52094984,0.5209531,4.0560474,0.0,0.0,0.0,0.090168186,0.0,0.0,0.0,0.0,0.0,0.0003660241,0.0046302113,0.010223456,0.0,0.0,0.0,0.0,0.0,0.0
1262770789,0.17915869,-0.091323376,0.07874918,0.08799219,-0.0022916794,-0.22472,0.0,0.0,0.0,-0.021838568,0.0,0.0,0.0,0.0,0.0,0.262921,0.26291448,0.5715478,0.52240306,0.5224058,4.055899,0.0,0.0,0.0,0.09016813,0.0,0.0,0.0,0.0,0.0,0.00046619403,0.008051639,0.021932,0.0,0.0,0.0,0.0,0.0,0.0
1262974752,-0.03472007,-0.058840245,0.0074002743,0.07311249,0.0029621124,-0.6681328,0.0,0.0,0.0,-0.020788997,0.0,0.0,0.0,0.0,0.0,0.26300475,0.26300022,0.57159084,0.524196,0.52419776,4.05607,0.0,0.0,0.0,0.09016797,0.0,0.0,0.0,0.0,0.0,0.00036999307,0.011021701,0.037203062,0.0,0.0,0.0,0.0,0.0,0.0
1263174787,0.11569989,-0.08990094,0.08470452,0.06510067,-0.0066404343,-0.14343262,0.0,0.0,0.0,-0.02410429,0.0,0.0,0.0,0.0,0.0,0.26302686,0.26302603,0.57160157,0.52425617,0.5242569,4.055923,0.0,0.0,0.0,0.09016787,0.0,0.0,0.0,0.0,0.0,0.00060818717,0.0047902223,0.017208204,0.0,0.0,0.0,0.0,0.0,0.0
1263374783,0.025003478,-0.09112168,0.03462863,0.053114414,-0.012060165,-0.24337769,0.0,0.0,0.0,0.039826706,0.0,0.0,0.0,0.0,0.0,0.2630042,0.2630038,0.5715847,0.5226096,0.52260995,4.0557923,0.0,0.0,0.0,0.090167634,0.0,0.0,0.0,0.0,0.0,0.00031754744,0.00591296,0.020080827,0.0,0.0,0.0,0.0,0.0,0.0
1263578780,0.051276132,-0.0490463,0.10751307,0.047650337,-0.006095886,-0.121707916,0.0,0.0,0.0,0.0010801926,0.0,0.0,0.0,0.0,0.0,0.26309988,0.2630957,0.57155687,0.52301234,0.52301264,4.055929,0.0,0.0,0.0,0.09016756,0.0,0.0,0.0,0.0,0.0,0.00023239513,0.0025181123,0.008587708,0.0,0.0,0.0,0.0,0.0,0.0
1263782756,-0.062167764,-0.07602529,0.06301749,0.047745228,-0.014052391,-0.71422195,0.0,0.0,0.0,-0.0073956624,0.0,0.0,0.0,0.0,0.0,0.2631086,0.26309994,0.57156986,0.5243948,0.52439505,4.055844,0.0,0.0,0.0,0.0901674,0.0,0.0,0.0,0.0,0.0,0.00015801121,0.0074950946,0.021185817,0.0,0.0,0.0,0.0,0.0,0.0
1263986612,0.053287882,-0.051371317,0.16735029,0.045758247,-0.013025284,-0.0001335144,0.0,0.0,0.0,0.0030346215,0.0,0.0,0.0,0.0,0.0,0.26307496,0.26306373,0.571556,0.5227315,0.5227316,4.055986,0.0,0.0,0.0,0.09016736,0.0,0.0,0.0,0.0,0.0,0.00023634039,0.0041705873,0.011592737,0.0,0.0,0.0,0.0,0.0,0.0
1264186742,-0.03950924,-0.09232227,0.08256948,0.043123722,-0.023845673,-0.22153473,0.0,0.0,0.0,0.040362164,0.0,0.0,0.0,0.0,0.0,0.2631099,0.2630985,0.5715706,0.5227809,0.52278066,4.056128,0.0,0.0,0.0,0.09016761,0.0,0.0,0.0,0.0,0.0,0.00018286706,0.0053640148,0.011917318,0.0,0.0,0.0,0.0,0.0,0.0
1264390800,0.14555804,-0.041648008,0.2981944,0.0439353,-0.02634716,-0.020145416,0.0,0.0,0.0,-0.002748087,0.0,0.0,0.0,0.0,0.0,0.26311812,0.26310825,0.5715852,0.522827,0.5228264,4.05625,0.0,0.0,0.0,0.090167366,0.0,0.0,0.0,0.0,0.0,0.00024801557,0.001425816,0.0045425165,0.0,0.0,0.0,0.0,0.0,0.0
1264594767,-0.003659241,-0.14332576,0.1637814,0.034766197,-0.035767555,0.18318558,0.0,0.0,0.0,0.0112320185,0.0,0.0,0.0,0.0,0.0,0.26312137,0.26311368,0.5715966,0.5215044,0.5215033,4.0561314,0.0,0.0,0.0,0.09016742,0.0,0.0,0.0,0.0,0.0,0.00033138753,0.0074102767,0.022715839,0.0,0.0,0.0,0.0,0.0,0.0
1264794746,-0.030336067,-0.13277563,0.13459468,0.024638653,-0.053694725,-0.03397751,0.0,0.0,0.0,0.015876539,0.0,0.0,0.0,0.0,0.0,0.2631241,0.2631205,0.5716077,0.52151793,0.5215166,4.0559864,0.0,0.0,0.0,0.09016744,0.0,0.0,0.0,0.0,0.0,0.00037605857,0.007254394,0.0207246,0.0,0.0,0.0,0.0,0.0,0.0
1264998754,0.13272776,-0.09923288,0.21679449,0.037916183,-0.050317764,0.069553375,0.0,0.0,0.0,0.022966042,0.0,0.0,0.0,0.0,0.0,0.2631117,0.26311386,0.57162136,0.5215294,0.5215282,4.056378,0.0,0.0,0.0,0.0901671,0.0,0.0,0.0,0.0,0.0,0.00034618218,0.005264388,0.017452898,0.0,0.0,0.0,0.0,0.0,0.0
1265198720,0.046992205,-0.103819326,0.14298773,0.028903008,-0.06506157,-0.16972733,0.0,0.0,0.0,0.017218433,0.0,0.0,0.0,0.0,0.0,0.26311353,0.26311788,0.5716312,0.52153945,0.52153885,4.056204,0.0,0.0,0.0,0.0901673,0.0,0.0,0.0,0.0,0.0,0.00029754025,0.008197952,0.027909825,0.0,0.0,0.0,0.0,0.0,0.0
1265402814,0.063010275,-0.11768414,0.17855084,0.03363228,-0.06636524,0.18822098,0.0,0.0,0.0,0.027955636,0.0,0.0,0.0,0.0,0.0,0.26312387,0.26312432,0.57156605,0.52291095,0.5229107,4.0560937,0.0,0.0,0.0,0.09016708,0.0,0.0,0.0,0.0,0.0,0.0003163114,0.011634359,0.04004862,0.0,0.0,0.0,0.0,0.0,0.0
1265606867,0.13213727,-0.20770164,0.037995815,0.05707264,-0.07932091,0.26190186,0.0,0.0,0.0,-0.003224291,0.0,0.0,0.0,0.0,0.0,0.26312545,0.26312137,0.57157767,0.5229362,0.52293575,4.055955,0.0,0.0,0.0,0.09016743,0.0,0.0,0.0,0.0,0.0,0.00048719475,0.014027144,0.04924779,0.0,0.0,0.0,0.0,0.0,0.0
1265810773,0.08899951,-0.1091073,0.16246843,0.057687283,-0.08626938,-0.17811966,0.0,0.0,0.0,-0.013834327,0.0,0.0,0.0,0.0,0.0,0.26317275,0.26316047,0.57159156,0.52296406,0.5229625,4.0561056,0.0,0.0,0.0,0.09016721,0.0,0.0,0.0,0.0,0.0,0.00038059155,0.009663761,0.03504412,0.0,0.0,0.0,0.0,0.0,0.0
1266010740,0.08836906,-0.1404615,0.06508982,0.04762268,-0.08417034,0.8311043,0.0,0.0,0.0,-0.06580496,0.0,0.0,0.0,0.0,0.0,0.2632404,0.26321504,0.5716073,0.522996,0.5229924,4.056012,0.0,0.0,0.0,0.090167515,0.0,0.0,0.0,0.0,0.0,0.00037909698,0.009539101,0.03522877,0.0,0.0,0.0,0.0,0.0,0.0
1266214615,-0.0346016,-0.098685384,0.11785245,0.03073883,-0.085318565,0.4647026,0.0,0.0,0.0,0.010199353,0.0,0.0,0.0,0.0,0.0,0.26325175,0.26322106,0.5715635,0.521671,0.5216623,4.0558863,0.0,0.0,0.0,0.09016728,0.0,0.0,0.0,0.0,0.0,0.0003828278,0.012709592,0.039577194,0.0,0.0,0.0,0.0,0.0,0.0
1266418734,-0.0346016,-0.098685384,0.11785245,0.03073883,-0.085318565,0.27195358,0.0,0.0,0.0,-0.00958062,0.0,0.0,0.0,0.0,0.0,0.26325175,0.26322106,0.5715635,0.521671,0.5216623,4.0558248,0.0,0.0,0.0,0.090167,0.0,0.0,0.0,0.0,0.0,0.0003018291,0.010272545,0.032750715,0.0,0.0,0.0,0.0,0.0,0.0
1266622633,0.044751395,-0.09353277,0.12658691,0.022322178,-0.087430954,0.040046692,0.0,0.0,0.0,-0.025878005,0.0,0.0,0.0,0.0,0.0,0.26318264,0.26317248,0.57159615,0.5202724,0.52026176,4.0559916,0.0,0.0,0.0,0.09016696,0.0,0.0,0.0,0.0,0.0,0.00043147415,0.015481173,0.047885567,0.0,0.0,0.0,0.0,0.0,0.0
1266822753,0.035328597,-0.10743505,-0.04275143,0.013745308,-0.08575535,0.50974655,0.0,0.0,0.0,0.020716801,0.0,0.0,0.0,0.0,0.0,0.26318628,0.26318267,0.57153785,0.5202572,0.52024716,4.055874,0.0,0.0,0.0,0.09016668,0.0,0.0,0.0,0.0,0.0,0.00039962635,0.01171181,0.03904497,0.0,0.0,0.0,0.0,0.0,0.0
1267026725,-0.12265293,-0.11710195,-0.02496171,0.013051033,-0.09487057,0.009208679,0.0,0.0,0.0,0.028355375,0.0,0.0,0.0,0.0,0.0,0.2631613,0.26316163,0.5715546,0.52023983,0.5202314,4.0553026,0.0,0.0,0.0,0.090166695,0.0,0.0,0.0,0.0,0.0,0.0004728469,0.012048288,0.025434598,0.0,0.0,0.0,0.0,0.0,0.0
1267230728,0.113230586,-0.0681697,-0.024757743,0.014761448,-0.088127136,0.12294388,0.0,0.0,0.0,-0.0155755505,0.0,0.0,0.0,0.0,0.0,0.2631459,0.26314744,0.5715713,0.5202231,0.52021694,4.05547,0.0,0.0,0.0,0.09016661,0.0,0.0,0.0,0.0,0.0,0.00039965627,0.0053955577,0.012025832,0.0,0.0,0.0,0.0,0.0,0.0
1267430615,0.2153558,-0.01102405,0.04028189,0.029314995,-0.07092571,0.053401947,0.0,0.0,0.0,0.019370459,0.0,0.0,0.0,0.0,0.0,0.2631224,0.26312265,0.57158655,0.52156764,0.5215638,4.0558743,0.0,0.0,0.0,0.09016649,0.0,0.0,0.0,0.0,0.0,0.0005022666,0.008949182,0.016068038,0.0,0.0,0.0,0.0,0.0,0.0
1267630748,-0.0036602728,-0.14253953,0.046958327,0.0036849976,-0.072977066,-0.032405853,0.0,0.0,0.0,-0.03785892,0.0,0.0,0.0,0.0,0.0,0.26314247,0.26313952,0.5716029,0.52156794,0.5215667,4.056043,0.0,0.0,0.0,0.09016632,0.0,0.0,0.0,0.0,0.0,0.000450764,0.0056100287,0.01105178,0.0,0.0,0.0,0.0,0.0,0.0
1267834744,0.13024752,-0.14008261,0.08944476,0.011323452,-0.07629299,-0.036823273,0.0,0.0,0.0,0.041994765,0.0,0.0,0.0,0.0,0.0,0.26316273,0.26315764,0.5715442,0.52157223,0.52157325,4.055453,0.0,0.0,0.0,0.090166345,0.0,0.0,0.0,0.0,0.0,0.0005922163,0.008611816,0.014667728,0.0,0.0,0.0,0.0,0.0,0.0
1268038609,0.17152137,-0.14028284,0.062088966,0.01567936,-0.08553791,-0.035842896,0.0,0.0,0.0,0.0011597201,0.0,0.0,0.0,0.0,0.0,0.263152,0.26314571,0.57156074,0.5229399,0.52294254,4.055345,0.0,0.0,0.0,0.09016604,0.0,0.0,0.0,0.0,0.0,0.00062558596,0.011232155,0.022347473,0.0,0.0,0.0,0.0,0.0,0.0
1268238625,0.034291714,-0.05609347,0.039199233,0.010848045,-0.079050064,-0.3162117,0.0,0.0,0.0,0.060700104,0.0,0.0,0.0,0.0,0.0,0.26314405,0.26313683,0.571579,0.5229618,0.5229653,4.0553017,0.0,0.0,0.0,0.090165906,0.0,0.0,0.0,0.0,0.0,0.00048431952,0.007577082,0.022814162,0.0,0.0,0.0,0.0,0.0,0.0
1268438590,0.043685004,-0.18116438,0.022341013,0.00027513504,-0.09319401,0.04644394,0.0,0.0,0.0,-0.006123662,0.0,0.0,0.0,0.0,0.0,0.2631504,0.26314324,0.57159495,0.52297896,0.5229829,4.055461,0.0,0.0,0.0,0.090165995,0.0,0.0,0.0,0.0,0.0,0.00057802425,0.008696831,0.018327843,0.0,0.0,0.0,0.0,0.0,0.0
1268638825,0.095191605,-0.19995543,-0.027210116,0.0017061234,-0.10122204,0.24890518,0.0,0.0,0.0,0.009024873,0.0,0.0,0.0,0.0,0.0,0.26315096,0.2631432,0.5716116,0.5243593,0.5243631,4.0556245,0.0,0.0,0.0,0.090166144,0.0,0.0,0.0,0.0,0.0,0.0006682773,0.012086872,0.025110932,0.0,0.0,0.0,0.0,0.0,0.0
1268842773,0.12952742,-0.14791214,0.031216264,-0.0029206276,-0.105363846,0.01480484,0.0,0.0,0.0,0.05726354,0.0,0.0,0.0,0.0,0.0,0.2631476,0.26314068,0.5715515,0.5243914,0.5243947,4.055501,0.0,0.0,0.0,0.09016593,0.0,0.0,0.0,0.0,0.0,0.00066425954,0.01318525,0.03337883,0.0,0.0,0.0,0.0,0.0,0.0
1269046947,0.005965054,-0.034677133,-0.0021020174,-0.023814678,-0.097242355,0.07632828,0.0,0.0,0.0,0.04499483,0.0,0.0,0.0,0.0,0.0,0.2631456,0.2631401,0.57156706,0.5244164,0.52441907,4.0553894,0.0,0.0,0.0,0.09016565,0.0,0.0,0.0,0.0,0.0,0.0004997168,0.008688427,0.029092737,0.0,0.0,0.0,0.0,0.0,0.0
1269250782,0.028061941,-0.03078501,0.025805831,-0.030875683,-0.085035324,-0.11064911,0.0,0.0,0.0,0.011850774,0.0,0.0,0.0,0.0,0.0,0.26314926,0.26314628,0.5715796,0.5244394,0.5244415,4.0558033,0.0,0.0,0.0,0.09016568,0.0,0.0,0.0,0.0,0.0,0.00043782638,0.0063798763,0.021811536,0.0,0.0,0.0,0.0,0.0,0.0
1269450772,0.08993355,-0.15793994,0.032231927,-0.02657032,-0.08948326,-0.7537651,0.0,0.0,0.0,-0.023021631,0.0,0.0,0.0,0.0,0.0,0.26321432,0.26321313,0.5716192,0.5247959,0.5247976,4.055703,0.0,0.0,0.0,0.09016548,0.0,0.0,0.0,0.0,0.0,0.00038682128,0.01069906,0.03518422,0.0,0.0,0.0,0.0,0.0,0.0
1269650782,0.08480297,-0.09468642,0.084040165,-0.021998405,-0.08999634,0.015224457,0.0,0.0,0.0,0.018193759,0.0,0.0,0.0,0.0,0.0,0.26314014,0.26313946,0.57159793,0.5258013,0.52580285,4.0558186,0.0,0.0,0.0,0.0901656,0.0,0.0,0.0,0.0,0.0,0.0004855439,0.007913427,0.027410684,0.0,0.0,0.0,0.0,0.0,0.0
1269854806,0.08620788,-0.08582518,-0.007089615,-0.021012306,-0.08403778,0.19577408,0.0,0.0,0.0,-0.028756373,0.0,0.0,0.0,0.0,0.0,0.26320678,0.26320648,0.57163614,0.52617437,0.5261757,4.0559297,0.0,0.0,0.0,0.09016533,0.0,0.0,0.0,0.0,0.0,0.0005680259,0.007499539,0.024968235,0.0,0.0,0.0,0.0,0.0,0.0
1270054757,0.0824819,-0.109887056,0.014059305,-0.01894331,-0.07779884,-0.6330223,0.0,0.0,0.0,-0.011146098,0.0,0.0,0.0,0.0,0.0,0.26314697,0.26314673,0.5716126,0.5271963,0.5271974,4.056027,0.0,0.0,0.0,0.09016565,0.0,0.0,0.0,0.0,0.0,0.00047418865,0.009665996,0.031588268,0.0,0.0,0.0,0.0,0.0,0.0
1270258725,0.06511275,-0.08327906,0.030810833,-0.013707638,-0.06837368,-0.51309586,0.0,0.0,0.0,-0.0044288933,0.0,0.0,0.0,0.0,0.0,0.26313138,0.26313147,0.57161975,0.52861303,0.528614,4.055853,0.0,0.0,0.0,0.090166196,0.0,0.0,0.0,0.0,0.0,0.00040780063,0.009518284,0.032137234,0.0,0.0,0.0,0.0,0.0,0.0
1270458632,0.13369955,-0.07520696,0.12020886,-0.015782833,-0.059025764,-0.20546722,0.0,0.0,0.0,0.022883318,0.0,0.0,0.0,0.0,0.0,0.2631882,0.2631891,0.571586,0.5290044,0.52900517,4.0557423,0.0,0.0,0.0,0.09016612,0.0,0.0,0.0,0.0,0.0,0.0005216679,0.008507441,0.029806038,0.0,0.0,0.0,0.0,0.0,0.0
1270662608,0.06193095,-0.12907791,0.06283128,-0.008111954,-0.062235832,0.20694351,0.0,0.0,0.0,-0.0025192946,0.0,0.0,0.0,0.0,0.0,0.26311976,0.263121,0.5715691,0.53004503,0.53004557,4.055602,0.0,0.0,0.0,0.09016662,0.0,0.0,0.0,0.0,0.0,0.0004591418,0.0037459917,0.014066322,0.0,0.0,0.0,0.0,0.0,0.0
1270866787,0.024160326,-0.10356483,0.068104506,-0.020901203,-0.054937363,0.29738235,0.0,0.0,0.0,-0.0139367655,0.0,0.0,0.0,0.0,0.0,0.26313287,0.2631333,0.5715849,0.53148115,0.5314816,4.055527,0.0,0.0,0.0,0.09016671,0.0,0.0,0.0,0.0,0.0,0.0004179907,0.0029370037,0.010734534,0.0,0.0,0.0,0.0,0.0,0.0
1271066829,0.060152892,-0.034761645,0.12689042,-0.017514706,-0.050803185,0.15606308,0.0,0.0,0.0,0.039675362,0.0,0.0,0.0,0.0,0.0,0.26315615,0.26315588,0.57152987,0.5329325,0.5329329,4.055416,0.0,0.0,0.0,0.09016672,0.0,0.0,0.0,0.0,0.0,0.00027621488,0.0024341084,0.0064835954,0.0,0.0,0.0,0.0,0.0,0.0
1271270844,0.108530104,-0.08460417,-0.007524848,-0.015293598,-0.05398655,0.10259628,0.0,0.0,0.0,-0.03476762,0.0,0.0,0.0,0.0,0.0,0.26317096,0.26317033,0.5715496,0.53439206,0.5343923,4.0553694,0.0,0.0,0.0,0.09016659,0.0,0.0,0.0,0.0,0.0,0.00035322644,0.0022117167,0.0058311555,0.0,0.0,0.0,0.0,0.0,0.0
1271470742,0.017018657,-0.073485,0.025746703,-0.02790165,-0.04631996,-0.34571457,0.0,0.0,0.0,-0.009182267,0.0,0.0,0.0,0.0,0.0,0.26322347,0.26322192,0.5715983,0.5361965,0.53619653,4.055534,0.0,0.0,0.0,0.090166666,0.0,0.0,0.0,0.0,0.0,0.00047669766,0.0030560507,0.007347857,0.0,0.0,0.0,0.0,0.0,0.0
1271674738,0.042920444,-0.065967344,0.026477098,-0.029656887,-0.041801453,0.17252731,0.0,0.0,0.0,-0.0029174313,0.0,0.0,0.0,0.0,0.0,0.2630571,0.2630539,0.5715851,0.5358947,0.5358946,4.055689,0.0,0.0,0.0,0.09016645,0.0,0.0,0.0,0.0,0.0,0.00038316942,0.0032982444,0.0084929615,0.0,0.0,0.0,0.0,0.0,0.0
1271878633,0.106626615,-0.0021300018,0.07209617,-0.038893223,-0.044513702,-0.09892273,0.0,0.0,0.0,-0.029267013,0.0,0.0,0.0,0.0,0.0,0.26297563,0.26297036,0.5716,0.5373323,0.53733176,4.0555663,0.0,0.0,0.0,0.09016655,0.0,0.0,0.0,0.0,0.0,0.00019953644,0.0066991085,0.016992722,0.0,0.0,0.0,0.0,0.0,0.0
1272082632,0.16360992,-0.07372945,0.20640588,-0.031144619,-0.042571068,0.16739273,-0.01207827,0.005192887,0.0066814125,-0.048216537,0.0,0.0,0.0,0.0,0.0,0.26292592,0.262923,0.5716136,0.5373885,0.53738767,4.0557075,0.0041683223,0.004105068,0.004167311,0.09016649,0.0,0.0,0.0,0.0,0.0,0.000406068,0.0052975398,0.008809766,0.0,0.0,0.0,0.0,0.0,0.0
1272282759,0.124316245,0.026456736,0.1435939,0.007378578,-0.039013863,0.13217545,-0.0044313446,0.0064368527,0.00023502111,-0.048216537,0.0,0.0,0.0,0.0,0.0,0.26276878,0.26277447,0.5715576,0.5367619,0.53676105,4.055579,0.0028370626,0.0028327268,0.0028383483,0.09016649,0.0,0.0,0.0,0.0,0.0,0.00035541432,0.008394644,0.014361246,0.0,0.0,0.0,0.0,0.0,0.0
1272486723,0.09354657,0.04522413,0.1032666,0.04047203,-0.031868935,0.033447266,-0.00293421,-0.0017975867,0.0051062405,-0.048216537,0.0,0.0,0.0,0.0,0.0,0.26291865,0.26295507,0.57156414,0.5378589,0.53786,4.0560193,0.0026770106,0.0026921064,0.0026756856,0.09016649,0.0,0.0,0.0,0.0,0.0,0.00028456174,0.010113481,0.019437732,0.0,0.0,0.0,0.0,0.0,0.0
1272690846,0.09396756,-0.07529062,-0.01082769,0.0841198,-0.04880047,0.481205,0.0005860925,-0.017575417,-0.0073650777,-0.048216537,0.0,0.0,0.0,0.0,0.0,0.26283896,0.26291752,0.5715292,0.5374741,0.5374791,4.0558476,0.0026312976,0.0026706348,0.0026166583,0.09016649,0.0,0.0,0.0,0.0,0.0,0.00031727302,0.0085132485,0.025857637,0.0,0.0,0.0,0.0,0.0,0.0
1272891026,0.34861493,0.15501434,0.020207688,0.14293814,-0.03151226,0.67409897,-0.0007009655,0.000494007,0.0011541545,-0.048216537,0.0,0.0,0.0,0.0,0.0,0.2629434,0.2630845,0.57153714,0.5388566,0.5388694,4.055944,0.0026177643,0.002670613,0.0025924416,0.09016649,0.0,0.0,0.0,0.0,0.0,0.00072704785,0.022426395,0.05311684,0.0,0.0,0.0,0.0,0.0,0.0
1273090874,0.13682353,0.06912756,0.06915866,0.11156559,-0.009126663,-0.14889145,0.002796121,0.009561159,0.005872935,-0.048216537,0.0,0.0,0.0,0.0,0.0,0.26319575,0.26339012,0.57160735,0.5395599,0.5395867,4.0560226,0.0026173717,0.0026656073,0.0025778867,0.09016649,0.0,0.0,0.0,0.0,0.0,0.00074133824,0.019892465,0.049522944,0.0,0.0,0.0,0.0,0.0,0.0
1273294751,0.18202591,0.2062465,-0.13610509,0.14054728,0.011548996,-0.07940292,0.0035626814,0.0018336773,0.0015904605,-0.048216537,0.0,0.0,0.0,0.0,0.0,0.26323536,0.26345727,0.57158536,0.5405704,0.5406112,4.0563674,0.0026190323,0.0026502055,0.0025673073,0.09016649,0.0,0.0,0.0,0.0,0.0,0.00081381825,0.024043612,0.06302432,0.0,0.0,0.0,0.0,0.0,0.0
1273498607,0.33190036,0.08523774,0.27474952,0.14566088,0.006214142,0.82492065,0.004720561,0.0014792085,-0.006712556,-0.048216537,0.0,0.0,0.0,0.0,0.0,0.2633253,0.26354676,0.57158965,0.5419896,0.54204667,4.0564146,0.002606349,0.0026198525,0.00255425,0.09016649,0.0,0.0,0.0,0.0,0.0,0.0009810369,0.030042509,0.08305917,0.0,0.0,0.0,0.0,0.0,0.0
1273698607,0.22456384,0.23502964,0.1252715,0.19364834,-0.016145706,0.58145523,0.0010188706,0.003054157,0.00016194582,-0.048216537,0.0,0.0,0.0,0.0,0.0,0.263215,0.2634355,0.5715775,0.54381704,0.5438851,4.056191,0.0025949012,0.0025996864,0.0025470876,0.09016649,0.0,0.0,0.0,0.0,0.0,0.001064735,0.027598951,0.07355594,0.0,0.0,0.0,0.0,0.0,0.0
1273902720,0.2866528,0.13127917,0.059960827,0.17450404,0.023797989,0.26236343,-0.0003532879,-0.009248465,0.0016635358,-0.048216537,0.0,0.0,0.0,0.0,0.0,0.26348284,0.26370147,0.5715689,0.5474803,0.54756975,4.05628,0.0025796888,0.0025788855,0.0025405637,0.09016649,0.0,0.0,0.0,0.0,0.0,0.0009985344,0.024965184,0.066331804,0.0,0.0,0.0,0.0,0.0,0.0
1274102885,-0.046168327,0.12192911,-0.021492988,0.14706135,0.038755417,0.3230095,0.0020023622,0.0029568225,-0.0008645952,-0.048216537,0.0,0.0,0.0,0.0,0.0,0.26363534,0.26383546,0.5715764,0.5504198,0.5505245,4.056074,0.0025714654,0.002568849,0.0025373448,0.09016649,0.0,0.0,0.0,0.0,0.0,0.0005490413,0.014861751,0.042279407,0.0,0.0,0.0,0.0,0.0,0.0
1274306622,0.101276875,0.09254122,0.071087144,0.1412158,0.04066229,-0.15828323,0.004893109,-0.0036084503,-0.0019839704,-0.048216537,0.0,0.0,0.0,0.0,0.0,0.26386225,0.26402962,0.5715869,0.5548099,0.55492604,4.056161,0.0025634454,0.0025603403,0.0025346144,0.09016649,0.0,0.0,0.0,0.0,0.0,0.0004247987,0.011194875,0.030010069,0.0,0.0,0.0,0.0,0.0,0.0
1274506578,0.056329727,0.111689866,0.08513719,0.10048056,0.063183784,-0.29219437,-0.0019402355,0.0036411881,0.009325743,-0.048216537,0.0,0.0,0.0,0.0,0.0,0.26417357,0.26430026,0.5716266,0.5582009,0.5583257,4.05623,0.002555886,0.0025522145,0.0025318635,0.09016649,0.0,0.0,0.0,0.0,0.0,0.00041748548,0.010403856,0.023950053,0.0,0.0,0.0,0.0,0.0,0.0
1274710732,-0.060962915,0.19204658,0.01632869,0.08876634,0.069738865,0.27350235,-0.009003036,0.011207566,-0.0017900467,-0.048216537,0.0,0.0,0.0,0.0,0.0,0.2642615,0.26435667,0.57157487,0.55913645,0.55925846,4.0562935,0.002548857,0.0025451283,0.0025292442,0.09016649,0.0,0.0,0.0,0.0,0.0,0.00046136125,0.014372428,0.029076321,0.0,0.0,0.0,0.0,0.0,0.0
1274910769,0.070087194,0.05584371,0.029930525,0.057631254,0.08843422,0.0658226,0.0052609295,0.0032779276,0.0008941591,-0.048216537,0.0,0.0,0.0,0.0,0.0,0.2645633,0.26461536,0.57160926,0.5626252,0.5627436,4.056348,0.0025524918,0.0025466916,0.0025297066,0.09016649,0.0,0.0,0.0,0.0,0.0,0.00036737215,0.010193113,0.02468616,0.0,0.0,0.0,0.0,0.0,0.0
1275114608,0.27180338,0.19601738,0.16315877,0.074845076,0.15362549,0.21784592,-0.00011604279,0.0015544146,0.004380554,-0.048216537,0.0,0.0,0.0,0.0,0.0,0.26489687,0.2649091,0.5715601,0.5632757,0.5633777,4.05613,0.0025635362,0.0025486713,0.002531299,0.09016649,0.0,0.0,0.0,0.0,0.0,0.0007102344,0.015547874,0.031454235,0.0,0.0,0.0,0.0,0.0,0.0
1275318736,0.13478577,0.13808298,-0.041660644,0.082010955,0.15934324,-0.12187576,0.0021953434,0.0004375726,0.0012171566,-0.048216537,0.0,0.0,0.0,0.0,0.0,0.26494652,0.26496872,0.5715643,0.56422746,0.56429994,4.0564737,0.002576349,0.0025480783,0.002533938,0.09016649,0.0,0.0,0.0,0.0,0.0,0.00074696227,0.013623965,0.029457575,0.0,0.0,0.0,0.0,0.0,0.0
1275522615,0.12922001,0.028933883,-0.113084,0.040324137,0.17295027,-0.13863754,0.00832662,-0.0019603372,0.004154682,-0.048216537,0.0,0.0,0.0,0.0,0.0,0.2653016,0.26546648,0.5716042,0.5709829,0.57101,4.0564857,0.0025742184,0.0025466655,0.002535239,0.09016649,0.0,0.0,0.0,0.0,0.0,0.0005449425,0.008678898,0.023214525,0.0,0.0,0.0,0.0,0.0,0.0
1275722749,0.26528883,0.16389906,-0.08284697,0.05351962,0.17550898,0.037960052,0.004954368,0.0014999509,0.0030620694,-0.048216537,0.0,0.0,0.0,0.0,0.0,0.26541084,0.2658619,0.57159364,0.5755827,0.5755691,4.0564876,0.0025546814,0.0025366838,0.0025300565,0.09016649,0.0,0.0,0.0,0.0,0.0,0.0007107272,0.012215734,0.027931822,0.0,0.0,0.0,0.0,0.0,0.0
1275922600,0.44158566,0.14175534,0.024460569,0.08842195,0.18751574,0.39245987,-0.0010359138,-0.0020219982,0.012110442,-0.048216537,0.0,0.0,0.0,0.0,0.0,0.26544994,0.26626527,0.57159907,0.5831042,0.583068,4.0564904,0.0025380333,0.0025302817,0.0025250807,0.09016649,0.0,0.0,0.0,0.0,0.0,0.0010852915,0.017883094,0.035683345,0.0,0.0,0.0,0.0,0.0,0.0
1276126568,0.33588094,-0.098970175,-0.18895517,0.10936177,0.15993834,-0.022659302,-0.004815057,-0.0075419247,0.009072334,-0.048216537,0.0,0.0,0.0,0.0,0.0,0.2655018,0.26666486,0.5716137,0.5907267,0.5906983,4.056489,0.0025281827,0.002526357,0.0025216595,0.09016649,0.0,0.0,0.0,0.0,0.0,0.0010564086,0.014021053,0.027089812,0.0,0.0,0.0,0.0,0.0,0.0
1276330778,0.19599259,-0.17334914,-0.071324825,0.0961837,0.10702515,1.073967,-0.0039503872,0.00011962652,0.004370868,-0.048216537,0.0,0.0,0.0,0.0,0.0,0.2652989,0.26668966,0.5716162,0.59294903,0.5929522,4.0564933,0.0025224967,0.002523344,0.0025191072,0.09016649,0.0,0.0,0.0,0.0,0.0,0.00100779,0.014601872,0.03370732,0.0,0.0,0.0,0.0,0.0,0.0
1276530743,-0.12586534,-0.34638762,-0.2069822,0.0792329,0.113743305,0.5746765,0.003441237,0.0045179576,-0.004883945,-0.048216537,0.0,0.0,0.0,0.0,0.0,0.2655006,0.26710472,0.5716196,0.5956828,0.59576666,4.0567565,0.0025195226,0.0025208693,0.0025171905,0.09016649,0.0,0.0,0.0,0.0,0.0,0.0011475568,0.023453942,0.040049415,0.0,0.0,0.0,0.0,0.0,0.0
1276730848,-0.09457755,-0.21135938,-0.19045341,0.05998361,0.1020627,0.30501175,-0.0020205006,0.0042651445,-0.011312515,-0.048216537,0.0,0.0,0.0,0.0,0.0,0.26554066,0.26721686,0.5716564,0.6023111,0.6025001,4.056733,0.0025186792,0.0025190723,0.0025160916,0.09016649,0.0,0.0,0.0,0.0,0.0,0.0010150991,0.02622424,0.051134933,0.0,0.0,0.0,0.0,0.0,0.0
1276934733,-0.016962767,-0.29449403,-0.10050644,0.040129006,0.069964886,0.59036636,0.005099416,-0.0006197691,0.0015953481,-0.048216537,0.0,0.0,0.0,0.0,0.0,0.26546875,0.26703876,0.5716604,0.60855705,0.60885084,4.0564632,0.0025178664,0.0025176227,0.0025150855,0.09016649,0.0,0.0,0.0,0.0,0.0,0.0010555413,0.026556449,0.048351083,0.0,0.0,0.0,0.0,0.0,0.0
1277138787,0.032356262,-0.20042491,-0.009226769,0.029052854,0.04689312,1.03545,-0.0025890917,-0.0033176392,0.0017895997,-0.048216537,0.0,0.0,0.0,0.0,0.0,0.2653329,0.26671937,0.57163626,0.6100164,0.6103977,4.0564814,0.0025173037,0.0025166506,0.0025143146,0.09016649,0.0,0.0,0.0,0.0,0.0,0.0009046111,0.022310639,0.044699036,0.0,0.0,0.0,0.0,0.0,0.0
1277338758,-0.09572804,-0.3346008,-0.30866322,0.026339054,0.040165186,0.6357384,0.0041911826,-0.006669596,-0.0025419593,-0.048216537,0.0,0.0,0.0,0.0,0.0,0.26538914,0.2665487,0.5716689,0.6122357,0.61272067,4.0564923,0.0025167183,0.0025159984,0.0025137353,0.09016649,0.0,0.0,0.0,0.0,0.0,0.0010498529,0.026425958,0.05180306,0.0,0.0,0.0,0.0,0.0,0.0
1277546753,-0.0073440075,-0.16181087,-0.0645989,0.011734009,0.031918287,0.24243546,7.24867e-05,-0.0007380098,-0.0061707497,-0.048216537,0.0,0.0,0.0,0.0,0.0,0.26529455,0.26622915,0.5716737,0.6154647,0.6160178,4.057064,0.0025160764,0.0025153533,0.002513169,0.09016649,0.0,0.0,0.0,0.0,0.0,0.00076402543,0.019463476,0.04199465,0.0,0.0,0.0,0.0,0.0,0.0
1277746728,0.034379482,-0.24000394,0.016637534,-0.03540206,-0.023750067,0.048553467,-0.013038158,0.01260069,-0.0015735626,-0.048216537,0.0,0.0,0.0,0.0,0.0,0.26506737,0.26582062,0.5716917,0.61792266,0.61849755,4.056769,0.002515679,0.0025148056,0.0025127484,0.09016649,0.0,0.0,0.0,0.0,0.0,0.0007086512,0.019069068,0.04818166,0.0,0.0,0.0,0.0,0.0,0.0
1277950624,0.027703047,0.08409345,0.14650032,-0.02364564,0.0291121,-0.5903778,0.0029598325,0.0060652047,0.0069029033,-0.048216537,0.0,0.0,0.0,0.0,0.0,0.26514837,0.26575354,0.57168126,0.61751586,0.6181395,4.0567923,0.0025149724,0.002514288,0.0025123393,0.09016649,0.0,0.0,0.0,0.0,0.0,9.7468524e-05,0.009658316,0.0314157,0.0,0.0,0.0,0.0,0.0,0.0
1278150789,-0.051198125,-0.31078207,-0.048046276,-0.023316622,-0.00903213,0.30021667,-0.0030380636,0.00033304095,-0.012723148,-0.048216537,0.0,0.0,0.0,0.0,0.0,0.26509508,0.26557478,0.57168597,0.6206503,0.6212776,4.057029,0.0025144126,0.002513837,0.0025119826,0.09016649,0.0,0.0,0.0,0.0,0.0,0.00055801927,0.015832905,0.042487532,0.0,0.0,0.0,0.0,0.0,0.0
1278354620,-0.19138634,-0.13310313,-0.07585653,-0.056281805,-0.01780212,0.4987297,-0.0014657229,0.0053792447,-0.01078409,-0.048216537,0.0,0.0,0.0,0.0,0.0,0.2649862,0.26535356,0.57173455,0.6204286,0.62103605,4.057271,0.002513938,0.0025134387,0.0025116825,0.09016649,0.0,0.0,0.0,0.0,0.0,0.000638627,0.018366178,0.045471646,0.0,0.0,0.0,0.0,0.0,0.0
1278555363,-0.065865874,-0.051137924,0.012863282,-0.05345297,-0.008758694,-0.1524086,-0.007826015,-0.0034111291,0.003987491,-0.048216537,0.0,0.0,0.0,0.0,0.0,0.26492372,0.26520783,0.5717338,0.62208384,0.62267077,4.0572367,0.0025134108,0.0025129167,0.0025112827,0.09016649,0.0,0.0,0.0,0.0,0.0,0.0003840471,0.015373205,0.04042586,0.0,0.0,0.0,0.0,0.0,0.0
1278754783,-0.007138014,-0.0127084255,0.0044282377,-0.04229641,0.0012283847,0.47042465,-0.015751876,-0.007255733,-0.010958731,-0.048216537,0.0,0.0,0.0,0.0,0.0,0.2648395,0.26505584,0.57173556,0.62671024,0.6272669,4.057207,0.0025128971,0.0025124897,0.002510918,0.09016649,0.0,0.0,0.0,0.0,0.0,0.00014307832,0.011726341,0.03333187,0.0,0.0,0.0,0.0,0.0,0.0
1278958567,0.10338664,-0.16301942,-0.08795912,-0.029302597,-0.012181371,0.18162155,0.0045615286,-0.003914878,-0.0035391152,-0.048216537,0.0,0.0,0.0,0.0,0.0,0.26477084,0.26492333,0.5717375,0.62836576,0.6288863,4.056935,0.0025125707,0.002512265,0.0025107113,0.09016649,0.0,0.0,0.0,0.0,0.0,0.00025663344,0.0055362256,0.017971069,0.0,0.0,0.0,0.0,0.0,0.0
1279158789,-0.05075741,-0.106333494,-0.068783596,-0.045607567,-0.014947772,0.47294998,0.0035912916,0.013779029,-0.003637135,-0.048216537,0.0,0.0,0.0,0.0,0.0,0.26474085,0.26483086,0.5716658,0.63151073,0.6319872,4.0566716,0.0025122247,0.0025120587,0.0025105127,0.09016649,0.0,0.0,0.0,0.0,0.0,0.00024971558,0.006578525,0.015061895,0.0,0.0,0.0,0.0,0.0,0.0
1279362620,-0.1765027,-0.121029854,-0.11168924,-0.105997086,-0.020905137,0.19281387,0.009772904,-0.005676195,-0.008141875,-0.048216537,0.0,0.0,0.0,0.0,0.0,0.26470655,0.26474717,0.5716745,0.6346625,0.63509256,4.0566955,0.0025118808,0.0025120326,0.0025103425,0.09016649,0.0,0.0,0.0,0.0,0.0,0.00043955227,0.012647439,0.027467635,0.0,0.0,0.0,0.0,0.0,0.0
1279563125,-0.13247025,-0.08158064,-0.032412335,-0.12558603,-0.018327475,0.09209061,0.0027163103,0.014779419,0.008445591,-0.048216537,0.0,0.0,0.0,0.0,0.0,0.26468152,0.2646757,0.5716816,0.63480246,0.63518596,4.056717,0.0025115495,0.0025115816,0.0025100051,0.09016649,0.0,0.0,0.0,0.0,0.0,0.00050863606,0.013441364,0.029114826,0.0,0.0,0.0,0.0,0.0,0.0
1279762740,-0.15587449,-0.14979029,-0.13369808,-0.17476273,-0.051457167,-0.049251556,-0.0031943247,-0.0051051974,-0.007216245,-0.048216537,0.0,0.0,0.0,0.0,0.0,0.26451603,0.26446655,0.5717036,0.637179,0.63751155,4.056743,0.0025113847,0.002511094,0.0025096775,0.09016649,0.0,0.0,0.0,0.0,0.0,0.0005650271,0.0148519315,0.034199804,0.0,0.0,0.0,0.0,0.0,0.0
1279966564,-0.12635481,-0.1290536,-0.08213461,-0.1780982,-0.04776001,0.47539902,-0.0031943247,-0.0051051974,-0.007216245,0.01213938,0.0,0.0,0.0,0.0,0.0,0.26450077,0.26440507,0.5717112,0.638894,0.6391776,4.0567765,0.0025113847,0.002511094,0.0025096775,0.0902367,0.0,0.0,0.0,0.0,0.0,0.00062408193,0.013555766,0.030337581,0.0,0.0,0.0,0.0,0.0,0.0
1280166794,-0.08886731,-0.12298393,-0.20352404,-0.122923374,0.011265516,0.94067764,-0.0031943247,-0.0051051974,-0.007216245,0.05214846,0.0,0.0,0.0,0.0,0.0,0.26470625,0.2645564,0.57173455,0.6432413,0.64346635,4.0565767,0.0025113847,0.002511094,0.0025096775,0.09023553,0.0,0.0,0.0,0.0,0.0,0.0003845514,0.011368257,0.026236165,0.0,0.0,0.0,0.0,0.0,0.0
1280370728,-0.09069109,-0.0650661,-0.09149786,-0.13877821,-0.011519194,-0.020908356,-0.0031943247,-0.0051051974,-0.007216245,0.00015419722,0.0,0.0,0.0,0.0,0.0,0.26459843,0.26441947,0.5717135,0.64595735,0.64612335,4.05664,0.0025113847,0.002511094,0.0025096775,0.09023354,0.0,0.0,0.0,0.0,0.0,0.00031089602,0.0090993075,0.019535024,0.0,0.0,0.0,0.0,0.0,0.0
1280571080,0.011250734,-0.09502375,-0.07503321,-0.12332344,-0.007712364,0.29388046,-0.0031943247,-0.0051051974,-0.007216245,0.025732577,0.0,0.0,0.0,0.0,0.0,0.26458082,0.264403,0.57172406,0.6491191,0.6492275,4.056429,0.0025113847,0.002511094,0.0025096775,0.09023229,0.0,0.0,0.0,0.0,0.0,0.00040483143,0.004562228,0.010293818,0.0,0.0,0.0,0.0,0.0,0.0
1280774771,-0.069961786,0.008645773,-0.1262101,-0.10722637,-0.0007658005,-0.37010956,-0.0031943247,-0.0051051974,-0.007216245,-0.016535759,0.0,0.0,0.0,0.0,0.0,0.26451308,0.26436394,0.5716609,0.653822,0.6538775,4.056242,0.0025113847,0.002511094,0.0025096775,0.09023102,0.0,0.0,0.0,0.0,0.0,0.0003955005,0.010728124,0.02957373,0.0,0.0,0.0,0.0,0.0,0.0
1280974766,-0.037804246,0.0018231869,-0.14346462,-0.13168287,0.008406639,0.3851204,-0.0031943247,-0.0051051974,-0.007216245,-0.008269429,0.0,0.0,0.0,0.0,0.0,0.2644536,0.2643526,0.57167447,0.6524279,0.65243816,4.0563726,0.0025113847,0.002511094,0.0025096775,0.090229034,0.0,0.0,0.0,0.0,0.0,0.00020791183,0.008390343,0.021144511,0.0,0.0,0.0,0.0,0.0,0.0
1281174835,0.02575326,0.019329071,-0.10577171,-0.13343668,0.023025036,-0.3971367,-0.0031943247,-0.0051051974,-0.007216245,0.021478832,0.0,0.0,0.0,0.0,0.0,0.2644629,0.26442242,0.57171714,0.6544213,0.6543934,4.0564737,0.0025113847,0.002511094,0.0025096775,0.09022727,0.0,0.0,0.0,0.0,0.0,0.00033761878,0.007289137,0.015286326,0.0,0.0,0.0,0.0,0.0,0.0
1281378809,-0.09133625,0.053537607,-0.071287744,-0.14132977,0.021491528,-0.6174736,-0.0031943247,-0.0051051974,-0.007216245,-0.024914801,0.0,0.0,0.0,0.0,0.0,0.26442084,0.2644323,0.5717296,0.6559923,0.65593994,4.056293,0.0025113847,0.002511094,0.0025096775,0.09022534,0.0,0.0,0.0,0.0,0.0,0.00020924142,0.009298006,0.020841636,0.0,0.0,0.0,0.0,0.0,0.0
1281578770,-0.09241009,-0.05552697,-0.013466813,-0.20102215,-0.015312195,0.18585587,-0.0031943247,-0.0051051974,-0.007216245,-0.004625261,0.0,0.0,0.0,0.0,0.0,0.26431662,0.26437512,0.571712,0.6556558,0.65559,4.0561337,0.0025113847,0.002511094,0.0025096775,0.09022442,0.0,0.0,0.0,0.0,0.0,0.00030365615,0.0063858796,0.014305917,0.0,0.0,0.0,0.0,0.0,0.0
1281782804,-0.03468871,0.09413123,0.05455475,-0.18067074,0.018507957,0.3408394,-0.0031943247,-0.0051051974,-0.007216245,-0.0013308525,0.0,0.0,0.0,0.0,0.0,0.26429772,0.26440382,0.57168347,0.66069865,0.6606245,4.056042,0.0025113847,0.002511094,0.0025096775,0.09022315,0.0,0.0,0.0,0.0,0.0,0.0003292457,0.009393065,0.02167309,0.0,0.0,0.0,0.0,0.0,0.0
1281986796,-0.074658394,-0.061742067,-0.12663099,-0.17512035,0.011284351,-1.0136452,-0.0031943247,-0.0051051974,-0.007216245,0.019995451,0.0,0.0,0.0,0.0,0.0,0.26426503,0.26441962,0.57170004,0.66383034,0.6637592,4.056195,0.0025113847,0.002511094,0.0025096775,0.09022118,0.0,0.0,0.0,0.0,0.0,0.00058150553,0.005053481,0.012293357,0.0,0.0,0.0,0.0,0.0,0.0
1282190867,0.020775199,0.011977434,-0.08455242,-0.20338249,-0.007892609,-0.14422989,-0.0031943247,-0.0051051974,-0.007216245,0.047093093,0.0,0.0,0.0,0.0,0.0,0.26424283,0.26441854,0.57168657,0.6619797,0.66191775,4.0561056,0.0025113847,0.002511094,0.0025096775,0.090219125,0.0,0.0,0.0,0.0,0.0,0.00026635383,0.003026824,0.0081410315,0.0,0.0,0.0,0.0,0.0,0.0
1282390718,0.06700218,0.030925512,-0.08688577,-0.2124691,-0.037745953,-0.399765,-0.0031943247,-0.0051051974,-0.007216245,-0.028077781,0.0,0.0,0.0,0.0,0.0,0.26427236,0.26444018,0.57167107,0.6601592,0.6601084,4.055986,0.0025113847,0.002511094,0.0025096775,0.09021717,0.0,0.0,0.0,0.0,0.0,0.0001846446,0.007899048,0.024040975,0.0,0.0,0.0,0.0,0.0,0.0
1282594614,0.0038211346,0.07367945,-0.04998918,-0.21120453,-0.026363373,-0.14695358,-0.0031943247,-0.0051051974,-0.007216245,-0.049632788,0.0,0.0,0.0,0.0,0.0,0.26436794,0.2645179,0.57164335,0.65910536,0.6590661,4.055878,0.0025113847,0.002511094,0.0025096775,0.09021584,0.0,0.0,0.0,0.0,0.0,0.00021148208,0.010941045,0.0335379,0.0,0.0,0.0,0.0,0.0,0.0
1282798779,0.07149625,0.08887482,-0.047837272,-0.22130871,-0.010338783,-1.0576973,-0.0031943247,-0.0051051974,-0.007216245,0.0029056668,0.0,0.0,0.0,0.0,0.0,0.26444945,0.2646014,0.57169193,0.65797895,0.6579506,4.0560975,0.0025113847,0.002511094,0.0025096775,0.09021527,0.0,0.0,0.0,0.0,0.0,0.00012757316,0.0108152395,0.03010672,0.0,0.0,0.0,0.0,0.0,0.0
1283002762,0.05993724,0.15059972,-0.040559746,-0.22627163,-0.008041382,-0.5335007,-0.0031943247,-0.0051051974,-0.007216245,-0.04688579,0.0,0.0,0.0,0.0,0.0,0.26445302,0.26463348,0.5717086,0.6579433,0.6579279,4.056246,0.0025113847,0.002511094,0.0025096775,0.09021523,0.0,0.0,0.0,0.0,0.0,0.00018764006,0.013627865,0.038657073,0.0,0.0,0.0,0.0,0.0,0.0
1283202729,-0.015076876,0.13081217,-0.11286664,-0.2058239,-0.016583443,-0.36722183,-0.0031943247,-0.0051051974,-0.007216245,-0.024739563,0.0,0.0,0.0,0.0,0.0,0.2643285,0.26453274,0.5716913,0.6590637,0.659063,4.0561166,0.0025113847,0.002511094,0.0025096775,0.09021223,0.0,0.0,0.0,0.0,0.0,0.00030115916,0.009831074,0.02489775,0.0,0.0,0.0,0.0,0.0,0.0
1283406723,0.1809107,0.16454911,-0.061783224,-0.14566994,0.053545,0.16000748,-0.0031943247,-0.0051051974,-0.007216245,-0.08981609,0.0,0.0,0.0,0.0,0.0,0.26450688,0.264726,0.57172066,0.661756,0.66177875,4.0562654,0.0025113847,0.002511094,0.0025096775,0.09021057,0.0,0.0,0.0,0.0,0.0,0.00036706956,0.013710059,0.032741018,0.0,0.0,0.0,0.0,0.0,0.0
1283610741,0.056690216,0.092613935,-0.09591447,-0.15293789,0.0059041977,0.422863,-0.0031943247,-0.0051051974,-0.007216245,-0.014564753,0.0,0.0,0.0,0.0,0.0,0.26429826,0.26451167,0.571716,0.6636143,0.66365075,4.056393,0.0025113847,0.002511094,0.0025096775,0.09020909,0.0,0.0,0.0,0.0,0.0,0.0004940279,0.0104078,0.026677845,0.0,0.0,0.0,0.0,0.0,0.0
1283810736,-0.036850333,0.06932688,-0.119614035,-0.14104366,0.0011873245,-0.0617218,-0.0031943247,-0.0051051974,-0.007216245,-0.030973852,0.0,0.0,0.0,0.0,0.0,0.2643289,0.26454204,0.57172585,0.6652398,0.6652947,4.0565147,0.0025113847,0.002511094,0.0025096775,0.09020806,0.0,0.0,0.0,0.0,0.0,0.0001341644,0.008083959,0.024457352,0.0,0.0,0.0,0.0,0.0,0.0
1284010728,0.03877282,0.023804903,-0.20300415,-0.13236332,0.004085541,-1.5371895,-0.0031943247,-0.0051051974,-0.007216245,0.02811712,0.0,0.0,0.0,0.0,0.0,0.26430967,0.2645098,0.5717348,0.6668686,0.66693956,4.056622,0.0025113847,0.002511094,0.0025096775,0.090206526,0.0,0.0,0.0,0.0,0.0,0.00018308334,0.012985908,0.04434514,0.0,0.0,0.0,0.0,0.0,0.0
1284214779,-0.019352794,-0.014068842,-0.18105848,-0.121785164,0.0055379868,0.0051460266,-0.0031943247,-0.0051051974,-0.007216245,-0.026777685,0.0,0.0,0.0,0.0,0.0,0.26432362,0.2645115,0.57174087,0.668501,0.6685868,4.05649,0.0025113847,0.002511094,0.0025096775,0.090205014,0.0,0.0,0.0,0.0,0.0,0.00018783637,0.00652735,0.022377541,0.0,0.0,0.0,0.0,0.0,0.0
1284414712,0.2991529,0.22245765,-0.07044557,-0.07935715,0.031125069,-0.3430748,-0.0031943247,-0.0051051974,-0.007216245,0.013642013,0.0,0.0,0.0,0.0,0.0,0.26444894,0.2646081,0.5716798,0.67485815,0.67496616,4.056606,0.0025113847,0.002511094,0.0025096775,0.0902046,0.0,0.0,0.0,0.0,0.0,0.00045232516,0.02164425,0.039364297,0.0,0.0,0.0,0.0,0.0,0.0
1284614772,0.04903984,0.0742178,-0.08814959,-0.07466698,0.047249794,-0.064022064,-0.0031943247,-0.0051051974,-0.007216245,0.029153764,0.0,0.0,0.0,0.0,0.0,0.26450416,0.26462638,0.5716874,0.67657596,0.67668796,4.056432,0.0025113847,0.002511094,0.0025096775,0.09020294,0.0,0.0,0.0,0.0,0.0,0.00051802886,0.015534342,0.030795883,0.0,0.0,0.0,0.0,0.0,0.0
1284818627,0.04903984,0.0742178,-0.08814959,-0.07466698,0.047249794,-0.31601715,-0.0031943247,-0.0051051974,-0.007216245,-0.01989609,0.0,0.0,0.0,0.0,0.0,0.26450416,0.26462638,0.5716874,0.67657596,0.67668796,4.056536,0.0025113847,0.002511094,0.0025096775,0.09020177,0.0,0.0,0.0,0.0,0.0,0.00026799165,0.0102972835,0.028569192,0.0,0.0,0.0,0.0,0.0,0.0
1285018806,-0.1441586,-0.0046257973,-0.082424775,-0.085006714,0.054793358,-0.7328224,-0.0031943247,-0.0051051974,-0.007216245,-0.057952702,0.0,0.0,0.0,0.0,0.0,0.26458508,0.26466805,0.5717241,0.67711353,0.6772249,4.056628,0.0025113847,0.002511094,0.0025096775,0.09020052,0.0,0.0,0.0,0.0,0.0,0.00026173878,0.0065037543,0.023180498,0.0,0.0,0.0,0.0,0.0,0.0
1285218730,0.07348633,0.040949345,0.05795437,-0.051885605,0.0371027,-0.5181389,-0.0031943247,-0.0051051974,-0.007216245,-0.040682435,0.0,0.0,0.0,0.0,0.0,0.26446936,0.2645102,0.5717017,0.6784628,0.67855936,4.056699,0.0025113847,0.002511094,0.0025096775,0.09019967,0.0,0.0,0.0,0.0,0.0,0.0002803961,0.010205591,0.025592875,0.0,0.0,0.0,0.0,0.0,0.0
1285422776,-0.004565716,0.017335653,-0.023061436,-0.063593864,0.04683876,-0.34939957,-0.0031943247,-0.0051051974,-0.007216245,8.827448e-05,0.0,0.0,0.0,0.0,0.0,0.26451626,0.26455036,0.5716624,0.67896384,0.6790537,4.05655,0.0025113847,0.002511094,0.0025096775,0.0901986,0.0,0.0,0.0,0.0,0.0,0.00015813748,0.0034905705,0.011903224,0.0,0.0,0.0,0.0,0.0,0.0
1285626831,-0.015378475,0.06376767,0.009706959,-0.062812805,0.044629097,0.23967361,-0.0031943247,-0.0051051974,-0.007216245,0.035484612,0.0,0.0,0.0,0.0,0.0,0.2645937,0.26462156,0.57167,0.6805932,0.6806755,4.05665,0.0025113847,0.002511094,0.0025096775,0.09019778,0.0,0.0,0.0,0.0,0.0,0.00020892172,0.0040833247,0.010392934,0.0,0.0,0.0,0.0,0.0,0.0
