timestamp,noutputs,output[0],output[1],output[2],output[3],output[4],output[5],output[6],output[7],output[8],output[9],output[10],output[11],output[12],output[13],output[14],output[15]
1244762221,8,1111.0,1128.0,1141.0,1137.0,1124.0,1104.0,1094.0,1095.0,0.0,0.0,0.0,0.0,0.0,0.0,0.0,0.0
1244934125,8,1451.0,1466.0,1479.0,1475.0,1463.0,1444.0,1435.0,1435.0,0.0,0.0,0.0,0.0,0.0,0.0,0.0,0.0
1244974116,8,1455.0,1472.0,1484.0,1481.0,1468.0,1449.0,1439.0,1440.0,0.0,0.0,0.0,0.0,0.0,0.0,0.0,0.0
1245018242,8,1460.0,1477.0,1491.0,1487.0,1474.0,1454.0,1444.0,1444.0,0.0,0.0,0.0,0.0,0.0,0.0,0.0,0.0
1245062100,8,1465.0,1484.0,1496.0,1494.0,1479.0,1460.0,1448.0,1450.0,0.0,0.0,0.0,0.0,0.0,0.0,0.0,0.0
1245102111,8,1472.0,1488.0,1503.0,1498.0,1486.0,1463.0,1455.0,1453.0,0.0,0.0,0.0,0.0,0.0,0.0,0.0,0.0
1245146254,8,1478.0,1492.0,1508.0,1502.0,1491.0,1468.0,1460.0,1459.0,0.0,0.0,0.0,0.0,0.0,0.0,0.0,0.0
1245186244,8,1481.0,1494.0,1508.0,1506.0,1498.0,1479.0,1470.0,1467.0,0.0,0.0,0.0,0.0,0.0,0.0,0.0,0.0
1245230119,8,1478.0,1512.0,1503.0,1520.0,1490.0,1493.0,1465.0,1485.0,0.0,0.0,0.0,0.0,0.0,0.0,0.0,0.0
1245274236,8,1496.0,1502.0,1530.0,1515.0,1515.0,1480.0,1481.0,1467.0,0.0,0.0,0.0,0.0,0.0,0.0,0.0,0.0
1245314232,8,1492.0,1507.0,1522.0,1525.0,1517.0,1500.0,1487.0,1481.0,0.0,0.0,0.0,0.0,0.0,0.0,0.0,0.0
1245358112,8,1503.0,1516.0,1540.0,1532.0,1524.0,1494.0,1487.0,1479.0,0.0,0.0,0.0,0.0,0.0,0.0,0.0,0.0
1245398115,8,1506.0,1531.0,1555.0,1546.0,1527.0,1492.0,1478.0,1477.0,0.0,0.0,0.0,0.0,0.0,0.0,0.0,0.0
1245438126,8,1512.0,1539.0,1550.0,1548.0,1524.0,1502.0,1486.0,1493.0,0.0,0.0,0.0,0.0,0.0,0.0,0.0,0.0
1245482142,8,1519.0,1538.0,1557.0,1550.0,1535.0,1508.0,1498.0,1496.0,0.0,0.0,0.0,0.0,0.0,0.0,0.0,0.0
1245522139,8,1523.0,1543.0,1554.0,1553.0,1537.0,1519.0,1506.0,1509.0,0.0,0.0,0.0,0.0,0.0,0.0,0.0,0.0
1245566116,8,1532.0,1549.0,1562.0,1556.0,1542.0,1521.0,1513.0,1515.0,0.0,0.0,0.0,0.0,0.0,0.0,0.0,0.0
1245610142,8,1537.0,1550.0,1567.0,1560.0,1552.0,1529.0,1522.0,1518.0,0.0,0.0,0.0,0.0,0.0,0.0,0.0,0.0
1245650135,8,1539.0,1555.0,1568.0,1568.0,1557.0,1539.0,1528.0,1526.0,0.0,0.0,0.0,0.0,0.0,0.0,0.0,0.0
1245694126,8,1545.0,1567.0,1582.0,1579.0,1562.0,1539.0,1526.0,1527.0,0.0,0.0,0.0,0.0,0.0,0.0,0.0,0.0
1245734108,8,1554.0,1574.0,1587.0,1582.0,1565.0,1543.0,1532.0,1535.0,0.0,0.0,0.0,0.0,0.0,0.0,0.0,0.0
1245778236,8,1560.0,1567.0,1567.0,1569.0,1563.0,1562.0,1557.0,1560.0,0.0,0.0,0.0,0.0,0.0,0.0,0.0,0.0
1245818275,8,1569.0,1553.0,1522.0,1540.0,1552.0,1594.0,1599.0,1607.0,0.0,0.0,0.0,0.0,0.0,0.0,0.0,0.0
1245862240,8,1567.0,1527.0,1468.0,1510.0,1544.0,1634.0,1643.0,1651.0,0.0,0.0,0.0,0.0,0.0,0.0,0.0,0.0
1245902096,8,1565.0,1500.0,1441.0,1486.0,1544.0,1647.0,1669.0,1662.0,0.0,0.0,0.0,0.0,0.0,0.0,0.0,0.0
1245946302,8,1523.0,1483.0,1430.0,1490.0,1532.0,1628.0,1625.0,1621.0,0.0,0.0,0.0,0.0,0.0,0.0,0.0,0.0
1245986247,8,1471.0,1468.0,1432.0,1505.0,1524.0,1598.0,1563.0,1561.0,0.0,0.0,0.0,0.0,0.0,0.0,0.0,0.0
1246030140,8,1457.0,1460.0,1448.0,1504.0,1520.0,1561.0,1529.0,1517.0,0.0,0.0,0.0,0.0,0.0,0.0,0.0,0.0
1246070112,8,1501.0,1461.0,1436.0,1447.0,1482.0,1526.0,1547.0,1539.0,0.0,0.0,0.0,0.0,0.0,0.0,0.0,0.0
1246114243,8,1476.0,1441.0,1446.0,1446.0,1484.0,1494.0,1515.0,1489.0,0.0,0.0,0.0,0.0,0.0,0.0,0.0,0.0
1246154248,8,1468.0,1434.0,1465.0,1442.0,1480.0,1454.0,1482.0,1446.0,0.0,0.0,0.0,0.0,0.0,0.0,0.0,0.0
1246194287,8,1477.0,1437.0,1464.0,1428.0,1464.0,1436.0,1476.0,1446.0,0.0,0.0,0.0,0.0,0.0,0.0,0.0,0.0
1246238117,8,1461.0,1429.0,1462.0,1432.0,1465.0,1434.0,1464.0,1430.0,0.0,0.0,0.0,0.0,0.0,0.0,0.0,0.0
1246278106,8,1458.0,1422.0,1444.0,1421.0,1457.0,1439.0,1470.0,1440.0,0.0,0.0,0.0,0.0,0.0,0.0,0.0,0.0
1246322134,8,1457.0,1401.0,1430.0,1408.0,1466.0,1452.0,1493.0,1445.0,0.0,0.0,0.0,0.0,0.0,0.0,0.0,0.0
1246362166,8,1449.0,1401.0,1429.0,1415.0,1470.0,1459.0,1491.0,1444.0,0.0,0.0,0.0,0.0,0.0,0.0,0.0,0.0
1246406115,8,1450.0,1406.0,1434.0,1419.0,1468.0,1454.0,1484.0,1442.0,0.0,0.0,0.0,0.0,0.0,0.0,0.0,0.0
1246446123,8,1452.0,1410.0,1438.0,1423.0,1471.0,1457.0,1485.0,1443.0,0.0,0.0,0.0,0.0,0.0,0.0,0.0,0.0
1246490149,8,1451.0,1409.0,1444.0,1429.0,1479.0,1459.0,1486.0,1439.0,0.0,0.0,0.0,0.0,0.0,0.0,0.0,0.0
1246530130,8,1457.0,1410.0,1448.0,1423.0,1475.0,1448.0,1484.0,1435.0,0.0,0.0,0.0,0.0,0.0,0.0,0.0,0.0
1246574117,8,1458.0,1416.0,1456.0,1428.0,1474.0,1441.0,1475.0,1430.0,0.0,0.0,0.0,0.0,0.0,0.0,0.0,0.0
1246618154,8,1460.0,1415.0,1457.0,1425.0,1474.0,1439.0,1477.0,1429.0,0.0,0.0,0.0,0.0,0.0,0.0,0.0,0.0
1246658119,8,1464.0,1414.0,1457.0,1422.0,1476.0,1441.0,1483.0,1432.0,0.0,0.0,0.0,0.0,0.0,0.0,0.0,0.0
1246702239,8,1467.0,1416.0,1459.0,1422.0,1476.0,1440.0,1484.0,1434.0,0.0,0.0,0.0,0.0,0.0,0.0,0.0,0.0
1246742131,8,1465.0,1411.0,1456.0,1420.0,1477.0,1440.0,1485.0,1432.0,0.0,0.0,0.0,0.0,0.0,0.0,0.0,0.0
1246786112,8,1461.0,1410.0,1458.0,1424.0,1481.0,1442.0,1484.0,1428.0,0.0,0.0,0.0,0.0,0.0,0.0,0.0,0.0
1246826342,8,1461.0,1407.0,1461.0,1425.0,1487.0,1444.0,1487.0,1425.0,0.0,0.0,0.0,0.0,0.0,0.0,0.0,0.0
1246866130,8,1458.0,1405.0,1459.0,1424.0,1485.0,1441.0,1483.0,1422.0,0.0,0.0,0.0,0.0,0.0,0.0,0.0,0.0
1246910135,8,1458.0,1407.0,1462.0,1426.0,1486.0,1440.0,1482.0,1421.0,0.0,0.0,0.0,0.0,0.0,0.0,0.0,0.0
1246954118,8,1457.0,1403.0,1458.0,1424.0,1488.0,1444.0,1487.0,1423.0,0.0,0.0,0.0,0.0,0.0,0.0,0.0,0.0
1246998228,8,1458.0,1407.0,1461.0,1429.0,1489.0,1446.0,1485.0,1424.0,0.0,0.0,0.0,0.0,0.0,0.0,0.0,0.0
1247042281,8,1459.0,1407.0,1462.0,1429.0,1490.0,1446.0,1486.0,1424.0,0.0,0.0,0.0,0.0,0.0,0.0,0.0,0.0
1247082109,8,1458.0,1408.0,1456.0,1427.0,1485.0,1448.0,1486.0,1429.0,0.0,0.0,0.0,0.0,0.0,0.0,0.0,0.0
1247126168,8,1459.0,1409.0,1457.0,1428.0,1485.0,1449.0,1487.0,1430.0,0.0,0.0,0.0,0.0,0.0,0.0,0.0,0.0
1247166142,8,1460.0,1407.0,1454.0,1424.0,1485.0,1451.0,1492.0,1433.0,0.0,0.0,0.0,0.0,0.0,0.0,0.0,0.0
1247210271,8,1461.0,1410.0,1455.0,1426.0,1484.0,1450.0,1489.0,1434.0,0.0,0.0,0.0,0.0,0.0,0.0,0.0,0.0
1247250133,8,1464.0,1408.0,1455.0,1422.0,1484.0,1448.0,1492.0,1434.0,0.0,0.0,0.0,0.0,0.0,0.0,0.0,0.0
1247294226,8,1460.0,1406.0,1451.0,1423.0,1484.0,1453.0,1493.0,1436.0,0.0,0.0,0.0,0.0,0.0,0.0,0.0,0.0
1247334250,8,1459.0,1406.0,1455.0,1426.0,1487.0,1451.0,1491.0,1431.0,0.0,0.0,0.0,0.0,0.0,0.0,0.0,0.0
1247378286,8,1457.0,1405.0,1453.0,1425.0,1486.0,1451.0,1490.0,1431.0,0.0,0.0,0.0,0.0,0.0,0.0,0.0,0.0
1247418133,8,1460.0,1401.0,1449.0,1419.0,1484.0,1451.0,1495.0,1434.0,0.0,0.0,0.0,0.0,0.0,0.0,0.0,0.0
1247462259,8,1461.0,1402.0,1448.0,1419.0,1485.0,1454.0,1498.0,1437.0,0.0,0.0,0.0,0.0,0.0,0.0,0.0,0.0
1247502247,8,1463.0,1410.0,1451.0,1423.0,1482.0,1453.0,1493.0,1439.0,0.0,0.0,0.0,0.0,0.0,0.0,0.0,0.0
1247546296,8,1461.0,1407.0,1450.0,1420.0,1479.0,1448.0,1490.0,1435.0,0.0,0.0,0.0,0.0,0.0,0.0,0.0,0.0
1247586124,8,1457.0,1408.0,1455.0,1429.0,1487.0,1453.0,1489.0,1432.0,0.0,0.0,0.0,0.0,0.0,0.0,0.0,0.0
1247630275,8,1455.0,1413.0,1457.0,1434.0,1485.0,1452.0,1483.0,1432.0,0.0,0.0,0.0,0.0,0.0,0.0,0.0,0.0
1247670208,8,1454.0,1418.0,1455.0,1437.0,1480.0,1454.0,1479.0,1435.0,0.0,0.0,0.0,0.0,0.0,0.0,0.0,0.0
1247714241,8,1457.0,1421.0,1455.0,1437.0,1480.0,1456.0,1483.0,1440.0,0.0,0.0,0.0,0.0,0.0,0.0,0.0,0.0
1247754126,8,1462.0,1423.0,1454.0,1436.0,1480.0,1460.0,1488.0,1447.0,0.0,0.0,0.0,0.0,0.0,0.0,0.0,0.0
1247798218,8,1466.0,1426.0,1453.0,1435.0,1479.0,1463.0,1493.0,1454.0,0.0,0.0,0.0,0.0,0.0,0.0,0.0,0.0
1247838212,8,1469.0,1426.0,1450.0,1431.0,1476.0,1463.0,1495.0,1458.0,0.0,0.0,0.0,0.0,0.0,0.0,0.0,0.0
1247882223,8,1470.0,1425.0,1450.0,1432.0,1479.0,1466.0,1499.0,1459.0,0.0,0.0,0.0,0.0,0.0,0.0,0.0,0.0
1247922135,8,1473.0,1421.0,1450.0,1428.0,1482.0,1467.0,1505.0,1460.0,0.0,0.0,0.0,0.0,0.0,0.0,0.0,0.0
1247966258,8,1472.0,1423.0,1453.0,1431.0,1483.0,1466.0,1503.0,1459.0,0.0,0.0,0.0,0.0,0.0,0.0,0.0,0.0
1248006219,8,1474.0,1422.0,1456.0,1431.0,1487.0,1466.0,1505.0,1457.0,0.0,0.0,0.0,0.0,0.0,0.0,0.0,0.0
1248050210,8,1472.0,1421.0,1456.0,1433.0,1489.0,1467.0,1504.0,1455.0,0.0,0.0,0.0,0.0,0.0,0.0,0.0,0.0
1248090131,8,1470.0,1421.0,1458.0,1435.0,1490.0,1466.0,1502.0,1452.0,0.0,0.0,0.0,0.0,0.0,0.0,0.0,0.0
1248134263,8,1471.0,1421.0,1458.0,1434.0,1488.0,1464.0,1501.0,1451.0,0.0,0.0,0.0,0.0,0.0,0.0,0.0,0.0
1248174222,8,1473.0,1422.0,1458.0,1432.0,1488.0,1463.0,1502.0,1453.0,0.0,0.0,0.0,0.0,0.0,0.0,0.0,0.0
1248218220,8,1475.0,1418.0,1458.0,1428.0,1489.0,1462.0,1506.0,1452.0,0.0,0.0,0.0,0.0,0.0,0.0,0.0,0.0
1248258134,8,1477.0,1415.0,1455.0,1421.0,1485.0,1458.0,1507.0,1452.0,0.0,0.0,0.0,0.0,0.0,0.0,0.0,0.0
1248302237,8,1480.0,1416.0,1458.0,1420.0,1487.0,1457.0,1509.0,1452.0,0.0,0.0,0.0,0.0,0.0,0.0,0.0,0.0
1248342171,8,1481.0,1415.0,1460.0,1421.0,1491.0,1458.0,1512.0,1451.0,0.0,0.0,0.0,0.0,0.0,0.0,0.0,0.0
1248386201,8,1479.0,1413.0,1459.0,1421.0,1490.0,1457.0,1510.0,1449.0,0.0,0.0,0.0,0.0,0.0,0.0,0.0,0.0
1248426113,8,1477.0,1415.0,1461.0,1425.0,1492.0,1457.0,1508.0,1447.0,0.0,0.0,0.0,0.0,0.0,0.0,0.0,0.0
1248466104,8,1478.0,1410.0,1459.0,1420.0,1491.0,1455.0,1509.0,1446.0,0.0,0.0,0.0,0.0,0.0,0.0,0.0,0.0
1248506103,8,1475.0,1411.0,1458.0,1422.0,1491.0,1457.0,1508.0,1446.0,0.0,0.0,0.0,0.0,0.0,0.0,0.0,0.0
1248550255,8,1477.0,1411.0,1455.0,1417.0,1486.0,1454.0,1508.0,1448.0,0.0,0.0,0.0,0.0,0.0,0.0,0.0,0.0
1248590263,8,1477.0,1413.0,1456.0,1421.0,1488.0,1458.0,1509.0,1450.0,0.0,0.0,0.0,0.0,0.0,0.0,0.0,0.0
1248634238,8,1473.0,1411.0,1454.0,1422.0,1490.0,1461.0,1509.0,1450.0,0.0,0.0,0.0,0.0,0.0,0.0,0.0,0.0
1248674116,8,1473.0,1409.0,1452.0,1421.0,1489.0,1461.0,1509.0,1450.0,0.0,0.0,0.0,0.0,0.0,0.0,0.0,0.0
1248718249,8,1474.0,1412.0,1450.0,1420.0,1486.0,1462.0,1510.0,1454.0,0.0,0.0,0.0,0.0,0.0,0.0,0.0,0.0
1248758161,8,1474.0,1414.0,1451.0,1422.0,1485.0,1463.0,1508.0,1455.0,0.0,0.0,0.0,0.0,0.0,0.0,0.0,0.0
1248802119,8,1474.0,1417.0,1456.0,1427.0,1489.0,1464.0,1507.0,1453.0,0.0,0.0,0.0,0.0,0.0,0.0,0.0,0.0
1248842114,8,1471.0,1415.0,1451.0,1424.0,1485.0,1462.0,1504.0,1452.0,0.0,0.0,0.0,0.0,0.0,0.0,0.0,0.0
1248886170,8,1469.0,1413.0,1447.0,1421.0,1481.0,1460.0,1503.0,1452.0,0.0,0.0,0.0,0.0,0.0,0.0,0.0,0.0
1248926138,8,1472.0,1412.0,1448.0,1418.0,1479.0,1457.0,1503.0,1452.0,0.0,0.0,0.0,0.0,0.0,0.0,0.0,0.0
1248970255,8,1472.0,1415.0,1450.0,1421.0,1482.0,1459.0,1503.0,1452.0,0.0,0.0,0.0,0.0,0.0,0.0,0.0,0.0
1249010123,8,1473.0,1414.0,1450.0,1421.0,1483.0,1460.0,1506.0,1453.0,0.0,0.0,0.0,0.0,0.0,0.0,0.0,0.0
1249054156,8,1472.0,1414.0,1447.0,1419.0,1480.0,1461.0,1505.0,1455.0,0.0,0.0,0.0,0.0,0.0,0.0,0.0,0.0
1249094110,8,1472.0,1412.0,1444.0,1417.0,1479.0,1462.0,1507.0,1457.0,0.0,0.0,0.0,0.0,0.0,0.0,0.0,0.0
1249138314,8,1474.0,1412.0,1445.0,1416.0,1480.0,1462.0,1509.0,1458.0,0.0,0.0,0.0,0.0,0.0,0.0,0.0,0.0
1249178146,8,1472.0,1411.0,1442.0,1413.0,1476.0,1459.0,1507.0,1457.0,0.0,0.0,0.0,0.0,0.0,0.0,0.0,0.0
1249218249,8,1472.0,1411.0,1446.0,1416.0,1480.0,1459.0,1507.0,1454.0,0.0,0.0,0.0,0.0,0.0,0.0,0.0,0.0
1249262123,8,1471.0,1404.0,1440.0,1408.0,1478.0,1457.0,1509.0,1452.0,0.0,0.0,0.0,0.0,0.0,0.0,0.0,0.0
1249306120,8,1473.0,1404.0,1443.0,1408.0,1478.0,1454.0,1508.0,1450.0,0.0,0.0,0.0,0.0,0.0,0.0,0.0,0.0
1249346240,8,1471.0,1409.0,1449.0,1418.0,1483.0,1458.0,1505.0,1449.0,0.0,0.0,0.0,0.0,0.0,0.0,0.0,0.0
1249390129,8,1471.0,1407.0,1447.0,1415.0,1482.0,1457.0,1506.0,1449.0,0.0,0.0,0.0,0.0,0.0,0.0,0.0,0.0
1249430103,8,1470.0,1404.0,1446.0,1413.0,1483.0,1455.0,1506.0,1446.0,0.0,0.0,0.0,0.0,0.0,0.0,0.0,0.0
1249470102,8,1468.0,1403.0,1445.0,1412.0,1481.0,1454.0,1504.0,1445.0,0.0,0.0,0.0,0.0,0.0,0.0,0.0,0.0
1249514138,8,1466.0,1398.0,1440.0,1409.0,1481.0,1456.0,1506.0,1445.0,0.0,0.0,0.0,0.0,0.0,0.0,0.0,0.0
1249554142,8,1468.0,1404.0,1444.0,1412.0,1481.0,1456.0,1506.0,1447.0,0.0,0.0,0.0,0.0,0.0,0.0,0.0,0.0
1249598118,8,1468.0,1403.0,1445.0,1412.0,1481.0,1455.0,1505.0,1446.0,0.0,0.0,0.0,0.0,0.0,0.0,0.0,0.0
1249642230,8,1468.0,1403.0,1445.0,1412.0,1481.0,1454.0,1504.0,1445.0,0.0,0.0,0.0,0.0,0.0,0.0,0.0,0.0
1249682135,8,1467.0,1403.0,1444.0,1412.0,1480.0,1454.0,1503.0,1445.0,0.0,0.0,0.0,0.0,0.0,0.0,0.0,0.0
1249726118,8,1469.0,1403.0,1443.0,1410.0,1479.0,1454.0,1505.0,1446.0,0.0,0.0,0.0,0.0,0.0,0.0,0.0,0.0
1249766120,8,1469.0,1405.0,1446.0,1413.0,1481.0,1455.0,1504.0,1447.0,0.0,0.0,0.0,0.0,0.0,0.0,0.0,0.0
1251078230,8,1464.0,1393.0,1435.0,1403.0,1479.0,1455.0,1508.0,1445.0,0.0,0.0,0.0,0.0,0.0,0.0,0.0,0.0
1251118142,8,1465.0,1391.0,1432.0,1400.0,1479.0,1457.0,1512.0,1448.0,0.0,0.0,0.0,0.0,0.0,0.0,0.0,0.0
1252510115,8,1445.0,1399.0,1435.0,1423.0,1479.0,1461.0,1489.0,1437.0,0.0,0.0,0.0,0.0,0.0,0.0,0.0,0.0
1252550114,8,1445.0,1402.0,1438.0,1430.0,1485.0,1468.0,1491.0,1440.0,0.0,0.0,0.0,0.0,0.0,0.0,0.0,0.0
1252594145,8,1448.0,1406.0,1438.0,1428.0,1480.0,1466.0,1491.0,1443.0,0.0,0.0,0.0,0.0,0.0,0.0,0.0,0.0
1252846108,8,1455.0,1397.0,1435.0,1417.0,1483.0,1466.0,1503.0,1446.0,0.0,0.0,0.0,0.0,0.0,0.0,0.0,0.0
1252890152,8,1454.0,1403.0,1437.0,1422.0,1481.0,1466.0,1498.0,1446.0,0.0,0.0,0.0,0.0,0.0,0.0,0.0,0.0
1252930160,8,1458.0,1404.0,1442.0,1424.0,1486.0,1466.0,1502.0,1446.0,0.0,0.0,0.0,0.0,0.0,0.0,0.0,0.0
1252974130,8,1458.0,1399.0,1437.0,1417.0,1483.0,1463.0,1503.0,1446.0,0.0,0.0,0.0,0.0,0.0,0.0,0.0,0.0
1253014109,8,1457.0,1403.0,1441.0,1422.0,1484.0,1464.0,1500.0,1445.0,0.0,0.0,0.0,0.0,0.0,0.0,0.0,0.0
1253058144,8,1459.0,1405.0,1443.0,1424.0,1486.0,1466.0,1502.0,1447.0,0.0,0.0,0.0,0.0,0.0,0.0,0.0,0.0
1253098111,8,1460.0,1402.0,1445.0,1424.0,1492.0,1467.0,1506.0,1445.0,0.0,0.0,0.0,0.0,0.0,0.0,0.0,0.0
1253142132,8,1461.0,1403.0,1447.0,1424.0,1491.0,1465.0,1504.0,1444.0,0.0,0.0,0.0,0.0,0.0,0.0,0.0,0.0
1253182131,8,1462.0,1403.0,1447.0,1422.0,1488.0,1463.0,1504.0,1444.0,0.0,0.0,0.0,0.0,0.0,0.0,0.0,0.0
1253222281,8,1462.0,1409.0,1445.0,1423.0,1482.0,1461.0,1499.0,1448.0,0.0,0.0,0.0,0.0,0.0,0.0,0.0,0.0
1253266128,8,1462.0,1413.0,1446.0,1428.0,1485.0,1467.0,1501.0,1451.0,0.0,0.0,0.0,0.0,0.0,0.0,0.0,0.0
1253306096,8,1465.0,1418.0,1448.0,1430.0,1481.0,1465.0,1498.0,1454.0,0.0,0.0,0.0,0.0,0.0,0.0,0.0,0.0
1253350148,8,1466.0,1415.0,1444.0,1425.0,1479.0,1466.0,1501.0,1456.0,0.0,0.0,0.0,0.0,0.0,0.0,0.0,0.0
1253390259,8,1466.0,1421.0,1450.0,1437.0,1488.0,1476.0,1505.0,1460.0,0.0,0.0,0.0,0.0,0.0,0.0,0.0,0.0
1253434100,8,1466.0,1418.0,1445.0,1432.0,1485.0,1474.0,1506.0,1461.0,0.0,0.0,0.0,0.0,0.0,0.0,0.0,0.0
1253474099,8,1469.0,1413.0,1445.0,1425.0,1486.0,1471.0,1510.0,1460.0,0.0,0.0,0.0,0.0,0.0,0.0,0.0,0.0
1253518122,8,1467.0,1416.0,1449.0,1433.0,1491.0,1476.0,1509.0,1459.0,0.0,0.0,0.0,0.0,0.0,0.0,0.0,0.0
1253558276,8,1475.0,1413.0,1447.0,1421.0,1485.0,1468.0,1513.0,1460.0,0.0,0.0,0.0,0.0,0.0,0.0,0.0,0.0
1253602124,8,1473.0,1417.0,1452.0,1429.0,1491.0,1472.0,1512.0,1459.0,0.0,0.0,0.0,0.0,0.0,0.0,0.0,0.0
1253642135,8,1472.0,1417.0,1453.0,1432.0,1493.0,1473.0,1511.0,1458.0,0.0,0.0,0.0,0.0,0.0,0.0,0.0,0.0
1253686134,8,1475.0,1417.0,1453.0,1428.0,1490.0,1470.0,1512.0,1459.0,0.0,0.0,0.0,0.0,0.0,0.0,0.0,0.0
1253730114,8,1474.0,1415.0,1453.0,1429.0,1493.0,1471.0,1513.0,1458.0,0.0,0.0,0.0,0.0,0.0,0.0,0.0,0.0
1253770124,8,1473.0,1418.0,1456.0,1434.0,1496.0,1475.0,1514.0,1459.0,0.0,0.0,0.0,0.0,0.0,0.0,0.0,0.0
1253814129,8,1474.0,1420.0,1457.0,1435.0,1496.0,1474.0,1513.0,1459.0,0.0,0.0,0.0,0.0,0.0,0.0,0.0,0.0
1253854230,8,1476.0,1419.0,1455.0,1430.0,1492.0,1472.0,1513.0,1460.0,0.0,0.0,0.0,0.0,0.0,0.0,0.0,0.0
1253898120,8,1478.0,1418.0,1457.0,1430.0,1495.0,1472.0,1516.0,1460.0,0.0,0.0,0.0,0.0,0.0,0.0,0.0,0.0
1253938131,8,1478.0,1418.0,1458.0,1431.0,1496.0,1471.0,1515.0,1458.0,0.0,0.0,0.0,0.0,0.0,0.0,0.0,0.0
1253982237,8,1479.0,1417.0,1458.0,1427.0,1494.0,1468.0,1515.0,1458.0,0.0,0.0,0.0,0.0,0.0,0.0,0.0,0.0
1254022230,8,1480.0,1420.0,1461.0,1433.0,1498.0,1472.0,1516.0,1459.0,0.0,0.0,0.0,0.0,0.0,0.0,0.0,0.0
1254066118,8,1478.0,1420.0,1463.0,1436.0,1500.0,1473.0,1515.0,1457.0,0.0,0.0,0.0,0.0,0.0,0.0,0.0,0.0
1254106116,8,1478.0,1425.0,1465.0,1442.0,1502.0,1477.0,1515.0,1461.0,0.0,0.0,0.0,0.0,0.0,0.0,0.0,0.0
1254146130,8,1476.0,1422.0,1463.0,1440.0,1502.0,1477.0,1515.0,1459.0,0.0,0.0,0.0,0.0,0.0,0.0,0.0,0.0
1254190247,8,1478.0,1422.0,1464.0,1440.0,1503.0,1477.0,1517.0,1460.0,0.0,0.0,0.0,0.0,0.0,0.0,0.0,0.0
1254234109,8,1479.0,1420.0,1463.0,1438.0,1504.0,1479.0,1520.0,1461.0,0.0,0.0,0.0,0.0,0.0,0.0,0.0,0.0
1254274107,8,1479.0,1421.0,1463.0,1438.0,1503.0,1478.0,1519.0,1461.0,0.0,0.0,0.0,0.0,0.0,0.0,0.0,0.0
1254318226,8,1481.0,1421.0,1465.0,1439.0,1507.0,1480.0,1523.0,1462.0,0.0,0.0,0.0,0.0,0.0,0.0,0.0,0.0
1254358238,8,1477.0,1414.0,1463.0,1437.0,1510.0,1480.0,1524.0,1457.0,0.0,0.0,0.0,0.0,0.0,0.0,0.0,0.0
1254402135,8,1480.0,1417.0,1463.0,1435.0,1506.0,1477.0,1522.0,1459.0,0.0,0.0,0.0,0.0,0.0,0.0,0.0,0.0
1254442109,8,1482.0,1416.0,1463.0,1433.0,1506.0,1477.0,1525.0,1459.0,0.0,0.0,0.0,0.0,0.0,0.0,0.0,0.0
1254486232,8,1481.0,1417.0,1466.0,1436.0,1507.0,1476.0,1523.0,1457.0,0.0,0.0,0.0,0.0,0.0,0.0,0.0,0.0
1254526257,8,1481.0,1416.0,1461.0,1430.0,1501.0,1472.0,1520.0,1457.0,0.0,0.0,0.0,0.0,0.0,0.0,0.0,0.0
1254570125,8,1480.0,1414.0,1458.0,1427.0,1499.0,1471.0,1521.0,1458.0,0.0,0.0,0.0,0.0,0.0,0.0,0.0,0.0
1254610111,8,1484.0,1413.0,1459.0,1422.0,1497.0,1467.0,1522.0,1458.0,0.0,0.0,0.0,0.0,0.0,0.0,0.0,0.0
1254654248,8,1486.0,1414.0,1464.0,1424.0,1499.0,1464.0,1521.0,1455.0,0.0,0.0,0.0,0.0,0.0,0.0,0.0,0.0
1254694130,8,1487.0,1416.0,1463.0,1421.0,1494.0,1461.0,1518.0,1455.0,0.0,0.0,0.0,0.0,0.0,0.0,0.0,0.0
1254738118,8,1488.0,1418.0,1465.0,1424.0,1496.0,1461.0,1519.0,1455.0,0.0,0.0,0.0,0.0,0.0,0.0,0.0,0.0
1254778122,8,1492.0,1417.0,1465.0,1420.0,1496.0,1461.0,1523.0,1458.0,0.0,0.0,0.0,0.0,0.0,0.0,0.0,0.0
1254818107,8,1494.0,1417.0,1463.0,1416.0,1492.0,1458.0,1523.0,1460.0,0.0,0.0,0.0,0.0,0.0,0.0,0.0,0.0
1254862152,8,1492.0,1412.0,1463.0,1412.0,1493.0,1455.0,1523.0,1454.0,0.0,0.0,0.0,0.0,0.0,0.0,0.0,0.0
1254906112,8,1489.0,1415.0,1467.0,1421.0,1498.0,1459.0,1521.0,1453.0,0.0,0.0,0.0,0.0,0.0,0.0,0.0,0.0
1254946123,8,1486.0,1412.0,1464.0,1421.0,1498.0,1460.0,1519.0,1451.0,0.0,0.0,0.0,0.0,0.0,0.0,0.0,0.0
1254986139,8,1490.0,1411.0,1466.0,1417.0,1498.0,1458.0,1523.0,1451.0,0.0,0.0,0.0,0.0,0.0,0.0,0.0,0.0
1255030141,8,1484.0,1408.0,1463.0,1419.0,1500.0,1461.0,1522.0,1450.0,0.0,0.0,0.0,0.0,0.0,0.0,0.0,0.0
1255074117,8,1485.0,1409.0,1465.0,1420.0,1500.0,1458.0,1520.0,1447.0,0.0,0.0,0.0,0.0,0.0,0.0,0.0,0.0
1255114126,8,1479.0,1409.0,1463.0,1422.0,1497.0,1458.0,1513.0,1445.0,0.0,0.0,0.0,0.0,0.0,0.0,0.0,0.0
1255158146,8,1480.0,1410.0,1460.0,1419.0,1493.0,1457.0,1513.0,1448.0,0.0,0.0,0.0,0.0,0.0,0.0,0.0,0.0
1255198165,8,1479.0,1408.0,1459.0,1420.0,1496.0,1460.0,1516.0,1448.0,0.0,0.0,0.0,0.0,0.0,0.0,0.0,0.0
1255242115,8,1475.0,1408.0,1457.0,1423.0,1496.0,1463.0,1513.0,1448.0,0.0,0.0,0.0,0.0,0.0,0.0,0.0,0.0
1255282115,8,1476.0,1410.0,1460.0,1424.0,1495.0,1460.0,1511.0,1446.0,0.0,0.0,0.0,0.0,0.0,0.0,0.0,0.0
1255326149,8,1470.0,1411.0,1457.0,1428.0,1495.0,1464.0,1508.0,1447.0,0.0,0.0,0.0,0.0,0.0,0.0,0.0,0.0
1255366148,8,1469.0,1408.0,1452.0,1423.0,1489.0,1461.0,1506.0,1447.0,0.0,0.0,0.0,0.0,0.0,0.0,0.0,0.0
1255406104,8,1469.0,1411.0,1454.0,1426.0,1489.0,1461.0,1504.0,1446.0,0.0,0.0,0.0,0.0,0.0,0.0,0.0,0.0
1255450117,8,1469.0,1411.0,1451.0,1423.0,1486.0,1459.0,1503.0,1447.0,0.0,0.0,0.0,0.0,0.0,0.0,0.0,0.0
1255490133,8,1467.0,1411.0,1449.0,1425.0,1486.0,1463.0,1504.0,1450.0,0.0,0.0,0.0,0.0,0.0,0.0,0.0,0.0
1255534123,8,1468.0,1407.0,1445.0,1418.0,1484.0,1462.0,1507.0,1451.0,0.0,0.0,0.0,0.0,0.0,0.0,0.0,0.0
1255574118,8,1465.0,1402.0,1439.0,1414.0,1481.0,1462.0,1507.0,1450.0,0.0,0.0,0.0,0.0,0.0,0.0,0.0,0.0
1255614203,8,1461.0,1405.0,1440.0,1421.0,1484.0,1467.0,1505.0,1451.0,0.0,0.0,0.0,0.0,0.0,0.0,0.0,0.0
1255658120,8,1461.0,1406.0,1439.0,1420.0,1482.0,1467.0,1504.0,1452.0,0.0,0.0,0.0,0.0,0.0,0.0,0.0,0.0
1255702119,8,1458.0,1405.0,1434.0,1419.0,1478.0,1467.0,1502.0,1453.0,0.0,0.0,0.0,0.0,0.0,0.0,0.0,0.0
1255742128,8,1454.0,1406.0,1431.0,1419.0,1472.0,1464.0,1494.0,1451.0,0.0,0.0,0.0,0.0,0.0,0.0,0.0,0.0
1255786300,8,1456.0,1403.0,1434.0,1416.0,1474.0,1460.0,1496.0,1447.0,0.0,0.0,0.0,0.0,0.0,0.0,0.0,0.0
1255826131,8,1454.0,1406.0,1433.0,1420.0,1474.0,1464.0,1495.0,1449.0,0.0,0.0,0.0,0.0,0.0,0.0,0.0,0.0
1255870104,8,1454.0,1393.0,1424.0,1406.0,1474.0,1463.0,1504.0,1449.0,0.0,0.0,0.0,0.0,0.0,0.0,0.0,0.0
1255914143,8,1457.0,1392.0,1424.0,1403.0,1472.0,1460.0,1505.0,1449.0,0.0,0.0,0.0,0.0,0.0,0.0,0.0,0.0
1255954139,8,1467.0,1395.0,1425.0,1395.0,1467.0,1454.0,1508.0,1454.0,0.0,0.0,0.0,0.0,0.0,0.0,0.0,0.0
1255998133,8,1468.0,1400.0,1435.0,1403.0,1473.0,1454.0,1507.0,1451.0,0.0,0.0,0.0,0.0,0.0,0.0,0.0,0.0
1256038107,8,1466.0,1390.0,1426.0,1394.0,1472.0,1454.0,1512.0,1450.0,0.0,0.0,0.0,0.0,0.0,0.0,0.0,0.0
1256082118,8,1465.0,1391.0,1431.0,1397.0,1474.0,1453.0,1509.0,1447.0,0.0,0.0,0.0,0.0,0.0,0.0,0.0,0.0
1256122130,8,1465.0,1392.0,1435.0,1398.0,1473.0,1447.0,1504.0,1441.0,0.0,0.0,0.0,0.0,0.0,0.0,0.0,0.0
1256166139,8,1466.0,1387.0,1434.0,1395.0,1476.0,1447.0,1508.0,1439.0,0.0,0.0,0.0,0.0,0.0,0.0,0.0,0.0
1256206128,8,1475.0,1392.0,1439.0,1391.0,1474.0,1441.0,1510.0,1442.0,0.0,0.0,0.0,0.0,0.0,0.0,0.0,0.0
1256246116,8,1483.0,1388.0,1438.0,1381.0,1473.0,1438.0,1518.0,1445.0,0.0,0.0,0.0,0.0,0.0,0.0,0.0,0.0
1256290210,8,1482.0,1388.0,1439.0,1383.0,1474.0,1438.0,1517.0,1443.0,0.0,0.0,0.0,0.0,0.0,0.0,0.0,0.0
1256330249,8,1484.0,1385.0,1440.0,1381.0,1479.0,1440.0,1523.0,1444.0,0.0,0.0,0.0,0.0,0.0,0.0,0.0,0.0
1256374134,8,1486.0,1387.0,1440.0,1380.0,1476.0,1439.0,1523.0,1446.0,0.0,0.0,0.0,0.0,0.0,0.0,0.0,0.0
1256418208,8,1485.0,1384.0,1436.0,1377.0,1474.0,1438.0,1523.0,1446.0,0.0,0.0,0.0,0.0,0.0,0.0,0.0,0.0
1256458230,8,1488.0,1381.0,1439.0,1372.0,1476.0,1433.0,1525.0,1442.0,0.0,0.0,0.0,0.0,0.0,0.0,0.0,0.0
1256502110,8,1485.0,1387.0,1443.0,1381.0,1477.0,1435.0,1519.0,1441.0,0.0,0.0,0.0,0.0,0.0,0.0,0.0,0.0
1256542132,8,1488.0,1384.0,1445.0,1377.0,1478.0,1430.0,1520.0,1438.0,0.0,0.0,0.0,0.0,0.0,0.0,0.0,0.0
1256586231,8,1495.0,1391.0,1449.0,1376.0,1474.0,1426.0,1520.0,1441.0,0.0,0.0,0.0,0.0,0.0,0.0,0.0,0.0
1256626256,8,1490.0,1387.0,1446.0,1376.0,1476.0,1429.0,1520.0,1439.0,0.0,0.0,0.0,0.0,0.0,0.0,0.0,0.0
1256670111,8,1488.0,1382.0,1446.0,1378.0,1482.0,1433.0,1524.0,1436.0,0.0,0.0,0.0,0.0,0.0,0.0,0.0,0.0
1256710103,8,1484.0,1382.0,1444.0,1380.0,1482.0,1435.0,1521.0,1436.0,0.0,0.0,0.0,0.0,0.0,0.0,0.0,0.0
1256754238,8,1478.0,1380.0,1442.0,1386.0,1486.0,1443.0,1523.0,1437.0,0.0,0.0,0.0,0.0,0.0,0.0,0.0,0.0
1256794246,8,1478.0,1380.0,1437.0,1383.0,1481.0,1442.0,1522.0,1440.0,0.0,0.0,0.0,0.0,0.0,0.0,0.0,0.0
1256838117,8,1479.0,1381.0,1434.0,1380.0,1478.0,1443.0,1523.0,1444.0,0.0,0.0,0.0,0.0,0.0,0.0,0.0,0.0
1256878109,8,1473.0,1386.0,1438.0,1390.0,1478.0,1444.0,1514.0,1440.0,0.0,0.0,0.0,0.0,0.0,0.0,0.0,0.0
1256922230,8,1472.0,1397.0,1439.0,1397.0,1474.0,1446.0,1507.0,1445.0,0.0,0.0,0.0,0.0,0.0,0.0,0.0,0.0
1256962259,8,1470.0,1399.0,1438.0,1399.0,1470.0,1444.0,1502.0,1445.0,0.0,0.0,0.0,0.0,0.0,0.0,0.0,0.0
1257006107,8,1470.0,1402.0,1436.0,1401.0,1467.0,1446.0,1501.0,1448.0,0.0,0.0,0.0,0.0,0.0,0.0,0.0,0.0
1257046106,8,1472.0,1410.0,1443.0,1409.0,1471.0,1449.0,1499.0,1450.0,0.0,0.0,0.0,0.0,0.0,0.0,0.0,0.0
1257090232,8,1476.0,1414.0,1441.0,1407.0,1465.0,1449.0,1500.0,1457.0,0.0,0.0,0.0,0.0,0.0,0.0,0.0,0.0
1257130240,8,1481.0,1419.0,1443.0,1411.0,1469.0,1456.0,1507.0,1464.0,0.0,0.0,0.0,0.0,0.0,0.0,0.0,0.0
1257174135,8,1481.0,1418.0,1441.0,1410.0,1469.0,1458.0,1509.0,1466.0,0.0,0.0,0.0,0.0,0.0,0.0,0.0,0.0
1257214119,8,1480.0,1415.0,1435.0,1407.0,1467.0,1461.0,1512.0,1470.0,0.0,0.0,0.0,0.0,0.0,0.0,0.0,0.0
1257258238,8,1474.0,1413.0,1428.0,1406.0,1465.0,1465.0,1511.0,1471.0,0.0,0.0,0.0,0.0,0.0,0.0,0.0,0.0
1257298156,8,1474.0,1410.0,1430.0,1406.0,1468.0,1464.0,1512.0,1467.0,0.0,0.0,0.0,0.0,0.0,0.0,0.0,0.0
1257338166,8,1474.0,1407.0,1431.0,1404.0,1470.0,1461.0,1513.0,1464.0,0.0,0.0,0.0,0.0,0.0,0.0,0.0,0.0
1257382133,8,1477.0,1405.0,1434.0,1398.0,1467.0,1451.0,1509.0,1458.0,0.0,0.0,0.0,0.0,0.0,0.0,0.0,0.0
1257426235,8,1475.0,1399.0,1435.0,1397.0,1472.0,1450.0,1511.0,1452.0,0.0,0.0,0.0,0.0,0.0,0.0,0.0,0.0
1257466144,8,1476.0,1400.0,1439.0,1397.0,1471.0,1446.0,1508.0,1449.0,0.0,0.0,0.0,0.0,0.0,0.0,0.0,0.0
1257506145,8,1476.0,1407.0,1449.0,1408.0,1477.0,1447.0,1504.0,1447.0,0.0,0.0,0.0,0.0,0.0,0.0,0.0,0.0
1257550258,8,1469.0,1401.0,1440.0,1406.0,1476.0,1452.0,1505.0,1448.0,0.0,0.0,0.0,0.0,0.0,0.0,0.0,0.0
1257590121,8,1475.0,1402.0,1442.0,1403.0,1477.0,1451.0,1509.0,1449.0,0.0,0.0,0.0,0.0,0.0,0.0,0.0,0.0
1257634150,8,1474.0,1405.0,1440.0,1406.0,1475.0,1455.0,1509.0,1454.0,0.0,0.0,0.0,0.0,0.0,0.0,0.0,0.0
1257674117,8,1473.0,1396.0,1434.0,1397.0,1474.0,1453.0,1514.0,1453.0,0.0,0.0,0.0,0.0,0.0,0.0,0.0,0.0
1257718106,8,1476.0,1403.0,1439.0,1402.0,1475.0,1454.0,1512.0,1455.0,0.0,0.0,0.0,0.0,0.0,0.0,0.0,0.0
1257758133,8,1475.0,1408.0,1441.0,1407.0,1474.0,1455.0,1509.0,1456.0,0.0,0.0,0.0,0.0,0.0,0.0,0.0,0.0
1257798284,8,1478.0,1408.0,1441.0,1406.0,1475.0,1456.0,1513.0,1459.0,0.0,0.0,0.0,0.0,0.0,0.0,0.0,0.0
1257838259,8,1475.0,1404.0,1438.0,1405.0,1476.0,1458.0,1513.0,1457.0,0.0,0.0,0.0,0.0,0.0,0.0,0.0,0.0
1257882147,8,1474.0,1406.0,1439.0,1409.0,1477.0,1461.0,1512.0,1458.0,0.0,0.0,0.0,0.0,0.0,0.0,0.0,0.0
1257922271,8,1481.0,1406.0,1441.0,1403.0,1478.0,1458.0,1518.0,1461.0,0.0,0.0,0.0,0.0,0.0,0.0,0.0,0.0
1257966270,8,1482.0,1400.0,1442.0,1401.0,1484.0,1459.0,1523.0,1458.0,0.0,0.0,0.0,0.0,0.0,0.0,0.0,0.0
1258010121,8,1480.0,1396.0,1443.0,1402.0,1488.0,1460.0,1525.0,1454.0,0.0,0.0,0.0,0.0,0.0,0.0,0.0,0.0
1258054123,8,1479.0,1400.0,1443.0,1404.0,1484.0,1459.0,1520.0,1455.0,0.0,0.0,0.0,0.0,0.0,0.0,0.0,0.0
1258094126,8,1475.0,1396.0,1436.0,1399.0,1479.0,1457.0,1517.0,1454.0,0.0,0.0,0.0,0.0,0.0,0.0,0.0,0.0
1258138130,8,1475.0,1395.0,1435.0,1398.0,1479.0,1458.0,1519.0,1455.0,0.0,0.0,0.0,0.0,0.0,0.0,0.0,0.0
1258178121,8,1475.0,1399.0,1441.0,1404.0,1482.0,1458.0,1517.0,1452.0,0.0,0.0,0.0,0.0,0.0,0.0,0.0,0.0
1258222127,8,1475.0,1408.0,1448.0,1414.0,1483.0,1457.0,1509.0,1452.0,0.0,0.0,0.0,0.0,0.0,0.0,0.0,0.0
1258262136,8,1477.0,1409.0,1449.0,1411.0,1479.0,1452.0,1507.0,1451.0,0.0,0.0,0.0,0.0,0.0,0.0,0.0,0.0
1258306099,8,1478.0,1412.0,1452.0,1415.0,1483.0,1455.0,1509.0,1452.0,0.0,0.0,0.0,0.0,0.0,0.0,0.0,0.0
1258346133,8,1482.0,1417.0,1454.0,1415.0,1479.0,1453.0,1507.0,1455.0,0.0,0.0,0.0,0.0,0.0,0.0,0.0,0.0
1258390234,8,1482.0,1414.0,1446.0,1409.0,1474.0,1453.0,1509.0,1459.0,0.0,0.0,0.0,0.0,0.0,0.0,0.0,0.0
1258434108,8,1482.0,1421.0,1448.0,1415.0,1474.0,1457.0,1507.0,1462.0,0.0,0.0,0.0,0.0,0.0,0.0,0.0,0.0
1258474110,8,1484.0,1416.0,1446.0,1408.0,1474.0,1455.0,1512.0,1462.0,0.0,0.0,0.0,0.0,0.0,0.0,0.0,0.0
1258514100,8,1481.0,1415.0,1442.0,1409.0,1473.0,1459.0,1512.0,1464.0,0.0,0.0,0.0,0.0,0.0,0.0,0.0,0.0
1258558269,8,1480.0,1416.0,1443.0,1412.0,1475.0,1461.0,1512.0,1465.0,0.0,0.0,0.0,0.0,0.0,0.0,0.0,0.0
1258602121,8,1481.0,1413.0,1444.0,1409.0,1475.0,1458.0,1512.0,1462.0,0.0,0.0,0.0,0.0,0.0,0.0,0.0,0.0
1258642127,8,1481.0,1415.0,1446.0,1411.0,1476.0,1458.0,1511.0,1461.0,0.0,0.0,0.0,0.0,0.0,0.0,0.0,0.0
1258686128,8,1479.0,1413.0,1444.0,1410.0,1475.0,1457.0,1510.0,1460.0,0.0,0.0,0.0,0.0,0.0,0.0,0.0,0.0
1258726133,8,1481.0,1419.0,1445.0,1413.0,1472.0,1457.0,1508.0,1463.0,0.0,0.0,0.0,0.0,0.0,0.0,0.0,0.0
1258766287,8,1484.0,1414.0,1442.0,1406.0,1472.0,1457.0,1514.0,1465.0,0.0,0.0,0.0,0.0,0.0,0.0,0.0,0.0
1258810117,8,1483.0,1421.0,1445.0,1412.0,1471.0,1458.0,1509.0,1467.0,0.0,0.0,0.0,0.0,0.0,0.0,0.0,0.0
1258850107,8,1485.0,1421.0,1446.0,1411.0,1471.0,1456.0,1510.0,1467.0,0.0,0.0,0.0,0.0,0.0,0.0,0.0,0.0
1258894246,8,1488.0,1421.0,1446.0,1407.0,1468.0,1453.0,1510.0,1466.0,0.0,0.0,0.0,0.0,0.0,0.0,0.0,0.0
1258938129,8,1487.0,1424.0,1449.0,1410.0,1467.0,1449.0,1504.0,1463.0,0.0,0.0,0.0,0.0,0.0,0.0,0.0,0.0
1258978117,8,1488.0,1425.0,1452.0,1412.0,1469.0,1450.0,1505.0,1463.0,0.0,0.0,0.0,0.0,0.0,0.0,0.0,0.0
1259022230,8,1488.0,1431.0,1459.0,1421.0,1474.0,1451.0,1502.0,1461.0,0.0,0.0,0.0,0.0,0.0,0.0,0.0,0.0
1259062141,8,1489.0,1430.0,1460.0,1421.0,1476.0,1453.0,1505.0,1462.0,0.0,0.0,0.0,0.0,0.0,0.0,0.0,0.0
1259102289,8,1489.0,1435.0,1463.0,1428.0,1478.0,1458.0,1505.0,1465.0,0.0,0.0,0.0,0.0,0.0,0.0,0.0,0.0
1259146139,8,1495.0,1432.0,1460.0,1420.0,1477.0,1457.0,1513.0,1470.0,0.0,0.0,0.0,0.0,0.0,0.0,0.0,0.0
1259186119,8,1490.0,1425.0,1452.0,1416.0,1478.0,1462.0,1516.0,1470.0,0.0,0.0,0.0,0.0,0.0,0.0,0.0,0.0
1259230255,8,1486.0,1419.0,1449.0,1417.0,1483.0,1467.0,1520.0,1469.0,0.0,0.0,0.0,0.0,0.0,0.0,0.0,0.0
1259274111,8,1484.0,1416.0,1448.0,1418.0,1486.0,1471.0,1523.0,1469.0,0.0,0.0,0.0,0.0,0.0,0.0,0.0,0.0
1259314117,8,1485.0,1414.0,1446.0,1417.0,1488.0,1474.0,1527.0,1472.0,0.0,0.0,0.0,0.0,0.0,0.0,0.0,0.0
1259358242,8,1478.0,1408.0,1439.0,1416.0,1489.0,1478.0,1527.0,1470.0,0.0,0.0,0.0,0.0,0.0,0.0,0.0,0.0
1259398243,8,1479.0,1408.0,1443.0,1416.0,1491.0,1476.0,1527.0,1468.0,0.0,0.0,0.0,0.0,0.0,0.0,0.0,0.0
1259438142,8,1477.0,1406.0,1441.0,1415.0,1489.0,1474.0,1525.0,1466.0,0.0,0.0,0.0,0.0,0.0,0.0,0.0,0.0
1259482116,8,1479.0,1410.0,1446.0,1416.0,1488.0,1469.0,1520.0,1462.0,0.0,0.0,0.0,0.0,0.0,0.0,0.0,0.0
1259522109,8,1477.0,1410.0,1447.0,1418.0,1488.0,1468.0,1518.0,1461.0,0.0,0.0,0.0,0.0,0.0,0.0,0.0,0.0
1259566224,8,1479.0,1409.0,1445.0,1413.0,1485.0,1466.0,1519.0,1461.0,0.0,0.0,0.0,0.0,0.0,0.0,0.0,0.0
1259610114,8,1484.0,1408.0,1445.0,1407.0,1483.0,1461.0,1521.0,1461.0,0.0,0.0,0.0,0.0,0.0,0.0,0.0,0.0
1259650112,8,1480.0,1407.0,1443.0,1407.0,1480.0,1460.0,1518.0,1460.0,0.0,0.0,0.0,0.0,0.0,0.0,0.0,0.0
1259690107,8,1484.0,1407.0,1443.0,1402.0,1478.0,1457.0,1520.0,1461.0,0.0,0.0,0.0,0.0,0.0,0.0,0.0,0.0
1259734156,8,1483.0,1405.0,1438.0,1398.0,1473.0,1455.0,1519.0,1462.0,0.0,0.0,0.0,0.0,0.0,0.0,0.0,0.0
1259778125,8,1483.0,1404.0,1436.0,1396.0,1472.0,1455.0,1519.0,1463.0,0.0,0.0,0.0,0.0,0.0,0.0,0.0,0.0
1259818107,8,1483.0,1405.0,1439.0,1399.0,1475.0,1456.0,1519.0,1462.0,0.0,0.0,0.0,0.0,0.0,0.0,0.0,0.0
1259862156,8,1479.0,1405.0,1437.0,1402.0,1474.0,1457.0,1516.0,1461.0,0.0,0.0,0.0,0.0,0.0,0.0,0.0,0.0
1259902203,8,1481.0,1405.0,1436.0,1399.0,1471.0,1455.0,1516.0,1462.0,0.0,0.0,0.0,0.0,0.0,0.0,0.0,0.0
1259946148,8,1478.0,1408.0,1434.0,1403.0,1470.0,1459.0,1514.0,1464.0,0.0,0.0,0.0,0.0,0.0,0.0,0.0,0.0
1259986115,8,1478.0,1409.0,1435.0,1403.0,1470.0,1458.0,1513.0,1464.0,0.0,0.0,0.0,0.0,0.0,0.0,0.0,0.0
1260030165,8,1477.0,1409.0,1436.0,1405.0,1471.0,1459.0,1513.0,1463.0,0.0,0.0,0.0,0.0,0.0,0.0,0.0,0.0
1260070133,8,1478.0,1410.0,1435.0,1402.0,1467.0,1455.0,1509.0,1463.0,0.0,0.0,0.0,0.0,0.0,0.0,0.0,0.0
1260114119,8,1477.0,1411.0,1434.0,1402.0,1465.0,1455.0,1508.0,1463.0,0.0,0.0,0.0,0.0,0.0,0.0,0.0,0.0
1260154112,8,1480.0,1410.0,1436.0,1401.0,1467.0,1454.0,1511.0,1463.0,0.0,0.0,0.0,0.0,0.0,0.0,0.0,0.0
1260198209,8,1482.0,1408.0,1433.0,1395.0,1463.0,1451.0,1512.0,1464.0,0.0,0.0,0.0,0.0,0.0,0.0,0.0,0.0
1260238126,8,1479.0,1409.0,1437.0,1402.0,1470.0,1455.0,1512.0,1462.0,0.0,0.0,0.0,0.0,0.0,0.0,0.0,0.0
1260282119,8,1479.0,1405.0,1434.0,1399.0,1470.0,1456.0,1515.0,1462.0,0.0,0.0,0.0,0.0,0.0,0.0,0.0,0.0
1260322120,8,1478.0,1405.0,1433.0,1399.0,1470.0,1457.0,1515.0,1462.0,0.0,0.0,0.0,0.0,0.0,0.0,0.0,0.0
1260366168,8,1475.0,1399.0,1429.0,1396.0,1470.0,1458.0,1516.0,1461.0,0.0,0.0,0.0,0.0,0.0,0.0,0.0,0.0
1260406117,8,1477.0,1405.0,1434.0,1401.0,1472.0,1458.0,1515.0,1462.0,0.0,0.0,0.0,0.0,0.0,0.0,0.0,0.0
1260450128,8,1478.0,1398.0,1432.0,1394.0,1472.0,1455.0,1519.0,1459.0,0.0,0.0,0.0,0.0,0.0,0.0,0.0,0.0
1260490124,8,1470.0,1391.0,1424.0,1390.0,1470.0,1456.0,1516.0,1456.0,0.0,0.0,0.0,0.0,0.0,0.0,0.0,0.0
1260534125,8,1473.0,1392.0,1427.0,1391.0,1472.0,1457.0,1519.0,1458.0,0.0,0.0,0.0,0.0,0.0,0.0,0.0,0.0
1260574131,8,1472.0,1387.0,1421.0,1385.0,1469.0,1455.0,1520.0,1457.0,0.0,0.0,0.0,0.0,0.0,0.0,0.0,0.0
1260618120,8,1474.0,1392.0,1427.0,1391.0,1472.0,1456.0,1519.0,1457.0,0.0,0.0,0.0,0.0,0.0,0.0,0.0,0.0
1260658126,8,1471.0,1384.0,1422.0,1384.0,1471.0,1454.0,1521.0,1454.0,0.0,0.0,0.0,0.0,0.0,0.0,0.0,0.0
1260702105,8,1469.0,1385.0,1420.0,1386.0,1470.0,1455.0,1518.0,1455.0,0.0,0.0,0.0,0.0,0.0,0.0,0.0,0.0
1260742126,8,1472.0,1388.0,1426.0,1388.0,1472.0,1452.0,1517.0,1452.0,0.0,0.0,0.0,0.0,0.0,0.0,0.0,0.0
1260782138,8,1475.0,1388.0,1427.0,1384.0,1469.0,1447.0,1517.0,1451.0,0.0,0.0,0.0,0.0,0.0,0.0,0.0,0.0
1260826230,8,1478.0,1395.0,1429.0,1385.0,1463.0,1443.0,1512.0,1454.0,0.0,0.0,0.0,0.0,0.0,0.0,0.0,0.0
1260866266,8,1480.0,1400.0,1437.0,1391.0,1466.0,1441.0,1509.0,1451.0,0.0,0.0,0.0,0.0,0.0,0.0,0.0,0.0
1260910112,8,1480.0,1397.0,1435.0,1386.0,1464.0,1439.0,1510.0,1450.0,0.0,0.0,0.0,0.0,0.0,0.0,0.0,0.0
1260954135,8,1484.0,1405.0,1440.0,1391.0,1465.0,1440.0,1508.0,1453.0,0.0,0.0,0.0,0.0,0.0,0.0,0.0,0.0
1260994240,8,1486.0,1406.0,1440.0,1390.0,1464.0,1439.0,1510.0,1455.0,0.0,0.0,0.0,0.0,0.0,0.0,0.0,0.0
1261038110,8,1484.0,1414.0,1442.0,1399.0,1461.0,1442.0,1503.0,1458.0,0.0,0.0,0.0,0.0,0.0,0.0,0.0,0.0
1261078103,8,1484.0,1414.0,1437.0,1393.0,1454.0,1439.0,1502.0,1460.0,0.0,0.0,0.0,0.0,0.0,0.0,0.0,0.0
1261122233,8,1486.0,1420.0,1440.0,1398.0,1455.0,1440.0,1500.0,1462.0,0.0,0.0,0.0,0.0,0.0,0.0,0.0,0.0
1261162248,8,1483.0,1426.0,1445.0,1408.0,1459.0,1445.0,1497.0,1462.0,0.0,0.0,0.0,0.0,0.0,0.0,0.0,0.0
1261206113,8,1485.0,1423.0,1442.0,1403.0,1457.0,1444.0,1500.0,1465.0,0.0,0.0,0.0,0.0,0.0,0.0,0.0,0.0
1261246118,8,1491.0,1424.0,1442.0,1397.0,1453.0,1439.0,1502.0,1466.0,0.0,0.0,0.0,0.0,0.0,0.0,0.0,0.0
1261290137,8,1491.0,1424.0,1444.0,1400.0,1456.0,1441.0,1502.0,1465.0,0.0,0.0,0.0,0.0,0.0,0.0,0.0,0.0
1261330256,8,1491.0,1428.0,1448.0,1405.0,1458.0,1443.0,1501.0,1466.0,0.0,0.0,0.0,0.0,0.0,0.0,0.0,0.0
1261374126,8,1490.0,1431.0,1455.0,1413.0,1464.0,1445.0,1500.0,1464.0,0.0,0.0,0.0,0.0,0.0,0.0,0.0,0.0
1261414106,8,1490.0,1430.0,1454.0,1412.0,1465.0,1444.0,1500.0,1462.0,0.0,0.0,0.0,0.0,0.0,0.0,0.0,0.0
1261458232,8,1495.0,1436.0,1458.0,1414.0,1464.0,1445.0,1502.0,1467.0,0.0,0.0,0.0,0.0,0.0,0.0,0.0,0.0
1261498136,8,1497.0,1432.0,1456.0,1410.0,1465.0,1446.0,1506.0,1468.0,0.0,0.0,0.0,0.0,0.0,0.0,0.0,0.0
1261538278,8,1501.0,1438.0,1462.0,1415.0,1468.0,1446.0,1507.0,1469.0,0.0,0.0,0.0,0.0,0.0,0.0,0.0,0.0
1261582103,8,1507.0,1437.0,1461.0,1408.0,1466.0,1444.0,1512.0,1472.0,0.0,0.0,0.0,0.0,0.0,0.0,0.0,0.0
1261626130,8,1499.0,1432.0,1460.0,1412.0,1470.0,1446.0,1509.0,1467.0,0.0,0.0,0.0,0.0,0.0,0.0,0.0,0.0
1261666251,8,1498.0,1427.0,1459.0,1410.0,1474.0,1449.0,1514.0,1466.0,0.0,0.0,0.0,0.0,0.0,0.0,0.0,0.0
1261706276,8,1502.0,1429.0,1457.0,1407.0,1471.0,1449.0,1516.0,1471.0,0.0,0.0,0.0,0.0,0.0,0.0,0.0,0.0
1261750111,8,1508.0,1432.0,1459.0,1405.0,1469.0,1448.0,1519.0,1475.0,0.0,0.0,0.0,0.0,0.0,0.0,0.0,0.0
1261790123,8,1506.0,1430.0,1451.0,1403.0,1467.0,1453.0,1522.0,1481.0,0.0,0.0,0.0,0.0,0.0,0.0,0.0,0.0
1261830230,8,1505.0,1423.0,1440.0,1392.0,1461.0,1452.0,1526.0,1483.0,0.0,0.0,0.0,0.0,0.0,0.0,0.0,0.0
1261870243,8,1503.0,1422.0,1445.0,1396.0,1466.0,1451.0,1524.0,1478.0,0.0,0.0,0.0,0.0,0.0,0.0,0.0,0.0
1261914273,8,1484.0,1420.0,1459.0,1420.0,1486.0,1457.0,1511.0,1456.0,0.0,0.0,0.0,0.0,0.0,0.0,0.0,0.0
1261954291,8,1482.0,1424.0,1469.0,1430.0,1489.0,1453.0,1502.0,1448.0,0.0,0.0,0.0,0.0,0.0,0.0,0.0,0.0
1261998226,8,1485.0,1436.0,1482.0,1442.0,1493.0,1452.0,1497.0,1447.0,0.0,0.0,0.0,0.0,0.0,0.0,0.0,0.0
1262038225,8,1486.0,1442.0,1486.0,1447.0,1494.0,1454.0,1495.0,1448.0,0.0,0.0,0.0,0.0,0.0,0.0,0.0,0.0
1262082284,8,1487.0,1446.0,1485.0,1451.0,1493.0,1458.0,1495.0,1454.0,0.0,0.0,0.0,0.0,0.0,0.0,0.0,0.0
1262122138,8,1496.0,1453.0,1483.0,1447.0,1488.0,1460.0,1501.0,1466.0,0.0,0.0,0.0,0.0,0.0,0.0,0.0,0.0
1262166249,8,1496.0,1455.0,1481.0,1450.0,1489.0,1466.0,1504.0,1471.0,0.0,0.0,0.0,0.0,0.0,0.0,0.0,0.0
1262206271,8,1496.0,1457.0,1480.0,1450.0,1486.0,1465.0,1502.0,1472.0,0.0,0.0,0.0,0.0,0.0,0.0,0.0,0.0
1262250301,8,1499.0,1457.0,1481.0,1450.0,1489.0,1468.0,1507.0,1475.0,0.0,0.0,0.0,0.0,0.0,0.0,0.0,0.0
1262290128,8,1497.0,1456.0,1479.0,1450.0,1490.0,1471.0,1508.0,1476.0,0.0,0.0,0.0,0.0,0.0,0.0,0.0,0.0
1262334269,8,1499.0,1456.0,1480.0,1450.0,1491.0,1471.0,1510.0,1476.0,0.0,0.0,0.0,0.0,0.0,0.0,0.0,0.0
1262374301,8,1500.0,1454.0,1483.0,1450.0,1495.0,1472.0,1513.0,1475.0,0.0,0.0,0.0,0.0,0.0,0.0,0.0,0.0
1262414245,8,1499.0,1450.0,1481.0,1450.0,1498.0,1474.0,1515.0,1475.0,0.0,0.0,0.0,0.0,0.0,0.0,0.0,0.0
1262458261,8,1500.0,1451.0,1482.0,1450.0,1498.0,1474.0,1517.0,1476.0,0.0,0.0,0.0,0.0,0.0,0.0,0.0,0.0
1262502259,8,1503.0,1451.0,1481.0,1448.0,1498.0,1475.0,1520.0,1478.0,0.0,0.0,0.0,0.0,0.0,0.0,0.0,0.0
1262542274,8,1501.0,1451.0,1479.0,1449.0,1499.0,1478.0,1521.0,1480.0,0.0,0.0,0.0,0.0,0.0,0.0,0.0,0.0
1262586145,8,1501.0,1447.0,1475.0,1444.0,1496.0,1477.0,1522.0,1480.0,0.0,0.0,0.0,0.0,0.0,0.0,0.0,0.0
1262626254,8,1501.0,1450.0,1475.0,1445.0,1494.0,1477.0,1520.0,1481.0,0.0,0.0,0.0,0.0,0.0,0.0,0.0,0.0
1262670166,8,1500.0,1451.0,1476.0,1447.0,1495.0,1477.0,1519.0,1481.0,0.0,0.0,0.0,0.0,0.0,0.0,0.0,0.0
1262710235,8,1499.0,1454.0,1476.0,1450.0,1493.0,1479.0,1516.0,1483.0,0.0,0.0,0.0,0.0,0.0,0.0,0.0,0.0
1262754154,8,1500.0,1453.0,1474.0,1447.0,1492.0,1478.0,1518.0,1484.0,0.0,0.0,0.0,0.0,0.0,0.0,0.0,0.0
1262794223,8,1501.0,1452.0,1474.0,1445.0,1491.0,1477.0,1519.0,1484.0,0.0,0.0,0.0,0.0,0.0,0.0,0.0,0.0
1262838270,8,1501.0,1451.0,1472.0,1443.0,1489.0,1475.0,1518.0,1483.0,0.0,0.0,0.0,0.0,0.0,0.0,0.0,0.0
1262878277,8,1501.0,1451.0,1473.0,1443.0,1490.0,1475.0,1518.0,1483.0,0.0,0.0,0.0,0.0,0.0,0.0,0.0,0.0
1262922272,8,1500.0,1448.0,1469.0,1440.0,1488.0,1476.0,1519.0,1484.0,0.0,0.0,0.0,0.0,0.0,0.0,0.0,0.0
1262962250,8,1498.0,1449.0,1470.0,1442.0,1489.0,1475.0,1517.0,1482.0,0.0,0.0,0.0,0.0,0.0,0.0,0.0,0.0
1263006288,8,1501.0,1448.0,1469.0,1438.0,1487.0,1473.0,1519.0,1483.0,0.0,0.0,0.0,0.0,0.0,0.0,0.0,0.0
1263046255,8,1498.0,1447.0,1467.0,1438.0,1485.0,1473.0,1516.0,1482.0,0.0,0.0,0.0,0.0,0.0,0.0,0.0,0.0
1263090145,8,1500.0,1449.0,1471.0,1439.0,1485.0,1470.0,1514.0,1480.0,0.0,0.0,0.0,0.0,0.0,0.0,0.0,0.0
1263130252,8,1499.0,1450.0,1471.0,1440.0,1486.0,1472.0,1515.0,1481.0,0.0,0.0,0.0,0.0,0.0,0.0,0.0,0.0
1263174286,8,1499.0,1447.0,1468.0,1438.0,1486.0,1472.0,1517.0,1481.0,0.0,0.0,0.0,0.0,0.0,0.0,0.0,0.0
1263214297,8,1497.0,1447.0,1468.0,1440.0,1486.0,1473.0,1515.0,1480.0,0.0,0.0,0.0,0.0,0.0,0.0,0.0,0.0
1263258239,8,1496.0,1445.0,1467.0,1440.0,1488.0,1475.0,1517.0,1481.0,0.0,0.0,0.0,0.0,0.0,0.0,0.0,0.0
1263298125,8,1494.0,1446.0,1468.0,1440.0,1487.0,1472.0,1513.0,1478.0,0.0,0.0,0.0,0.0,0.0,0.0,0.0,0.0
1263342291,8,1496.0,1448.0,1472.0,1444.0,1489.0,1473.0,1513.0,1477.0,0.0,0.0,0.0,0.0,0.0,0.0,0.0,0.0
1263382250,8,1495.0,1450.0,1474.0,1447.0,1491.0,1474.0,1512.0,1477.0,0.0,0.0,0.0,0.0,0.0,0.0,0.0,0.0
1263422271,8,1496.0,1453.0,1476.0,1447.0,1488.0,1470.0,1508.0,1476.0,0.0,0.0,0.0,0.0,0.0,0.0,0.0,0.0
1263466135,8,1499.0,1455.0,1479.0,1448.0,1488.0,1469.0,1509.0,1476.0,0.0,0.0,0.0,0.0,0.0,0.0,0.0,0.0
1263510269,8,1499.0,1450.0,1474.0,1439.0,1484.0,1464.0,1509.0,1474.0,0.0,0.0,0.0,0.0,0.0,0.0,0.0,0.0
1263550282,8,1499.0,1450.0,1475.0,1440.0,1485.0,1463.0,1509.0,1474.0,0.0,0.0,0.0,0.0,0.0,0.0,0.0,0.0
1263594202,8,1499.0,1449.0,1475.0,1440.0,1485.0,1463.0,1509.0,1473.0,0.0,0.0,0.0,0.0,0.0,0.0,0.0,0.0
1263634203,8,1500.0,1449.0,1477.0,1440.0,1488.0,1464.0,1511.0,1473.0,0.0,0.0,0.0,0.0,0.0,0.0,0.0,0.0
1263678245,8,1499.0,1448.0,1475.0,1439.0,1486.0,1463.0,1509.0,1472.0,0.0,0.0,0.0,0.0,0.0,0.0,0.0,0.0
1263718241,8,1498.0,1449.0,1476.0,1441.0,1485.0,1463.0,1508.0,1472.0,0.0,0.0,0.0,0.0,0.0,0.0,0.0,0.0
1263762145,8,1498.0,1447.0,1475.0,1439.0,1486.0,1462.0,1508.0,1471.0,0.0,0.0,0.0,0.0,0.0,0.0,0.0,0.0
1263802230,8,1498.0,1445.0,1474.0,1438.0,1488.0,1464.0,1511.0,1471.0,0.0,0.0,0.0,0.0,0.0,0.0,0.0,0.0
1263846216,8,1495.0,1444.0,1475.0,1440.0,1489.0,1465.0,1509.0,1468.0,0.0,0.0,0.0,0.0,0.0,0.0,0.0,0.0
1263886242,8,1493.0,1443.0,1472.0,1439.0,1487.0,1464.0,1507.0,1468.0,0.0,0.0,0.0,0.0,0.0,0.0,0.0,0.0
1263930150,8,1492.0,1447.0,1473.0,1443.0,1486.0,1466.0,1505.0,1470.0,0.0,0.0,0.0,0.0,0.0,0.0,0.0,0.0
1263970217,8,1494.0,1447.0,1475.0,1440.0,1485.0,1461.0,1504.0,1468.0,0.0,0.0,0.0,0.0,0.0,0.0,0.0,0.0
1264014263,8,1497.0,1449.0,1474.0,1440.0,1483.0,1462.0,1505.0,1471.0,0.0,0.0,0.0,0.0,0.0,0.0,0.0,0.0
1264058106,8,1496.0,1448.0,1471.0,1437.0,1481.0,1462.0,1506.0,1473.0,0.0,0.0,0.0,0.0,0.0,0.0,0.0,0.0
1264102211,8,1495.0,1450.0,1471.0,1439.0,1480.0,1462.0,1504.0,1473.0,0.0,0.0,0.0,0.0,0.0,0.0,0.0,0.0
1264142299,8,1501.0,1452.0,1472.0,1436.0,1478.0,1461.0,1507.0,1477.0,0.0,0.0,0.0,0.0,0.0,0.0,0.0,0.0
1264186137,8,1498.0,1453.0,1471.0,1440.0,1479.0,1464.0,1505.0,1478.0,0.0,0.0,0.0,0.0,0.0,0.0,0.0,0.0
1264226122,8,1500.0,1455.0,1472.0,1440.0,1479.0,1464.0,1506.0,1479.0,0.0,0.0,0.0,0.0,0.0,0.0,0.0,0.0
1264270221,8,1504.0,1459.0,1473.0,1439.0,1476.0,1464.0,1507.0,1483.0,0.0,0.0,0.0,0.0,0.0,0.0,0.0,0.0
1264310127,8,1505.0,1459.0,1475.0,1440.0,1479.0,1464.0,1509.0,1483.0,0.0,0.0,0.0,0.0,0.0,0.0,0.0,0.0
1264354111,8,1501.0,1456.0,1471.0,1439.0,1477.0,1463.0,1506.0,1480.0,0.0,0.0,0.0,0.0,0.0,0.0,0.0,0.0
1264394132,8,1503.0,1459.0,1477.0,1442.0,1480.0,1463.0,1506.0,1480.0,0.0,0.0,0.0,0.0,0.0,0.0,0.0,0.0
1264438156,8,1500.0,1460.0,1478.0,1446.0,1480.0,1463.0,1502.0,1477.0,0.0,0.0,0.0,0.0,0.0,0.0,0.0,0.0
1264482111,8,1504.0,1463.0,1478.0,1443.0,1476.0,1459.0,1501.0,1479.0,0.0,0.0,0.0,0.0,0.0,0.0,0.0,0.0
1264522111,8,1504.0,1464.0,1483.0,1446.0,1479.0,1459.0,1501.0,1476.0,0.0,0.0,0.0,0.0,0.0,0.0,0.0,0.0
1264566246,8,1505.0,1463.0,1483.0,1446.0,1480.0,1459.0,1502.0,1477.0,0.0,0.0,0.0,0.0,0.0,0.0,0.0,0.0
1264606240,8,1504.0,1462.0,1485.0,1449.0,1486.0,1463.0,1504.0,1476.0,0.0,0.0,0.0,0.0,0.0,0.0,0.0,0.0
1264650110,8,1502.0,1456.0,1481.0,1445.0,1486.0,1463.0,1506.0,1474.0,0.0,0.0,0.0,0.0,0.0,0.0,0.0,0.0
1264690113,8,1502.0,1454.0,1481.0,1446.0,1490.0,1467.0,1511.0,1475.0,0.0,0.0,0.0,0.0,0.0,0.0,0.0,0.0
1264734158,8,1500.0,1453.0,1480.0,1446.0,1491.0,1468.0,1510.0,1474.0,0.0,0.0,0.0,0.0,0.0,0.0,0.0,0.0
1264774246,8,1501.0,1453.0,1481.0,1448.0,1493.0,1470.0,1512.0,1475.0,0.0,0.0,0.0,0.0,0.0,0.0,0.0,0.0
1264818113,8,1497.0,1452.0,1485.0,1452.0,1497.0,1470.0,1510.0,1470.0,0.0,0.0,0.0,0.0,0.0,0.0,0.0,0.0
1264858120,8,1498.0,1450.0,1485.0,1452.0,1500.0,1470.0,1512.0,1469.0,0.0,0.0,0.0,0.0,0.0,0.0,0.0,0.0
1264898132,8,1498.0,1448.0,1488.0,1452.0,1503.0,1469.0,1513.0,1466.0,0.0,0.0,0.0,0.0,0.0,0.0,0.0,0.0
1264942257,8,1497.0,1447.0,1487.0,1453.0,1505.0,1473.0,1515.0,1467.0,0.0,0.0,0.0,0.0,0.0,0.0,0.0,0.0
1264982114,8,1494.0,1451.0,1489.0,1458.0,1505.0,1472.0,1510.0,1465.0,0.0,0.0,0.0,0.0,0.0,0.0,0.0,0.0
1265022145,8,1490.0,1443.0,1486.0,1455.0,1507.0,1472.0,1511.0,1460.0,0.0,0.0,0.0,0.0,0.0,0.0,0.0,0.0
1265062277,8,1487.0,1440.0,1481.0,1454.0,1507.0,1477.0,1513.0,1462.0,0.0,0.0,0.0,0.0,0.0,0.0,0.0,0.0
1265106164,8,1490.0,1442.0,1478.0,1452.0,1503.0,1477.0,1515.0,1468.0,0.0,0.0,0.0,0.0,0.0,0.0,0.0,0.0
1265146303,8,1488.0,1446.0,1476.0,1454.0,1499.0,1478.0,1511.0,1470.0,0.0,0.0,0.0,0.0,0.0,0.0,0.0,0.0
1265190277,8,1482.0,1444.0,1470.0,1457.0,1499.0,1486.0,1511.0,1473.0,0.0,0.0,0.0,0.0,0.0,0.0,0.0,0.0
1265230240,8,1482.0,1446.0,1465.0,1455.0,1494.0,1488.0,1511.0,1479.0,0.0,0.0,0.0,0.0,0.0,0.0,0.0,0.0
1265274258,8,1472.0,1446.0,1457.0,1461.0,1493.0,1498.0,1509.0,1483.0,0.0,0.0,0.0,0.0,0.0,0.0,0.0,0.0
1265314244,8,1470.0,1442.0,1446.0,1456.0,1489.0,1502.0,1512.0,1488.0,0.0,0.0,0.0,0.0,0.0,0.0,0.0,0.0
1265358268,8,1466.0,1438.0,1435.0,1451.0,1484.0,1507.0,1514.0,1494.0,0.0,0.0,0.0,0.0,0.0,0.0,0.0,0.0
1265398243,8,1461.0,1436.0,1427.0,1447.0,1477.0,1507.0,1511.0,1496.0,0.0,0.0,0.0,0.0,0.0,0.0,0.0,0.0
1265442287,8,1465.0,1435.0,1429.0,1442.0,1475.0,1500.0,1512.0,1493.0,0.0,0.0,0.0,0.0,0.0,0.0,0.0,0.0
1265482257,8,1465.0,1432.0,1425.0,1436.0,1470.0,1496.0,1510.0,1492.0,0.0,0.0,0.0,0.0,0.0,0.0,0.0,0.0
1265526252,8,1470.0,1433.0,1425.0,1430.0,1465.0,1491.0,1510.0,1494.0,0.0,0.0,0.0,0.0,0.0,0.0,0.0,0.0
1265566240,8,1472.0,1433.0,1428.0,1427.0,1463.0,1482.0,1507.0,1489.0,0.0,0.0,0.0,0.0,0.0,0.0,0.0,0.0
1265610258,8,1475.0,1431.0,1422.0,1417.0,1454.0,1476.0,1507.0,1490.0,0.0,0.0,0.0,0.0,0.0,0.0,0.0,0.0
1265650269,8,1474.0,1429.0,1427.0,1419.0,1459.0,1474.0,1506.0,1485.0,0.0,0.0,0.0,0.0,0.0,0.0,0.0,0.0
1265694154,8,1476.0,1431.0,1428.0,1417.0,1456.0,1471.0,1504.0,1485.0,0.0,0.0,0.0,0.0,0.0,0.0,0.0,0.0
1265734242,8,1473.0,1429.0,1432.0,1421.0,1461.0,1471.0,1502.0,1479.0,0.0,0.0,0.0,0.0,0.0,0.0,0.0,0.0
1265778286,8,1472.0,1426.0,1430.0,1417.0,1459.0,1467.0,1501.0,1476.0,0.0,0.0,0.0,0.0,0.0,0.0,0.0,0.0
1265818248,8,1473.0,1429.0,1434.0,1420.0,1460.0,1465.0,1498.0,1474.0,0.0,0.0,0.0,0.0,0.0,0.0,0.0,0.0
1265862227,8,1477.0,1433.0,1441.0,1423.0,1464.0,1465.0,1500.0,1475.0,0.0,0.0,0.0,0.0,0.0,0.0,0.0,0.0
1265902131,8,1476.0,1431.0,1439.0,1421.0,1462.0,1464.0,1499.0,1474.0,0.0,0.0,0.0,0.0,0.0,0.0,0.0,0.0
1265946280,8,1476.0,1426.0,1441.0,1419.0,1465.0,1461.0,1501.0,1469.0,0.0,0.0,0.0,0.0,0.0,0.0,0.0,0.0
1265986278,8,1474.0,1426.0,1443.0,1424.0,1471.0,1465.0,1501.0,1468.0,0.0,0.0,0.0,0.0,0.0,0.0,0.0,0.0
1266030233,8,1473.0,1422.0,1446.0,1424.0,1476.0,1465.0,1504.0,1463.0,0.0,0.0,0.0,0.0,0.0,0.0,0.0,0.0
1266070224,8,1471.0,1423.0,1448.0,1428.0,1478.0,1465.0,1501.0,1460.0,0.0,0.0,0.0,0.0,0.0,0.0,0.0,0.0
1266114271,8,1468.0,1422.0,1451.0,1432.0,1482.0,1467.0,1499.0,1456.0,0.0,0.0,0.0,0.0,0.0,0.0,0.0,0.0
1266154326,8,1465.0,1419.0,1447.0,1431.0,1482.0,1469.0,1501.0,1457.0,0.0,0.0,0.0,0.0,0.0,0.0,0.0,0.0
1266198237,8,1467.0,1420.0,1448.0,1430.0,1481.0,1467.0,1500.0,1457.0,0.0,0.0,0.0,0.0,0.0,0.0,0.0,0.0
1266238258,8,1471.0,1423.0,1455.0,1432.0,1484.0,1464.0,1500.0,1455.0,0.0,0.0,0.0,0.0,0.0,0.0,0.0,0.0
1266282252,8,1468.0,1421.0,1452.0,1431.0,1482.0,1463.0,1498.0,1454.0,0.0,0.0,0.0,0.0,0.0,0.0,0.0,0.0
1266322251,8,1463.0,1416.0,1451.0,1433.0,1486.0,1466.0,1499.0,1450.0,0.0,0.0,0.0,0.0,0.0,0.0,0.0,0.0
1266366145,8,1466.0,1416.0,1451.0,1432.0,1488.0,1469.0,1503.0,1453.0,0.0,0.0,0.0,0.0,0.0,0.0,0.0,0.0
1266410256,8,1463.0,1412.0,1446.0,1429.0,1487.0,1470.0,1504.0,1453.0,0.0,0.0,0.0,0.0,0.0,0.0,0.0,0.0
1266454122,8,1467.0,1410.0,1444.0,1425.0,1488.0,1473.0,1512.0,1458.0,0.0,0.0,0.0,0.0,0.0,0.0,0.0,0.0
1266494112,8,1467.0,1410.0,1439.0,1418.0,1479.0,1467.0,1507.0,1458.0,0.0,0.0,0.0,0.0,0.0,0.0,0.0,0.0
1266538252,8,1471.0,1415.0,1445.0,1420.0,1478.0,1462.0,1504.0,1457.0,0.0,0.0,0.0,0.0,0.0,0.0,0.0,0.0
1266578279,8,1477.0,1418.0,1443.0,1415.0,1472.0,1460.0,1507.0,1464.0,0.0,0.0,0.0,0.0,0.0,0.0,0.0,0.0
1266622099,8,1476.0,1416.0,1439.0,1411.0,1469.0,1458.0,1506.0,1463.0,0.0,0.0,0.0,0.0,0.0,0.0,0.0,0.0
1266662103,8,1473.0,1418.0,1443.0,1417.0,1472.0,1458.0,1501.0,1459.0,0.0,0.0,0.0,0.0,0.0,0.0,0.0,0.0
1266706226,8,1472.0,1417.0,1446.0,1419.0,1476.0,1460.0,1503.0,1457.0,0.0,0.0,0.0,0.0,0.0,0.0,0.0,0.0
1266746155,8,1472.0,1412.0,1447.0,1418.0,1480.0,1459.0,1505.0,1453.0,0.0,0.0,0.0,0.0,0.0,0.0,0.0,0.0
1266790105,8,1472.0,1412.0,1445.0,1417.0,1479.0,1460.0,1506.0,1455.0,0.0,0.0,0.0,0.0,0.0,0.0,0.0,0.0
1266830113,8,1475.0,1413.0,1446.0,1416.0,1479.0,1459.0,1508.0,1456.0,0.0,0.0,0.0,0.0,0.0,0.0,0.0,0.0
1266874137,8,1473.0,1412.0,1448.0,1418.0,1482.0,1459.0,1506.0,1453.0,0.0,0.0,0.0,0.0,0.0,0.0,0.0,0.0
1266914277,8,1472.0,1412.0,1448.0,1421.0,1485.0,1463.0,1508.0,1454.0,0.0,0.0,0.0,0.0,0.0,0.0,0.0,0.0
1266958142,8,1477.0,1412.0,1446.0,1415.0,1481.0,1462.0,1512.0,1459.0,0.0,0.0,0.0,0.0,0.0,0.0,0.0,0.0
1266998122,8,1474.0,1413.0,1447.0,1419.0,1483.0,1463.0,1509.0,1456.0,0.0,0.0,0.0,0.0,0.0,0.0,0.0,0.0
1267042172,8,1471.0,1413.0,1447.0,1419.0,1480.0,1460.0,1504.0,1453.0,0.0,0.0,0.0,0.0,0.0,0.0,0.0,0.0
1267082127,8,1473.0,1418.0,1451.0,1421.0,1478.0,1456.0,1500.0,1453.0,0.0,0.0,0.0,0.0,0.0,0.0,0.0,0.0
1267126117,8,1471.0,1422.0,1451.0,1426.0,1477.0,1459.0,1497.0,1455.0,0.0,0.0,0.0,0.0,0.0,0.0,0.0,0.0
1267166138,8,1476.0,1426.0,1452.0,1424.0,1473.0,1455.0,1497.0,1457.0,0.0,0.0,0.0,0.0,0.0,0.0,0.0,0.0
1267210154,8,1475.0,1432.0,1452.0,1429.0,1470.0,1458.0,1493.0,1461.0,0.0,0.0,0.0,0.0,0.0,0.0,0.0,0.0
1267250119,8,1477.0,1437.0,1452.0,1433.0,1471.0,1464.0,1495.0,1468.0,0.0,0.0,0.0,0.0,0.0,0.0,0.0,0.0
1267294108,8,1478.0,1439.0,1447.0,1430.0,1465.0,1464.0,1496.0,1474.0,0.0,0.0,0.0,0.0,0.0,0.0,0.0,0.0
1267338136,8,1477.0,1436.0,1443.0,1428.0,1465.0,1467.0,1499.0,1475.0,0.0,0.0,0.0,0.0,0.0,0.0,0.0,0.0
1267378168,8,1479.0,1436.0,1443.0,1426.0,1465.0,1468.0,1502.0,1478.0,0.0,0.0,0.0,0.0,0.0,0.0,0.0,0.0
1267422221,8,1481.0,1430.0,1439.0,1419.0,1464.0,1465.0,1505.0,1477.0,0.0,0.0,0.0,0.0,0.0,0.0,0.0,0.0
1267462099,8,1477.0,1425.0,1433.0,1414.0,1461.0,1465.0,1505.0,1476.0,0.0,0.0,0.0,0.0,0.0,0.0,0.0,0.0
1267506154,8,1479.0,1420.0,1433.0,1409.0,1463.0,1462.0,1509.0,1473.0,0.0,0.0,0.0,0.0,0.0,0.0,0.0,0.0
1267546122,8,1483.0,1419.0,1435.0,1405.0,1463.0,1458.0,1510.0,1472.0,0.0,0.0,0.0,0.0,0.0,0.0,0.0,0.0
1267590108,8,1481.0,1420.0,1442.0,1411.0,1469.0,1458.0,1507.0,1466.0,0.0,0.0,0.0,0.0,0.0,0.0,0.0,0.0
1267630122,8,1476.0,1416.0,1444.0,1412.0,1471.0,1454.0,1503.0,1457.0,0.0,0.0,0.0,0.0,0.0,0.0,0.0,0.0
1267674123,8,1478.0,1421.0,1451.0,1419.0,1474.0,1454.0,1501.0,1456.0,0.0,0.0,0.0,0.0,0.0,0.0,0.0,0.0
1267714113,8,1474.0,1420.0,1448.0,1415.0,1467.0,1448.0,1494.0,1453.0,0.0,0.0,0.0,0.0,0.0,0.0,0.0,0.0
1267758197,8,1476.0,1420.0,1446.0,1413.0,1467.0,1450.0,1498.0,1456.0,0.0,0.0,0.0,0.0,0.0,0.0,0.0,0.0
1267798164,8,1476.0,1422.0,1446.0,1416.0,1467.0,1452.0,1497.0,1458.0,0.0,0.0,0.0,0.0,0.0,0.0,0.0,0.0
1267842252,8,1474.0,1420.0,1443.0,1415.0,1466.0,1453.0,1497.0,1458.0,0.0,0.0,0.0,0.0,0.0,0.0,0.0,0.0
1267882111,8,1475.0,1427.0,1446.0,1421.0,1467.0,1457.0,1497.0,1463.0,0.0,0.0,0.0,0.0,0.0,0.0,0.0,0.0
1267926204,8,1474.0,1427.0,1440.0,1419.0,1462.0,1458.0,1496.0,1467.0,0.0,0.0,0.0,0.0,0.0,0.0,0.0,0.0
1267966117,8,1479.0,1432.0,1442.0,1419.0,1460.0,1457.0,1497.0,1471.0,0.0,0.0,0.0,0.0,0.0,0.0,0.0,0.0
1268010127,8,1479.0,1434.0,1445.0,1423.0,1463.0,1459.0,1497.0,1471.0,0.0,0.0,0.0,0.0,0.0,0.0,0.0,0.0
1268050105,8,1473.0,1424.0,1435.0,1415.0,1461.0,1461.0,1500.0,1470.0,0.0,0.0,0.0,0.0,0.0,0.0,0.0,0.0
1268090103,8,1480.0,1429.0,1438.0,1413.0,1457.0,1456.0,1500.0,1473.0,0.0,0.0,0.0,0.0,0.0,0.0,0.0,0.0
1268134243,8,1479.0,1427.0,1439.0,1413.0,1459.0,1455.0,1499.0,1469.0,0.0,0.0,0.0,0.0,0.0,0.0,0.0,0.0
1268174263,8,1475.0,1427.0,1443.0,1421.0,1465.0,1460.0,1498.0,1466.0,0.0,0.0,0.0,0.0,0.0,0.0,0.0,0.0
1268214240,8,1475.0,1425.0,1444.0,1419.0,1466.0,1457.0,1498.0,1463.0,0.0,0.0,0.0,0.0,0.0,0.0,0.0,0.0
1268258107,8,1475.0,1428.0,1446.0,1421.0,1465.0,1454.0,1494.0,1462.0,0.0,0.0,0.0,0.0,0.0,0.0,0.0,0.0
1268302137,8,1478.0,1428.0,1446.0,1419.0,1465.0,1455.0,1497.0,1464.0,0.0,0.0,0.0,0.0,0.0,0.0,0.0,0.0
1268342293,8,1476.0,1428.0,1446.0,1422.0,1467.0,1458.0,1496.0,1464.0,0.0,0.0,0.0,0.0,0.0,0.0,0.0,0.0
1268386131,8,1476.0,1429.0,1446.0,1420.0,1464.0,1454.0,1494.0,1463.0,0.0,0.0,0.0,0.0,0.0,0.0,0.0,0.0
1268426111,8,1477.0,1431.0,1447.0,1422.0,1464.0,1454.0,1493.0,1463.0,0.0,0.0,0.0,0.0,0.0,0.0,0.0,0.0
1268470244,8,1479.0,1430.0,1447.0,1419.0,1463.0,1452.0,1494.0,1464.0,0.0,0.0,0.0,0.0,0.0,0.0,0.0,0.0
1268510258,8,1480.0,1429.0,1445.0,1415.0,1460.0,1451.0,1495.0,1465.0,0.0,0.0,0.0,0.0,0.0,0.0,0.0,0.0
1268550275,8,1477.0,1432.0,1445.0,1420.0,1461.0,1454.0,1493.0,1466.0,0.0,0.0,0.0,0.0,0.0,0.0,0.0,0.0
1268590271,8,1483.0,1437.0,1447.0,1418.0,1457.0,1451.0,1493.0,1469.0,0.0,0.0,0.0,0.0,0.0,0.0,0.0,0.0
1268634241,8,1476.0,1431.0,1442.0,1419.0,1459.0,1455.0,1492.0,1467.0,0.0,0.0,0.0,0.0,0.0,0.0,0.0,0.0
1268674246,8,1477.0,1435.0,1444.0,1423.0,1460.0,1457.0,1493.0,1469.0,0.0,0.0,0.0,0.0,0.0,0.0,0.0,0.0
1268718261,8,1477.0,1434.0,1442.0,1421.0,1459.0,1459.0,1495.0,1472.0,0.0,0.0,0.0,0.0,0.0,0.0,0.0,0.0
1268758247,8,1479.0,1434.0,1439.0,1417.0,1455.0,1456.0,1495.0,1473.0,0.0,0.0,0.0,0.0,0.0,0.0,0.0,0.0
1268802145,8,1480.0,1434.0,1442.0,1419.0,1457.0,1456.0,1495.0,1472.0,0.0,0.0,0.0,0.0,0.0,0.0,0.0,0.0
1268842273,8,1484.0,1435.0,1441.0,1413.0,1453.0,1451.0,1496.0,1474.0,0.0,0.0,0.0,0.0,0.0,0.0,0.0,0.0
1268886257,8,1485.0,1438.0,1447.0,1417.0,1455.0,1449.0,1493.0,1470.0,0.0,0.0,0.0,0.0,0.0,0.0,0.0,0.0
1268926272,8,1486.0,1436.0,1443.0,1413.0,1453.0,1450.0,1495.0,1473.0,0.0,0.0,0.0,0.0,0.0,0.0,0.0,0.0
1268970242,8,1485.0,1434.0,1445.0,1413.0,1455.0,1449.0,1495.0,1470.0,0.0,0.0,0.0,0.0,0.0,0.0,0.0,0.0
1269010235,8,1485.0,1432.0,1446.0,1413.0,1458.0,1448.0,1496.0,1467.0,0.0,0.0,0.0,0.0,0.0,0.0,0.0,0.0
1269054290,8,1487.0,1433.0,1447.0,1414.0,1459.0,1450.0,1498.0,1469.0,0.0,0.0,0.0,0.0,0.0,0.0,0.0,0.0
1269098118,8,1486.0,1432.0,1446.0,1412.0,1458.0,1448.0,1498.0,1469.0,0.0,0.0,0.0,0.0,0.0,0.0,0.0,0.0
1269142317,8,1484.0,1431.0,1447.0,1414.0,1460.0,1450.0,1497.0,1467.0,0.0,0.0,0.0,0.0,0.0,0.0,0.0,0.0
1269182170,8,1482.0,1429.0,1447.0,1415.0,1462.0,1450.0,1496.0,1464.0,0.0,0.0,0.0,0.0,0.0,0.0,0.0,0.0
1269226123,8,1481.0,1429.0,1444.0,1413.0,1460.0,1451.0,1497.0,1466.0,0.0,0.0,0.0,0.0,0.0,0.0,0.0,0.0
1269266125,8,1483.0,1432.0,1448.0,1415.0,1459.0,1448.0,1494.0,1465.0,0.0,0.0,0.0,0.0,0.0,0.0,0.0,0.0
1269310137,8,1481.0,1432.0,1449.0,1418.0,1462.0,1450.0,1494.0,1464.0,0.0,0.0,0.0,0.0,0.0,0.0,0.0,0.0
1269350155,8,1484.0,1435.0,1453.0,1421.0,1465.0,1452.0,1496.0,1466.0,0.0,0.0,0.0,0.0,0.0,0.0,0.0,0.0
1269394115,8,1486.0,1435.0,1454.0,1420.0,1465.0,1451.0,1497.0,1466.0,0.0,0.0,0.0,0.0,0.0,0.0,0.0,0.0
1269434107,8,1485.0,1431.0,1448.0,1414.0,1460.0,1449.0,1497.0,1466.0,0.0,0.0,0.0,0.0,0.0,0.0,0.0,0.0
1269478254,8,1484.0,1433.0,1454.0,1420.0,1465.0,1449.0,1495.0,1463.0,0.0,0.0,0.0,0.0,0.0,0.0,0.0,0.0
1269518153,8,1485.0,1434.0,1450.0,1416.0,1460.0,1448.0,1495.0,1466.0,0.0,0.0,0.0,0.0,0.0,0.0,0.0,0.0
1269562121,8,1485.0,1433.0,1449.0,1414.0,1458.0,1446.0,1494.0,1466.0,0.0,0.0,0.0,0.0,0.0,0.0,0.0,0.0
1269602113,8,1486.0,1435.0,1453.0,1419.0,1462.0,1448.0,1495.0,1465.0,0.0,0.0,0.0,0.0,0.0,0.0,0.0,0.0
1269646151,8,1484.0,1433.0,1451.0,1418.0,1462.0,1448.0,1494.0,1464.0,0.0,0.0,0.0,0.0,0.0,0.0,0.0,0.0
1269690112,8,1484.0,1431.0,1450.0,1415.0,1462.0,1448.0,1496.0,1464.0,0.0,0.0,0.0,0.0,0.0,0.0,0.0,0.0
1269730134,8,1487.0,1435.0,1454.0,1418.0,1463.0,1448.0,1496.0,1465.0,0.0,0.0,0.0,0.0,0.0,0.0,0.0,0.0
1269770278,8,1487.0,1437.0,1455.0,1421.0,1464.0,1450.0,1496.0,1466.0,0.0,0.0,0.0,0.0,0.0,0.0,0.0,0.0
1269814115,8,1486.0,1435.0,1452.0,1418.0,1462.0,1449.0,1496.0,1466.0,0.0,0.0,0.0,0.0,0.0,0.0,0.0,0.0
1269858106,8,1485.0,1435.0,1454.0,1421.0,1465.0,1451.0,1496.0,1465.0,0.0,0.0,0.0,0.0,0.0,0.0,0.0,0.0
1269898116,8,1481.0,1438.0,1454.0,1426.0,1465.0,1453.0,1492.0,1464.0,0.0,0.0,0.0,0.0,0.0,0.0,0.0,0.0
1269942169,8,1481.0,1438.0,1456.0,1428.0,1466.0,1452.0,1490.0,1462.0,0.0,0.0,0.0,0.0,0.0,0.0,0.0,0.0
1269982128,8,1484.0,1440.0,1455.0,1427.0,1464.0,1454.0,1493.0,1467.0,0.0,0.0,0.0,0.0,0.0,0.0,0.0,0.0
1270022119,8,1483.0,1441.0,1455.0,1427.0,1463.0,1453.0,1492.0,1467.0,0.0,0.0,0.0,0.0,0.0,0.0,0.0,0.0
1270066125,8,1487.0,1444.0,1456.0,1426.0,1462.0,1453.0,1493.0,1471.0,0.0,0.0,0.0,0.0,0.0,0.0,0.0,0.0
1270106111,8,1485.0,1443.0,1457.0,1428.0,1464.0,1454.0,1493.0,1468.0,0.0,0.0,0.0,0.0,0.0,0.0,0.0,0.0
1270150114,8,1487.0,1446.0,1460.0,1432.0,1466.0,1456.0,1493.0,1470.0,0.0,0.0,0.0,0.0,0.0,0.0,0.0,0.0
1270190113,8,1490.0,1448.0,1461.0,1430.0,1464.0,1453.0,1493.0,1471.0,0.0,0.0,0.0,0.0,0.0,0.0,0.0,0.0
1270234130,8,1487.0,1447.0,1461.0,1433.0,1466.0,1454.0,1492.0,1469.0,0.0,0.0,0.0,0.0,0.0,0.0,0.0,0.0
1270274270,8,1490.0,1451.0,1465.0,1435.0,1468.0,1455.0,1493.0,1470.0,0.0,0.0,0.0,0.0,0.0,0.0,0.0,0.0
1270318111,8,1490.0,1450.0,1464.0,1434.0,1468.0,1455.0,1494.0,1471.0,0.0,0.0,0.0,0.0,0.0,0.0,0.0,0.0
1270358124,8,1489.0,1447.0,1461.0,1432.0,1467.0,1456.0,1495.0,1471.0,0.0,0.0,0.0,0.0,0.0,0.0,0.0,0.0
1270402135,8,1498.0,1451.0,1462.0,1428.0,1464.0,1454.0,1500.0,1478.0,0.0,0.0,0.0,0.0,0.0,0.0,0.0,0.0
1270442139,8,1494.0,1451.0,1459.0,1428.0,1462.0,1456.0,1498.0,1478.0,0.0,0.0,0.0,0.0,0.0,0.0,0.0,0.0
1270486121,8,1498.0,1451.0,1462.0,1428.0,1464.0,1455.0,1500.0,1478.0,0.0,0.0,0.0,0.0,0.0,0.0,0.0,0.0
1270526105,8,1497.0,1449.0,1456.0,1423.0,1461.0,1455.0,1502.0,1481.0,0.0,0.0,0.0,0.0,0.0,0.0,0.0,0.0
1270570244,8,1495.0,1449.0,1460.0,1427.0,1464.0,1455.0,1499.0,1477.0,0.0,0.0,0.0,0.0,0.0,0.0,0.0,0.0
1270610275,8,1498.0,1450.0,1462.0,1426.0,1464.0,1453.0,1500.0,1477.0,0.0,0.0,0.0,0.0,0.0,0.0,0.0,0.0
1270654109,8,1496.0,1450.0,1463.0,1427.0,1463.0,1450.0,1496.0,1474.0,0.0,0.0,0.0,0.0,0.0,0.0,0.0,0.0
1270694107,8,1498.0,1451.0,1464.0,1424.0,1461.0,1446.0,1495.0,1473.0,0.0,0.0,0.0,0.0,0.0,0.0,0.0,0.0
1270738251,8,1499.0,1451.0,1466.0,1426.0,1464.0,1447.0,1497.0,1472.0,0.0,0.0,0.0,0.0,0.0,0.0,0.0,0.0
1270778272,8,1502.0,1450.0,1469.0,1426.0,1467.0,1448.0,1500.0,1472.0,0.0,0.0,0.0,0.0,0.0,0.0,0.0,0.0
1270822110,8,1501.0,1451.0,1469.0,1428.0,1468.0,1450.0,1500.0,1473.0,0.0,0.0,0.0,0.0,0.0,0.0,0.0,0.0
1270862105,8,1499.0,1451.0,1471.0,1431.0,1471.0,1451.0,1500.0,1471.0,0.0,0.0,0.0,0.0,0.0,0.0,0.0,0.0
1270906239,8,1500.0,1444.0,1468.0,1423.0,1469.0,1446.0,1501.0,1468.0,0.0,0.0,0.0,0.0,0.0,0.0,0.0,0.0
1270946282,8,1501.0,1445.0,1470.0,1424.0,1472.0,1446.0,1502.0,1467.0,0.0,0.0,0.0,0.0,0.0,0.0,0.0,0.0
1270990114,8,1500.0,1443.0,1467.0,1422.0,1470.0,1446.0,1502.0,1468.0,0.0,0.0,0.0,0.0,0.0,0.0,0.0,0.0
1271030121,8,1502.0,1443.0,1467.0,1421.0,1471.0,1448.0,1506.0,1470.0,0.0,0.0,0.0,0.0,0.0,0.0,0.0,0.0
1271074237,8,1502.0,1443.0,1472.0,1425.0,1476.0,1450.0,1507.0,1468.0,0.0,0.0,0.0,0.0,0.0,0.0,0.0,0.0
1271114142,8,1504.0,1445.0,1474.0,1427.0,1478.0,1450.0,1507.0,1468.0,0.0,0.0,0.0,0.0,0.0,0.0,0.0,0.0
1271158124,8,1498.0,1439.0,1469.0,1420.0,1472.0,1444.0,1502.0,1462.0,0.0,0.0,0.0,0.0,0.0,0.0,0.0,0.0
1271198115,8,1490.0,1434.0,1461.0,1416.0,1465.0,1439.0,1494.0,1457.0,0.0,0.0,0.0,0.0,0.0,0.0,0.0,0.0
1271242258,8,1486.0,1433.0,1460.0,1418.0,1465.0,1440.0,1491.0,1455.0,0.0,0.0,0.0,0.0,0.0,0.0,0.0,0.0
1271282278,8,1485.0,1429.0,1456.0,1412.0,1461.0,1435.0,1489.0,1452.0,0.0,0.0,0.0,0.0,0.0,0.0,0.0,0.0
1271326123,8,1481.0,1428.0,1452.0,1409.0,1455.0,1432.0,1484.0,1450.0,0.0,0.0,0.0,0.0,0.0,0.0,0.0,0.0
1271366119,8,1483.0,1431.0,1450.0,1407.0,1448.0,1429.0,1481.0,1453.0,0.0,0.0,0.0,0.0,0.0,0.0,0.0,0.0
1271410255,8,1482.0,1433.0,1445.0,1407.0,1445.0,1432.0,1481.0,1458.0,0.0,0.0,0.0,0.0,0.0,0.0,0.0,0.0
1271450230,8,1481.0,1433.0,1443.0,1406.0,1443.0,1433.0,1481.0,1460.0,0.0,0.0,0.0,0.0,0.0,0.0,0.0,0.0
1271494112,8,1480.0,1431.0,1437.0,1402.0,1439.0,1435.0,1483.0,1464.0,0.0,0.0,0.0,0.0,0.0,0.0,0.0,0.0
1271534135,8,1481.0,1433.0,1434.0,1399.0,1434.0,1433.0,1481.0,1466.0,0.0,0.0,0.0,0.0,0.0,0.0,0.0,0.0
1271578230,8,1481.0,1431.0,1432.0,1396.0,1431.0,1430.0,1480.0,1465.0,0.0,0.0,0.0,0.0,0.0,0.0,0.0,0.0
1271618264,8,1524.0,1400.0,1378.0,1309.0,1397.0,1425.0,1543.0,1516.0,0.0,0.0,0.0,0.0,0.0,0.0,0.0,0.0
1271662113,8,1514.0,1408.0,1393.0,1332.0,1406.0,1426.0,1527.0,1502.0,0.0,0.0,0.0,0.0,0.0,0.0,0.0,0.0
1271702111,8,1502.0,1418.0,1425.0,1365.0,1427.0,1421.0,1504.0,1474.0,0.0,0.0,0.0,0.0,0.0,0.0,0.0,0.0
1271742219,8,1502.0,1431.0,1444.0,1388.0,1441.0,1427.0,1499.0,1470.0,0.0,0.0,0.0,0.0,0.0,0.0,0.0,0.0
1271786138,8,1509.0,1443.0,1463.0,1406.0,1456.0,1432.0,1501.0,1470.0,0.0,0.0,0.0,0.0,0.0,0.0,0.0,0.0
1271830137,8,1508.0,1456.0,1480.0,1425.0,1464.0,1435.0,1493.0,1466.0,0.0,0.0,0.0,0.0,0.0,0.0,0.0,0.0
1271874207,8,1274.0,1619.0,1251.0,1636.0,1297.0,1685.0,1320.0,1668.0,0.0,0.0,0.0,0.0,0.0,0.0,0.0,0.0
1271914154,8,1293.0,1595.0,1274.0,1618.0,1326.0,1669.0,1345.0,1646.0,0.0,0.0,0.0,0.0,0.0,0.0,0.0,0.0
1271958222,8,1334.0,1557.0,1325.0,1582.0,1370.0,1620.0,1378.0,1594.0,0.0,0.0,0.0,0.0,0.0,0.0,0.0,0.0
1271998115,8,1387.0,1556.0,1372.0,1552.0,1380.0,1568.0,1395.0,1572.0,0.0,0.0,0.0,0.0,0.0,0.0,0.0,0.0
1272038132,8,1405.0,1548.0,1390.0,1537.0,1390.0,1548.0,1405.0,1559.0,0.0,0.0,0.0,0.0,0.0,0.0,0.0,0.0
1272082162,8,1428.0,1540.0,1408.0,1519.0,1399.0,1527.0,1419.0,1548.0,0.0,0.0,0.0,0.0,0.0,0.0,0.0,0.0
1272122118,8,1434.0,1527.0,1415.0,1507.0,1405.0,1513.0,1424.0,1534.0,0.0,0.0,0.0,0.0,0.0,0.0,0.0,0.0
1272166113,8,1437.0,1514.0,1420.0,1496.0,1412.0,1503.0,1429.0,1521.0,0.0,0.0,0.0,0.0,0.0,0.0,0.0,0.0
1272210207,8,1440.0,1502.0,1423.0,1490.0,1423.0,1503.0,1440.0,1514.0,0.0,0.0,0.0,0.0,0.0,0.0,0.0,0.0
1272250124,8,1449.0,1500.0,1432.0,1489.0,1433.0,1502.0,1451.0,1513.0,0.0,0.0,0.0,0.0,0.0,0.0,0.0,0.0
1272294129,8,1453.0,1498.0,1439.0,1488.0,1439.0,1497.0,1453.0,1508.0,0.0,0.0,0.0,0.0,0.0,0.0,0.0,0.0
1272338140,8,1460.0,1492.0,1442.0,1481.0,1445.0,1496.0,1463.0,1507.0,0.0,0.0,0.0,0.0,0.0,0.0,0.0,0.0
1272378161,8,1466.0,1486.0,1442.0,1475.0,1451.0,1498.0,1474.0,1508.0,0.0,0.0,0.0,0.0,0.0,0.0,0.0,0.0
1272418114,8,1464.0,1482.0,1442.0,1474.0,1454.0,1499.0,1476.0,1506.0,0.0,0.0,0.0,0.0,0.0,0.0,0.0,0.0
1272462111,8,1468.0,1476.0,1440.0,1467.0,1456.0,1499.0,1484.0,1507.0,0.0,0.0,0.0,0.0,0.0,0.0,0.0,0.0
1272502245,8,1469.0,1474.0,1439.0,1466.0,1458.0,1501.0,1488.0,1509.0,0.0,0.0,0.0,0.0,0.0,0.0,0.0,0.0
1272542137,8,1467.0,1467.0,1437.0,1465.0,1464.0,1505.0,1494.0,1507.0,0.0,0.0,0.0,0.0,0.0,0.0,0.0,0.0
