timestamp,states[0],states[1],states[2],states[3],states[4],states[5],states[6],states[7],states[8],states[9],states[10],states[11],states[12],states[13],states[14],states[15],states[16],states[17],states[18],states[19],states[20],states[21],states[22],states[23],n_states,vibe[0],vibe[1],vibe[2],covariances[0],covariances[1],covariances[2],covariances[3],covariances[4],covariances[5],covariances[6],covariances[7],covariances[8],covariances[9],covariances[10],covariances[11],covariances[12],covariances[13],covariances[14],covariances[15],covariances[16],covariances[17],covariances[18],covariances[19],covariances[20],covariances[21],covariances[22],covariances[23],control_mode_flags,pos_horiz_accuracy,pos_vert_accuracy,mag_test_ratio,vel_test_ratio,pos_test_ratio,hgt_test_ratio,tas_test_ratio,hagl_test_ratio,beta_test_ratio,time_slip,gps_check_fail_flags,filter_fault_flags,innovation_check_flags,solution_status_flags,nan_flags,health_flags,timeout_flags,pre_flt_fail
1244762829,0.99845874,-0.00020312419,0.007756644,-0.054954723,-0.030322297,0.12078582,-0.005595706,6.2805705,-9.355631,0.116638035,-0.00017694157,0.00024938476,-2.0416692e-06,-0.0004961582,0.00015903956,-0.00040885387,0.19042341,0.05102382,0.3566885,0.0,0.0,0.0,0.0,0.0,0.0,1.154985e-09,9.75494e-06,0.00024303995,9.20711e-07,5.6082813e-06,5.612635e-06,4.184975e-05,0.012296405,0.012296048,0.009107024,0.051489342,0.051489256,0.05537312,1.0413844e-11,1.0411864e-11,1.8948934e-11,5.2965152e-08,5.296106e-08,5e-08,0.0,0.0,0.0,0.0,0.0,0.0,0.0,0.0,663,0.3209028,0.23531494,0.026117211,0.05124671,0.03594726,0.003186635,0.0,0.0,0.0,0.000244,0,0,0,831,0,0,0,0
1244966764,0.9984549,-0.00012827413,0.0077422955,-0.055026714,-0.032970976,0.124143876,-0.0033146173,6.262002,-9.32438,0.12517866,-0.00017692342,0.0002493578,-2.0319276e-06,-0.0004961551,0.00015903397,-0.00041152208,0.19042341,0.05102382,0.3566885,0.0,0.0,0.0,0.0,0.0,0.0,1.1606841e-09,9.51289e-06,0.00022356767,9.2117597e-07,5.610218e-06,5.6145573e-06,4.194774e-05,0.012318166,0.012317799,0.00914637,0.05164348,0.051643368,0.055778418,1.0414735e-11,1.0412745e-11,1.8966599e-11,5.296609e-08,5.2961997e-08,5.0000036e-08,0.0,0.0,0.0,0.0,0.0,0.0,0.0,0.0,663,0.3213827,0.23617455,0.0029961397,0.03888478,0.03473956,0.012564119,0.0,0.0,0.0,0.00018,0,0,0,831,0,0,0,0
1245170755,0.9984541,-0.00019080105,0.0077677085,-0.055037882,-0.032344166,0.126043,-0.004037721,6.246301,-9.295079,0.12564526,-0.00017689759,0.00024935222,-2.05539e-06,-0.00049615523,0.00015903419,-0.00041145468,0.19042341,0.05102382,0.3566885,0.0,0.0,0.0,0.0,0.0,0.0,1.2037811e-08,9.656407e-05,0.001786269,9.2141806e-07,5.611086e-06,5.6154463e-06,4.1944306e-05,0.012322464,0.01232209,0.009156405,0.051627357,0.05162724,0.055903833,1.041516e-11,1.0413166e-11,1.896497e-11,5.296699e-08,5.2962896e-08,5.0000036e-08,0.0,0.0,0.0,0.0,0.0,0.0,0.0,0.0,663,0.32133254,0.23643991,0.01786144,0.045944475,0.034509085,0.037945185,0.0,0.0,0.0,0.000178,0,0,0,831,0,0,0,0
1245370761,0.99846697,-0.0010086516,0.007468209,-0.05483649,-0.03377311,0.13748081,0.001666037,6.2307863,-9.269247,0.13300237,-0.00017684964,0.0002493432,-2.098078e-06,-0.0004961528,0.0001590293,-0.00041355865,0.19042341,0.05102382,0.3566885,0.0,0.0,0.0,0.0,0.0,0.0,2.3366798e-08,0.00011932485,0.0029750844,9.2118694e-07,5.611288e-06,5.616102e-06,4.194173e-05,0.012322062,0.012321616,0.009166148,0.051596813,0.05159669,0.056025278,1.0415415e-11,1.0413416e-11,1.896335e-11,5.2967884e-08,5.296379e-08,5.000007e-08,0.0,0.0,0.0,0.0,0.0,0.0,0.0,0.0,663,0.32123747,0.2366966,0.012807926,0.062202975,0.033740465,0.04571997,0.0,0.0,0.0,0.000184,0,0,0,831,0,0,0,0
1245574760,0.99846214,-0.002113077,0.009056251,-0.054652482,-0.042043816,0.14222239,0.0018754803,6.217672,-9.238537,0.14385758,-0.00017683048,0.00024934649,-2.1608985e-06,-0.0004961544,0.00015902295,-0.00041674028,0.19042341,0.05102382,0.3566885,0.0,0.0,0.0,0.0,0.0,0.0,1.8701908e-08,0.000100223806,0.0024589538,9.209508e-07,5.619094e-06,5.623869e-06,4.1959276e-05,0.012380685,0.012380194,0.009134441,0.051859047,0.051858917,0.05565827,1.04196625e-11,1.041766e-11,1.8965815e-11,5.296882e-08,5.2964722e-08,5.0000036e-08,0.0,0.0,0.0,0.0,0.0,0.0,0.0,0.0,663,0.32205275,0.23592006,0.011335849,0.038893387,0.031669483,0.015225897,0.0,0.0,0.0,0.000158,0,0,0,831,0,0,0,0
1245774620,0.9984564,-0.0018851819,0.0074345404,-0.05501038,-0.03306281,0.13580868,0.014477146,6.2039156,-9.208186,0.16589385,-0.00017681211,0.00024933883,-2.127116e-06,-0.00049614435,0.00015901063,-0.00042355456,0.19042341,0.05102382,0.3566885,0.0,0.0,0.0,0.0,0.0,0.0,2.764578e-08,0.00012580238,0.0031927722,9.2224514e-07,5.6200374e-06,5.6253207e-06,4.1877323e-05,0.0123886615,0.012388216,0.009145217,0.05186234,0.05186223,0.055780526,1.0420777e-11,1.04187605e-11,1.894925e-11,5.2969718e-08,5.296562e-08,5.0000036e-08,0.0,0.0,0.0,0.0,0.0,0.0,0.0,0.0,663,0.322063,0.23617901,0.018042367,0.037880372,0.030699478,0.012885728,0.0,0.0,0.0,4.2e-05,0,0,0,831,0,0,0,0
1245978750,0.9983895,-0.012232097,0.0008999947,-0.05539024,-0.03134485,0.1325766,0.01570909,6.1874094,-9.182832,0.18181303,-0.00017676497,0.00024932506,-2.1285791e-06,-0.00049614295,0.00015900291,-0.00042704266,0.19042341,0.05102382,0.3566885,0.0,0.0,0.0,0.0,0.0,0.0,9.746652e-07,0.0005216111,0.011968777,9.296259e-07,5.6111294e-06,5.6269064e-06,4.1868876e-05,0.012366188,0.012365754,0.009156216,0.05173295,0.051732842,0.05591133,1.0418696e-11,1.04166745e-11,1.8947757e-11,5.2970613e-08,5.2966517e-08,5.0000036e-08,0.0,0.0,0.0,0.0,0.0,0.0,0.0,0.0,663,0.321661,0.23645577,0.001103861,0.055942867,0.029429058,0.009737627,0.0,0.0,0.0,0.000173,0,0,0,831,0,0,0,0
1246182791,0.99419427,-0.08447557,-0.0284721,-0.06025799,0.18680963,-0.45720276,-0.5210405,6.184677,-9.187966,0.1128203,-0.00017674192,0.00024932306,-2.1582578e-06,-0.0004961529,0.00015898584,-0.0004123133,0.19042341,0.05102382,0.3566885,0.0,0.0,0.0,0.0,0.0,0.0,1.0280775e-06,0.0007975991,0.016055457,1.0224568e-06,5.593216e-06,5.8806063e-06,4.150833e-05,0.0128137665,0.012766686,0.009123998,0.052024204,0.052024055,0.055526152,1.0423061e-11,1.0421082e-11,1.8935737e-11,5.297154e-08,5.2967327e-08,5e-08,0.0,0.0,0.0,0.0,0.0,0.0,0.0,0.0,663,0.32256514,0.23563989,0.027780404,0.06395561,0.028352533,0.02247572,0.0,0.0,0.0,0.000214,0,0,0,831,0,0,0,0
1246382766,0.9967109,-0.05583876,-0.018024152,-0.055898495,0.2500801,-0.6695558,-1.014794,6.205463,-9.302865,-0.024366777,-0.00017663398,0.00024927477,-2.1817004e-06,-0.000496195,0.00015861141,-0.0004175588,0.19042341,0.05102382,0.3566885,0.0,0.0,0.0,0.0,0.0,0.0,1.1505571e-06,0.0009361979,0.017589545,9.676716e-07,5.5968626e-06,5.723765e-06,4.1685413e-05,0.013160906,0.013082252,0.009136315,0.052093856,0.052092567,0.055660546,1.042044e-11,1.0418239e-11,1.8932264e-11,5.2971917e-08,5.296752e-08,5.0000036e-08,0.0,0.0,0.0,0.0,0.0,0.0,0.0,0.0,663,0.3227792,0.23592487,0.07026581,0.089739576,0.03303875,0.052239206,0.0,0.0,0.0,0.000187,0,0,0,831,0,0,0,0
1246586792,0.99858,-0.014622674,-0.0041944077,-0.051055323,0.30277088,-0.8253416,-1.0698094,6.2514873,-9.441179,-0.2870835,-0.00017668626,0.0002492852,-2.2216539e-06,-0.0004960285,0.00015892128,-0.00040014726,0.19042341,0.05102382,0.3566885,0.0,0.0,0.0,0.0,0.0,0.0,1.0837693e-06,0.0012275204,0.023950793,9.1381986e-07,5.599359e-06,5.611788e-06,4.1802745e-05,0.013171529,0.0130667025,0.00915378,0.052150223,0.05214556,0.05580511,1.04150265e-11,1.0412548e-11,1.8927478e-11,5.2971036e-08,5.296649e-08,5.0000036e-08,0.0,0.0,0.0,0.0,0.0,0.0,0.0,0.0,663,0.32294858,0.23623104,0.0009089257,0.04241554,0.04089076,0.073019534,0.0,0.0,0.0,0.000207,0,0,0,831,0,0,0,0
1246790774,0.99866647,0.01741347,0.011648673,-0.047185946,0.32724798,-0.84909487,-1.0833329,6.3108687,-9.601141,-0.58567107,-0.00017673644,0.00024931182,-2.2845536e-06,-0.00049579877,0.0001592129,-0.00037786106,0.19042341,0.05102382,0.3566885,0.0,0.0,0.0,0.0,0.0,0.0,9.166889e-07,0.0011394157,0.021876661,8.843836e-07,5.608173e-06,5.6197987e-06,4.180079e-05,0.013162992,0.013066393,0.0091226,0.0524779,0.05246767,0.05543609,1.0413919e-11,1.041119e-11,1.892648e-11,5.2970282e-08,5.296559e-08,5e-08,0.0,0.0,0.0,0.0,0.0,0.0,0.0,0.0,663,0.32395303,0.2354487,0.012809393,0.058373947,0.045649573,0.029317793,0.0,0.0,0.0,0.000197,0,0,0,831,0,0,0,0
1246994773,0.99790484,0.043327384,0.020447778,-0.043480556,0.30502018,-0.7774494,-1.092791,6.3764434,-9.758905,-0.78314483,-0.00017674168,0.00024938738,-2.293444e-06,-0.0004952947,0.00015912835,-0.00038240326,0.19042341,0.05102382,0.3566885,0.0,0.0,0.0,0.0,0.0,0.0,7.086435e-07,0.0012304466,0.026029611,8.6831454e-07,5.607553e-06,5.675111e-06,4.1713305e-05,0.013081369,0.013012802,0.009134602,0.052447226,0.052431718,0.055583917,1.0409197e-11,1.0406248e-11,1.8921855e-11,5.2969675e-08,5.2964786e-08,5.0000036e-08,0.0,0.0,0.0,0.0,0.0,0.0,0.0,0.0,663,0.32385018,0.23576242,0.05104359,0.093094975,0.04647857,0.073905736,0.0,0.0,0.0,0.000196,0,0,0,831,0,0,0,0
1247194791,0.99712265,0.056459114,0.029648365,-0.04098526,0.24924889,-0.651666,-1.0400395,6.410305,-9.894197,-0.9515938,-0.00017673292,0.00024933246,-2.2326456e-06,-0.000495307,0.00015885962,-0.00039497996,0.19042341,0.05102382,0.3566885,0.0,0.0,0.0,0.0,0.0,0.0,5.0270654e-07,0.0011884423,0.023048742,8.6017315e-07,5.611596e-06,5.7174707e-06,4.1630195e-05,0.012955382,0.012918042,0.009145766,0.052358408,0.052339718,0.055744454,1.0404901e-11,1.0401794e-11,1.891848e-11,5.296918e-08,5.2963998e-08,5.000007e-08,0.0,0.0,0.0,0.0,0.0,0.0,0.0,0.0,663,0.32357088,0.23610264,0.06971544,0.03079427,0.059570216,0.060540978,0.0,0.0,0.0,0.000213,0,0,0,831,0,0,0,0
1247398729,0.99690473,0.05985837,0.030846573,-0.040575303,0.15441279,-0.47594327,-1.0207237,6.431052,-10.012028,-1.1560725,-0.00017667576,0.00024930228,-2.1500268e-06,-0.000495256,0.00015848671,-0.00039762186,0.19042341,0.05102382,0.3566885,0.0,0.0,0.0,0.0,0.0,0.0,3.8808275e-07,0.0012036274,0.022360675,8.588444e-07,5.6070267e-06,5.7276206e-06,4.1620307e-05,0.012897644,0.012886069,0.009111442,0.052507844,0.052488588,0.05540586,1.0404447e-11,1.0401264e-11,1.892036e-11,5.296892e-08,5.296332e-08,5e-08,0.0,0.0,0.0,0.0,0.0,0.0,0.0,0.0,663,0.32403153,0.2353845,0.05026004,0.06949915,0.0629354,0.001413372,0.0,0.0,0.0,0.00014999999,0,0,0,831,0,0,0,0
1247602818,0.9972566,0.056475535,0.025325585,-0.040601864,0.08157199,-0.3190159,-1.0152528,6.429401,-10.0943165,-1.3724469,-0.00017660335,0.0002492611,-2.134151e-06,-0.0004952793,0.00015829089,-0.00039372785,0.19042341,0.05102382,0.3566885,0.0,0.0,0.0,0.0,0.0,0.0,3.8518496e-07,0.0015436779,0.026299464,8.582238e-07,5.5844716e-06,5.7011107e-06,4.1641e-05,0.012819164,0.0128191905,0.009122512,0.05236013,0.05234338,0.0555584,1.0401693e-11,1.039851e-11,1.8919094e-11,5.296877e-08,5.2962704e-08,5.0000036e-08,0.0,0.0,0.0,0.0,0.0,0.0,0.0,0.0,663,0.32357922,0.2357083,0.015639957,0.078405544,0.07090107,0.036319785,0.0,0.0,0.0,0.000241,0,0,0,831,0,0,0,0
1247806722,0.99736494,0.055402912,0.021532414,-0.041594047,0.008976222,-0.17872009,-1.0281515,6.4178452,-10.149342,-1.6056036,-0.00017653675,0.00024924273,-2.07657e-06,-0.00049525325,0.00015816165,-0.00038775854,0.19042341,0.05102382,0.3566885,0.0,0.0,0.0,0.0,0.0,0.0,4.0047783e-07,0.0018545351,0.029586094,8.6123003e-07,5.573975e-06,5.691708e-06,4.1591145e-05,0.012822186,0.012823804,0.00909357,0.0525039,0.05249122,0.055225447,1.04035565e-11,1.0400421e-11,1.8907799e-11,5.2968755e-08,5.2962143e-08,5e-08,0.0,0.0,0.0,0.0,0.0,0.0,0.0,0.0,663,0.3240295,0.23500095,0.026487783,0.07477429,0.07039604,0.018575791,0.0,0.0,0.0,0.000145,0,0,0,831,0,0,0,0
1248006653,0.99731356,0.05593507,0.015567429,-0.04466234,-0.019537013,-0.05545871,-0.954471,6.3859735,-10.179722,-1.8269027,-0.00017645108,0.00024917632,-2.0320238e-06,-0.0004953626,0.00015805737,-0.00038028223,0.19042341,0.05102382,0.3566885,0.0,0.0,0.0,0.0,0.0,0.0,3.574485e-07,0.0016527416,0.02694053,8.7284724e-07,5.555198e-06,5.682497e-06,4.1509335e-05,0.012722885,0.012718312,0.009105683,0.052328017,0.052319914,0.055371113,1.0401872e-11,1.0398822e-11,1.8892774e-11,5.296879e-08,5.2961553e-08,5e-08,0.0,0.0,0.0,0.0,0.0,0.0,0.0,0.0,663,0.32349333,0.23531067,0.06922051,0.08084936,0.079866976,0.0011792673,0.0,0.0,0.0,5.1e-05,0,0,0,831,0,0,0,0
1248210749,0.9978311,0.04635077,0.00491919,-0.04648187,-0.01660713,0.0807561,-0.9382312,6.35322,-10.169534,-2.0399764,-0.00017645408,0.0002491116,-1.9912625e-06,-0.0004955979,0.0001582888,-0.00037173732,0.19042341,0.05102382,0.3566885,0.0,0.0,0.0,0.0,0.0,0.0,3.7644037e-07,0.0016078239,0.025854308,8.8027497e-07,5.539827e-06,5.6321605e-06,4.1628846e-05,0.012671294,0.012653197,0.009118644,0.052132633,0.052128736,0.055513375,1.0401134e-11,1.0398162e-11,1.8906725e-11,5.2969046e-08,5.2961127e-08,5e-08,0.0,0.0,0.0,0.0,0.0,0.0,0.0,0.0,663,0.3228953,0.23561276,0.03127017,0.029824488,0.08027488,0.04291804,0.0,0.0,0.0,0.00017099999,0,0,0,831,0,0,0,0
1248414715,0.99813676,0.039240267,0.002714474,-0.046645235,0.009729224,0.18020196,-0.93436086,6.322185,-10.148472,-2.2321548,-0.00017637877,0.0002490559,-1.9429258e-06,-0.0004956361,0.00015814151,-0.00037299204,0.19042341,0.05102382,0.3566885,0.0,0.0,0.0,0.0,0.0,0.0,3.7592395e-07,0.0015872127,0.025065186,8.8050166e-07,5.5408486e-06,5.6063645e-06,4.1749714e-05,0.012693124,0.01266114,0.009162394,0.052239154,0.052238353,0.055930406,1.0404949e-11,1.0402041e-11,1.8924317e-11,5.2969423e-08,5.2960733e-08,5.000007e-08,0.0,0.0,0.0,0.0,0.0,0.0,0.0,0.0,663,0.32322982,0.2364961,0.08839234,0.072625816,0.08429866,0.021230197,0.0,0.0,0.0,0.000138,0,0,0,831,0,0,0,0
1248618625,0.99844587,0.032028984,-0.00046453922,-0.04560344,0.04514883,0.25051743,-0.9468586,6.3075256,-10.103137,-2.401866,-0.00017636003,0.0002490514,-1.8752847e-06,-0.00049564533,0.00015801599,-0.00037871665,0.19042341,0.05102382,0.3566885,0.0,0.0,0.0,0.0,0.0,0.0,4.2076033e-07,0.0016480536,0.026099248,8.76534e-07,5.5360256e-06,5.5783253e-06,4.1770414e-05,0.012668941,0.01262811,0.009176155,0.052024994,0.052025404,0.056070928,1.0405059e-11,1.0402191e-11,1.8922655e-11,5.296983e-08,5.296027e-08,5.0000075e-08,0.0,0.0,0.0,0.0,0.0,0.0,0.0,0.0,663,0.32256845,0.23679301,0.0052082487,0.05925882,0.08211374,0.01715152,0.0,0.0,0.0,4.8e-05,0,0,0,831,0,0,0,0
1248818597,0.9986351,0.026093129,-0.0008425266,-0.045236375,0.07635798,0.27926105,-0.93392986,6.287224,-10.055493,-2.572819,-0.000176293,0.00024897585,-1.7937026e-06,-0.00049566093,0.00015773186,-0.00038447787,0.19042341,0.05102382,0.3566885,0.0,0.0,0.0,0.0,0.0,0.0,4.982804e-07,0.0016973158,0.027583376,8.746271e-07,5.5326855e-06,5.5595187e-06,4.177909e-05,0.012626379,0.012584425,0.009115373,0.051828098,0.051828142,0.055433314,1.0405602e-11,1.0402772e-11,1.8920822e-11,5.2970286e-08,5.2959667e-08,5e-08,0.0,0.0,0.0,0.0,0.0,0.0,0.0,0.0,663,0.3219569,0.2354428,0.06098046,0.063113354,0.08161298,0.09921224,0.0,0.0,0.0,2e-05,0,0,0,831,0,0,0,0
1249022811,0.9987185,0.02007836,0.00012351053,-0.046456877,0.10385352,0.2876574,-0.9546534,6.2491913,-9.988099,-2.7791803,-0.00017627345,0.00024882855,-1.7098882e-06,-0.0004959194,0.00015768933,-0.00038218443,0.19042341,0.05102382,0.3566885,0.0,0.0,0.0,0.0,0.0,0.0,5.110417e-07,0.0017208062,0.02778968,8.7857734e-07,5.371683e-06,5.385926e-06,4.179318e-05,0.0112472335,0.011214144,0.0090142675,0.04459337,0.04459295,0.05533881,1.0308815e-11,1.0306034e-11,1.8921626e-11,5.2970464e-08,5.295809e-08,5e-08,0.0,0.0,0.0,0.0,0.0,0.0,0.0,0.0,663,0.2986408,0.23524202,0.044003185,0.051670108,0.0757185,0.016104529,0.0,0.0,0.0,0.000234,0,0,0,831,0,0,0,0
1249227109,0.99870044,0.01736116,0.002657193,-0.047845583,0.14258859,0.29326794,-0.9615696,6.2488194,-9.918289,-2.9675846,-0.0001763084,0.0002487547,-1.6373643e-06,-0.00049606245,0.00015758199,-0.00038361616,0.19042341,0.05102382,0.3566885,0.0,0.0,0.0,0.0,0.0,0.0,5.149146e-07,0.0017150259,0.02779486,8.826495e-07,5.371341e-06,5.3810477e-06,4.1706524e-05,0.011220429,0.011193654,0.00902818,0.04445005,0.04444854,0.055484165,1.0309999e-11,1.0307286e-11,1.8905233e-11,5.297099e-08,5.295736e-08,5e-08,0.0,0.0,0.0,0.0,0.0,0.0,0.0,0.0,663,0.29815865,0.23555076,0.046782576,0.015909912,0.06808117,0.01933932,0.0,0.0,0.0,0.000525,0,0,0,831,0,0,0,0
1249430746,0.9987433,0.011446235,0.0021528811,-0.048746713,0.16894619,0.27486292,-0.9794214,6.2534046,-9.859373,-3.1624005,-0.00017627298,0.00024867142,-1.5761584e-06,-0.00049606594,0.0001573097,-0.0003872381,0.19042341,0.05102382,0.3566885,0.0,0.0,0.0,0.0,0.0,0.0,4.91578e-07,0.0016885952,0.028712366,8.868606e-07,5.376216e-06,5.380667e-06,4.172521e-05,0.011255282,0.011236647,0.008996366,0.04459066,0.044587906,0.05511696,1.0315375e-11,1.0312751e-11,1.8907936e-11,5.297157e-08,5.2956484e-08,5e-08,0.0,0.0,0.0,0.0,0.0,0.0,0.0,0.0,663,0.2986278,0.23477001,0.010941267,0.036276385,0.066114604,0.0309991,0.0,0.0,0.0,0.000169,0,0,0,831,0,0,0,0
1249630727,0.99875003,0.010175187,0.0047723935,-0.04870596,0.19031711,0.23782818,-1.0074395,6.2715163,-9.803599,-3.3608868,-0.00017627943,0.00024864794,-1.541122e-06,-0.00049615855,0.00015730869,-0.00038730458,0.19042341,0.05102382,0.3566885,0.0,0.0,0.0,0.0,0.0,0.0,5.016851e-07,0.0016468541,0.027800549,8.860171e-07,5.3785466e-06,5.3814256e-06,4.179715e-05,0.011247286,0.011237965,0.009008706,0.04447267,0.044469155,0.05525132,1.03174335e-11,1.0314907e-11,1.8921253e-11,5.2972137e-08,5.2955563e-08,5.0000036e-08,0.0,0.0,0.0,0.0,0.0,0.0,0.0,0.0,663,0.29823115,0.235056,0.018351523,0.032868944,0.06491185,0.045478478,0.0,0.0,0.0,0.000149,0,0,0,831,0,0,0,0
1251046641,0.9984668,0.017545499,0.01572192,-0.05009149,0.072576575,0.017107548,-1.0269194,6.4254074,-9.629837,-4.716446,-0.000176296,0.00024855268,-1.2454321e-06,-0.0004963742,0.00015638035,-0.00040709862,0.19042341,0.05102382,0.3566885,0.0,0.0,0.0,0.0,0.0,0.0,3.5835458e-07,0.0018086919,0.029278383,8.844438e-07,5.414814e-06,5.410703e-06,4.15801e-05,0.011268015,0.011274723,0.008994248,0.04439364,0.04439633,0.05513066,1.0334011e-11,1.0333072e-11,1.8881684e-11,5.297628e-08,5.2945893e-08,5.0000036e-08,0.0,0.0,0.0,0.0,0.0,0.0,0.0,0.0,663,0.29797646,0.23479919,0.035676215,0.018198136,0.02262532,0.026997993,0.0,0.0,0.0,6.4e-05,0,0,0,831,0,0,0,0
1252866748,0.99715185,0.04862542,0.007993526,-0.057095703,-0.18159409,0.008336043,-1.0924017,6.358656,-9.701555,-6.6390896,-0.00017642781,0.00024856956,-8.9055544e-07,-0.0004962724,0.00015463482,-0.0004317349,0.19042341,0.05102382,0.3566885,0.0,0.0,0.0,0.0,0.0,0.0,5.360228e-07,0.0024378612,0.0394518,9.105126e-07,5.4431007e-06,5.5038904e-06,4.1408795e-05,0.0114576705,0.011473773,0.009018352,0.045659095,0.045666132,0.05543138,1.0347753e-11,1.0350002e-11,1.8863718e-11,5.2982113e-08,5.292661e-08,5.0000036e-08,0.0,0.0,0.0,0.0,0.0,0.0,0.0,0.0,663,0.30220065,0.2354387,0.065911524,0.03545279,0.01983942,0.0063738213,0.0,0.0,0.0,0.000159,0,0,0,831,0,0,0,0
1253066792,0.99733406,0.043840874,-0.0015783405,-0.05831314,-0.14335048,0.055988982,-1.1076318,6.3255687,-9.679104,-6.8623815,-0.00017650284,0.00024856615,-8.058885e-07,-0.0004962684,0.00015454231,-0.00043086632,0.19042341,0.05102382,0.3566885,0.0,0.0,0.0,0.0,0.0,0.0,4.8995753e-07,0.0022228095,0.036830585,9.1730664e-07,5.4429447e-06,5.4882735e-06,4.142301e-05,0.011462293,0.011475342,0.00902615,0.045752484,0.045760088,0.055554487,1.0347624e-11,1.0350222e-11,1.8864113e-11,5.298272e-08,5.292382e-08,5.0000036e-08,0.0,0.0,0.0,0.0,0.0,0.0,0.0,0.0,663,0.30251047,0.2357,0.010954904,0.03904011,0.024772642,0.038470004,0.0,0.0,0.0,0.000215,0,0,0,831,0,0,0,0
1253266742,0.9974223,0.041652877,-0.0006455081,-0.058425035,-0.091891624,0.07651814,-1.1205319,6.2987323,-9.654224,-7.081245,-0.00017654139,0.00024854965,-7.475491e-07,-0.0004962319,0.00015438552,-0.0004322994,0.19042341,0.05102382,0.3566885,0.0,0.0,0.0,0.0,0.0,0.0,5.15199e-07,0.0023415082,0.03755636,9.1669244e-07,5.445732e-06,5.4842217e-06,4.142992e-05,0.011465969,0.011475465,0.009033347,0.04583153,0.04583948,0.055671003,1.0347543e-11,1.0350433e-11,1.886441e-11,5.2983328e-08,5.2920875e-08,5.000007e-08,0.0,0.0,0.0,0.0,0.0,0.0,0.0,0.0,663,0.30277222,0.23594703,0.013040321,0.009550665,0.02698091,0.045713656,0.0,0.0,0.0,0.000159,0,0,0,831,0,0,0,0
1253470751,0.99741274,0.04170502,-0.00048307684,-0.058551732,-0.04746435,0.09623757,-1.0965939,6.264987,-9.624338,-7.329144,-0.0001765681,0.0002484397,-6.689398e-07,-0.0004961228,0.00015477033,-0.0004265421,0.19042341,0.05102382,0.3566885,0.0,0.0,0.0,0.0,0.0,0.0,5.057274e-07,0.0022395442,0.03549858,9.166861e-07,5.456724e-06,5.4940833e-06,4.1529212e-05,0.011509457,0.011516837,0.009000819,0.04621857,0.046226677,0.055304278,1.0352649e-11,1.0355755e-11,1.8882961e-11,5.2983925e-08,5.291751e-08,5.0000036e-08,0.0,0.0,0.0,0.0,0.0,0.0,0.0,0.0,663,0.3040481,0.23516862,0.08793873,0.076834604,0.026649093,0.012664502,0.0,0.0,0.0,0.000146,0,0,0,831,0,0,0,0
1253674774,0.99748427,0.038424816,-0.0019299464,-0.05953932,0.0015125503,0.12422776,-1.0799185,6.2618036,-9.597044,-7.5669518,-0.00017657089,0.00024846324,-6.43986e-07,-0.00049627066,0.00015525628,-0.00041959196,0.19042341,0.05102382,0.3566885,0.0,0.0,0.0,0.0,0.0,0.0,5.4944235e-07,0.00212702,0.0320007,9.211023e-07,5.4617876e-06,5.4894494e-06,4.1457224e-05,0.011503699,0.011510404,0.009013572,0.04632905,0.04633688,0.05544953,1.0353868e-11,1.0357135e-11,1.8868466e-11,5.2984426e-08,5.291419e-08,5.000007e-08,0.0,0.0,0.0,0.0,0.0,0.0,0.0,0.0,663,0.3044108,0.23547724,0.0117690945,0.026700333,0.025071107,0.048586924,0.0,0.0,0.0,0.00019,0,0,0,831,0,0,0,0
1253878741,0.997687,0.03393496,-0.0003713148,-0.058899187,0.057500966,0.13729356,-1.0661436,6.258805,-9.560275,-7.7845726,-0.00017659737,0.00024841988,-6.588974e-07,-0.00049619365,0.00015524786,-0.0004195878,0.19042341,0.05102382,0.3566885,0.0,0.0,0.0,0.0,0.0,0.0,5.4708255e-07,0.0018924247,0.028334193,9.1774274e-07,5.4735115e-06,5.491288e-06,4.1416813e-05,0.01156079,0.011567537,0.008985972,0.046730887,0.04673834,0.055114802,1.0359316e-11,1.0362691e-11,1.8858411e-11,5.2984902e-08,5.2910444e-08,5.0000036e-08,0.0,0.0,0.0,0.0,0.0,0.0,0.0,0.0,663,0.3057274,0.23476543,0.06579375,0.035169974,0.024272894,0.021541534,0.0,0.0,0.0,0.000164,0,0,0,831,0,0,0,0
1254078615,0.9978638,0.029543497,0.0027134544,-0.05820332,0.08959746,0.15068553,-1.051459,6.2646666,-9.5181265,-7.9911118,-0.00017664854,0.00024838286,-6.0871844e-07,-0.0004960751,0.00015508647,-0.00042068475,0.19042341,0.05102382,0.3566885,0.0,0.0,0.0,0.0,0.0,0.0,5.060731e-07,0.0017273591,0.027797438,9.1343566e-07,5.4789325e-06,5.4889533e-06,4.143051e-05,0.011563735,0.011570817,0.009001366,0.046852965,0.046859898,0.055276684,1.0360625e-11,1.03640594e-11,1.885881e-11,5.2985317e-08,5.2906856e-08,5.0000036e-08,0.0,0.0,0.0,0.0,0.0,0.0,0.0,0.0,663,0.30612558,0.23510994,0.0018183801,0.024301946,0.02368097,0.02188394,0.0,0.0,0.0,3.8e-05,0,0,0,831,0,0,0,0
1254278790,0.99796575,0.02736601,0.005607425,-0.057307594,0.12321314,0.14347598,-1.04112,6.2768,-9.479629,-8.189263,-0.00017667023,0.0002483507,-5.6062277e-07,-0.0004959863,0.00015484379,-0.00042373902,0.19042341,0.05102382,0.3566885,0.0,0.0,0.0,0.0,0.0,0.0,5.466416e-07,0.0016624116,0.025627181,9.086092e-07,5.4850525e-06,5.490983e-06,4.1516443e-05,0.011570652,0.011578125,0.009015077,0.046972834,0.04697926,0.055429276,1.036195e-11,1.03654e-11,1.8873595e-11,5.2985694e-08,5.2903182e-08,5.0000075e-08,0.0,0.0,0.0,0.0,0.0,0.0,0.0,0.0,663,0.30651605,0.23543423,0.047773827,0.02045312,0.024085892,0.018246239,0.0,0.0,0.0,0.000199,0,0,0,831,0,0,0,0
1254482761,0.99809194,0.022991888,0.009994886,-0.056427173,0.13547038,0.14226788,-1.0340316,6.298402,-9.433009,-8.3907585,-0.00017675012,0.00024833778,-5.909914e-07,-0.00049585,0.0001545152,-0.00042567056,0.19042341,0.05102382,0.3566885,0.0,0.0,0.0,0.0,0.0,0.0,5.330573e-07,0.001560116,0.024409045,9.0460566e-07,5.4914767e-06,5.490145e-06,4.1524225e-05,0.01157081,0.011577676,0.0089577455,0.04706954,0.047075495,0.054828443,1.0362354e-11,1.0365812e-11,1.8873356e-11,5.2986003e-08,5.289907e-08,5e-08,0.0,0.0,0.0,0.0,0.0,0.0,0.0,0.0,663,0.3068306,0.23415475,0.005940722,0.043955,0.025889762,0.044616725,0.0,0.0,0.0,0.000184,0,0,0,831,0,0,0,0
1254686628,0.9982507,0.017794948,0.012094113,-0.055069212,0.12951373,0.13797387,-1.0787174,6.326713,-9.380955,-8.594936,-0.0001768638,0.00024834892,-5.9644844e-07,-0.0004956719,0.00015393193,-0.0004297576,0.19042341,0.05102382,0.3566885,0.0,0.0,0.0,0.0,0.0,0.0,4.8487016e-07,0.0017912891,0.02694184,8.9913993e-07,5.5029855e-06,5.4957927e-06,4.1479838e-05,0.01165731,0.011662196,0.0090032695,0.04744665,0.047452237,0.055271532,1.0366805e-11,1.0370277e-11,1.8862942e-11,5.29864e-08,5.2895412e-08,5.000007e-08,0.0,0.0,0.0,0.0,0.0,0.0,0.0,0.0,663,0.30805662,0.23509899,0.015095101,0.06624015,0.028198149,0.05492619,0.0,0.0,0.0,5.1e-05,0,0,0,831,0,0,0,0
1254886774,0.99837947,0.016358892,0.009038112,-0.053751964,0.1223409,0.121289305,-1.1061072,6.3520274,-9.332009,-8.815633,-0.0001769736,0.00024835442,-5.7315987e-07,-0.0004955504,0.00015385459,-0.00042743664,0.19042341,0.05102382,0.3566885,0.0,0.0,0.0,0.0,0.0,0.0,4.1564994e-07,0.0015416859,0.024366118,8.9388357e-07,5.505471e-06,5.498443e-06,4.133963e-05,0.011686858,0.01168916,0.008949554,0.047581352,0.04758649,0.05469708,1.0368051e-11,1.0371562e-11,1.8834274e-11,5.2986774e-08,5.2891448e-08,5e-08,0.0,0.0,0.0,0.0,0.0,0.0,0.0,0.0,663,0.30849287,0.23387407,0.061712336,0.061325427,0.032402106,0.0010668489,0.0,0.0,0.0,0.000197,0,0,0,831,0,0,0,0
1255086740,0.9985112,0.015132839,0.005580202,-0.052109472,0.12968722,0.108045794,-1.1399409,6.3751693,-9.296907,-9.039531,-0.00017700648,0.00024835276,-5.7027e-07,-0.0004955237,0.00015384245,-0.00042653453,0.19042341,0.05102382,0.3566885,0.0,0.0,0.0,0.0,0.0,0.0,4.7808584e-07,0.0016160149,0.025589438,8.8825607e-07,5.5078876e-06,5.5006576e-06,4.1353636e-05,0.0117191225,0.01171961,0.008968583,0.047715325,0.04771995,0.0548892,1.036907e-11,1.03726385e-11,1.883491e-11,5.2987193e-08,5.2887977e-08,5.000004e-08,0.0,0.0,0.0,0.0,0.0,0.0,0.0,0.0,663,0.30892602,0.23428445,0.03854962,0.02419445,0.031281725,0.017490659,0.0,0.0,0.0,0.00014999999,0,0,0,831,0,0,0,0
1255290771,0.9985958,0.012001892,0.009104403,-0.05078913,0.14285079,0.08865298,-1.1880337,6.406108,-9.264121,-9.274789,-0.00017705218,0.00024838728,-5.2457074e-07,-0.0004955095,0.00015378655,-0.0004254104,0.19042341,0.05102382,0.3566885,0.0,0.0,0.0,0.0,0.0,0.0,4.623835e-07,0.0014464995,0.023355946,8.825597e-07,5.511538e-06,5.5018577e-06,4.136201e-05,0.011746414,0.011744731,0.00898779,0.047810316,0.047814336,0.05508711,1.0368567e-11,1.037221e-11,1.8835268e-11,5.2987687e-08,5.288471e-08,5.000007e-08,0.0,0.0,0.0,0.0,0.0,0.0,0.0,0.0,663,0.30923235,0.23470643,0.06318719,0.036448814,0.02913044,0.020069337,0.0,0.0,0.0,0.000167,0,0,0,831,0,0,0,0
1255494733,0.99853474,0.009164097,0.015131431,-0.05114153,0.13135406,0.049316388,-1.2220552,6.435015,-9.239476,-9.525896,-0.00017708064,0.00024839793,-5.71222e-07,-0.0004954849,0.00015377098,-0.0004245041,0.19042341,0.05102382,0.3566885,0.0,0.0,0.0,0.0,0.0,0.0,4.5285688e-07,0.00141145,0.023771822,8.8411724e-07,5.525191e-06,5.510713e-06,4.13799e-05,0.011821844,0.011816125,0.0089624105,0.048193667,0.048196934,0.05478594,1.03722135e-11,1.0375975e-11,1.8839649e-11,5.298825e-08,5.2881298e-08,5e-08,0.0,0.0,0.0,0.0,0.0,0.0,0.0,0.0,663,0.31046838,0.23406397,0.058927327,0.02292043,0.025840305,0.02402315,0.0,0.0,0.0,0.000156,0,0,0,831,0,0,0,0
1255698521,0.9984073,0.007416556,0.018347388,-0.052831072,0.0937558,0.018214736,-1.2409326,6.4593987,-9.216303,-9.749836,-0.00017714767,0.00024841755,-5.8135e-07,-0.00049534877,0.0001531608,-0.00043130884,0.19042341,0.05102382,0.3566885,0.0,0.0,0.0,0.0,0.0,0.0,5.274413e-07,0.0016668247,0.027950237,8.91144e-07,5.5318783e-06,5.5138376e-06,4.137177e-05,0.011848393,0.011838584,0.008979412,0.048329815,0.048332084,0.05497148,1.0372691e-11,1.0376628e-11,1.8839702e-11,5.298882e-08,5.28784e-08,5.0000036e-08,0.0,0.0,0.0,0.0,0.0,0.0,0.0,0.0,663,0.31090495,0.23445997,0.0005347068,0.028479079,0.028079022,0.011782308,0.0,0.0,0.0,-5.6e-05,0,0,0,831,0,0,0,0
1255898585,0.99831825,0.0037307772,0.017814407,-0.055040978,0.03847862,-0.033681717,-1.3231919,6.4745865,-9.2057295,-10.009875,-0.0001771869,0.0002484323,-5.907197e-07,-0.00049532345,0.000153232,-0.00042885938,0.19042341,0.05102382,0.3566885,0.0,0.0,0.0,0.0,0.0,0.0,5.2261396e-07,0.0017871204,0.031034354,9.0189656e-07,5.5317814e-06,5.515736e-06,4.136504e-05,0.011904438,0.011889544,0.008993664,0.048448235,0.0484492,0.05513986,1.03727e-11,1.0376888e-11,1.8839475e-11,5.298943e-08,5.287571e-08,5.0000036e-08,0.0,0.0,0.0,0.0,0.0,0.0,0.0,0.0,663,0.31128353,0.23481877,0.00044743362,0.03726112,0.025306752,0.00413357,0.0,0.0,0.0,1e-06,0,0,0,831,0,0,0,0
1256102814,0.99826926,0.0018841074,0.016291302,-0.05647675,0.023951037,-0.10905983,-1.345749,6.4857707,-9.215234,-10.280999,-0.00017718974,0.00024845262,-6.7056885e-07,-0.0004953229,0.00015315769,-0.0004285057,0.19042341,0.05102382,0.3566885,0.0,0.0,0.0,0.0,0.0,0.0,4.5918154e-07,0.0018413571,0.030357797,9.099444e-07,5.5355263e-06,5.52185e-06,4.1381747e-05,0.011971719,0.011949596,0.008965857,0.048821498,0.048820663,0.05482523,1.0375701e-11,1.0380218e-11,1.8842884e-11,5.29901e-08,5.2872952e-08,5e-08,0.0,0.0,0.0,0.0,0.0,0.0,0.0,0.0,663,0.31247747,0.23414788,0.09192622,0.041342694,0.022053897,0.01571493,0.0,0.0,0.0,0.000182,0,0,0,831,0,0,0,0
1256306733,0.9983935,0.004445382,0.010762888,-0.05545313,0.041370086,-0.21095091,-1.3680605,6.4969935,-9.240358,-10.558873,-0.00017721143,0.00024846836,-6.6816267e-07,-0.00049533346,0.00015332557,-0.00042518883,0.19042341,0.05102382,0.3566885,0.0,0.0,0.0,0.0,0.0,0.0,5.128656e-07,0.0018502468,0.0354556,9.055174e-07,5.532294e-06,5.520984e-06,4.1392257e-05,0.011998935,0.011964733,0.008978491,0.048958734,0.048955612,0.054978028,1.03757055e-11,1.0380612e-11,1.8841697e-11,5.2990742e-08,5.2870654e-08,5e-08,0.0,0.0,0.0,0.0,0.0,0.0,0.0,0.0,663,0.31291267,0.23447394,0.0051023276,0.015692476,0.016879544,0.011114003,0.0,0.0,0.0,0.000156,0,0,0,831,0,0,0,0
1256510592,0.9984611,0.014873621,0.009351766,-0.052599464,0.06926729,-0.28160924,-1.3408941,6.513112,-9.279684,-10.823709,-0.00017727017,0.00024848207,-6.55329e-07,-0.00049524143,0.00015297775,-0.00042976098,0.19042341,0.05102382,0.3566885,0.0,0.0,0.0,0.0,0.0,0.0,4.878627e-07,0.0017717927,0.036217492,8.902895e-07,5.541369e-06,5.530532e-06,4.1344294e-05,0.012041762,0.0119993,0.009021995,0.04934898,0.04934281,0.055413578,1.0379e-11,1.0384369e-11,1.882961e-11,5.299142e-08,5.2868536e-08,5.000007e-08,0.0,0.0,0.0,0.0,0.0,0.0,0.0,0.0,663,0.3141525,0.23540089,0.0028649522,0.030784464,0.017072342,0.0329083,0.0,0.0,0.0,1.5e-05,0,0,0,831,0,0,0,0
1256710621,0.9984733,0.02218644,0.008094907,-0.04993373,0.10809378,-0.31495523,-1.3528321,6.542083,-9.336635,-11.11175,-0.00017727927,0.00024854363,-6.2766446e-07,-0.0004953028,0.00015326108,-0.00042401266,0.19042341,0.05102382,0.3566885,0.0,0.0,0.0,0.0,0.0,0.0,5.3981006e-07,0.0018856612,0.040322527,8.78163e-07,5.5426917e-06,5.538361e-06,4.142018e-05,0.012039768,0.01199656,0.009033857,0.049445678,0.04943626,0.055566195,1.03783735e-11,1.03842195e-11,1.8842103e-11,5.299209e-08,5.2866568e-08,5.000007e-08,0.0,0.0,0.0,0.0,0.0,0.0,0.0,0.0,663,0.31445497,0.23572484,0.025380224,0.04067603,0.014014867,0.008593158,0.0,0.0,0.0,3.7e-05,0,0,0,831,0,0,0,0
1256914852,0.9983267,0.029995333,0.013490123,-0.047562093,0.12663592,-0.30551317,-1.3767523,6.569576,-9.384153,-11.404027,-0.00017735048,0.00024854759,-6.0519886e-07,-0.0004953108,0.00015361782,-0.00041676316,0.19042341,0.05102382,0.3566885,0.0,0.0,0.0,0.0,0.0,0.0,6.6198487e-07,0.0019378037,0.040364932,8.6656195e-07,5.550159e-06,5.554147e-06,4.1406936e-05,0.012042166,0.012004482,0.008973702,0.049560398,0.049548,0.054956913,1.0378262e-11,1.0384577e-11,1.8840233e-11,5.299275e-08,5.2864504e-08,5e-08,0.0,0.0,0.0,0.0,0.0,0.0,0.0,0.0,663,0.31481487,0.23442891,0.021774443,0.04404064,0.014971715,0.07367872,0.0,0.0,0.0,0.000253,0,0,0,831,0,0,0,0
1257118615,0.9980246,0.03230511,0.023314558,-0.04857749,0.12425355,-0.28270346,-1.3655145,6.6039977,-9.447185,-11.6953,-0.00017732754,0.00024858347,-5.944949e-07,-0.00049536943,0.0001537299,-0.00041392446,0.19042341,0.05102382,0.3566885,0.0,0.0,0.0,0.0,0.0,0.0,5.672486e-07,0.0017395826,0.034055453,8.6855385e-07,5.5721835e-06,5.569222e-06,4.1400785e-05,0.012078048,0.012048669,0.009015679,0.049963992,0.049948968,0.055387653,1.03822055e-11,1.0389e-11,1.884259e-11,5.2993485e-08,5.2862873e-08,5.0000036e-08,0.0,0.0,0.0,0.0,0.0,0.0,0.0,0.0,663,0.3160901,0.23534581,0.014255091,0.028593218,0.010820225,0.011662358,0.0,0.0,0.0,3.8e-05,0,0,0,831,0,0,0,0
1257318739,0.9973426,0.04107986,0.028035332,-0.053237572,0.11644572,-0.22105017,-1.3010355,6.626758,-9.48766,-11.996145,-0.00017737539,0.0002485671,-5.5816366e-07,-0.0004954342,0.00015430048,-0.00040310938,0.19042341,0.05102382,0.3566885,0.0,0.0,0.0,0.0,0.0,0.0,5.7986614e-07,0.0018755558,0.033902843,8.8582436e-07,5.583345e-06,5.594419e-06,4.1348158e-05,0.01202162,0.012002764,0.009025864,0.050065283,0.050049048,0.055535365,1.038249e-11,1.0389736e-11,1.8841173e-11,5.2994174e-08,5.286132e-08,5.000007e-08,0.0,0.0,0.0,0.0,0.0,0.0,0.0,0.0,663,0.3164085,0.23565942,0.11265322,0.031043526,0.010967889,0.017627351,0.0,0.0,0.0,0.000155,0,0,0,831,0,0,0,0
1257522756,0.9973122,0.037068926,0.027367411,-0.056969214,0.0897423,-0.17091466,-1.3269948,6.648488,-9.518798,-12.246398,-0.0001774043,0.00024856557,-5.372379e-07,-0.00049536605,0.00015407409,-0.0004065698,0.19042341,0.05102382,0.3566885,0.0,0.0,0.0,0.0,0.0,0.0,5.902981e-07,0.0020190687,0.03407365,9.0182584e-07,5.5855794e-06,5.588658e-06,4.1343093e-05,0.012045494,0.012033797,0.009035856,0.050199304,0.05018303,0.055677086,1.03841736e-11,1.0391813e-11,1.8840395e-11,5.2994835e-08,5.285991e-08,5.000007e-08,0.0,0.0,0.0,0.0,0.0,0.0,0.0,0.0,663,0.3168317,0.23595993,0.0041908687,0.012919716,0.012564076,0.06807264,0.0,0.0,0.0,0.000155,0,0,0,831,0,0,0,0
1257722739,0.99706703,0.03861645,0.032949287,-0.05727568,0.064896874,-0.14897469,-1.3251641,6.660048,-9.5461235,-12.515969,-0.00017740819,0.00024853824,-5.232241e-07,-0.0004953539,0.00015412786,-0.0004054609,0.19042341,0.05102382,0.3566885,0.0,0.0,0.0,0.0,0.0,0.0,7.035363e-07,0.002294393,0.03719298,9.0272334e-07,5.601489e-06,5.597136e-06,4.1324656e-05,0.012051479,0.012043377,0.008974014,0.050330486,0.050314862,0.05505165,1.0385463e-11,1.0393473e-11,1.883987e-11,5.299549e-08,5.285844e-08,5e-08,0.0,0.0,0.0,0.0,0.0,0.0,0.0,0.0,663,0.3172465,0.23463088,0.0047978084,0.020379897,0.012815739,0.013144458,0.0,0.0,0.0,0.000162,0,0,0,831,0,0,0,0
1257926795,0.9967974,0.039978143,0.038207132,-0.05776624,0.025041174,-0.13538232,-1.3022004,6.6682916,-9.573139,-12.806958,-0.00017740535,0.0002485294,-5.386401e-07,-0.00049547816,0.00015449511,-0.00039867734,0.19042341,0.05102382,0.3566885,0.0,0.0,0.0,0.0,0.0,0.0,6.1677366e-07,0.0024371585,0.03852069,9.051147e-07,5.6232225e-06,5.6103563e-06,4.1326173e-05,0.012089671,0.012084521,0.00901211,0.050732594,0.050717976,0.055455804,1.0389919e-11,1.03983645e-11,1.8843595e-11,5.2996004e-08,5.2857374e-08,5.0000036e-08,0.0,0.0,0.0,0.0,0.0,0.0,0.0,0.0,663,0.31851307,0.23549056,0.039725352,0.0420453,0.012679512,0.0092911655,0.0,0.0,0.0,0.000205,0,0,0,831,0,0,0,0
1258130772,0.9968809,0.039533217,0.03637895,-0.05781335,-0.020511817,-0.11934221,-1.2815049,6.6744194,-9.592659,-13.081029,-0.0001774317,0.0002485612,-5.716405e-07,-0.0004955415,0.00015473092,-0.00039300573,0.19042341,0.05102382,0.3566885,0.0,0.0,0.0,0.0,0.0,0.0,5.89988e-07,0.0025377,0.036891058,9.0554784e-07,5.620158e-06,5.612853e-06,4.133269e-05,0.01207749,0.012075601,0.009018484,0.05083237,0.050819244,0.05557113,1.03906675e-11,1.0399582e-11,1.8843278e-11,5.2996356e-08,5.2856336e-08,5.0000033e-08,0.0,0.0,0.0,0.0,0.0,0.0,0.0,0.0,663,0.3188285,0.2357353,0.03526302,0.028444853,0.01201246,0.036487166,0.0,0.0,0.0,0.000187,0,0,0,831,0,0,0,0
1258330808,0.997045,0.038628012,0.03439831,-0.05679766,-0.059888378,-0.12840831,-1.271116,6.668029,-9.617824,-13.341213,-0.00017741713,0.00024858676,-5.89998e-07,-0.00049557025,0.00015476519,-0.00039227447,0.19042341,0.05102382,0.3566885,0.0,0.0,0.0,0.0,0.0,0.0,5.3046523e-07,0.00241653,0.03839973,9.0110603e-07,5.618562e-06,5.615634e-06,4.134572e-05,0.012089011,0.012089106,0.009027392,0.0509848,0.050973255,0.05569472,1.0392429e-11,1.0401834e-11,1.8843106e-11,5.299669e-08,5.285535e-08,5.000007e-08,0.0,0.0,0.0,0.0,0.0,0.0,0.0,0.0,663,0.3193087,0.23599729,0.028987937,0.020756548,0.009490422,0.05189035,0.0,0.0,0.0,0.000212,0,0,0,831,0,0,0,0
1258530808,0.9967184,0.045555655,0.034626607,-0.057254132,-0.12140156,-0.09494796,-1.2607946,6.6491942,-9.6393585,-13.601302,-0.00017740282,0.00024859418,-6.2790264e-07,-0.0004956244,0.00015488554,-0.00039085033,0.19042341,0.05102382,0.3566885,0.0,0.0,0.0,0.0,0.0,0.0,5.0208297e-07,0.0024332537,0.037832137,9.033745e-07,5.6212566e-06,5.639899e-06,4.1323136e-05,0.012089652,0.012094538,0.009034584,0.051109646,0.051099677,0.055809144,1.0393181e-11,1.0402968e-11,1.8843031e-11,5.2997144e-08,5.285426e-08,5.0000075e-08,0.0,0.0,0.0,0.0,0.0,0.0,0.0,0.0,663,0.31970194,0.2362396,0.027215932,0.02026437,0.011568558,0.023277681,0.0,0.0,0.0,0.000231,0,0,0,831,0,0,0,0
1258734600,0.99672484,0.04754004,0.028565245,-0.058852393,-0.13048767,-0.031825032,-1.2662004,6.626019,-9.646582,-13.894002,-0.00017742736,0.00024861042,-6.183152e-07,-0.0004957955,0.000155306,-0.00038129246,0.19042341,0.05102382,0.3566885,0.0,0.0,0.0,0.0,0.0,0.0,4.558508e-07,0.0022977411,0.034308482,9.108264e-07,5.616906e-06,5.6562562e-06,4.1346604e-05,0.0121545,0.012160381,0.008999935,0.05154414,0.0515361,0.05543127,1.0398316e-11,1.0408421e-11,1.8847309e-11,5.299752e-08,5.285312e-08,5.0000036e-08,0.0,0.0,0.0,0.0,0.0,0.0,0.0,0.0,663,0.32106113,0.23543847,0.008538863,0.015306858,0.011303943,0.09195312,0.0,0.0,0.0,2.2e-05,0,0,0,831,0,0,0,0
1258938783,0.99687576,0.04520917,0.025406428,-0.059576727,-0.13600768,0.019767413,-1.2591146,6.587663,-9.639239,-14.162385,-0.00017744827,0.0002485462,-6.2181493e-07,-0.0004958016,0.00015557144,-0.00037630863,0.19042341,0.05102382,0.3566885,0.0,0.0,0.0,0.0,0.0,0.0,4.4028766e-07,0.0020374632,0.032525633,9.1412943e-07,5.6156246e-06,5.652871e-06,4.1283678e-05,0.012172844,0.012177632,0.009009324,0.05172685,0.051721063,0.055550665,1.0400408e-11,1.0410725e-11,1.8833324e-11,5.299781e-08,5.2852176e-08,5.0000036e-08,0.0,0.0,0.0,0.0,0.0,0.0,0.0,0.0,663,0.3216332,0.23569189,0.016834863,0.042628955,0.01416758,0.0076636225,0.0,0.0,0.0,0.000198,0,0,0,831,0,0,0,0
1259142798,0.99696726,0.044697605,0.020694999,-0.06025148,-0.117065616,0.06594995,-1.2492701,6.5616264,-9.624588,-14.439708,-0.00017745818,0.0002485596,-5.940155e-07,-0.00049588905,0.0001557478,-0.00037199227,0.19042341,0.05102382,0.3566885,0.0,0.0,0.0,0.0,0.0,0.0,4.2234205e-07,0.0020478824,0.031770088,9.173299e-07,5.6199283e-06,5.6618974e-06,4.1239604e-05,0.012248951,0.0122511,0.00904642,0.05223715,0.052233454,0.055929914,1.0406626e-11,1.0417077e-11,1.8823942e-11,5.2998054e-08,5.285132e-08,5.000007e-08,0.0,0.0,0.0,0.0,0.0,0.0,0.0,0.0,663,0.32321912,0.23649506,0.036083765,0.015376258,0.01864694,0.04833208,0.0,0.0,0.0,0.000221,0,0,0,831,0,0,0,0
1259342804,0.996895,0.046421338,0.021033706,-0.060025033,-0.096438795,0.118483365,-1.1903269,6.5342717,-9.596448,-14.65563,-0.0001774937,0.00024852366,-5.869046e-07,-0.0004956096,0.00015533666,-0.00038040816,0.19042341,0.05102382,0.3566885,0.0,0.0,0.0,0.0,0.0,0.0,5.6708564e-07,0.0018726469,0.029818816,9.1615743e-07,5.622682e-06,5.6688878e-06,4.124018e-05,0.012227249,0.01222638,0.009050553,0.052368023,0.052365962,0.056016177,1.0406771e-11,1.0417267e-11,1.882521e-11,5.2998157e-08,5.285046e-08,5.000007e-08,0.0,0.0,0.0,0.0,0.0,0.0,0.0,0.0,663,0.3236263,0.23667736,0.025669267,0.019635571,0.018068817,0.0073058354,0.0,0.0,0.0,0.000227,0,0,0,831,0,0,0,0
1259546761,0.9974591,0.030975586,0.02422969,-0.059402704,-0.095677316,0.14800629,-1.1857394,6.5011024,-9.552215,-14.86783,-0.0001775645,0.00024844444,-5.7525926e-07,-0.0004952584,0.00015498893,-0.0003870018,0.19042341,0.05102382,0.3566885,0.0,0.0,0.0,0.0,0.0,0.0,6.535233e-07,0.0017162643,0.026435748,9.136192e-07,5.628566e-06,5.6286967e-06,4.1285584e-05,0.012226708,0.012224573,0.008983446,0.052435987,0.0524351,0.05533539,1.0406316e-11,1.0416763e-11,1.88265e-11,5.2998086e-08,5.284945e-08,5e-08,0.0,0.0,0.0,0.0,0.0,0.0,0.0,0.0,663,0.32383806,0.23523475,0.015237877,0.044350784,0.024049995,0.04323116,0.0,0.0,0.0,0.000184,0,0,0,831,0,0,0,0
1259750729,0.9976737,0.021655176,0.02726534,-0.058608063,-0.12422256,0.12630899,-1.2435322,6.4663024,-9.509969,-15.104754,-0.00017760224,0.00024838973,-5.647945e-07,-0.0004950233,0.0001547782,-0.0003917691,0.19042341,0.05102382,0.3566885,0.0,0.0,0.0,0.0,0.0,0.0,5.902134e-07,0.0019241136,0.029798709,9.11582e-07,5.644443e-06,5.624931e-06,4.140225e-05,0.012349761,0.012349241,0.009024103,0.052929234,0.05292915,0.055725217,1.0412861e-11,1.0423317e-11,1.8845809e-11,5.2998015e-08,5.2848772e-08,5.0000068e-08,0.0,0.0,0.0,0.0,0.0,0.0,0.0,0.0,663,0.32535887,0.23606189,0.001654896,0.02357928,0.027853698,0.035559576,0.0,0.0,0.0,0.000143,0,0,0,831,0,0,0,0
1259950808,0.9979272,0.020133693,0.020922443,-0.0574306,-0.12989755,0.08680063,-1.2583383,6.4170747,-9.473499,-15.346903,-0.0001776441,0.00024827343,-5.552881e-07,-0.00049482344,0.00015475378,-0.0003933463,0.19042341,0.05102382,0.3566885,0.0,0.0,0.0,0.0,0.0,0.0,5.2296144e-07,0.0020469285,0.032223854,9.072572e-07,5.638985e-06,5.6268423e-06,4.142326e-05,0.012384676,0.012384834,0.009033299,0.053109422,0.05310969,0.055828515,1.0414747e-11,1.0425233e-11,1.8846376e-11,5.299789e-08,5.284813e-08,5.0000068e-08,0.0,0.0,0.0,0.0,0.0,0.0,0.0,0.0,663,0.32591274,0.23628059,0.051478457,0.06720835,0.027087325,0.0009932775,0.0,0.0,0.0,0.00022,0,0,0,831,0,0,0,0
1260150730,0.99806744,0.01904921,0.014562581,-0.057328165,-0.10818526,0.045356583,-1.2659725,6.38327,-9.451731,-15.592178,-0.0001776596,0.00024824822,-5.7679887e-07,-0.00049470563,0.00015466222,-0.000395754,0.19042341,0.05102382,0.3566885,0.0,0.0,0.0,0.0,0.0,0.0,3.9177613e-07,0.0017586332,0.028672123,9.084186e-07,5.6348704e-06,5.6270337e-06,4.1435458e-05,0.012404352,0.012404261,0.008972234,0.05325953,0.053259827,0.05517625,1.0415362e-11,1.0425878e-11,1.8846966e-11,5.299768e-08,5.2847437e-08,5e-08,0.0,0.0,0.0,0.0,0.0,0.0,0.0,0.0,663,0.32637304,0.23489626,0.026194898,0.012157816,0.025782045,0.014338699,0.0,0.0,0.0,0.000153,0,0,0,831,0,0,0,0
1260350875,0.9980746,0.020726396,0.010505227,-0.057508886,-0.07501718,0.007271135,-1.2866496,6.353212,-9.442822,-15.830368,-0.0001776451,0.00024821615,-5.9730064e-07,-0.0004945726,0.00015448562,-0.0004001836,0.19042341,0.05102382,0.3566885,0.0,0.0,0.0,0.0,0.0,0.0,3.7946185e-07,0.0017788981,0.02908411,9.102253e-07,5.6365893e-06,5.632257e-06,4.1514246e-05,0.0124436645,0.012443246,0.008987192,0.053443495,0.053443577,0.055313252,1.0416874e-11,1.0427426e-11,1.886164e-11,5.2997493e-08,5.284695e-08,5.0000036e-08,0.0,0.0,0.0,0.0,0.0,0.0,0.0,0.0,663,0.3269359,0.2351877,0.097197436,0.025496157,0.023370447,0.06740743,0.0,0.0,0.0,0.000298,0,0,0,831,0,0,0,0
1260550758,0.99810016,0.020668246,0.008975899,-0.057343677,-0.03031078,-0.021940725,-1.2988927,6.3297834,-9.4355955,-16.076447,-0.00017766962,0.00024817296,-5.573119e-07,-0.00049435266,0.00015432581,-0.00040441196,0.19042341,0.05102382,0.3566885,0.0,0.0,0.0,0.0,0.0,0.0,4.7809e-07,0.001905064,0.028999586,9.09767e-07,5.6393624e-06,5.635163e-06,4.1594994e-05,0.012474505,0.0124744745,0.009000129,0.05361747,0.05361715,0.05543765,1.0418053e-11,1.0428648e-11,1.8875958e-11,5.2997265e-08,5.284652e-08,5.0000036e-08,0.0,0.0,0.0,0.0,0.0,0.0,0.0,0.0,663,0.32746696,0.23545201,0.07003762,0.019528331,0.021945415,0.03337417,0.0,0.0,0.0,0.000181,0,0,0,831,0,0,0,0
1260754729,0.9981561,0.018215336,0.011377121,-0.05677373,-0.007938142,-0.059917066,-1.3321637,6.3083706,-9.437983,-16.312119,-0.0001776757,0.0002480988,-4.6420385e-07,-0.0004940756,0.00015406986,-0.00041116038,0.19042341,0.05102382,0.3566885,0.0,0.0,0.0,0.0,0.0,0.0,5.626526e-07,0.0020686847,0.031999826,9.0615083e-07,5.6415506e-06,5.634235e-06,4.1524534e-05,0.012508174,0.01250827,0.009014222,0.05374722,0.053746447,0.055572964,1.04181256e-11,1.0428724e-11,1.8860878e-11,5.2997006e-08,5.2846183e-08,5.0000068e-08,0.0,0.0,0.0,0.0,0.0,0.0,0.0,0.0,663,0.32786226,0.23573919,0.008741503,0.04213854,0.02239819,0.020087052,0.0,0.0,0.0,1e-04,0,0,0,831,0,0,0,0
1260958724,0.9982234,0.016760051,0.013851395,-0.055472698,0.032136604,-0.09517782,-1.3211241,6.306484,-9.449096,-16.552017,-0.00017768769,0.0002480994,-4.511067e-07,-0.0004936645,0.00015360644,-0.00042209995,0.19042341,0.05102382,0.3566885,0.0,0.0,0.0,0.0,0.0,0.0,6.38546e-07,0.0021867203,0.032351796,9.0024224e-07,5.651836e-06,5.6420868e-06,4.155303e-05,0.012580864,0.012581444,0.008984898,0.054210592,0.05420934,0.055206835,1.0423005e-11,1.0433607e-11,1.886441e-11,5.2996672e-08,5.2845852e-08,5e-08,0.0,0.0,0.0,0.0,0.0,0.0,0.0,0.0,663,0.32927182,0.23496135,0.009791223,0.017124813,0.020134963,0.06528535,0.0,0.0,0.0,0.000146,0,0,0,831,0,0,0,0
1261158797,0.9979895,0.029041821,0.013408565,-0.05471652,0.06566283,-0.0883911,-1.3170859,6.3143024,-9.452668,-16.827835,-0.00017776614,0.00024810442,-4.8668346e-07,-0.0004937018,0.00015372047,-0.00041903087,0.19042341,0.05102382,0.3566885,0.0,0.0,0.0,0.0,0.0,0.0,5.358344e-07,0.0018230504,0.029001731,8.949675e-07,5.6546546e-06,5.661519e-06,4.1614356e-05,0.01257842,0.012580933,0.008994344,0.054313853,0.054312278,0.05531362,1.04228345e-11,1.043347e-11,1.887767e-11,5.299636e-08,5.284568e-08,5e-08,0.0,0.0,0.0,0.0,0.0,0.0,0.0,0.0,663,0.32958478,0.23518848,0.0034881094,0.049157538,0.01601276,0.012305685,0.0,0.0,0.0,0.000213,0,0,0,831,0,0,0,0
1261362755,0.9975074,0.04000386,0.0140388785,-0.056406923,0.12189884,-0.052130587,-1.286054,6.3281555,-9.466787,-17.077421,-0.00017775947,0.00024809685,-4.788077e-07,-0.0004935964,0.00015359532,-0.00042195164,0.19042341,0.05102382,0.3566885,0.0,0.0,0.0,0.0,0.0,0.0,4.821252e-07,0.0018397568,0.028642025,9.012508e-07,5.657043e-06,5.689119e-06,4.1656178e-05,0.012563484,0.012571412,0.009004026,0.054415513,0.05441389,0.055423036,1.0423006e-11,1.043364e-11,1.8890703e-11,5.299603e-08,5.2845596e-08,5e-08,0.0,0.0,0.0,0.0,0.0,0.0,0.0,0.0,663,0.32989302,0.23542097,0.026320523,0.02126261,0.0112302145,0.046619203,0.0,0.0,0.0,0.000177,0,0,0,831,0,0,0,0
1261562755,0.997273,0.042999808,0.017301852,-0.057429783,0.17958175,0.025062717,-1.2509085,6.34712,-9.465866,-17.33699,-0.00017775926,0.0002480432,-5.452996e-07,-0.00049369625,0.00015372911,-0.0004191621,0.19042341,0.05102382,0.3566885,0.0,0.0,0.0,0.0,0.0,0.0,5.621434e-07,0.0018360722,0.026944838,9.061144e-07,5.6615872e-06,5.699678e-06,4.171404e-05,0.012543803,0.012558072,0.009012798,0.05450918,0.054508004,0.05552509,1.0423359e-11,1.0433847e-11,1.890357e-11,5.299566e-08,5.284559e-08,5e-08,0.0,0.0,0.0,0.0,0.0,0.0,0.0,0.0,663,0.33017752,0.23563762,0.050304264,0.030621199,0.0119966045,0.0412584,0.0,0.0,0.0,0.000178,0,0,0,831,0,0,0,0
1261766732,0.99731725,0.039558157,0.02182749,-0.057593785,0.20259592,0.12586862,-1.2019672,6.368061,-9.449937,-17.587616,-0.00017773766,0.0002479468,-5.0651494e-07,-0.0004935537,0.00015372681,-0.0004211747,0.19042341,0.05102382,0.3566885,0.0,0.0,0.0,0.0,0.0,0.0,6.45188e-07,0.0017578494,0.027010085,9.060922e-07,5.6774643e-06,5.7000634e-06,4.173522e-05,0.0125891995,0.012604484,0.00905058,0.05493965,0.054939516,0.055894177,1.0429131e-11,1.0439275e-11,1.8905589e-11,5.299526e-08,5.2845706e-08,5.0000036e-08,0.0,0.0,0.0,0.0,0.0,0.0,0.0,0.0,663,0.33148026,0.2364195,0.04056856,0.06726624,0.0144799715,0.03388023,0.0,0.0,0.0,0.000155,0,0,0,831,0,0,0,0
1261966754,0.9976915,0.027893484,0.024584113,-0.056827046,0.22049975,0.18968807,-1.2034286,6.39251,-9.424255,-17.826338,-0.00017769045,0.00024786528,-4.854587e-07,-0.0004935421,0.00015377229,-0.0004208083,0.19042341,0.05102382,0.3566885,0.0,0.0,0.0,0.0,0.0,0.0,7.526543e-07,0.0015542876,0.025047023,9.037134e-07,5.684949e-06,5.6769586e-06,4.1833562e-05,0.012610334,0.012624531,0.009058218,0.05505308,0.055054188,0.055983603,1.0431048e-11,1.0440695e-11,1.8918133e-11,5.2994757e-08,5.284588e-08,5.0000075e-08,0.0,0.0,0.0,0.0,0.0,0.0,0.0,0.0,663,0.33182415,0.23660855,0.025783153,0.05548453,0.016972814,0.0019471197,0.0,0.0,0.0,0.000177,0,0,0,831,0,0,0,0
1262166760,0.99761724,0.018225584,0.036015563,-0.055951674,0.17658488,0.22674981,-1.2002649,6.4180346,-9.378593,-18.054478,-0.00017771842,0.00024778998,-5.1080264e-07,-0.00049331115,0.00015366497,-0.00042462873,0.19042341,0.05102382,0.3566885,0.0,0.0,0.0,0.0,0.0,0.0,6.901427e-07,0.0014423938,0.02248523,9.017307e-07,5.710588e-06,5.6665003e-06,4.1898635e-05,0.012626669,0.012634576,0.008995248,0.055147763,0.055150066,0.055313393,1.0432511e-11,1.04416805e-11,1.8930078e-11,5.2994082e-08,5.2846143e-08,5e-08,0.0,0.0,0.0,0.0,0.0,0.0,0.0,0.0,663,0.33211118,0.23518799,0.0009446228,0.04183456,0.017822245,0.011180582,0.0,0.0,0.0,0.000182,0,0,0,831,0,0,0,0
1262366865,0.9969464,0.02301103,0.047789913,-0.057311308,0.10931805,0.26218113,-1.0881938,6.431319,-9.319306,-18.275234,-0.00017777778,0.00024771283,-5.0207285e-07,-0.000493149,0.00015361421,-0.00042664865,0.19042341,0.05102382,0.3566885,0.0,0.0,0.0,0.0,0.0,0.0,5.4033956e-07,0.0012983364,0.020461429,9.0731646e-07,5.749332e-06,5.6760227e-06,4.1844498e-05,0.012575577,0.012576515,0.009007063,0.055238646,0.05524157,0.055434067,1.0434128e-11,1.0442846e-11,1.892751e-11,5.299352e-08,5.284657e-08,5e-08,0.0,0.0,0.0,0.0,0.0,0.0,0.0,0.0,663,0.33238566,0.2354444,0.006714935,0.05131952,0.020426983,0.0025346659,0.0,0.0,0.0,0.000281,0,0,0,831,0,0,0,0
1262566718,0.9971467,0.01606738,0.044684995,-0.058681935,0.0061612353,0.30396584,-1.0572718,6.421048,-9.262924,-18.483284,-0.0001777633,0.00024761725,-5.351023e-07,-0.0004930165,0.00015359012,-0.00042702848,0.19042341,0.05102382,0.3566885,0.0,0.0,0.0,0.0,0.0,0.0,5.394299e-07,0.0013048551,0.020356553,9.1527875e-07,5.7412544e-06,5.672462e-06,4.177309e-05,0.012579124,0.012573205,0.009017432,0.055327818,0.05533057,0.055545,1.0436095e-11,1.0444436e-11,1.8910897e-11,5.2992906e-08,5.2847046e-08,5.0000036e-08,0.0,0.0,0.0,0.0,0.0,0.0,0.0,0.0,663,0.33265355,0.23567986,0.00736968,0.058258735,0.022355374,0.011156394,0.0,0.0,0.0,0.00014,0,0,0,831,0,0,0,0
1262770789,0.99755836,0.003127318,0.037732497,-0.058685154,-0.0932458,0.29075867,-1.0403085,6.387627,-9.194564,-18.654892,-0.00017779808,0.00024749868,-5.598898e-07,-0.00049244636,0.00015333174,-0.00043690184,0.19042341,0.05102382,0.3566885,0.0,0.0,0.0,0.0,0.0,0.0,5.060906e-07,0.0013993754,0.021369398,9.198687e-07,5.721033e-06,5.671323e-06,4.1794716e-05,0.012594926,0.012589612,0.009030172,0.05542084,0.055422783,0.055672895,1.043801e-11,1.04460685e-11,1.8909454e-11,5.299234e-08,5.284758e-08,5.0000068e-08,0.0,0.0,0.0,0.0,0.0,0.0,0.0,0.0,663,0.33293185,0.23595105,0.02797205,0.069880374,0.024348447,0.022316607,0.0,0.0,0.0,0.000188,0,0,0,831,0,0,0,0
1262974752,0.9978855,-0.006031825,0.026370425,-0.059099663,-0.14276677,0.22391734,-1.0591062,6.3568645,-9.135079,-18.824404,-0.0001778284,0.00024748995,-6.092854e-07,-0.0004918701,0.00015303414,-0.0004507662,0.19042341,0.05102382,0.3566885,0.0,0.0,0.0,0.0,0.0,0.0,4.7079166e-07,0.0014211818,0.022001302,9.269615e-07,5.7014563e-06,5.6832714e-06,4.175442e-05,0.012680294,0.012678891,0.008997862,0.05579832,0.0557993,0.055294804,1.0442702e-11,1.04506135e-11,1.8897653e-11,5.2991716e-08,5.2848197e-08,5e-08,0.0,0.0,0.0,0.0,0.0,0.0,0.0,0.0,663,0.3340623,0.23514847,0.026627725,0.022947026,0.020196434,0.06634987,0.0,0.0,0.0,0.000174,0,0,0,831,0,0,0,0
1263174787,0.9980627,-0.010949023,0.01558338,-0.0592315,-0.15707166,0.13844493,-1.0825402,6.309438,-9.090236,-19.027752,-0.00017786457,0.00024740672,-6.9078146e-07,-0.0004917309,0.00015293738,-0.00045299542,0.19042341,0.05102382,0.3566885,0.0,0.0,0.0,0.0,0.0,0.0,3.5849695e-07,0.0013201712,0.020359056,9.3288816e-07,5.686459e-06,5.687843e-06,4.1761403e-05,0.012704975,0.012704775,0.009010185,0.0558494,0.055849824,0.0554235,1.0443142e-11,1.0451046e-11,1.8896757e-11,5.2991226e-08,5.2848875e-08,5.0000036e-08,0.0,0.0,0.0,0.0,0.0,0.0,0.0,0.0,663,0.33421433,0.23542196,0.030874157,0.045119353,0.017982235,0.014244037,0.0,0.0,0.0,0.000209,0,0,0,831,0,0,0,0
1263374783,0.99812335,-0.010908272,0.009859822,-0.059444435,-0.14787595,0.052707996,-1.1080137,6.2705307,-9.063029,-19.219955,-0.00017791244,0.00024737438,-6.767168e-07,-0.00049136044,0.00015282656,-0.00046083532,0.19042341,0.05102382,0.3566885,0.0,0.0,0.0,0.0,0.0,0.0,2.9816755e-07,0.0013335472,0.020754412,9.351669e-07,5.6848658e-06,5.6890312e-06,4.17631e-05,0.012744126,0.012741826,0.0090254815,0.055915356,0.05591562,0.055567484,1.0444133e-11,1.0452148e-11,1.8895727e-11,5.2990806e-08,5.28496e-08,5.000007e-08,0.0,0.0,0.0,0.0,0.0,0.0,0.0,0.0,663,0.33441138,0.23572756,0.051012397,0.035536177,0.0146944625,0.024169791,0.0,0.0,0.0,0.000205,0,0,0,831,0,0,0,0
1263578780,0.9981509,-0.00859536,0.007980576,-0.059642356,-0.116670676,-0.041210763,-1.130808,6.235143,-9.058531,-19.434425,-0.00017793558,0.00024733413,-6.48629e-07,-0.00049126474,0.00015277731,-0.00046219406,0.19042341,0.05102382,0.3566885,0.0,0.0,0.0,0.0,0.0,0.0,3.792569e-07,0.0014778996,0.02304684,9.348732e-07,5.68556e-06,5.6867925e-06,4.1686017e-05,0.012767319,0.0127600515,0.009038743,0.05593287,0.0559331,0.055702068,1.0443889e-11,1.0452132e-11,1.8879726e-11,5.299049e-08,5.285035e-08,5.0000068e-08,0.0,0.0,0.0,0.0,0.0,0.0,0.0,0.0,663,0.33446372,0.23601286,0.001383575,0.028442092,0.013177712,0.012086586,0.0,0.0,0.0,0.000195,0,0,0,831,0,0,0,0
1263782756,0.9982237,-0.0009469363,0.0064018383,-0.05922449,-0.05646241,-0.10528499,-1.1305083,6.217963,-9.06645,-19.634642,-0.00017798055,0.0002473454,-6.7964305e-07,-0.00049088045,0.00015268364,-0.00047137993,0.19042341,0.05102382,0.3566885,0.0,0.0,0.0,0.0,0.0,0.0,3.0970452e-07,0.0013400797,0.020191798,9.2979764e-07,5.6956865e-06,5.68981e-06,4.1634794e-05,0.012840803,0.01282978,0.009010509,0.0562891,0.056289233,0.05534622,1.0447927e-11,1.0456437e-11,1.8867677e-11,5.2990142e-08,5.2851117e-08,5.0000033e-08,0.0,0.0,0.0,0.0,0.0,0.0,0.0,0.0,663,0.33552694,0.23525777,0.009472813,0.02964338,0.013186538,0.07092879,0.0,0.0,0.0,0.000179,0,0,0,831,0,0,0,0
1263986612,0.9982736,0.0024387783,0.007852773,-0.058155876,-0.014420889,-0.14272688,-1.1345143,6.2027907,-9.08571,-19.84996,-0.00017800508,0.00024730212,-7.0883004e-07,-0.0004907799,0.00015260631,-0.00047306877,0.19042341,0.05102382,0.3566885,0.0,0.0,0.0,0.0,0.0,0.0,3.2535323e-07,0.0013758033,0.021471309,9.2349916e-07,5.698931e-06,5.6918966e-06,4.1714222e-05,0.0128596565,0.012847774,0.009025488,0.056340225,0.056340106,0.05548573,1.0448715e-11,1.0457516e-11,1.8880682e-11,5.2989954e-08,5.285185e-08,5.000004e-08,0.0,0.0,0.0,0.0,0.0,0.0,0.0,0.0,663,0.3356789,0.23555408,0.0038869283,0.04427179,0.012657853,1.3258973e-05,0.0,0.0,0.0,3.4e-05,0,0,0,831,0,0,0,0
1264186742,0.99825,0.0054012095,0.011395217,-0.057776224,0.022659587,-0.15801784,-1.1567173,6.2027993,-9.105989,-20.068428,-0.0001780595,0.00024730456,-6.9596274e-07,-0.0004906469,0.00015259297,-0.00047582824,0.19042341,0.05102382,0.3566885,0.0,0.0,0.0,0.0,0.0,0.0,2.7325197e-07,0.0013714723,0.021327756,9.194124e-07,5.702601e-06,5.694881e-06,4.1710377e-05,0.012885445,0.012875024,0.009040307,0.056383874,0.05638336,0.055623256,1.0449123e-11,1.0458198e-11,1.8878734e-11,5.2989826e-08,5.285252e-08,5.0000036e-08,0.0,0.0,0.0,0.0,0.0,0.0,0.0,0.0,663,0.33580834,0.23584583,0.05169825,0.03599791,0.011928515,0.02199966,0.0,0.0,0.0,0.000158,0,0,0,831,0,0,0,0
1264390800,0.99821,0.008597254,0.010827231,-0.058185633,0.05246824,-0.1700105,-1.1474555,6.1933236,-9.134523,-20.299145,-0.00017807768,0.00024721623,-7.143467e-07,-0.00049060845,0.00015247066,-0.00047548366,0.19042341,0.05102382,0.3566885,0.0,0.0,0.0,0.0,0.0,0.0,2.8771473e-07,0.0014455966,0.02265032,9.2040113e-07,5.7102607e-06,5.704158e-06,4.164759e-05,0.0129459025,0.01293799,0.009081556,0.0567497,0.056748718,0.056017477,1.04536215e-11,1.0462945e-11,1.8866053e-11,5.298979e-08,5.285318e-08,5.0000068e-08,0.0,0.0,0.0,0.0,0.0,0.0,0.0,0.0,663,0.33689526,0.23668012,0.0035199174,0.07888402,0.01215247,0.0020005244,0.0,0.0,0.0,0.000215,0,0,0,831,0,0,0,0
1264594767,0.9981688,0.010842435,0.008898611,-0.058842693,0.09747113,-0.17116272,-1.1454333,6.204272,-9.152944,-20.539982,-0.00017815921,0.00024720212,-6.623435e-07,-0.0004907778,0.00015239848,-0.00047025466,0.19042341,0.05102382,0.3566885,0.0,0.0,0.0,0.0,0.0,0.0,2.9426096e-07,0.0014249983,0.022369398,9.230007e-07,5.7097886e-06,5.7062525e-06,4.171827e-05,0.012945234,0.0129411295,0.009018915,0.056763828,0.056762595,0.05535476,1.0453974e-11,1.0463503e-11,1.8878569e-11,5.2989684e-08,5.285372e-08,5e-08,0.0,0.0,0.0,0.0,0.0,0.0,0.0,0.0,663,0.33693683,0.23527592,0.014386649,0.055883363,0.009905826,0.018191364,0.0,0.0,0.0,0.000189,0,0,0,831,0,0,0,0
1264794746,0.998078,0.0158372,0.012204665,-0.058656633,0.13496073,-0.15218723,-1.135599,6.2283025,-9.168627,-20.76456,-0.00017824126,0.0002472021,-6.4668046e-07,-0.00049075356,0.00015235825,-0.0004700141,0.19042341,0.05102382,0.3566885,0.0,0.0,0.0,0.0,0.0,0.0,3.398411e-07,0.0012802396,0.020503523,9.192954e-07,5.7135417e-06,5.7133007e-06,4.1629955e-05,0.012940723,0.0129416315,0.009032496,0.05677584,0.056774665,0.05548601,1.0454388e-11,1.0464008e-11,1.8861702e-11,5.298974e-08,5.2854197e-08,5.0000033e-08,0.0,0.0,0.0,0.0,0.0,0.0,0.0,0.0,663,0.33697256,0.23555468,0.020335631,0.05176915,0.014870568,0.0033742192,0.0,0.0,0.0,0.000161,0,0,0,831,0,0,0,0
1264998754,0.9980275,0.011838883,0.02127725,-0.057864163,0.14438947,-0.13556907,-1.137618,6.2435274,-9.18424,-20.998068,-0.00017829592,0.00024711905,-6.2966103e-07,-0.00049076945,0.00015228112,-0.0004685167,0.19042341,0.05102382,0.3566885,0.0,0.0,0.0,0.0,0.0,0.0,4.3567448e-07,0.0012926254,0.02054156,9.144407e-07,5.7301704e-06,5.7193233e-06,4.1567277e-05,0.013002345,0.013006282,0.009071838,0.05711498,0.0571143,0.05586913,1.0459031e-11,1.0468702e-11,1.8849219e-11,5.298988e-08,5.2854634e-08,5.0000036e-08,0.0,0.0,0.0,0.0,0.0,0.0,0.0,0.0,663,0.3379782,0.23636651,0.02941635,0.057348758,0.013935176,0.006906834,0.0,0.0,0.0,0.00017,0,0,0,831,0,0,0,0
1265198720,0.99796677,0.0075354516,0.028925302,-0.056293167,0.09485259,-0.13263416,-1.1372442,6.260532,-9.193954,-21.24304,-0.00017836098,0.00024708093,-6.241786e-07,-0.00049096165,0.00015214365,-0.00046207436,0.19042341,0.05102382,0.3566885,0.0,0.0,0.0,0.0,0.0,0.0,4.6351528e-07,0.001285604,0.020046571,9.0778025e-07,5.7430952e-06,5.7181787e-06,4.1637475e-05,0.013001318,0.013002285,0.009080628,0.057122644,0.057122357,0.0559726,1.04595135e-11,1.046919e-11,1.8861943e-11,5.299006e-08,5.2854944e-08,5.000007e-08,0.0,0.0,0.0,0.0,0.0,0.0,0.0,0.0,663,0.3380015,0.23658529,0.022054426,0.040479302,0.018018192,0.016854733,0.0,0.0,0.0,0.000139,0,0,0,831,0,0,0,0
1265402814,0.9978819,0.0017452034,0.031467848,-0.056907784,0.023436144,-0.15606989,-1.1606828,6.2635536,-9.205242,-21.49946,-0.00017843254,0.00024703372,-6.044147e-07,-0.0004912364,0.00015192076,-0.0004524422,0.19042341,0.05102382,0.3566885,0.0,0.0,0.0,0.0,0.0,0.0,5.546693e-07,0.0013097409,0.020445332,9.1201787e-07,5.7464476e-06,5.716695e-06,4.155257e-05,0.013017232,0.013013714,0.00901865,0.057147574,0.05714717,0.055317994,1.0459941e-11,1.0469669e-11,1.8846105e-11,5.2990266e-08,5.2855142e-08,5e-08,0.0,0.0,0.0,0.0,0.0,0.0,0.0,0.0,663,0.33807507,0.23519778,0.035807338,0.047234427,0.018355107,0.018691495,0.0,0.0,0.0,0.000216,0,0,0,831,0,0,0,0
1265606867,0.9977232,-0.012772233,0.02475768,-0.06142007,-0.035197586,-0.23749954,-1.2215542,6.2442827,-9.219025,-21.781826,-0.00017854817,0.00024694126,-5.698841e-07,-0.0004915722,0.00015175597,-0.00044186073,0.19042341,0.05102382,0.3566885,0.0,0.0,0.0,0.0,0.0,0.0,6.018763e-07,0.0014503145,0.022589283,9.4094514e-07,5.732416e-06,5.726599e-06,4.1639625e-05,0.013119835,0.013108645,0.00906207,0.057505947,0.057504494,0.055728137,1.0464431e-11,1.0474299e-11,1.8863758e-11,5.2990632e-08,5.285534e-08,5.000007e-08,0.0,0.0,0.0,0.0,0.0,0.0,0.0,0.0,663,0.3391319,0.23606808,0.0041298666,0.080982625,0.021937821,0.026008902,0.0,0.0,0.0,0.00029,0,0,0,831,0,0,0,0
