timestamp,rollspeed,pitchspeed,yawspeed,rollspeed_integ,pitchspeed_integ,yawspeed_integ,additional_integ1
1244762071,0.0018465202,-0.000485152,-2.233166e-05,-0.0008033439,-0.00062880374,-4.3437263e-05,0.0
1244922078,-0.0009840261,0.00031660497,0.0005243962,-0.0011833813,-0.0009342329,-6.557585e-05,0.0
1244954040,0.0011760332,-7.5828284e-06,-0.0007504971,-0.0015246362,-0.0012064639,-8.437963e-05,0.0
1244986129,0.00036713667,-0.0013471544,-0.0006312722,-0.0018684678,-0.0014799151,-0.00010040164,0.0
1245018092,0.0024415124,0.0010865275,-0.00013847827,-0.0022151538,-0.0017565863,-0.00011514907,0.0
1245050073,0.0031316597,0.0017810632,-0.0007256524,-0.002564815,-0.0020351498,-0.00013332024,0.0
1245082055,0.0048772506,0.002504997,-0.005462,-0.0029174697,-0.0023169874,-0.00013853112,0.0
1245114038,-0.0020396356,0.0005226433,0.0011930686,-0.0032654307,-0.0026036776,-0.00016487604,0.0
1245146077,-0.007686481,-0.00893729,0.0047095357,-0.0036114184,-0.00288016,-0.00016931538,0.0
1245178231,-0.01843437,-0.00869835,-0.002665163,-0.0039513665,-0.0031599563,-0.00020177921,0.0
1245210057,-0.03043026,-0.010813203,0.0007306216,-0.0042437306,-0.0034265313,-0.0002665301,0.0
1245242036,-0.06027621,-0.015369866,-0.029535415,-0.0045040012,-0.0036614216,-8.4250525e-05,0.0
1245274089,-0.070947245,-0.014752228,0.023530573,-0.0046821027,-0.0039331196,-0.00028226007,0.0
1245306039,-0.047086585,0.010827271,-0.027270874,-0.004983579,-0.004215625,-0.0001493069,0.0
1245338038,0.007552157,0.035004668,0.023567423,-0.005246276,-0.0045246016,-0.0002802162,0.0
1245370040,0.043599445,0.047885202,0.012250462,-0.005552657,-0.0048657474,-0.00038845977,0.0
1245402115,0.085600495,0.05067248,-0.001546089,-0.005988954,-0.0052815736,-0.00046611603,0.0
1245434070,0.07944605,0.03442883,-0.013390644,-0.006524421,-0.0056686825,-0.00041235442,0.0
1245466088,0.05783895,0.010602903,0.004926245,-0.0070007974,-0.005994678,-0.00043279957,0.0
1245498034,0.03417368,-0.008265005,-0.004068836,-0.0074295267,-0.0063298903,-0.00047244295,0.0
1245530117,-0.009753307,-0.038750965,-0.0015215497,-0.007793606,-0.0066237086,-0.00044462038,0.0
1245562072,-0.0442063,-0.049672563,-0.00043378116,-0.008138556,-0.0068731704,-0.00047873022,0.0
1245594079,-0.08204172,-0.0497972,-0.0041173967,-0.0084106745,-0.007086471,-0.00046501934,0.0
1245622035,-0.0753261,-0.036664113,0.0022147482,-0.00862225,-0.0072871754,-0.00051055924,0.0
1245654047,-0.06881391,-0.030893514,-0.001309628,-0.00883058,-0.0075219595,-0.00051600387,0.0
1245686046,-0.041763198,-0.012189675,0.0014593438,-0.0090794545,-0.0077934824,-0.00056891475,0.0
1245718103,-0.031942822,-0.0037173368,0.0053157117,-0.009358773,-0.008066673,-0.00059123256,0.0
1245750052,-0.037177518,-0.023707123,-0.0054570814,-0.0096622575,-0.008325857,-0.000602534,0.0
1245782132,-0.15861176,-0.13653295,-0.009892115,-0.0098068835,-0.008462217,-0.00057669444,0.0
1245814056,-0.39267907,-0.33287618,-0.028824864,-0.009635275,-0.008329367,-0.00047999187,0.0
1245846122,-0.7151647,-0.48520526,-0.04257937,-0.008925709,-0.007849449,-0.00025507758,0.0
1245878072,-0.9642851,-0.6188591,-0.048080325,-0.0075945733,-0.007021907,7.171627e-05,0.0
1245910075,-1.0410464,-0.6018706,-0.031262368,-0.005731226,-0.00594587,0.00033553483,0.0
1245942035,-0.8554374,-0.42793047,-0.04822771,-0.0036438655,-0.0049039205,0.0006231716,0.0
1245974123,-0.52419764,-0.07240461,-0.060189836,-0.0016223531,-0.004123754,0.0010342571,0.0
1246006088,-0.17061608,0.252564,-0.049461193,0.00011064162,-0.003761674,0.0014750055,0.0
1246038047,0.075012974,0.3651591,-0.011433799,0.0014628671,-0.0037406676,0.0017715844,0.0
1246070041,0.13899288,0.05989728,0.01906925,0.0024969531,-0.0036776199,0.001851983,0.0
1246102060,0.11149215,0.015155653,0.03964225,0.0033394685,-0.0034413945,0.0017506251,0.0
1246134095,0.21561383,-0.046511963,0.06300029,0.003931431,-0.0031717247,0.0014972945,0.0
1246166035,0.40065512,0.14498137,0.07184104,0.0043208846,-0.002980004,0.0011146431,0.0
1246198054,0.58441913,0.16428518,0.079200774,0.0045981663,-0.0028233295,0.00065318757,0.0
1246230059,0.70503604,0.22900575,0.06163172,0.004744815,-0.002676935,0.00020790278,0.0
1246262078,0.6754838,0.16542508,0.04799761,0.0047697136,-0.002590519,-0.00018671673,0.0
1246294031,0.47007522,0.12877353,0.05217585,0.004807887,-0.0025191524,-0.0005488914,0.0
1246326081,0.2759145,0.11108755,0.0567558,0.0050550755,-0.0024261237,-0.0009695369,0.0
1246358056,0.20819947,0.13746816,0.042777225,0.0055022775,-0.002316868,-0.0013767647,0.0
1246390105,0.24391808,0.15571734,0.03604184,0.0060117524,-0.002200905,-0.0017305347,0.0
1246422045,0.29946315,0.16751207,0.025311531,0.0064794575,-0.0021426247,-0.0020513365,0.0
1246454079,0.2775393,0.15796141,0.028684312,0.0068896385,-0.002123365,-0.0023734104,0.0
1246486076,0.24415448,0.1669622,0.034603026,0.0072833695,-0.002145131,-0.0027322143,0.0
1246518126,0.261303,0.18947142,0.035860304,0.0076664058,-0.0021940428,-0.0031064341,0.0
1246550051,0.31599066,0.19393933,0.03338318,0.008004884,-0.0022266428,-0.0035252615,0.0
1246582099,0.37361497,0.18815434,0.0354502,0.008257824,-0.002274369,-0.003966525,0.0
1246614080,0.3811549,0.16331315,0.039404083,0.008407669,-0.00234457,-0.0044125775,0.0
1246646117,0.33959165,0.105811164,0.038939286,0.008515533,-0.0023907023,-0.004887568,0.0
1246678052,0.28847677,0.09384041,0.038829006,0.008648929,-0.0023930278,-0.005371173,0.0
1246710047,0.26784965,0.09080959,0.036970712,0.008799367,-0.0023704437,-0.0058521363,0.0
1246742053,0.2563904,0.10243324,0.03348467,0.008973356,-0.0023507744,-0.0063574784,0.0
1246774075,0.20932634,0.07902454,0.033839237,0.009168254,-0.0023711543,-0.0068615694,0.0
1246806042,0.18950592,0.07627948,0.0354391,0.009356231,-0.002420642,-0.0073739556,0.0
1246838042,0.18071482,0.12724805,0.029612899,0.009539872,-0.0024897056,-0.0079120705,0.0
1246870038,0.15756911,0.13144293,0.02839987,0.009738293,-0.0025878598,-0.008426606,0.0
1246902061,0.16401505,0.13250124,0.026919842,0.00993516,-0.002716883,-0.008953969,0.0
1246934033,0.15904981,0.12071361,0.023038687,0.010107615,-0.002879221,-0.009454201,0.0
1246966034,0.123806365,0.09199871,0.019349596,0.0102934735,-0.003034962,-0.0099383015,0.0
1246998075,0.095607735,0.089943364,0.017690824,0.010502772,-0.0031762456,-0.010416094,0.0
1247030095,0.08246899,0.07346642,0.01579902,0.010709208,-0.0033120879,-0.010873105,0.0
1247062039,0.08285208,0.05890685,0.008576184,0.0109076435,-0.0034457955,-0.011312693,0.0
1247094055,0.056822732,0.018630154,0.009324482,0.01111616,-0.003575319,-0.011711611,0.0
1247126093,0.029545667,0.003528826,0.005294067,0.011340709,-0.0036855526,-0.012111356,0.0
1247158106,0.010518784,-0.003922861,0.003982192,0.011591919,-0.0037867469,-0.012489308,0.0
1247190148,0.0061455127,-0.019774351,0.0032609173,0.011860736,-0.003860287,-0.012862494,0.0
1247222063,0.0014532525,-0.039127875,-0.0001105252,0.012120028,-0.0039161313,-0.013223417,0.0
1247254100,-0.011243273,-0.069482975,0.004088709,0.012378798,-0.0039396076,-0.01358938,0.0
1247286076,-0.02552528,-0.08356665,-0.0017110988,0.012664285,-0.0039345147,-0.013944934,0.0
1247318073,-0.030267732,-0.05876394,0.00394893,0.012978394,-0.003931096,-0.014295466,0.0
1247350041,-0.018181719,-0.03087554,0.00019227018,0.013290526,-0.003950009,-0.014657146,0.0
1247382038,-0.020142885,-0.028938906,0.0033050121,0.013588986,-0.003995555,-0.015004521,0.0
1247414092,-0.048048183,-0.034868766,0.0115031805,0.013904964,-0.0040427237,-0.01538524,0.0
1247446097,-0.05830482,-0.046651505,0.0043316334,0.014249014,-0.0040723644,-0.015750084,0.0
1247478037,-0.052187376,-0.061834984,0.0010634216,0.01461721,-0.0040800604,-0.01608175,0.0
1247510046,-0.04300356,-0.06820935,0.00016478627,0.014975572,-0.004057734,-0.01640268,0.0
1247542068,-0.024534842,-0.07558527,-0.003770226,0.015286253,-0.004025646,-0.016702589,0.0
1247574077,0.01054628,-0.043090522,-0.005975071,0.015544517,-0.004022348,-0.016993295,0.0
1247606050,0.017686784,-0.011111977,-0.010881363,0.015764441,-0.004091583,-0.017251832,0.0
1247638044,0.0356291,-0.0044055246,-0.017080741,0.01595004,-0.004216883,-0.017470766,0.0
1247670079,0.06392314,0.0013197884,-0.026666947,0.016095309,-0.004345029,-0.017643843,0.0
1247702070,0.044697914,-0.018713364,-0.024750993,0.016204793,-0.004443472,-0.017771315,0.0
1247734076,0.026434386,-0.027272161,-0.027456732,0.016310338,-0.0045085945,-0.01788853,0.0
1247766057,0.007910749,-0.05593661,-0.030022835,0.01644716,-0.0045401836,-0.017971696,0.0
1247798106,-0.033070717,-0.106646195,-0.026110843,0.016627142,-0.004516134,-0.018036518,0.0
1247830095,-0.050493795,-0.12091082,-0.021257883,0.016833875,-0.004432826,-0.01811723,0.0
1247862096,-0.07484822,-0.12517136,-0.023506958,0.017066877,-0.0043093013,-0.018203765,0.0
1247894052,-0.107946485,-0.14103436,-0.014854824,0.017330552,-0.0041582095,-0.018311877,0.0
1247926075,-0.09212418,-0.119268514,-0.012885326,0.017620148,-0.0039953883,-0.018446919,0.0
1247958111,-0.09700071,-0.11426256,-0.010597747,0.017933162,-0.0038267088,-0.01858193,0.0
1247990103,-0.0936766,-0.10189081,-0.0029171915,0.018242652,-0.003659027,-0.01874013,0.0
1248022045,-0.0843579,-0.07826265,-0.0071429797,0.018523397,-0.003505985,-0.018910889,0.0
1248054137,-0.08484614,-0.06293535,-0.004461818,0.018794259,-0.0033825,-0.019094227,0.0
1248086076,-0.09086082,-0.060795225,-0.0010043129,0.019072598,-0.0032805551,-0.019290835,0.0
1248118040,-0.050507993,-0.011392914,-0.0041751065,0.019340985,-0.0032068498,-0.019485809,0.0
1248150038,-0.048716106,-0.011641836,-0.0043565407,0.019584935,-0.0031448686,-0.019677844,0.0
1248182050,-0.059677415,-0.028340448,0.0015284134,0.019812064,-0.0030791438,-0.019868394,0.0
1248214088,-0.05129873,-0.037918527,0.0010301959,0.020037197,-0.002995523,-0.020089552,0.0
1248246039,-0.067492366,-0.034250915,0.004289225,0.02027158,-0.0029040063,-0.02032217,0.0
1248278052,-0.05164668,-0.01849547,0.0047568097,0.020513944,-0.0028093078,-0.020577697,0.0
1248310039,-0.05885701,-0.045711115,0.013914623,0.020766428,-0.0026804856,-0.020863183,0.0
1248342087,-0.07615813,-0.05544781,0.016910907,0.021028886,-0.0025352607,-0.021165146,0.0
1248374042,-0.06325337,-0.024586825,0.011545472,0.021288253,-0.002401501,-0.021469673,0.0
1248406051,-0.08534275,-0.026492631,0.014819357,0.021551754,-0.0022745533,-0.021785688,0.0
1248438100,-0.061165787,-0.017522402,0.016554583,0.021803949,-0.0021643701,-0.022117127,0.0
1248470128,-0.04272776,-0.015516515,0.011678107,0.022052499,-0.0020608024,-0.022458352,0.0
1248502045,-0.05640421,-0.009600818,0.013314857,0.02229797,-0.0019587087,-0.022770174,0.0
1248534111,-0.05024129,-0.001996329,0.0062033054,0.022537552,-0.0018413798,-0.023079956,0.0
1248566059,-0.05003532,-0.00053771026,0.0010743792,0.02277756,-0.0017138263,-0.023367312,0.0
1248598132,-0.0586143,-0.013767142,0.0005270707,0.02301428,-0.0015939444,-0.023622906,0.0
1248630037,-0.051174775,0.0057817735,-0.006188221,0.023255058,-0.0014885996,-0.023865236,0.0
1248662066,-0.0700264,-0.0016297828,-0.004954457,0.023513503,-0.0013916874,-0.024075422,0.0
1248694049,-0.06586329,-0.0071447194,-0.010608383,0.023789078,-0.0012855917,-0.024278315,0.0
1248726128,-0.06929237,-0.002644388,-0.011620036,0.024083363,-0.0011638276,-0.024472168,0.0
1248758036,-0.07093863,0.0054204464,-0.011877794,0.024378818,-0.0010355962,-0.024639973,0.0
1248790036,-0.07547535,-0.014276687,-0.010231184,0.024674267,-0.00087795005,-0.024815993,0.0
1248822034,-0.037237376,-0.003350215,-0.015535777,0.024945972,-0.00072720903,-0.024964824,0.0
1248854105,-0.031459555,-0.0054322258,-0.013697092,0.025190195,-0.0006036309,-0.025104934,0.0
1248886102,-0.018449051,0.015726043,-0.015919637,0.025423413,-0.00048766637,-0.025243346,0.0
1248918044,-0.019573709,0.036346376,-0.014495395,0.025637738,-0.0003877009,-0.025375657,0.0
1248950055,-0.022110924,0.038065284,-0.014731007,0.025851354,-0.00029277266,-0.02549474,0.0
1248982076,-0.024200074,0.009915728,-0.013235239,0.026068015,-0.00019486445,-0.025601668,0.0
1249014101,-0.018554835,0.017654683,-0.016218513,0.0262953,-8.092594e-05,-0.025719909,0.0
1249046054,-0.040091604,0.0029045027,-0.013746847,0.026534852,4.7364018e-05,-0.025829097,0.0
1249078091,-0.06269805,-0.015484424,-0.009734591,0.026797881,0.00019870642,-0.02594464,0.0
1249110073,-0.053972516,-0.014404196,-0.014720554,0.027080618,0.00035991025,-0.02605954,0.0
1249142144,-0.05027623,-0.0041348375,-0.013601365,0.027383117,0.00052809983,-0.026176088,0.0
1249174045,-0.060576018,-0.00389372,-0.008140998,0.027680768,0.0006957964,-0.02629015,0.0
1249206097,-0.056554988,-0.021033768,-0.007421933,0.027978314,0.0008866709,-0.02641713,0.0
1249238074,-0.038923834,-0.021194005,-0.0040909583,0.028265681,0.0010792514,-0.026547214,0.0
1249270157,-0.029258993,0.0038257092,-0.0027338045,0.028546281,0.0012522251,-0.026699804,0.0
1249302040,-0.039356194,0.0046907403,0.0047272537,0.028836155,0.0014215504,-0.026869342,0.0
1249334083,-0.033229582,0.011707652,0.0030023165,0.02911884,0.0015891498,-0.027045783,0.0
1249366052,-0.011710713,0.020734183,0.0012623597,0.029386004,0.0017470345,-0.027200649,0.0
1249398117,-0.027448975,0.017787533,0.0060536405,0.029646154,0.0019021694,-0.02737873,0.0
1249430034,-0.015736843,0.04091467,0.0028400845,0.029889856,0.0020346255,-0.02755609,0.0
1249462031,-0.0083769895,0.044704746,0.0008839088,0.0301282,0.0021465735,-0.027720634,0.0
1249494090,0.018854264,0.062420323,-0.00072690146,0.03035896,0.0022334335,-0.027896997,0.0
1249526078,-0.0025620498,0.055866957,0.0009715223,0.030602563,0.002312011,-0.028055524,0.0
1249558046,-0.008675957,0.05424348,0.0024324,0.030860508,0.0023919304,-0.028221011,0.0
1249590046,-0.00036140904,0.068350494,-0.0013718067,0.031110983,0.0024683748,-0.02838754,0.0
1249622062,-0.016432669,0.054245695,0.0005540731,0.03135688,0.0025349592,-0.028556649,0.0
1249654069,-0.0151190795,0.025186906,0.00040109133,0.03159853,0.0025887305,-0.028708003,0.0
1249686052,0.0059295073,0.036699116,-0.0060377195,0.03183385,0.0026477615,-0.028849622,0.0
1249718032,0.010542032,0.032126803,-0.0003431405,0.032070614,0.0027170281,-0.029005896,0.0
1249750121,0.01754932,0.03067668,0.0019020526,0.032296147,0.0028073834,-0.029163036,0.0
1249782109,0.009174898,0.019856062,-0.004496873,0.032517187,0.002903406,-0.029306106,0.0
1251062097,-0.02519159,-0.0142157,-0.004256483,0.040249173,0.0046771416,-0.034395773,0.0
1251094093,-0.013688477,-0.019595642,-0.008342882,0.040516585,0.004739247,-0.034460228,0.0
1252502081,0.05271505,-0.053504683,-0.027912663,0.05048678,0.003459566,-0.03802121,0.0
1252534100,0.04910955,-0.0586387,-0.027951602,0.05048781,0.0032827822,-0.037828296,0.0
1252566111,0.024005271,-0.07246616,-0.024722317,0.05049152,0.0031174088,-0.037619714,0.0
1252598050,0.02470428,-0.097323865,-0.023416419,0.05050716,0.002972411,-0.03740797,0.0
1252854050,-0.049098276,-0.06196414,0.003505196,0.051087152,0.0031703531,-0.036253348,0.0
1252886043,-0.037871577,-0.04754143,-0.0001337093,0.05119011,0.0031725788,-0.036158163,0.0
1252918069,-0.03216842,-0.027572758,0.0021597068,0.051273722,0.003154679,-0.036066495,0.0
1252950048,-0.03858994,-0.008632541,-0.0048527317,0.051353753,0.0031252396,-0.035979148,0.0
1252982047,-0.029332818,0.011072582,-0.0022584328,0.051440973,0.003076022,-0.03591769,0.0
1253014041,-0.018073436,0.011384785,-0.001210305,0.05151649,0.0030182293,-0.035847288,0.0
1253046090,-0.03343625,-0.014350254,0.0071059777,0.051583476,0.0029596146,-0.03578766,0.0
1253078031,-0.022912325,0.013623884,0.00070916326,0.051644463,0.0029057572,-0.035726268,0.0
1253110047,-0.021041976,0.029890306,0.0030154497,0.051708493,0.0028385152,-0.035681974,0.0
1253142045,-0.008815529,0.023565922,0.008826037,0.051754706,0.0027666292,-0.035657506,0.0
1253174241,-0.02407598,-0.005579166,0.006094083,0.05178598,0.002711705,-0.035631746,0.0
1253206068,0.012117721,-0.0063909385,0.004048306,0.051799957,0.0026627604,-0.035596598,0.0
1253238097,0.029734053,0.0050663967,-0.012434151,0.051776066,0.002628254,-0.03554013,0.0
1253270075,0.012072376,-0.007078171,-0.0066767423,0.05174388,0.0026059197,-0.035442315,0.0
1253302115,0.020935766,-0.0051878467,-0.014987935,0.051691726,0.0026006193,-0.03530153,0.0
1253334045,0.0082574235,-0.0201085,-0.010475601,0.051620103,0.0026268312,-0.035165872,0.0
1253366084,0.0012568552,-0.013380222,-0.015620623,0.05156953,0.00267266,-0.03503482,0.0
1253398054,-0.040906664,-0.04178562,-0.010954842,0.051553573,0.0027216948,-0.03487561,0.0
1253430131,-0.037101734,-0.02487646,-0.01296147,0.05155338,0.0027742595,-0.03472437,0.0
1253462036,-0.04860282,-0.015716124,-0.0062517878,0.051556922,0.002823841,-0.03459292,0.0
1253494035,-0.057813577,0.00031769276,-0.0059154117,0.051571816,0.0028787486,-0.034484383,0.0
1253526039,-0.0732851,0.00076383166,-0.0012346098,0.051606063,0.0029158362,-0.03437436,0.0
1253558073,-0.07731072,-0.039417025,0.009688947,0.051640335,0.0029591701,-0.034314226,0.0
1253590089,-0.034491368,0.0037920233,-0.0032148457,0.05164896,0.002994315,-0.03424918,0.0
1253622054,-0.04483633,0.0030864961,0.005059592,0.051652458,0.003033777,-0.03420371,0.0
1253654042,-0.036261808,0.019413602,0.0068162093,0.05164777,0.0030627903,-0.0341678,0.0
1253686066,-0.03326185,0.013818767,0.007447037,0.051629238,0.0030794982,-0.03413827,0.0
1253718068,-0.02777405,0.025435224,0.00455939,0.05159859,0.0030839494,-0.034092456,0.0
1253750035,-0.046565697,0.034831796,0.0018340277,0.051574104,0.003069235,-0.034043796,0.0
1253782069,-0.04145807,0.046228036,0.0007705267,0.051570557,0.0030455855,-0.034000643,0.0
1253814060,-0.039749034,0.03903699,0.0061719366,0.05157624,0.003026073,-0.033970896,0.0
1253846131,-0.047363147,0.020453265,0.01022854,0.051587395,0.003021294,-0.03395721,0.0
1253878031,-0.05481659,0.006182123,0.009737834,0.051588807,0.003041984,-0.0339484,0.0
1253910094,-0.043365955,0.007836638,0.009438233,0.051580515,0.0030781513,-0.033963904,0.0
1253942054,-0.04176887,-0.0011148099,0.010546889,0.051561967,0.003104401,-0.03397952,0.0
1253974140,0.0017382838,0.030233193,0.0072380663,0.05152378,0.0031214394,-0.0340078,0.0
1254006049,-0.008323999,0.036644913,0.009661879,0.051480517,0.0031328253,-0.034037426,0.0
1254038070,-0.015633892,0.038412217,0.0077099493,0.051431686,0.0031461683,-0.034056365,0.0
1254070048,-0.023605434,0.030237265,0.007652986,0.051382113,0.003143057,-0.03406426,0.0
1254102131,-0.018571312,0.0399308,0.0035135779,0.0513278,0.0031187045,-0.034067966,0.0
1254134055,-0.024412224,0.05534105,0.00011998485,0.051278666,0.0030806998,-0.034058984,0.0
1254166038,-0.03225095,0.047491252,0.006081893,0.051248528,0.003051386,-0.0340637,0.0
1254198079,-0.034582898,0.045930397,0.006183819,0.051213223,0.0030122036,-0.034068786,0.0
1254230071,-0.039309926,0.05268865,0.00450273,0.051186375,0.0029622419,-0.034078684,0.0
1254262054,-0.056425393,0.04419086,0.0039712787,0.051169816,0.0028996523,-0.03407082,0.0
1254294031,-0.039409943,0.036713228,0.0076007717,0.051164195,0.0028514848,-0.03408172,0.0
1254326063,-0.07303,0.02072401,0.014553656,0.051184576,0.0028285903,-0.034128744,0.0
1254358069,-0.065487586,0.05301841,0.013167032,0.051231258,0.0027735685,-0.03418547,0.0
1254390088,-0.0798109,0.017716087,0.014908031,0.051281225,0.0027153348,-0.034264993,0.0
1254422050,-0.059808344,0.0020917244,0.009558125,0.051313445,0.0026762045,-0.03433141,0.0
1254454062,-0.04972692,-0.0024241917,0.013574198,0.051350657,0.002660391,-0.034408003,0.0
1254486077,-0.035388473,0.014767343,0.01335665,0.05138503,0.0026477505,-0.034496456,0.0
1254518075,-0.04060008,-0.0048150662,0.014197242,0.05141846,0.002655704,-0.034583732,0.0
1254550031,-0.044399917,-0.035870753,0.016131634,0.051453166,0.0026873597,-0.03468301,0.0
1254582106,-0.040709913,-0.03947962,0.014038351,0.051486224,0.0027365834,-0.0347795,0.0
1254614079,-0.019036697,-0.018652543,0.012286874,0.051496122,0.002783531,-0.034877464,0.0
1254646133,-0.010519279,-0.020371241,0.017329348,0.051482886,0.0028405944,-0.03499741,0.0
1254678052,-0.0051037986,-0.04101758,0.015253063,0.051441234,0.0029065346,-0.03512335,0.0
1254710082,0.004152149,-0.034653354,0.01575508,0.05137571,0.0029952433,-0.03524992,0.0
1254742125,-0.0043484177,-0.05293353,0.018311502,0.051303256,0.0031240345,-0.035396412,0.0
1254774047,0.004506912,-0.057208553,0.015339472,0.051223997,0.0032591654,-0.035545416,0.0
1254806064,-0.012493296,-0.0619623,0.021435011,0.0511656,0.0034162456,-0.035712577,0.0
1254838035,-0.015008409,-0.043015793,0.014567511,0.0511107,0.0035850247,-0.035876255,0.0
1254870091,-0.02908092,-0.038197763,0.02132486,0.051053423,0.0037637549,-0.036063403,0.0
1254902035,-0.021522835,-0.02861479,0.02298219,0.050983123,0.003928689,-0.03625372,0.0
1254934048,-0.032300234,0.0019715726,0.015278974,0.05091569,0.0040570046,-0.036446434,0.0
1254966042,-0.041595988,-0.0014751386,0.01783783,0.050867055,0.0041658334,-0.03663611,0.0
1254998096,-0.029214472,0.0152009,0.01545534,0.0508241,0.0042701447,-0.03683542,0.0
1255030038,-0.05072282,0.03994888,0.013055831,0.050792463,0.0043600993,-0.037028655,0.0
1255062054,-0.03605684,0.062063985,0.012024703,0.050762825,0.004421833,-0.03720946,0.0
1255094052,-0.038924757,0.038707286,0.0070722173,0.050730627,0.0044697956,-0.037381608,0.0
1255126076,-0.021838946,0.04035774,0.0041267737,0.05068659,0.0044994475,-0.037523054,0.0
1255158065,-0.024317,0.052633636,-0.00018082869,0.050629828,0.004521705,-0.03764642,0.0
1255190075,-0.030311082,0.05134069,-0.000555961,0.05058607,0.004534345,-0.037755955,0.0
1255226103,-0.033062562,0.06606385,-0.0016457363,0.050540373,0.004532316,-0.037862185,0.0
1255258045,-0.033612482,0.061306432,-0.0037460234,0.050513286,0.00452509,-0.037925795,0.0
1255290068,-0.023095123,0.05251293,-0.0068050227,0.05048421,0.004520382,-0.037990402,0.0
1255322039,-0.026484886,0.044303454,-0.0110110305,0.05045262,0.0044951765,-0.0380124,0.0
1255354066,-0.009115685,0.06720048,-0.021562843,0.050418083,0.004455435,-0.03801859,0.0
1255386055,-0.012834543,0.049537666,-0.017499683,0.050386526,0.0044142753,-0.038000606,0.0
1255418051,0.006384682,0.04234586,-0.021844076,0.050341647,0.004366567,-0.03796569,0.0
1255450046,-0.0053429324,0.031337492,-0.017601315,0.05030017,0.00433005,-0.037915997,0.0
1255482106,-0.021544,0.029128285,-0.020895524,0.050283395,0.004300727,-0.0378621,0.0
1255514049,-0.027007084,0.0065322276,-0.021577246,0.05027673,0.0042862603,-0.03779997,0.0
1255546058,-0.020834548,-0.005376732,-0.02200505,0.050280213,0.004295057,-0.03773394,0.0
1255578052,-0.039116945,-0.023069415,-0.017665733,0.050303813,0.0043058516,-0.037660107,0.0
1255610129,-0.049169376,-0.018198824,-0.020437337,0.050360642,0.0043197963,-0.037580512,0.0
1255642038,-0.049758464,-0.0038764402,-0.02312467,0.05044827,0.0043323706,-0.03746858,0.0
1255674100,-0.052491903,-0.004603451,-0.025175411,0.05054447,0.0043714577,-0.037335247,0.0
1255706051,-0.04099266,-0.007173082,-0.021256732,0.050643366,0.0044230227,-0.037197825,0.0
1255738142,-0.035184346,-0.025830947,-0.023360329,0.05073422,0.0044685984,-0.037031673,0.0
1255770058,6.705895e-05,-0.0015085619,-0.02147025,0.050808456,0.00448725,-0.03685824,0.0
1255802098,0.019944206,0.010646751,-0.021612067,0.05086846,0.004495524,-0.0367217,0.0
1255834043,0.006057862,0.01808723,-0.021743173,0.050938267,0.004513068,-0.036578264,0.0
1255866111,-0.0087841265,0.0114683565,-0.01933062,0.051060475,0.0045523066,-0.036455438,0.0
1255898038,-0.025215335,-0.014861975,-0.008884522,0.051213235,0.0046043713,-0.0363401,0.0
1255926114,-0.012199907,-0.048583202,-0.0044684107,0.05134739,0.0046828394,-0.03626677,0.0
1255958053,0.024511395,-0.0673046,-0.003915597,0.05149418,0.0048542307,-0.036222868,0.0
1255990096,0.013777389,-0.08874833,-0.0013677302,0.051639903,0.005097818,-0.03619261,0.0
1256022049,-0.0023486484,-0.082276486,0.012472199,0.05180646,0.0053440933,-0.0362228,0.0
1256054110,0.012656558,-0.05368176,0.014161968,0.05198344,0.0055644973,-0.036284026,0.0
1256086036,0.02569956,-0.047079213,0.02002976,0.052166216,0.0057728174,-0.036381874,0.0
1256118034,0.06775403,-0.019606534,0.024641642,0.05229882,0.005960352,-0.036492612,0.0
1256150050,0.09879768,0.024905182,0.02120387,0.052387297,0.0061212946,-0.036618844,0.0
1256182167,0.103129685,0.048922382,0.014113644,0.052463856,0.0062610684,-0.036762014,0.0
1256214052,0.10202028,0.0058595315,0.02475197,0.052522324,0.0064169774,-0.036946535,0.0
1256246041,0.09721944,-0.04342638,0.03587906,0.052565422,0.0066406894,-0.037170794,0.0
1256278044,0.12839657,-0.028897295,0.03041534,0.052579585,0.0068871393,-0.037416205,0.0
1256310095,0.11500987,-0.010826569,0.025310498,0.052603688,0.0071432684,-0.037672576,0.0
1256342039,0.079516314,-0.025135128,0.025316892,0.05266725,0.0074143163,-0.037935942,0.0
1256374052,0.07234454,-0.031841777,0.032503437,0.052754354,0.0077008815,-0.03821955,0.0
1256406044,0.060872212,-0.0227854,0.03599906,0.052856483,0.008006023,-0.03851748,0.0
1256438093,0.07832801,0.012449142,0.025461115,0.05296388,0.0083062,-0.03881643,0.0
1256470103,0.0605612,-0.003664473,0.028230272,0.053054586,0.008625031,-0.039137598,0.0
1256502038,0.07306255,0.006143138,0.0255141,0.05311262,0.008915937,-0.039462037,0.0
1256534078,0.08027221,0.016284555,0.032820143,0.053151634,0.00919463,-0.039792646,0.0
1256566104,0.101990215,0.013185555,0.027287863,0.05315897,0.009482632,-0.040132165,0.0
1256598123,0.1397277,0.008848602,0.019455817,0.053118333,0.009798669,-0.040476907,0.0
1256630052,0.10272399,0.026556343,0.025999356,0.05306384,0.010111765,-0.04082548,0.0
1256662090,0.052135855,0.06556618,0.02885466,0.05305454,0.01037248,-0.041194435,0.0
1256694060,0.047956664,0.10140153,0.019749776,0.053096995,0.010578286,-0.041530587,0.0
1256726101,0.0402646,0.10370633,0.012719877,0.053167053,0.010740941,-0.041865032,0.0
1256758049,-0.0038123447,0.13234138,0.010123489,0.053271618,0.010862664,-0.04216188,0.0
1256790048,-0.015845597,0.13688903,0.0058701164,0.053397793,0.010971712,-0.04242228,0.0
1256822064,-0.016245946,0.09585845,-0.002391836,0.053541753,0.0110822115,-0.04265462,0.0
1256854091,0.0012592934,0.08810837,-0.012200676,0.053698167,0.011192996,-0.042850234,0.0
1256886035,0.031640977,0.09341892,-0.017916426,0.053822044,0.0112931905,-0.042965744,0.0
1256918035,0.04972496,0.07331416,-0.022562742,0.053874467,0.011420706,-0.043046806,0.0
1256950069,0.075128555,0.07953642,-0.038433798,0.053878583,0.011532004,-0.043045357,0.0
1256982108,0.070520505,0.05395195,-0.03179621,0.05384874,0.011645485,-0.04302078,0.0
1257014049,0.10648672,0.10182496,-0.05059198,0.053778954,0.0117334165,-0.04292722,0.0
1257046038,0.09997326,0.07950805,-0.04368039,0.053686887,0.011824322,-0.04279521,0.0
1257078104,0.10527437,0.04691102,-0.046236597,0.053549904,0.01192215,-0.04263945,0.0
1257110074,0.07891882,0.0022916496,-0.047898497,0.05338922,0.012063479,-0.04246251,0.0
1257142051,0.054547988,-0.0033073649,-0.04617367,0.053256225,0.012261803,-0.042284667,0.0
1257174055,0.019386798,-0.002847094,-0.042272165,0.053175736,0.012481656,-0.042114217,0.0
1257206237,-0.003971949,-0.021575239,-0.043989092,0.05315674,0.012720006,-0.041935436,0.0
1257238078,-0.044688247,-0.049869046,-0.038521,0.05318514,0.012992227,-0.04173445,0.0
1257270089,-0.040977173,-0.007504495,-0.042762514,0.053245377,0.013260324,-0.04152033,0.0
1257302052,-0.06062018,0.008338157,-0.038586147,0.053319372,0.013502564,-0.041310564,0.0
1257334115,-0.04496094,0.02057805,-0.030985687,0.05341421,0.013723129,-0.04114366,0.0
1257366110,-0.016942255,0.026159922,-0.025115365,0.05350593,0.01393407,-0.0410073,0.0
1257398080,-0.016908806,0.024109552,-0.011142694,0.05357011,0.014139238,-0.04093269,0.0
1257430045,0.0031579714,0.04584217,-0.006022463,0.05360288,0.014317657,-0.040897544,0.0
1257462036,0.019678012,0.056708157,-0.0027851767,0.05361468,0.014464133,-0.04089145,0.0
1257494079,0.04065983,0.07219281,-8.465156e-05,0.053599887,0.014563511,-0.04089673,0.0
1257526035,0.05728168,0.10590671,-0.0036011501,0.05355513,0.014616784,-0.040897757,0.0
1257558038,0.012606919,0.08855504,-0.0015451196,0.053527623,0.014664081,-0.040900953,0.0
1257590049,0.014395012,0.06953861,-0.0009766013,0.053524096,0.014706695,-0.04089014,0.0
1257622103,0.0023778602,0.039719958,-0.0039661136,0.05353121,0.014763704,-0.04084933,0.0
1257654045,0.012881075,0.07332285,-0.00802122,0.053547848,0.014809234,-0.04080473,0.0
1257686034,-0.010576615,0.058966827,-0.0110531915,0.053584956,0.014862989,-0.040754344,0.0
1257718035,-0.0037592184,0.028176378,-0.0037006116,0.05363255,0.0149333915,-0.040719837,0.0
1257750110,0.02714257,0.030952627,-0.012594624,0.053652436,0.015002447,-0.040661823,0.0
1257782057,0.021807075,0.0023835804,-0.0058998764,0.05364812,0.015079605,-0.04060363,0.0
1257814043,0.0053936616,-0.012620773,-0.006715729,0.053628024,0.015163715,-0.040544737,0.0
1257846060,0.015630558,-0.004002774,-0.007007391,0.05363213,0.015251873,-0.040485397,0.0
1257878134,-0.013749823,-0.049021207,0.0047696554,0.053659867,0.015356726,-0.04046229,0.0
1257910031,-0.006405426,-0.010836905,0.003498318,0.053710442,0.015460685,-0.04043147,0.0
1257942073,-0.04181008,-0.027720721,0.004789196,0.053802602,0.015581104,-0.040430333,0.0
1257974045,-0.03290157,-0.03220979,0.0120563,0.053927094,0.015717635,-0.040478554,0.0
1258006129,-0.020153271,-0.02097376,0.0113563975,0.054061916,0.015825352,-0.04055437,0.0
1258038037,-0.006057732,-0.001099199,0.0069995294,0.054177165,0.015897399,-0.040613964,0.0
1258070116,-0.020861289,-0.0378612,0.012141199,0.05427843,0.015968923,-0.040678058,0.0
1258102031,0.022618964,-0.024312489,0.009357668,0.05435371,0.01605696,-0.040723413,0.0
1258134126,0.010060848,-0.018817369,0.010465358,0.054419775,0.016138468,-0.040777203,0.0
1258166077,-0.00040148012,-0.0061423704,0.014731398,0.054502677,0.016195789,-0.040828526,0.0
1258198056,0.04383903,0.015378648,-0.00075194775,0.05455854,0.016212344,-0.04083933,0.0
1258230042,0.06324016,0.006993415,-0.0074699977,0.05456924,0.016227977,-0.040841267,0.0
1258262068,0.0837484,0.019335298,-0.0030893835,0.05452984,0.016235502,-0.040831406,0.0
1258294068,0.0847654,0.023198066,-0.00602624,0.054448225,0.01623684,-0.0407979,0.0
1258326048,0.06250438,-0.017968033,-0.0010935811,0.05433774,0.016245551,-0.040761553,0.0
1258358040,0.0806033,-0.038167074,-0.008866392,0.054214556,0.01626352,-0.040705632,0.0
1258390073,0.06429656,-0.058879033,-0.0066772555,0.05408875,0.01631257,-0.040641956,0.0
1258422101,0.034101732,-0.074336976,-0.008673269,0.0539712,0.016406788,-0.040561493,0.0
1258454037,0.023750896,-0.06121366,-0.012290395,0.053870816,0.016536433,-0.040461615,0.0
1258486047,0.012241762,-0.06462177,-0.011098325,0.053775806,0.016661922,-0.04035854,0.0
1258518051,-0.02336172,-0.06892389,-0.0073627667,0.0537126,0.016791932,-0.040256083,0.0
1258550139,-0.028280437,-0.064058244,-0.011047772,0.053676423,0.016914554,-0.040135257,0.0
1258582042,0.008147594,-0.03329609,-0.016243944,0.05362728,0.01702732,-0.040014636,0.0
1258614072,-0.010326007,-0.029599695,-0.0057452973,0.053567696,0.017142363,-0.039912112,0.0
1258646105,-0.017631616,-0.00052192993,-0.0023465813,0.053507753,0.017217979,-0.03982197,0.0
1258678106,-0.044006266,-0.037331115,-0.004436224,0.053452186,0.017287932,-0.039739054,0.0
1258710037,-0.008138325,-0.04140693,-0.011785619,0.053399596,0.017372943,-0.03963916,0.0
1258742084,-0.010838637,-0.029062835,-0.008310304,0.053337093,0.017481484,-0.039544333,0.0
1258774079,-0.052256368,-0.03154384,-0.0026571057,0.053296365,0.017607983,-0.0394554,0.0
1258806126,-0.047207706,-0.045266263,-0.0037326242,0.05326834,0.017744146,-0.03936208,0.0
1258838035,-0.022284973,-0.0753063,-0.005320025,0.05322521,0.017893193,-0.03926093,0.0
1258870035,-0.004069837,-0.061768405,-0.0026693712,0.05314978,0.018056547,-0.03917364,0.0
1258902063,0.009224211,-0.04503096,-0.0049129003,0.053032972,0.01823058,-0.039065886,0.0
1258934078,0.013820062,-0.03872646,-0.0044938596,0.052893564,0.018407654,-0.038960665,0.0
1258966045,0.038461145,-0.03537832,-0.0030873045,0.052710023,0.018565478,-0.038853616,0.0
1258998049,0.052787438,-0.009372141,-0.0037240041,0.052488763,0.018697375,-0.038764056,0.0
1259030068,0.051055253,-0.007871067,0.0019592417,0.05223407,0.018815223,-0.03869221,0.0
1259062063,0.05240043,0.01911522,0.00011958562,0.05196808,0.018909939,-0.03862895,0.0
1259094034,0.034355562,0.041258663,0.0016623621,0.051729135,0.018987969,-0.03857827,0.0
1259126054,-0.020122588,0.0068314,0.0030945665,0.05151922,0.019071361,-0.038508292,0.0
1259158051,-0.020601,-0.0022213496,-0.00025081105,0.05132621,0.019168874,-0.038451415,0.0
1259190108,-0.056554668,0.01368239,0.0018353929,0.05116275,0.01926091,-0.038403545,0.0
1259222077,-0.09586377,0.04377434,-0.002028696,0.05106852,0.019314673,-0.038321827,0.0
1259254042,-0.12819207,0.034843706,0.004465403,0.051051307,0.019344725,-0.038258065,0.0
1259286089,-0.16612293,0.008692658,0.006932516,0.051103484,0.019364985,-0.038208716,0.0
1259318101,-0.19807735,0.026662832,0.0011552658,0.051231742,0.019372316,-0.038155757,0.0
1259350139,-0.1994785,0.034245133,0.002076944,0.05141204,0.019378306,-0.038102053,0.0
1259382042,-0.1912346,0.035379104,0.0010477279,0.051625077,0.01936852,-0.038040318,0.0
1259414097,-0.17856628,0.021906784,0.006533927,0.051850244,0.01934764,-0.03798602,0.0
1259446077,-0.14171991,0.024980444,-0.00129693,0.05205133,0.019313429,-0.037926488,0.0
1259478034,-0.079239056,0.03485379,0.004398749,0.052212507,0.019276347,-0.037873246,0.0
1259510035,-0.054929256,0.032496154,0.005641242,0.05233207,0.01922956,-0.037846968,0.0
1259542049,-0.057842504,0.0151352845,0.014750586,0.052443363,0.019179378,-0.037830897,0.0
1259574104,-0.045933463,-0.0057103448,0.0070228702,0.052540712,0.019139236,-0.037807927,0.0
1259606072,-0.015674924,-0.019726522,0.010241424,0.052619483,0.019131908,-0.037810784,0.0
1259638046,-0.01340583,-0.047775462,0.011930019,0.05268496,0.01916272,-0.037816994,0.0
1259670053,-0.0074853953,-0.051967163,0.017092168,0.05274665,0.019223724,-0.037847612,0.0
1259702054,-0.025075346,-0.07033298,0.012321743,0.05280813,0.019312002,-0.0378805,0.0
1259734084,-0.007924685,-0.083492175,0.011783016,0.05287787,0.019420154,-0.03792321,0.0
1259766069,0.0028336924,-0.09152374,0.011314751,0.052935243,0.0195416,-0.03796055,0.0
1259798043,0.008770981,-0.06561023,0.010480287,0.052982498,0.019663723,-0.037991155,0.0
1259830109,-0.016724486,-0.067643695,0.009468531,0.05304306,0.019801896,-0.038021836,0.0
1259862081,0.0066940365,-0.06184282,0.0043996125,0.05309722,0.019929225,-0.03802448,0.0
1259894066,-0.026041396,-0.08463596,0.002522166,0.053163048,0.020063745,-0.038007468,0.0
1259926044,-0.024244163,-0.06582705,0.0002778831,0.053241786,0.020198872,-0.037979167,0.0
1259958115,-0.013619574,-0.049818326,0.00047222327,0.05331737,0.020331834,-0.03793025,0.0
1259990101,-0.0034321975,-0.039342076,-0.003658065,0.05339343,0.020458462,-0.03787768,0.0
1260022099,0.020667797,-0.01969292,-0.004718617,0.053457312,0.020582227,-0.03782455,0.0
1260054040,0.018285356,-0.03050224,-0.0061330716,0.053515494,0.020707969,-0.037767045,0.0
1260086084,0.02438146,-0.032656725,-0.0033713893,0.05355167,0.020830287,-0.03771161,0.0
1260118107,0.027991436,-0.056614034,-0.002705097,0.05357356,0.020972857,-0.037641,0.0
1260150048,0.029612057,-0.051175132,0.004604998,0.05358828,0.021139923,-0.037598837,0.0
1260182067,0.029269388,-0.044360314,-0.0021620917,0.053593915,0.021316454,-0.037558425,0.0
1260214049,0.036419448,-0.035638604,-0.0048528556,0.053607784,0.021500353,-0.03753211,0.0
1260246104,0.030034777,-0.016304752,-0.002761821,0.053625338,0.021658663,-0.037507564,0.0
1260278035,-0.0052031074,-0.021385923,0.0044497997,0.053668853,0.021807868,-0.03749092,0.0
1260310031,-0.021496315,-0.026039016,0.009398892,0.053736027,0.0219677,-0.037494443,0.0
1260342067,-0.02755209,-0.03307677,0.005920799,0.05382121,0.02213244,-0.037486885,0.0
1260374077,-0.025125584,-0.0110621285,0.0039680446,0.05393212,0.022285912,-0.037485454,0.0
1260406046,0.00016105548,0.0200304,0.0010431322,0.054047454,0.022422746,-0.037488285,0.0
1260438050,-0.015745176,0.015185667,0.015479149,0.054170303,0.022570025,-0.037530437,0.0
1260470038,-0.020029226,0.02490049,0.0132714845,0.054291695,0.022695698,-0.037584744,0.0
1260502068,-0.038632438,0.026673026,0.015002182,0.054439582,0.022794513,-0.037627768,0.0
1260534040,-0.049255684,0.02428259,0.008692584,0.054618206,0.022879332,-0.03766985,0.0
1260566063,-0.048502438,0.013787154,0.0067159343,0.054824065,0.022973524,-0.0377119,0.0
1260598035,-0.0252261,0.016288472,0.010259009,0.055023156,0.023074927,-0.0377451,0.0
1260630115,-0.017148534,0.04179785,0.006665875,0.055212017,0.023174934,-0.037803404,0.0
1260662061,-0.025132256,0.043601118,0.0077019683,0.055417456,0.023272345,-0.037868433,0.0
1260694078,-0.011384146,0.035754804,0.0042197243,0.05563723,0.02334975,-0.037922457,0.0
1260726034,-0.011135373,0.025541509,0.0057959794,0.055869367,0.023418132,-0.037975334,0.0
1260758122,0.014374011,0.031700656,0.014157911,0.056084987,0.02348613,-0.03805327,0.0
1260790037,0.04666081,0.03663317,0.010895518,0.056246616,0.023560034,-0.03814765,0.0
1260822107,0.04910448,8.220039e-05,0.014424327,0.056342974,0.0236686,-0.038221102,0.0
1260854036,0.0930863,-0.0056033246,0.00840415,0.056376576,0.023798509,-0.038301293,0.0
1260886074,0.122960635,-0.022749465,0.011288953,0.056357913,0.02393721,-0.03839839,0.0
1260918034,0.15609774,0.0077627134,0.0046764226,0.056278042,0.024048738,-0.038477074,0.0
1260950038,0.13572368,-0.0078656,0.009603164,0.056167774,0.024182988,-0.03856721,0.0
1260982039,0.14944476,0.016951397,0.0047912756,0.056025896,0.024319496,-0.038629685,0.0
1261014084,0.12621891,0.01779207,-0.0013612894,0.055877883,0.024466507,-0.03868443,0.0
1261046091,0.10303246,-0.003108194,-0.008556328,0.05573303,0.024630621,-0.03868797,0.0
1261078035,0.105194844,-0.01221201,-0.01389739,0.055559307,0.024809524,-0.038654886,0.0
1261110095,0.119761735,0.006287722,-0.02065803,0.055337064,0.024979487,-0.038584087,0.0
1261142065,0.11946659,0.0327447,-0.023202557,0.055073496,0.025140515,-0.03848075,0.0
1261174101,0.09875894,0.057243332,-0.027110795,0.05478277,0.025285982,-0.038349025,0.0
1261206045,0.075795874,0.027778964,-0.020542733,0.054506235,0.025430048,-0.03821926,0.0
1261238079,0.059525967,-0.0025844276,-0.013633923,0.05422367,0.025593854,-0.03812223,0.0
1261270078,0.06652737,0.027886849,-0.01727462,0.05393404,0.025788747,-0.038031816,0.0
1261302138,0.029171564,0.023257682,-0.008384274,0.053637322,0.0259995,-0.037959363,0.0
1261334038,0.010972248,0.041001644,-0.013715711,0.053339798,0.02619378,-0.037871495,0.0
1261366077,-0.004460577,0.05908654,-0.01316385,0.053050965,0.026359333,-0.037793446,0.0
1261398073,-0.026395848,0.06781632,-0.010808148,0.0527754,0.026493816,-0.03771475,0.0
1261430135,0.00936902,0.075993836,-0.013196353,0.052474163,0.02659734,-0.037635095,0.0
1261462037,-0.012246292,0.054110028,-0.008108377,0.05215031,0.026718726,-0.037569795,0.0
1261494039,-0.051478475,0.060372766,-0.004965624,0.05184244,0.026862854,-0.03750881,0.0
1261526065,-0.053603657,0.025020208,-0.0013174374,0.051556986,0.027026517,-0.037473578,0.0
1261558077,-0.039515935,0.011765547,0.0014143437,0.051261265,0.027204067,-0.03745725,0.0
1261590036,-0.059424363,0.021479625,0.0061492873,0.050958704,0.027392823,-0.037469413,0.0
1261622030,-0.08091621,0.04788979,0.00559232,0.050667044,0.027573887,-0.037478186,0.0
1261654044,-0.09031676,0.061878547,0.009287835,0.050398324,0.027691254,-0.03749167,0.0
1261686100,-0.11642864,0.04943806,0.0022590084,0.050170705,0.027780624,-0.03751246,0.0
1261718032,-0.11161752,0.016197301,0.0019544694,0.04998118,0.02790836,-0.037529062,0.0
1261750032,-0.11831534,-0.0025466736,0.009398094,0.04981378,0.028108276,-0.037555024,0.0
1261782108,-0.15814076,-0.019807903,0.0019718802,0.049688425,0.0283751,-0.03757936,0.0
1261814117,-0.19768062,-0.07809758,0.0031994563,0.04963078,0.02869728,-0.03759742,0.0
1261846046,-0.20080537,-0.058020663,0.00096125633,0.049650244,0.029041946,-0.037620865,0.0
1261878045,-0.17785446,-0.0025231224,0.009715481,0.049694438,0.029362623,-0.037639692,0.0
1261910094,-0.11754787,0.11103445,0.0020043843,0.049664427,0.029510885,-0.03766381,0.0
1261942071,-0.073074214,0.22690879,0.00468885,0.049548104,0.029404858,-0.03767727,0.0
1261974107,0.0067265183,0.278551,0.0018942486,0.049311038,0.029123224,-0.037694085,0.0
1262006041,0.056194916,0.26083997,-0.0018464283,0.04897369,0.02877437,-0.03770021,0.0
1262038080,0.07765682,0.25068218,-0.0051005883,0.048565406,0.028404806,-0.037659932,0.0
1262070060,0.089946955,0.22079977,-0.015540153,0.048096284,0.028028868,-0.03758419,0.0
1262102096,0.04920357,0.11340825,-0.010539423,0.04761657,0.027687153,-0.0374928,0.0
1262134054,0.028317548,0.044964246,-0.016052926,0.047163542,0.027428146,-0.03738097,0.0
1262166043,0.005352393,0.027143514,-0.023818977,0.046754178,0.027234685,-0.037241217,0.0
1262198107,-0.017273288,-0.004720291,-0.021692533,0.046367653,0.027085437,-0.03708859,0.0
1262230039,-0.02937003,-0.026885727,-0.021546341,0.045977566,0.026940862,-0.036908843,0.0
1262262044,-0.058460616,-0.03660367,-0.022611732,0.04560026,0.0267913,-0.03673405,0.0
1262294040,-0.07917135,-0.056662988,-0.017415354,0.045254577,0.02664832,-0.03655913,0.0
1262326093,-0.061414663,-0.025499796,-0.018728215,0.044926517,0.026503958,-0.036396835,0.0
1262358034,-0.081781134,-0.026876003,-0.013158414,0.04461493,0.026351005,-0.03623776,0.0
1262390043,-0.10335166,-0.06225479,-0.0053308927,0.0443158,0.026193658,-0.036115017,0.0
1262422031,-0.1033044,-0.05892986,-0.011614121,0.04404278,0.026031423,-0.036000974,0.0
1262454097,-0.12209066,-0.04285405,-0.008415599,0.043816105,0.025868056,-0.0358986,0.0
1262486035,-0.118598044,-0.051514566,-0.002233623,0.04361112,0.025710423,-0.035804465,0.0
1262518043,-0.12908038,-0.08797513,-0.0006897427,0.04342225,0.025561765,-0.035728652,0.0
1262550055,-0.13686773,-0.0780193,-0.0022734415,0.043257333,0.0254182,-0.035649076,0.0
1262582229,-0.1219651,-0.085827425,-0.004756329,0.04312111,0.025298232,-0.03555931,0.0
1262614038,-0.12896828,-0.11213669,-0.0065376977,0.043004118,0.025196385,-0.035446804,0.0
1262646093,-0.10750177,-0.11042268,-0.01149368,0.042887934,0.025108665,-0.035327666,0.0
1262678047,-0.10151746,-0.12368949,-0.008147979,0.042765863,0.025041917,-0.035211027,0.0
1262710099,-0.06307599,-0.095615044,-0.014196492,0.042642944,0.02498465,-0.035068236,0.0
1262742081,-0.09011256,-0.13183445,-0.005923562,0.042522892,0.024937414,-0.034932468,0.0
1262774090,-0.05408202,-0.13259287,-0.010564371,0.042389467,0.024909593,-0.0347939,0.0
1262806039,-0.049725965,-0.11361547,-0.0068151383,0.04225866,0.024893336,-0.034661308,0.0
1262838087,-0.041573703,-0.111164965,-0.00675286,0.04213849,0.02488464,-0.03452121,0.0
1262870066,-0.049670264,-0.12901697,-0.008017343,0.04201702,0.024887437,-0.034396846,0.0
1262902035,-0.043258358,-0.11106912,-0.008247126,0.0419063,0.024896614,-0.03426434,0.0
1262934041,-0.038980767,-0.089209154,-0.0036887315,0.041811883,0.024914177,-0.034145176,0.0
1262966058,-0.035694513,-0.111021765,-0.0028066619,0.04172737,0.02494045,-0.03402247,0.0
1262998083,-0.015551584,-0.0762189,-0.0044849706,0.041634575,0.02495338,-0.033910766,0.0
1263030046,-0.012402637,-0.069645144,-0.0018488853,0.041534092,0.024965608,-0.033800688,0.0
1263062040,-0.014785072,-0.079901755,-0.0009887238,0.04142977,0.024968099,-0.03368529,0.0
1263094052,-0.00025163405,-0.05694043,-0.0065644025,0.041320182,0.024947433,-0.033570725,0.0
1263126120,0.0034584627,-0.06200312,-0.0012088788,0.04120205,0.024942866,-0.033464395,0.0
1263158037,0.012509668,-0.055300236,-0.0023106711,0.041089717,0.024936782,-0.033352133,0.0
1263190051,-0.003306087,-0.057323415,-0.0010252049,0.040992785,0.024939371,-0.03325056,0.0
1263222052,0.0012362301,-0.044804394,-0.0023056632,0.04089839,0.024938539,-0.033141878,0.0
1263254134,0.008987035,-0.03540351,-0.0033884668,0.040811714,0.024927149,-0.03302452,0.0
1263286035,0.010457173,-0.025596682,-0.0013562125,0.04073776,0.024913909,-0.032913916,0.0
1263318075,0.027322885,-0.02770018,-0.0029101435,0.040642314,0.024895752,-0.03280219,0.0
1263350070,0.043636356,-0.008548163,-0.0008751362,0.040525693,0.024866968,-0.032710798,0.0
1263382108,0.044866525,0.023806788,-0.0016889058,0.04039499,0.024811383,-0.032610673,0.0
1263414041,0.053338833,-0.0031901225,-0.00052526,0.040252786,0.024766902,-0.032506578,0.0
1263446088,0.058499694,-0.0335711,0.0019660015,0.04008975,0.024735944,-0.032404378,0.0
1263478039,0.09510626,0.018608801,-0.0018308442,0.039886724,0.024694318,-0.03231067,0.0
1263510130,0.075022206,-0.0025949646,0.007161372,0.039661404,0.024658343,-0.03223938,0.0
1263542046,0.090522125,-0.021224737,0.0066832793,0.03942431,0.02463503,-0.032191586,0.0
1263574036,0.07135923,-0.013394034,0.0070696506,0.039199524,0.024616286,-0.032142855,0.0
1263606045,0.05659513,-0.0017317925,0.011068154,0.038989395,0.024608094,-0.032104526,0.0
1263638058,0.0508037,0.013592446,0.009605408,0.03878944,0.024588412,-0.032076396,0.0
1263670038,0.037812524,0.009515708,0.010938306,0.038598597,0.024559757,-0.032063685,0.0
1263702039,0.046748623,0.012462692,0.009109901,0.03839811,0.024526898,-0.03204603,0.0
1263734036,0.055928156,0.01971601,0.010653376,0.038195174,0.024490224,-0.03203514,0.0
1263766097,0.034679122,0.038390607,0.010371887,0.03800081,0.024437625,-0.032024167,0.0
1263798038,0.029080475,0.03177389,0.007894991,0.037819304,0.024377001,-0.03201211,0.0
1263830047,0.013106138,0.02058319,0.010173766,0.037654053,0.024299636,-0.03200353,0.0
1263862043,0.025019776,0.06372053,0.0042473334,0.037485395,0.02419411,-0.0319863,0.0
1263894077,0.014705763,0.050867096,0.0076487726,0.037323467,0.024083886,-0.031958967,0.0
1263926122,0.019098293,0.024701213,0.007106588,0.037166473,0.023987057,-0.031930488,0.0
1263958042,0.024578858,0.026709968,-0.0017832057,0.036996756,0.023893116,-0.031883344,0.0
1263990090,0.03426315,0.018127616,0.0024428705,0.036811203,0.02381288,-0.03183998,0.0
1264022078,0.048011877,0.009111071,0.0026318945,0.036605064,0.023741681,-0.031798612,0.0
1264054117,0.044235036,0.015612891,-0.004682081,0.036389142,0.023684844,-0.031727903,0.0
1264086057,0.029724527,-0.0056953914,-0.0002309528,0.036185976,0.023641588,-0.031663336,0.0
1264118078,0.035989866,-0.010723393,-0.005181795,0.035981335,0.023610502,-0.03158508,0.0
1264150076,0.021045547,-0.011042118,-0.0022410434,0.035785045,0.023612257,-0.03150295,0.0
1264182133,0.009084925,-0.018982396,-0.0025481605,0.035594888,0.023626802,-0.03141314,0.0
1264214044,0.0091167325,-0.038087547,-0.0063361805,0.035414875,0.02364957,-0.031311456,0.0
1264246059,0.024636768,-0.02040278,-0.008429,0.0352381,0.023676196,-0.031206144,0.0
1264278070,0.015358264,-0.019055359,-0.00572139,0.035050604,0.02373895,-0.031098066,0.0
1264310058,0.024042506,-0.030495265,-0.0038870862,0.034852266,0.02381677,-0.03098429,0.0
1264342040,0.013152678,-0.01881638,-0.005498992,0.0346486,0.023878364,-0.03087653,0.0
1264374049,0.043542482,0.004031567,-0.0062809507,0.034433473,0.023932511,-0.03076437,0.0
1264406069,0.04931095,0.009799091,0.00039413676,0.034205273,0.023975885,-0.030668378,0.0
1264438084,0.052295588,0.028917193,-0.005331754,0.033953167,0.024004653,-0.03057702,0.0
1264470053,0.05516556,0.01889926,-0.0026814928,0.03367302,0.024034427,-0.030490873,0.0
1264502035,0.059709124,0.019672267,-0.00059707614,0.03337947,0.024077065,-0.030402627,0.0
1264534073,0.051746704,0.040320978,0.0030183378,0.033068463,0.024105158,-0.03032668,0.0
1264566105,0.065519035,0.044963107,0.0003246966,0.032748666,0.024116298,-0.03025667,0.0
1264598074,0.03997893,0.06345357,0.0009673875,0.032440692,0.024091044,-0.030200578,0.0
1264630032,0.011786873,0.093654595,0.003164559,0.03215132,0.02403103,-0.030148964,0.0
1264662117,-0.017741024,0.0732893,0.005994938,0.031903528,0.023963813,-0.030102933,0.0
1264694109,-0.0449173,0.08062879,0.007756997,0.031709164,0.023872504,-0.030073099,0.0
1264726080,-0.03876946,0.089455724,0.0026650645,0.031539034,0.023766449,-0.030049952,0.0
1264758038,-0.057834506,0.064756274,0.0076192017,0.031391855,0.023671377,-0.030029576,0.0
1264790137,-0.06454294,0.0809959,0.009919276,0.031258963,0.023558358,-0.030009817,0.0
1264822094,-0.072643384,0.07056853,0.0106358975,0.031139951,0.023425495,-0.030020831,0.0
1264854102,-0.05833435,0.07438135,0.013761913,0.031033184,0.023260083,-0.03004777,0.0
1264886041,-0.051763967,0.09271147,0.014711801,0.030935781,0.023084497,-0.030102005,0.0
1264918064,-0.072575495,0.06725057,0.018039199,0.030854022,0.022902038,-0.030175162,0.0
1264950068,-0.04350371,0.066753924,0.0125966985,0.030779913,0.022697343,-0.030244505,0.0
1264982044,-0.029253934,0.08427645,0.007766071,0.03068941,0.02244489,-0.030285917,0.0
1265014041,-0.024264535,0.0898251,0.016638137,0.03058217,0.022172596,-0.030351339,0.0
1265046042,-0.05115155,0.09345307,0.0056381044,0.030499099,0.021858685,-0.030392397,0.0
1265078073,-0.05769095,0.07485653,0.0076757274,0.030468367,0.021524528,-0.030422574,0.0
1265110028,-0.04185517,0.033334322,0.0014596462,0.030447165,0.021235047,-0.030430654,0.0
1265142063,-0.044986274,-0.0066835303,-0.0058036423,0.030432034,0.020993186,-0.030396996,0.0
1265174055,-0.063979,0.0012175199,-0.013259723,0.03043666,0.020769581,-0.030309198,0.0
1265206078,-0.083427384,-0.020241845,-0.022759646,0.030489765,0.020556936,-0.030171452,0.0
1265238057,-0.08952386,-0.07067429,-0.027022047,0.030605184,0.020385288,-0.029989123,0.0
1265270078,-0.09754157,-0.0526921,-0.03995231,0.030768294,0.0202164,-0.029719148,0.0
1265302038,-0.120449714,-0.028323552,-0.044800427,0.03098906,0.020033168,-0.029389814,0.0
1265334140,-0.16295663,-0.05800552,-0.04857705,0.031283166,0.019871712,-0.029007733,0.0
1265366044,-0.1574128,-0.08711862,-0.05708929,0.0316494,0.01974683,-0.028572332,0.0
1265398091,-0.1422751,-0.08633893,-0.05704908,0.03208903,0.019652225,-0.028093498,0.0
1265430034,-0.10511853,-0.08792863,-0.048462808,0.03254907,0.01960296,-0.027635373,0.0
1265462115,-0.10605841,-0.13333976,-0.043659862,0.033009075,0.019595038,-0.027207687,0.0
1265494038,-0.065962635,-0.15066276,-0.033829633,0.033449184,0.019627439,-0.02681332,0.0
1265526110,-0.02358468,-0.16054845,-0.028416341,0.033877555,0.019721612,-0.026450053,0.0
1265558036,0.0060384423,-0.18025625,-0.013989763,0.03429058,0.019879377,-0.026141535,0.0
1265590096,0.08361093,-0.15118258,-0.012617668,0.034633994,0.020058213,-0.025855942,0.0
1265622035,0.081458814,-0.16049519,-0.0063566407,0.034926675,0.020283025,-0.025604526,0.0
1265654035,0.097108565,-0.15384719,-0.0023266901,0.03519743,0.020517629,-0.025374506,0.0
1265686035,0.13970488,-0.110164925,-0.0073471256,0.035436116,0.020736955,-0.025160832,0.0
1265718076,0.15789993,-0.07415761,-0.00015425913,0.035650432,0.020942647,-0.0249648,0.0
1265750073,0.17084391,-0.054713603,0.0065076766,0.035829443,0.02112862,-0.024808401,0.0
1265782052,0.17666742,-0.032162763,0.0032321438,0.035973847,0.021291468,-0.024664098,0.0
1265814064,0.17607115,-0.00813416,0.007876941,0.03609723,0.021430345,-0.024527924,0.0
1265846064,0.18726148,0.011714105,0.009145714,0.036190912,0.021549463,-0.024397925,0.0
1265878110,0.17172779,-0.007741971,0.01154882,0.036264982,0.021662466,-0.024285926,0.0
1265910031,0.19110563,0.014468705,0.010423585,0.036313664,0.02176814,-0.024184912,0.0
1265942076,0.1914061,0.039412275,0.0128549095,0.03634611,0.021867696,-0.024115777,0.0
1265974062,0.16344744,0.070767716,0.016230876,0.03638289,0.021933783,-0.024072519,0.0
1266006132,0.11849367,0.09089228,0.01930841,0.036444224,0.02193032,-0.024040552,0.0
1266038038,0.12485315,0.12155689,0.02023105,0.0365191,0.021861473,-0.024028096,0.0
1266070088,0.12315705,0.12931916,0.022470336,0.036590144,0.021745931,-0.024037357,0.0
1266102071,0.10552086,0.15532617,0.025368635,0.036641616,0.021585457,-0.024067992,0.0
1266134148,0.071844846,0.15784094,0.017786834,0.036706015,0.021381093,-0.024084968,0.0
1266166057,0.044901118,0.12380447,0.02094886,0.03681622,0.021166397,-0.024105199,0.0
1266198097,0.08605208,0.12513144,0.017937029,0.036934685,0.020949045,-0.024129553,0.0
1266230062,0.089391075,0.10091293,0.01992275,0.037021063,0.020740077,-0.024163214,0.0
1266262080,0.077322416,0.09460941,0.023303727,0.037073266,0.020521335,-0.0242014,0.0
1266294031,0.0693396,0.09789313,0.017586417,0.0371109,0.020288808,-0.024239467,0.0
1266326035,0.052340787,0.070760444,0.023976283,0.037164517,0.02005902,-0.024307296,0.0
1266358071,0.037597943,0.043122314,0.024830008,0.03724666,0.01982091,-0.02437878,0.0
1266390072,0.036351603,0.039593346,0.015293815,0.03734512,0.019588707,-0.024443854,0.0
1266422044,0.0075285584,0.03807485,0.01750431,0.03746873,0.019364899,-0.024494033,0.0
1266454054,-0.0498113,0.0008000247,0.023514597,0.037650693,0.019164562,-0.024562102,0.0
1266486086,-0.036560535,-0.029052472,0.019536378,0.037865542,0.019007348,-0.024631275,0.0
1266518061,-0.013512552,-0.07544602,0.017306855,0.03806761,0.018911501,-0.024702558,0.0
1266550038,-0.0007586479,-0.093929365,0.020523855,0.038233798,0.018862825,-0.024791472,0.0
1266582053,0.011033334,-0.098984286,0.015077912,0.038376436,0.01886039,-0.024871437,0.0
1266614069,0.011515286,-0.11672816,0.020169511,0.03850028,0.018906528,-0.024958696,0.0
1266646068,0.056831863,-0.0680698,0.008136864,0.038592692,0.018938454,-0.025015144,0.0
1266678072,0.045445107,-0.074746706,0.015163361,0.038660303,0.0189472,-0.025088346,0.0
1266710036,0.031197438,-0.05690459,0.017756833,0.03871872,0.018926425,-0.025172137,0.0
1266742079,0.022572102,-0.026447874,0.01396916,0.038781524,0.018874358,-0.025260959,0.0
1266774120,0.0060431566,-0.016025271,0.015223539,0.038871475,0.018804805,-0.02536637,0.0
1266806239,0.013705148,-0.012584502,0.019620812,0.038973905,0.01872934,-0.025476694,0.0
1266838035,-0.019008843,-0.020610865,0.018522726,0.039086644,0.018669596,-0.025605496,0.0
1266870043,-0.044518262,-0.036135342,0.021475982,0.0392247,0.018623877,-0.025749333,0.0
1266902072,-0.017406333,-0.010529283,0.010921785,0.03935949,0.018560424,-0.02588437,0.0
1266934037,-0.025398506,-0.019058686,0.015034552,0.03949139,0.018485134,-0.026005967,0.0
1266966041,-0.024165744,-0.03506289,0.019202756,0.039633695,0.01843793,-0.026145164,0.0
1266998047,-0.0027133934,-0.0044610817,0.011429988,0.03975632,0.018398,-0.026271561,0.0
1267030095,-0.0027493034,-0.014904162,0.01266109,0.039842237,0.018352503,-0.026402159,0.0
1267062039,0.015771221,-0.019412825,0.010121473,0.03989245,0.01829661,-0.026514415,0.0
1267094028,0.020039916,-0.02870301,0.003892401,0.039915595,0.018244242,-0.026612196,0.0
1267126041,0.05391535,0.008464415,-0.0056124274,0.039907776,0.018167056,-0.026660094,0.0
1267158108,0.05147255,0.01046868,-0.0077357655,0.039868962,0.018098349,-0.026684457,0.0
1267190077,0.04065986,-0.014713023,-0.0114820255,0.03980666,0.018056437,-0.02666846,0.0
1267222038,0.03905815,-0.035794668,-0.01883974,0.03971674,0.018033868,-0.026604043,0.0
1267254044,0.040370815,-0.02710978,-0.028624754,0.03961492,0.018029392,-0.026486011,0.0
1267286122,0.005444629,-0.05195968,-0.028665558,0.039518345,0.018055286,-0.026333004,0.0
1267318062,0.006562365,-0.051299036,-0.029450059,0.03943561,0.018116826,-0.026159484,0.0
1267350064,-0.028543383,-0.057995427,-0.025364412,0.039387174,0.018205542,-0.025985952,0.0
1267382037,-0.06665246,-0.06930055,-0.015328135,0.03939114,0.01832868,-0.025850145,0.0
1267414117,-0.09070179,-0.07729569,-0.013512796,0.03942945,0.018477518,-0.025744518,0.0
1267446075,-0.086452715,-0.066116855,-0.015633127,0.03949233,0.01864908,-0.02564263,0.0
1267478079,-0.10293564,-0.06007093,-0.010783213,0.039593875,0.018840134,-0.025568593,0.0
1267510080,-0.1085362,-0.043746326,-0.0014355856,0.039717823,0.019032048,-0.025534736,0.0
1267542092,-0.09639613,-0.03747305,0.00083076797,0.039838973,0.019226562,-0.025524748,0.0
1267574090,-0.09148477,-0.020667203,0.008914021,0.03994802,0.0194197,-0.025560776,0.0
1267606038,-0.06263657,0.027672721,0.0103614945,0.040048722,0.019575657,-0.025612772,0.0
1267638045,-0.06343668,0.049003325,0.014747823,0.04013416,0.01967514,-0.02570808,0.0
1267670062,-0.042901106,0.06605947,0.017940674,0.04017995,0.019719508,-0.025806934,0.0
1267702071,-0.004135005,0.071333185,0.014969829,0.040176228,0.019738393,-0.025934068,0.0
1267734040,-0.0030557234,0.07419903,0.013956665,0.040135324,0.019752914,-0.026041154,0.0
1267766038,-0.004484482,0.09635168,0.006671616,0.040076006,0.019750249,-0.026124995,0.0
1267798095,-0.017044913,0.075862594,0.002070181,0.040021867,0.019752098,-0.026175074,0.0
1267830119,-0.03055434,0.04309137,0.0021281713,0.039980743,0.019762777,-0.026192764,0.0
1267862035,-0.031663224,0.03376382,-0.008046349,0.039939933,0.019787027,-0.026195405,0.0
1267894049,-0.032529533,0.046773333,-0.01469276,0.039905347,0.019831508,-0.02614861,0.0
1267926075,-0.054178454,0.03574364,-0.014157228,0.03988173,0.019890772,-0.026081996,0.0
1267958115,-0.03878995,0.003411416,-0.013849823,0.03985511,0.019980103,-0.025994018,0.0
1267990044,-0.047313713,-0.03245925,-0.012984633,0.039818525,0.020113708,-0.025914261,0.0
1268022099,-0.04845207,-0.004834598,-0.01742739,0.039785534,0.020261627,-0.025819896,0.0
1268054049,-0.07703497,0.015142994,-0.011356939,0.039773814,0.02039821,-0.025736673,0.0
1268086124,-0.08389577,-0.0008849129,-0.007116837,0.039794378,0.0205351,-0.025668515,0.0
1268118034,-0.08558098,-0.030049292,-0.0029138739,0.03981509,0.020684084,-0.02561334,0.0
1268150072,-0.05355484,0.021323338,-0.007835435,0.039820172,0.02081263,-0.025546541,0.0
1268182051,-0.055038616,0.05604993,-0.007059979,0.039806373,0.02090014,-0.02549173,0.0
1268214125,-0.061327074,0.058087826,0.00085511105,0.039802015,0.020944735,-0.02545983,0.0
1268246060,-0.035804212,0.049641524,-0.0009002954,0.039783165,0.020973513,-0.025437728,0.0
1268278046,-0.03246522,0.035247818,0.0019093333,0.03974358,0.021007031,-0.02541976,0.0
1268310042,-0.044011984,0.042484067,0.0013944147,0.039691385,0.021047268,-0.025409436,0.0
1268342112,-0.03938777,0.0567161,-0.0014210545,0.039654613,0.021090347,-0.025398891,0.0
1268374049,-0.055483148,0.027933592,0.0044439086,0.039633058,0.021130774,-0.02539101,0.0
1268406041,-0.040519517,0.03130925,0.0028252334,0.03960046,0.021167489,-0.025385996,0.0
1268438036,-0.02273573,0.029150628,-0.0012169403,0.039539415,0.02120778,-0.025364598,0.0
1268470096,-0.016825553,0.015697831,0.0006207749,0.039449617,0.021262806,-0.025353367,0.0
1268502061,-0.023283899,-0.002557598,0.004282811,0.03934084,0.021327121,-0.02534769,0.0
1268534036,-0.004969107,0.025767742,-0.0055682575,0.039231457,0.021391086,-0.025316289,0.0
1268566041,-0.029336696,-0.009263022,-0.006058641,0.039123215,0.021480067,-0.02526831,0.0
1268598078,-0.030114764,-0.034493975,-0.0031938297,0.03900837,0.021608345,-0.025214221,0.0
1268630134,-0.028215747,-0.018382277,-0.010285716,0.0389,0.021740682,-0.025133424,0.0
1268662032,-0.053502634,-0.0051795114,-0.0064153923,0.03881812,0.021866634,-0.025059974,0.0
1268694060,-0.07147849,0.004312193,-0.0077105192,0.038762357,0.02197607,-0.02497264,0.0
1268726095,-0.064547375,-0.013174025,-0.01055447,0.038726695,0.022087054,-0.02486985,0.0
1268758109,-0.06740442,-0.025072832,-0.0101467,0.03869025,0.022212757,-0.024778206,0.0
1268790042,-0.054701038,0.00067527965,-0.0059671463,0.038645778,0.022345625,-0.024688365,0.0
1268822141,-0.050921,-0.0003776569,-0.007149069,0.038589798,0.022496235,-0.024604645,0.0
1268854065,-0.04267489,-0.037440807,-0.0015491521,0.038517524,0.022675343,-0.024540685,0.0
1268886118,-0.024100171,-0.033876054,0.0015832424,0.038415343,0.022855742,-0.024487875,0.0
1268918043,-0.0060873423,0.005238559,-0.000964703,0.038292926,0.02302576,-0.024436554,0.0
1268950054,-0.022554904,0.002405975,0.0037372357,0.03816827,0.02320142,-0.024409115,0.0
1268982069,-0.034094535,-0.006664682,0.0065799374,0.03805171,0.023370016,-0.024393173,0.0
1269014089,-0.025764903,0.014772732,0.0093948385,0.037948903,0.023522936,-0.02439339,0.0
1269046073,-0.040020995,0.014426038,0.010474071,0.03785896,0.023667708,-0.02442331,0.0
1269078043,-0.041838143,0.02770887,0.01455166,0.037778568,0.02381437,-0.02445958,0.0
1269110064,-0.032917522,0.030536877,0.009508839,0.037700377,0.023950404,-0.024501426,0.0
1269142116,-0.04692754,0.02819156,0.008843304,0.037634574,0.024083726,-0.024542887,0.0
1269174062,-0.03526204,0.055987842,0.0059095738,0.03755911,0.024184069,-0.02456846,0.0
1269206039,0.0020097736,0.06590017,0.0014933002,0.03747929,0.024266826,-0.02458847,0.0
