timestamp,rollspeed,pitchspeed,yawspeed,q[0],q[1],q[2],q[3],delta_q_reset[0],delta_q_reset[1],delta_q_reset[2],delta_q_reset[3],quat_reset_counter
1244762829,8.9270994e-05,-0.0010593627,-0.00073999085,0.9984553,-9.455961e-05,0.0077032843,-0.055025313,0.9890102,-0.00087689876,0.0013584548,0.1478383,1
1244930858,0.00029618852,-0.0011622198,-9.784597e-05,0.9984537,-0.00019191376,0.0077332095,-0.05504972,0.9890102,-0.00087689876,0.0013584548,0.1478383,1
1244974745,0.0008155834,-0.00072702765,-0.0003240582,0.9984529,-0.00017721712,0.007730858,-0.055064496,0.9890102,-0.00087689876,0.0013584548,0.1478383,1
1245018797,0.0025348421,0.00021641888,-0.00022989282,0.99845207,-0.00014082363,0.007742678,-0.055078533,0.9890102,-0.00087689876,0.0013584548,0.1478383,1
1245062645,-0.035194024,-0.008208809,-0.016726766,0.9984496,-0.00014605648,0.007757113,-0.055120256,0.9890102,-0.00087689876,0.0013584548,0.1478383,1
1245102804,0.031440422,-0.0043806136,0.012071274,0.9984521,-8.671786e-05,0.0077443337,-0.05507673,0.9890102,-0.00087689876,0.0013584548,0.1478383,1
1245146770,-0.0012024082,-0.033843618,0.0001594587,0.9984512,-0.00025300536,0.0076672304,-0.05510403,0.9890102,-0.00087689876,0.0013584548,0.1478383,1
1245186818,-0.045253865,0.004060505,0.02251352,0.99845505,-0.0006972192,0.0075955708,-0.055040114,0.9890102,-0.00087689876,0.0013584548,0.1478383,1
1245230789,0.021263905,0.016704528,-0.04140225,0.9984327,-0.0016145245,0.0073115383,-0.055462252,0.9890102,-0.00087689876,0.0013584548,0.1478383,1
1245274526,-0.030544495,-0.0022180583,-0.026613947,0.9984558,-0.0033968585,0.0069547636,-0.055010922,0.9890102,-0.00087689876,0.0013584548,0.1478383,1
1245318740,-0.021358244,0.01002894,0.03855381,0.9984402,-0.004312011,0.007201013,-0.055198364,0.9890102,-0.00087689876,0.0013584548,0.1478383,1
1245362799,0.05186414,0.05797507,0.012314822,0.998455,-0.003734424,0.008005673,-0.054859806,0.9890102,-0.00087689876,0.0013584548,0.1478383,1
1245402789,0.11227187,0.057375833,-0.01050114,0.99845475,-0.002292546,0.0089405095,-0.054798625,0.9890102,-0.00087689876,0.0013584548,0.1478383,1
1245446770,0.07480944,0.03667624,0.0037099856,0.9984397,-0.00041119772,0.009696317,-0.054990947,0.9890102,-0.00087689876,0.0013584548,0.1478383,1
1245486629,0.045178607,-0.0017362926,-0.0030859115,0.99844354,0.0006444062,0.009692616,-0.05491927,0.9890102,-0.00087689876,0.0013584548,0.1478383,1
1245530773,-0.032563955,-0.027801001,0.0025550562,0.9984433,0.0005643958,0.0090865875,-0.05502934,0.9890102,-0.00087689876,0.0013584548,0.1478383,1
1245570774,-0.07017895,-0.0247255,-0.013344613,0.99845016,-0.0004255875,0.008240688,-0.055040136,0.9890102,-0.00087689876,0.0013584548,0.1478383,1
1245614745,-0.08750489,-0.028210765,0.0007636697,0.9984581,-0.0022084862,0.0072921254,-0.054986086,0.9890102,-0.00087689876,0.0013584548,0.1478383,1
1245658766,-0.06792494,-0.02631997,0.0037732618,0.9984574,-0.003750522,0.0066170325,-0.05500098,0.9890102,-0.00087689876,0.0013584548,0.1478383,1
1245702619,-0.004956985,0.02442922,-0.003526636,0.9984562,-0.004553371,0.0064265477,-0.0549839,0.9890102,-0.00087689876,0.0013584548,0.1478383,1
1245743067,-0.07298887,-0.056800947,-0.0023525828,0.9984546,-0.005248195,0.0061229332,-0.05498594,0.9890102,-0.00087689876,0.0013584548,0.1478383,1
1245786735,-0.21409932,-0.2702222,-0.012274867,0.9984384,-0.008496617,0.0034790724,-0.055104617,0.9890102,-0.00087689876,0.0013584548,0.1478383,1
1245826756,-0.7113499,-0.4697027,-0.035334416,0.9982906,-0.01762016,-0.002701489,-0.055661727,0.9890102,-0.00087689876,0.0013584548,0.1478383,1
1245870793,-0.94958574,-0.7619555,-0.0672802,0.9976421,-0.03632186,-0.0139344195,-0.056540374,0.9890102,-0.00087689876,0.0013584548,0.1478383,1
1245910618,-0.8658085,-0.41038498,-0.023348441,0.9964203,-0.05720833,-0.024776502,-0.057097107,0.9890102,-0.00087689876,0.0013584548,0.1478383,1
1245954824,-0.47205344,-0.21329024,-0.10761968,0.9948677,-0.07604254,-0.032794546,-0.058140203,0.9890102,-0.00087689876,0.0013584548,0.1478383,1
1245994760,0.16897292,0.37960842,-0.14773926,0.994219,-0.083625786,-0.031242684,-0.059660137,0.9890102,-0.00087689876,0.0013584548,0.1478383,1
1246038882,0.03707878,0.1550343,-0.014165987,0.9943566,-0.08351509,-0.0243885,-0.06070873,0.9890102,-0.00087689876,0.0013584548,0.1478383,1
1246078788,0.07766579,-0.033795193,0.05000315,0.9946395,-0.08085738,-0.022484016,-0.060406543,0.9890102,-0.00087689876,0.0013584548,0.1478383,1
1246122770,0.19292931,-0.069303446,0.08515252,0.9949383,-0.07779616,-0.023021175,-0.05929371,0.9890102,-0.00087689876,0.0013584548,0.1478383,1
1246162783,0.46134734,0.1691066,0.08784586,0.99554807,-0.07110869,-0.02178603,-0.057904597,0.9890102,-0.00087689876,0.0013584548,0.1478383,1
1246206772,0.8074015,0.41595683,0.06453214,0.99653363,-0.05839383,-0.018775266,-0.056200404,0.9890102,-0.00087689876,0.0013584548,0.1478383,1
1246246800,0.71782583,0.094247565,0.078908235,0.9973814,-0.04443014,-0.015560477,-0.05490208,0.9890102,-0.00087689876,0.0013584548,0.1478383,1
1246290730,0.6363119,0.106705606,0.03124525,0.9979695,-0.03167642,-0.012643356,-0.053793866,0.9890102,-0.00087689876,0.0013584548,0.1478383,1
1246330804,-0.003255628,0.021097967,0.082346305,0.9982182,-0.02609969,-0.010459823,-0.052629486,0.9890102,-0.00087689876,0.0013584548,0.1478383,1
1246374747,0.17090705,0.15051314,0.04351116,0.99841386,-0.02090448,-0.007597324,-0.05172259,0.9890102,-0.00087689876,0.0013584548,0.1478383,1
1246418821,-0.04981117,-0.11718255,0.12710579,0.9985835,-0.014759305,-0.004439233,-0.0509263,0.9890102,-0.00087689876,0.0013584548,0.1478383,1
1246462741,0.28742522,0.2554233,0.07361659,0.9987006,-0.00808729,-0.0006059873,-0.0503132,0.9890102,-0.00087689876,0.0013584548,0.1478383,1
1246502774,0.30954495,0.42158136,0.06105116,0.998758,-0.0029956303,0.0027046388,-0.049660176,0.9890102,-0.00087689876,0.0013584548,0.1478383,1
1246542785,0.28135112,0.25425243,0.036229618,0.998787,0.0025453952,0.005621168,-0.048852805,0.9890102,-0.00087689876,0.0013584548,0.1478383,1
1246586792,0.30335417,0.09354823,0.02009357,0.99874616,0.010588883,0.009122485,-0.048070632,0.9890102,-0.00087689876,0.0013584548,0.1478383,1
1246630764,0.23612589,0.027956191,0.02777288,0.998636,0.01878384,0.011993492,-0.047218062,0.9890102,-0.00087689876,0.0013584548,0.1478383,1
1246670796,0.3234939,0.07842264,0.100756966,0.9985125,0.0251322,0.013821378,-0.04637073,0.9890102,-0.00087689876,0.0013584548,0.1478383,1
1246714762,0.18123588,0.08934477,0.050061267,0.99834776,0.031239083,0.0155662885,-0.045647018,0.9890102,-0.00087689876,0.0013584548,0.1478383,1
1246754866,0.30412036,-0.06100741,-0.015447183,0.9981772,0.036383484,0.017212484,-0.04496947,0.9890102,-0.00087689876,0.0013584548,0.1478383,1
1246798563,0.37872535,0.13871092,-0.0016751296,0.9979911,0.041113712,0.019355139,-0.0441472,0.9890102,-0.00087689876,0.0013584548,0.1478383,1
1246838918,0.1495029,0.24081108,0.061341338,0.9978503,0.044372622,0.021145158,-0.04334612,0.9890102,-0.00087689876,0.0013584548,0.1478383,1
1246882756,0.05202937,-0.014161129,0.013402716,0.99767464,0.04777741,0.02334921,-0.04263241,0.9890102,-0.00087689876,0.0013584548,0.1478383,1
1246922791,0.0624426,0.11838262,-0.02101586,0.99747974,0.051005524,0.02585185,-0.04200377,0.9890102,-0.00087689876,0.0013584548,0.1478383,1
1246966736,0.17887202,0.30845815,0.046747133,0.997294,0.05395619,0.027991729,-0.04135004,0.9890102,-0.00087689876,0.0013584548,0.1478383,1
1247010829,0.21533313,0.3119697,0.041106716,0.9971483,0.05608258,0.029621007,-0.0408992,0.9890102,-0.00087689876,0.0013584548,0.1478383,1
1247050790,-0.10146411,-0.13472691,0.02638033,0.9970532,0.05754326,0.030365732,-0.040640168,0.9890102,-0.00087689876,0.0013584548,0.1478383,1
1247094758,0.07514103,-0.06823957,-0.046362534,0.99693817,0.05914982,0.031216344,-0.04051329,0.9890102,-0.00087689876,0.0013584548,0.1478383,1
1247134747,-0.09391176,-0.10034131,0.09233304,0.9969063,0.059636064,0.031616684,-0.040272735,0.9890102,-0.00087689876,0.0013584548,0.1478383,1
1247174814,0.15838122,-0.03417621,-0.043757785,0.99686974,0.06015751,0.03165004,-0.040374465,0.9890102,-0.00087689876,0.0013584548,0.1478383,1
1247218864,0.062206946,-0.06257372,-0.021281235,0.9968928,0.060118593,0.031049317,-0.040331084,0.9890102,-0.00087689876,0.0013584548,0.1478383,1
1247258796,-0.25940478,-0.0009300392,0.106681764,0.99696296,0.05961083,0.029891772,-0.040222943,0.9890102,-0.00087689876,0.0013584548,0.1478383,1
1247302786,0.0155497175,0.19563776,-0.0073853643,0.997025,0.059097514,0.028575314,-0.04040011,0.9890102,-0.00087689876,0.0013584548,0.1478383,1
1247342622,-0.15451555,-0.25441283,-0.036959704,0.99711615,0.058235746,0.027025755,-0.040468786,0.9890102,-0.00087689876,0.0013584548,0.1478383,1
1247386795,-0.02053863,-0.033529736,0.00061904686,0.99715596,0.05787141,0.026403403,-0.040420987,0.9890102,-0.00087689876,0.0013584548,0.1478383,1
1247426625,0.18877584,0.23117451,-0.0005472718,0.99721617,0.05709266,0.025940137,-0.040343314,0.9890102,-0.00087689876,0.0013584548,0.1478383,1
1247470789,0.15137456,0.089684114,-0.0019819706,0.9973129,0.05583915,0.024750063,-0.040453542,0.9890102,-0.00087689876,0.0013584548,0.1478383,1
1247514772,0.32852617,0.13612956,-0.10966458,0.99738485,0.055024173,0.023148788,-0.040742993,0.9890102,-0.00087689876,0.0013584548,0.1478383,1
1247554908,-0.1738101,-0.20263052,-0.05031115,0.9974657,0.05411172,0.021522317,-0.040875908,0.9890102,-0.00087689876,0.0013584548,0.1478383,1
1247594754,0.33485153,0.30484152,-0.08144421,0.9974183,0.054860257,0.02136497,-0.04111666,0.9890102,-0.00087689876,0.0013584548,0.1478383,1
1247638745,0.21263471,0.27548182,-0.04037456,0.99736774,0.055500977,0.02148248,-0.04142338,0.9890102,-0.00087689876,0.0013584548,0.1478383,1
1247682796,-0.07553926,-0.03155089,0.008039614,0.99730027,0.056478906,0.020957058,-0.04198948,0.9890102,-0.00087689876,0.0013584548,0.1478383,1
1247722737,-0.18702638,-0.30697018,-0.02568796,0.9972453,0.057266522,0.02021748,-0.042586487,0.9890102,-0.00087689876,0.0013584548,0.1478383,1
1247766761,-0.045951404,-0.13411503,0.0073613534,0.9972257,0.057438336,0.019226443,-0.043268446,0.9890102,-0.00087689876,0.0013584548,0.1478383,1
1247806722,-0.17098543,-0.25327417,0.029904535,0.9972677,0.056787353,0.017242458,-0.043990612,0.9890102,-0.00087689876,0.0013584548,0.1478383,1
1247846712,-0.018095797,-0.103763625,-0.055934783,0.99734133,0.05560122,0.014937654,-0.04467191,0.9890102,-0.00087689876,0.0013584548,0.1478383,1
1247886611,-0.15197413,-0.10298094,-0.014208797,0.99744916,0.053832565,0.012537334,-0.045167647,0.9890102,-0.00087689876,0.0013584548,0.1478383,1
1247926627,-0.00021152012,-0.03373339,-0.06077928,0.99756706,0.05174401,0.010084233,-0.04561616,0.9890102,-0.00087689876,0.0013584548,0.1478383,1
1247970629,-0.12810254,-0.16182852,0.017864782,0.99769956,0.04929572,0.0075523495,-0.045918744,0.9890102,-0.00087689876,0.0013584548,0.1478383,1
1248010622,-0.026628654,0.045541465,0.026634594,0.9977834,0.047569044,0.0058343387,-0.04616901,0.9890102,-0.00087689876,0.0013584548,0.1478383,1
1248054794,0.061541215,0.02385174,-0.03324543,0.997871,0.04563941,0.0044158474,-0.046381168,0.9890102,-0.00087689876,0.0013584548,0.1478383,1
1248094621,-0.0806151,-0.18914771,0.006486558,0.9979531,0.04382961,0.0036959331,-0.046421777,0.9890102,-0.00087689876,0.0013584548,0.1478383,1
1248134762,-0.019599048,-0.007502757,0.0060802856,0.9979998,0.042713203,0.0035688856,-0.04646804,0.9890102,-0.00087689876,0.0013584548,0.1478383,1
1248174751,0.019160977,0.079994194,0.055896077,0.99803764,0.04176192,0.003463079,-0.04652964,0.9890102,-0.00087689876,0.0013584548,0.1478383,1
1248218760,-0.10694245,0.017791558,-0.00480737,0.9981018,0.040228754,0.0028976246,-0.04654293,0.9890102,-0.00087689876,0.0013584548,0.1478383,1
1248258622,-0.096564285,0.07134773,-0.010473365,0.99815947,0.038900483,0.0022733202,-0.046468616,0.9890102,-0.00087689876,0.0013584548,0.1478383,1
1248302736,-0.074843034,0.120678425,0.037134938,0.9982262,0.037453372,0.0015685931,-0.04625277,0.9890102,-0.00087689876,0.0013584548,0.1478383,1
1248342939,-0.18763034,-0.06335654,0.021161681,0.9982917,0.035951175,0.00047208785,-0.04605473,0.9890102,-0.00087689876,0.0013584548,0.1478383,1
1248386631,0.019329298,0.06056345,-0.045443483,0.99835527,0.03440048,-6.632513e-05,-0.045864943,0.9890102,-0.00087689876,0.0013584548,0.1478383,1
1248426601,-0.16673972,-0.03206756,0.01989431,0.99842614,0.032749314,-0.0005104787,-0.045524325,0.9890102,-0.00087689876,0.0013584548,0.1478383,1
1248466752,0.0976932,-0.09147603,-0.03533769,0.99847025,0.031707346,-0.00084084336,-0.045291148,0.9890102,-0.00087689876,0.0013584548,0.1478383,1
1248510600,0.07984341,-0.16670084,0.020307407,0.99852765,0.030267544,-0.0011069344,-0.04500331,0.9890102,-0.00087689876,0.0013584548,0.1478383,1
1248550848,0.08776633,0.103400655,0.032826602,0.9985688,0.029145312,-0.0009531807,-0.04483617,0.9890102,-0.00087689876,0.0013584548,0.1478383,1
1248594721,-0.028615484,-0.049382,-0.023780834,0.99860483,0.027820947,-0.0011782469,-0.044867728,0.9890102,-0.00087689876,0.0013584548,0.1478383,1
1248634818,-0.10893715,-0.028955191,9.723923e-05,0.9986335,0.026695088,-0.00096062827,-0.044917487,0.9890102,-0.00087689876,0.0013584548,0.1478383,1
1248678595,0.08949657,0.10141442,-0.037256062,0.9986558,0.025493473,-0.0005999657,-0.045127235,0.9890102,-0.00087689876,0.0013584548,0.1478383,1
1248718798,0.17098832,0.07282407,-0.03896894,0.99868804,0.023927169,-0.0004767804,-0.045271017,0.9890102,-0.00087689876,0.0013584548,0.1478383,1
1248758676,-0.046732724,0.041543394,-0.05550197,0.99871254,0.022316707,-0.00036016235,-0.045554154,0.9890102,-0.00087689876,0.0013584548,0.1478383,1
1248802776,-0.50501823,-0.5022208,0.10259409,0.99874914,0.020402154,-0.00096036046,-0.04564098,0.9890102,-0.00087689876,0.0013584548,0.1478383,1
1248846630,-0.10668806,-0.120317005,0.04120693,0.9987439,0.019873317,-0.00029706207,-0.045998167,0.9890102,-0.00087689876,0.0013584548,0.1478383,1
1248886613,0.17638914,0.3368602,-0.11498223,0.99872655,0.01970123,0.00045174573,-0.046444893,0.9890102,-0.00087689876,0.0013584548,0.1478383,1
1248930748,-0.04007043,0.035087794,-0.0498281,0.99872524,0.019159779,0.0009790842,-0.046689343,0.9890102,-0.00087689876,0.0013584548,0.1478383,1
1248970826,-0.1650829,0.05915962,0.029391645,0.9987232,0.018621758,0.0016092738,-0.046932854,0.9890102,-0.00087689876,0.0013584548,0.1478383,1
1249014742,0.11297948,0.23133154,-0.072328776,0.9987078,0.018276725,0.0022827554,-0.047366075,0.9890102,-0.00087689876,0.0013584548,0.1478383,1
1249054768,-0.043828487,0.054961614,-0.0067727016,0.99871606,0.017299695,0.002392664,-0.047553346,0.9890102,-0.00087689876,0.0013584548,0.1478383,1
1249098713,-0.27631205,-0.05711165,0.04904595,0.99873096,0.01576905,0.002275932,-0.047776755,0.9890102,-0.00087689876,0.0013584548,0.1478383,1
1249138828,-0.24450962,-0.2307492,0.045220878,0.9987387,0.01453128,0.0019277091,-0.048021875,0.9890102,-0.00087689876,0.0013584548,0.1478383,1
1249178837,-0.0940296,-0.07199568,0.040151007,0.99874467,0.013402059,0.0019119289,-0.048227496,0.9890102,-0.00087689876,0.0013584548,0.1478383,1
1249218833,-0.37815306,-0.4262108,0.12675497,0.9987577,0.012130344,0.0016367523,-0.048304774,0.9890102,-0.00087689876,0.0013584548,0.1478383,1
1249262766,-0.030202992,-0.05718708,-0.0031739604,0.99875623,0.011425833,0.0019036285,-0.048496243,0.9890102,-0.00087689876,0.0013584548,0.1478383,1
1249306619,0.066356495,0.12090363,0.060156036,0.9987661,0.010777679,0.0020895542,-0.048433077,0.9890102,-0.00087689876,0.0013584548,0.1478383,1
1249350629,0.21166995,0.083464205,-0.107946835,0.99875975,0.010436752,0.0023707156,-0.04862654,0.9890102,-0.00087689876,0.0013584548,0.1478383,1
1249390624,-0.3758415,-0.2717927,0.076959416,0.9987751,0.009604485,0.002698308,-0.048462983,0.9890102,-0.00087689876,0.0013584548,0.1478383,1
1249430746,-0.15787017,-0.13762768,-0.02283484,0.99876744,0.009710836,0.0035396304,-0.048547965,0.9890102,-0.00087689876,0.0013584548,0.1478383,1
1249470713,0.030423015,0.22584954,-0.020995557,0.99876016,0.009889762,0.0048683546,-0.048546746,0.9890102,-0.00087689876,0.0013584548,0.1478383,1
1249514792,0.24743126,0.2240806,-0.09987645,0.9987489,0.01001533,0.005963579,-0.04863029,0.9890102,-0.00087689876,0.0013584548,0.1478383,1
1249554832,-0.19598274,-0.027889427,0.062527835,0.99875695,0.00958049,0.006647532,-0.048462827,0.9890102,-0.00087689876,0.0013584548,0.1478383,1
1249598724,-0.032224946,0.1768631,0.019471524,0.9987452,0.009722045,0.007984019,-0.04847485,0.9890102,-0.00087689876,0.0013584548,0.1478383,1
1249642777,0.1711474,0.32313228,0.008847239,0.99872565,0.0099850735,0.009494685,-0.048552427,0.9890102,-0.00087689876,0.0013584548,0.1478383,1
1249686608,0.12216218,0.20854262,-0.037100285,0.9987137,0.009908534,0.010231115,-0.048663653,0.9890102,-0.00087689876,0.0013584548,0.1478383,1
1249730765,0.13488062,0.13822488,-0.025212845,0.99870723,0.010027643,0.010708432,-0.04867012,0.9890102,-0.00087689876,0.0013584548,0.1478383,1
1249770776,0.16734992,0.06410442,-0.03533806,0.9986998,0.010227316,0.011096229,-0.048693895,0.9890102,-0.00087689876,0.0013584548,0.1478383,1
1251074745,0.02290738,-0.05479712,-0.081734575,0.9984694,0.016468262,0.015874637,-0.05035611,0.9890102,-0.00087689876,0.0013584548,0.1478383,1
1251114774,0.006067464,0.060185455,0.020867003,0.9984867,0.015979297,0.015196946,-0.05037962,0.9890102,-0.00087689876,0.0013584548,0.1478383,1
1252502781,-0.03451608,-0.08353025,-0.007502055,0.99727845,0.046705153,0.017850786,-0.05418167,0.9890102,-0.00087689876,0.0013584548,0.1478383,1
1252542752,0.01670514,-0.38249677,-0.111459464,0.99722385,0.04764842,0.016130932,-0.054899175,0.9890102,-0.00087689876,0.0013584548,0.1478383,1
1252586819,0.017942142,-0.14999251,-0.02440783,0.99717945,0.0482832,0.014842611,-0.055513095,0.9890102,-0.00087689876,0.0013584548,0.1478383,1
1252838797,0.100805335,-0.09469127,-0.026448462,0.99730986,0.044918977,-0.0003949964,-0.05792449,0.9890102,-0.00087689876,0.0013584548,0.1478383,1
1252878637,-0.24175699,-0.3170827,0.073783636,0.9973631,0.043659538,-0.0015138071,-0.05795363,0.9890102,-0.00087689876,0.0013584548,0.1478383,1
1252922787,-0.3845681,-0.31605724,0.08396038,0.99739265,0.0428519,-0.0020707657,-0.05802827,0.9890102,-0.00087689876,0.0013584548,0.1478383,1
1252962726,-0.09598725,-0.11156407,-0.07634104,0.99739933,0.04244721,-0.0019874894,-0.058215134,0.9890102,-0.00087689876,0.0013584548,0.1478383,1
1253006822,0.0060825776,0.17321256,0.032053314,0.99741703,0.042180058,-0.0015771195,-0.058117367,0.9890102,-0.00087689876,0.0013584548,0.1478383,1
1253046621,0.15388013,0.040441006,-0.050985098,0.99741703,0.04208988,-0.001332104,-0.058189303,0.9890102,-0.00087689876,0.0013584548,0.1478383,1
1253090754,-0.39287373,-0.3202989,0.11912391,0.9974707,0.04101674,-0.0013233018,-0.05803697,0.9890102,-0.00087689876,0.0013584548,0.1478383,1
1253130614,0.077856444,0.06112412,-0.020016959,0.9974677,0.041080013,-0.0006332599,-0.058054205,0.9890102,-0.00087689876,0.0013584548,0.1478383,1
1253170774,0.22754125,0.11735134,-0.12479371,0.9974692,0.041055016,-0.00030056518,-0.05804924,0.9890102,-0.00087689876,0.0013584548,0.1478383,1
1253214755,0.23131153,0.16202524,-0.02696905,0.9974781,0.04113121,-0.00013350855,-0.057841137,0.9890102,-0.00087689876,0.0013584548,0.1478383,1
1253258787,0.015159005,-0.19903892,-0.12940787,0.9974682,0.04104233,-0.0006508497,-0.058072176,0.9890102,-0.00087689876,0.0013584548,0.1478383,1
1253298584,-0.014766697,0.058323752,0.017266091,0.9974468,0.04138646,-0.00071715226,-0.05819422,0.9890102,-0.00087689876,0.0013584548,0.1478383,1
1253342806,0.4354788,0.5552969,-0.017464433,0.9974027,0.04208492,-0.0007104906,-0.05844809,0.9890102,-0.00087689876,0.0013584548,0.1478383,1
1253382608,-0.41011345,-0.3947633,0.06824213,0.997441,0.040762026,-0.0020808845,-0.05869869,0.9890102,-0.00087689876,0.0013584548,0.1478383,1
1253426780,-0.17924094,-0.11006245,-0.03242951,0.99743813,0.04027634,-0.0020174992,-0.05908489,0.9890102,-0.00087689876,0.0013584548,0.1478383,1
1253466629,0.1053261,0.110852435,-0.016294127,0.9974552,0.039640423,-0.001990294,-0.059228685,0.9890102,-0.00087689876,0.0013584548,0.1478383,1
1253510882,-0.2045207,-0.15920277,0.003489742,0.99751675,0.03785101,-0.0023645223,-0.059347473,0.9890102,-0.00087689876,0.0013584548,0.1478383,1
1253550778,-0.16350096,-0.12278238,0.028334381,0.9975599,0.036780935,-0.0019989696,-0.05930811,0.9890102,-0.00087689876,0.0013584548,0.1478383,1
1253594751,-0.13848676,-0.11616376,0.03913752,0.9976026,0.035731077,-0.00191151,-0.059235808,0.9890102,-0.00087689876,0.0013584548,0.1478383,1
1253634740,-0.028020002,0.110999905,-0.055091556,0.9976329,0.034948844,-0.0015105961,-0.05920214,0.9890102,-0.00087689876,0.0013584548,0.1478383,1
1253678577,0.34583747,0.30981097,-0.035329554,0.9976537,0.034662575,-0.0006989193,-0.05903568,0.9890102,-0.00087689876,0.0013584548,0.1478383,1
1253718618,0.048702743,0.20473303,0.010537715,0.99768955,0.033807233,-0.00027840555,-0.058929253,0.9890102,-0.00087689876,0.0013584548,0.1478383,1
1253762793,-0.4108673,-0.24091378,0.025032816,0.9977381,0.032553706,0.00030798584,-0.058811408,0.9890102,-0.00087689876,0.0013584548,0.1478383,1
1253802744,-0.08477001,0.13412488,-0.04125848,0.9977593,0.03199992,0.0016497305,-0.05873399,0.9890102,-0.00087689876,0.0013584548,0.1478383,1
1253846774,-0.099485844,0.060056157,0.0030156837,0.9978076,0.030846005,0.0022348706,-0.058511507,0.9890102,-0.00087689876,0.0013584548,0.1478383,1
1253886920,0.07461852,0.054379247,0.05824207,0.997845,0.030108454,0.0025570206,-0.05824494,0.9890102,-0.00087689876,0.0013584548,0.1478383,1
1253930774,0.012196392,0.09801023,0.052883826,0.997882,0.02930904,0.0030426823,-0.057994146,0.9890102,-0.00087689876,0.0013584548,0.1478383,1
1253970746,-0.04638957,-0.11534097,-0.004582229,0.9979086,0.02874904,0.0031190699,-0.05781358,0.9890102,-0.00087689876,0.0013584548,0.1478383,1
1254014632,0.038422417,0.15301687,0.037065297,0.99793154,0.028477177,0.003971107,-0.05749816,0.9890102,-0.00087689876,0.0013584548,0.1478383,1
1254054616,-0.1281992,-0.09495367,0.0070121503,0.9979562,0.027831838,0.0043177707,-0.057360016,0.9890102,-0.00087689876,0.0013584548,0.1478383,1
1254098718,0.01909799,-0.0918037,-0.0024055715,0.99796957,0.02756758,0.0052357023,-0.057179432,0.9890102,-0.00087689876,0.0013584548,0.1478383,1
1254138766,-0.11944686,-0.04248187,-0.024876282,0.9979896,0.026852323,0.0062631313,-0.05706666,0.9890102,-0.00087689876,0.0013584548,0.1478383,1
1254182743,-0.13978592,-0.01267641,-0.009094548,0.9980071,0.026221152,0.007333525,-0.056926753,0.9890102,-0.00087689876,0.0013584548,0.1478383,1
1254222718,0.3190366,0.33416206,-0.0030543273,0.99801034,0.025968187,0.008737019,-0.05678648,0.9890102,-0.00087689876,0.0013584548,0.1478383,1
1254266775,-0.27642813,-0.1435337,0.044434894,0.99805516,0.024271874,0.009410124,-0.056642953,0.9890102,-0.00087689876,0.0013584548,0.1478383,1
1254306619,0.20671317,0.21988519,-0.004742702,0.9980615,0.023779247,0.010460453,-0.056554783,0.9890102,-0.00087689876,0.0013584548,0.1478383,1
1254350748,0.12057752,0.11370562,-0.07137543,0.9981088,0.022053799,0.011077538,-0.05630107,0.9890102,-0.00087689876,0.0013584548,0.1478383,1
1254390596,-0.108147405,-0.13105193,0.054043036,0.9981561,0.02058623,0.011656188,-0.05590052,0.9890102,-0.00087689876,0.0013584548,0.1478383,1
1254434747,-0.13736871,-0.117179655,-0.0017444626,0.9981877,0.019359842,0.011905258,-0.05572159,0.9890102,-0.00087689876,0.0013584548,0.1478383,1
1254474610,-0.09777227,-0.081084795,0.013972427,0.9982203,0.018401697,0.012242988,-0.05538605,0.9890102,-0.00087689876,0.0013584548,0.1478383,1
1254518769,0.14022587,0.08731055,-0.005116737,0.99825335,0.017572924,0.012100874,-0.05509274,0.9890102,-0.00087689876,0.0013584548,0.1478383,1
1254558719,-0.49102515,-0.50269204,0.088800386,0.9983081,0.016238071,0.01109854,-0.05471781,0.9890102,-0.00087689876,0.0013584548,0.1478383,1
1254602733,0.10216048,0.05863605,0.049283393,0.998316,0.016339997,0.0112013705,-0.054523874,0.9890102,-0.00087689876,0.0013584548,0.1478383,1
1254642728,0.027975818,0.15920119,-0.021200402,0.9983422,0.015885876,0.010705487,-0.054276325,0.9890102,-0.00087689876,0.0013584548,0.1478383,1
1254686628,0.07989192,-0.04080466,0.05777555,0.9983683,0.01602367,0.009941574,-0.053899925,0.9890102,-0.00087689876,0.0013584548,0.1478383,1
1254726580,-0.009511067,-0.23592865,0.027566502,0.99839395,0.015973518,0.008892196,-0.05362299,0.9890102,-0.00087689876,0.0013584548,0.1478383,1
1254770829,0.19150335,-0.17077443,0.015010501,0.9984133,0.016334457,0.00798883,-0.053295065,0.9890102,-0.00087689876,0.0013584548,0.1478383,1
1254810741,-0.10406402,-0.14465311,0.069145516,0.99845004,0.015786488,0.007204834,-0.052881964,0.9890102,-0.00087689876,0.0013584548,0.1478383,1
1254854767,-0.19532925,-0.13529558,0.092986874,0.99848145,0.015433101,0.006110237,-0.052528404,0.9890102,-0.00087689876,0.0013584548,0.1478383,1
1254894617,0.0015302673,-0.044194702,0.047579024,0.99850076,0.01539109,0.005677273,-0.052222688,0.9890102,-0.00087689876,0.0013584548,0.1478383,1
1254938755,0.19974914,0.17358743,-0.03917253,0.99852455,0.014956295,0.0057326104,-0.05188639,0.9890102,-0.00087689876,0.0013584548,0.1478383,1
1254978739,-0.13641904,-0.14918451,0.059797253,0.99855757,0.01411773,0.005767056,-0.051480748,0.9890102,-0.00087689876,0.0013584548,0.1478383,1
1255022794,-0.16951069,-0.123692535,-0.0190392,0.99857676,0.013365817,0.0064311945,-0.051230244,0.9890102,-0.00087689876,0.0013584548,0.1478383,1
1255062543,0.2573404,0.21773079,-0.019737493,0.9985858,0.012986882,0.007862486,-0.050951052,0.9890102,-0.00087689876,0.0013584548,0.1478383,1
1255106800,0.14694655,0.03529018,-0.026960127,0.9986018,0.011992999,0.00869526,-0.05074515,0.9890102,-0.00087689876,0.0013584548,0.1478383,1
1255146673,-0.014978927,0.008713461,-0.017030768,0.99860257,0.011428707,0.009788757,-0.050661817,0.9890102,-0.00087689876,0.0013584548,0.1478383,1
1255190792,0.11662909,0.09598029,-0.03211592,0.9985927,0.01115478,0.011102492,-0.050645545,0.9890102,-0.00087689876,0.0013584548,0.1478383,1
1255230584,0.19105232,0.15220793,0.01291886,0.9985823,0.010553812,0.012452529,-0.050665196,0.9890102,-0.00087689876,0.0013584548,0.1478383,1
1255274808,-0.078970924,-0.051307127,0.057444565,0.99857414,0.009690922,0.013412524,-0.050753243,0.9890102,-0.00087689876,0.0013584548,0.1478383,1
1255314761,-0.21613589,-0.13828951,0.037458763,0.99854606,0.009194714,0.014822439,-0.051007524,0.9890102,-0.00087689876,0.0013584548,0.1478383,1
1255358732,0.011389558,-0.07309384,-0.06508489,0.99851286,0.008795194,0.015916817,-0.051395282,0.9890102,-0.00087689876,0.0013584548,0.1478383,1
1255398756,0.06207958,-0.062873475,-0.018767325,0.9984848,0.00857853,0.01681642,-0.05168876,0.9890102,-0.00087689876,0.0013584548,0.1478383,1
1255442824,0.06804505,0.102132216,0.068991326,0.9984514,0.00845568,0.01785279,-0.052006017,0.9890102,-0.00087689876,0.0013584548,0.1478383,1
1255482755,-0.1990867,-0.039299373,-0.008225534,0.99842656,0.0077993376,0.018244613,-0.052447263,0.9890102,-0.00087689876,0.0013584548,0.1478383,1
1255522797,0.17725247,0.24412417,-0.01704385,0.99839807,0.007813735,0.018731304,-0.05281622,0.9890102,-0.00087689876,0.0013584548,0.1478383,1
1255562904,-0.19387805,-0.16361572,-0.026770668,0.9983946,0.006805171,0.018172862,-0.053213887,0.9890102,-0.00087689876,0.0013584548,0.1478383,1
1255602729,0.11821448,-0.072891,-0.072933264,0.9983735,0.006123234,0.018421656,-0.05360612,0.9890102,-0.00087689876,0.0013584548,0.1478383,1
1255646727,0.20949027,0.07572464,-0.012161826,0.9983557,0.005086706,0.01833855,-0.05407374,0.9890102,-0.00087689876,0.0013584548,0.1478383,1
1255686613,0.15088035,0.20392445,-0.08168915,0.99834156,0.0039787763,0.017952332,-0.054554023,0.9890102,-0.00087689876,0.0013584548,0.1478383,1
1255730752,-0.43844312,-0.38277298,0.016891973,0.99833363,0.0026990687,0.017138671,-0.055037286,0.9890102,-0.00087689876,0.0013584548,0.1478383,1
1255770723,0.080926,0.19690102,-0.059175927,0.9982916,0.0030298135,0.017658649,-0.055613153,0.9890102,-0.00087689876,0.0013584548,0.1478383,1
1255814806,-0.025596362,0.021498885,-0.0389641,0.9982711,0.002929897,0.017461829,-0.056047525,0.9890102,-0.00087689876,0.0013584548,0.1478383,1
1255858544,-0.18095464,0.07907086,0.06669663,0.99826336,0.0023450633,0.017324004,-0.056255925,0.9890102,-0.00087689876,0.0013584548,0.1478383,1
1255902717,-0.17685936,-0.15405433,0.013866134,0.9982544,0.0019554545,0.016884347,-0.05656223,0.9890102,-0.00087689876,0.0013584548,0.1478383,1
1255942629,-0.01978932,0.009183787,0.027767522,0.99826545,0.0019006733,0.015965013,-0.056636784,0.9890102,-0.00087689876,0.0013584548,0.1478383,1
1255982744,-0.44619754,-0.47292504,0.21112473,0.99831015,0.0012900404,0.01377567,-0.056440152,0.9890102,-0.00087689876,0.0013584548,0.1478383,1
1256026527,-0.05996561,0.005727859,-0.015860971,0.9983192,0.001882841,0.012690604,-0.05651879,0.9890102,-0.00087689876,0.0013584548,0.1478383,1
1256066748,0.15130998,0.18451768,-0.0016355603,0.99835175,0.002220903,0.011599028,-0.05616438,0.9890102,-0.00087689876,0.0013584548,0.1478383,1
1256106632,0.12881105,0.25405782,-0.023292162,0.99837494,0.003228441,0.010974547,-0.055826906,0.9890102,-0.00087689876,0.0013584548,0.1478383,1
1256150798,0.28942654,0.33877543,0.03665698,0.9983974,0.0051139197,0.011059704,-0.055264853,0.9890102,-0.00087689876,0.0013584548,0.1478383,1
1256194502,0.0038877334,0.043067556,0.03347839,0.9984126,0.006873355,0.011091471,-0.054791935,0.9890102,-0.00087689876,0.0013584548,0.1478383,1
1256234758,0.29646856,0.18587121,-0.045801044,0.9984237,0.009413428,0.010645596,-0.054296575,0.9890102,-0.00087689876,0.0013584548,0.1478383,1
1256274612,0.17503174,0.009530721,0.010280459,0.99843985,0.011709402,0.010041665,-0.05366565,0.9890102,-0.00087689876,0.0013584548,0.1478383,1
1256318820,0.30862924,0.1692066,-0.04744554,0.9984453,0.01402966,0.009688522,-0.05307041,0.9890102,-0.00087689876,0.0013584548,0.1478383,1
1256362604,-0.119428135,-0.06328283,0.04364945,0.9984701,0.015322961,0.008979885,-0.052364945,0.9890102,-0.00087689876,0.0013584548,0.1478383,1
1256406729,-0.12195262,-0.10088056,0.05438813,0.99848783,0.016807912,0.008291775,-0.051681567,0.9890102,-0.00087689876,0.0013584548,0.1478383,1
1256450725,-0.12245358,-0.035973974,0.061010912,0.99849457,0.018218368,0.0080829635,-0.051102024,0.9890102,-0.00087689876,0.0013584548,0.1478383,1
1256490620,0.23834854,0.37972477,-0.014456102,0.99848694,0.019966159,0.008253852,-0.050569404,0.9890102,-0.00087689876,0.0013584548,0.1478383,1
1256534759,0.121065,0.10741919,0.018177293,0.99848235,0.021687506,0.0082699135,-0.04994421,0.9890102,-0.00087689876,0.0013584548,0.1478383,1
1256574778,0.23884575,0.22682294,0.070715494,0.9984613,0.023971,0.00849663,-0.049278654,0.9890102,-0.00087689876,0.0013584548,0.1478383,1
1256618729,-0.08093629,0.10401699,0.0781748,0.9984209,0.026455557,0.008762404,-0.0487777,0.9890102,-0.00087689876,0.0013584548,0.1478383,1
1256658732,0.5937917,0.71302795,-0.022122199,0.998367,0.028701022,0.010027457,-0.0483638,0.9890102,-0.00087689876,0.0013584548,0.1478383,1
1256702735,-0.06902599,0.30801243,0.016084228,0.9983608,0.029147724,0.011606976,-0.0478699,0.9890102,-0.00087689876,0.0013584548,0.1478383,1
1256742759,0.12129912,0.28565225,0.058606252,0.99833447,0.02987982,0.013554006,-0.047453765,0.9890102,-0.00087689876,0.0013584548,0.1478383,1
1256786750,0.05659521,0.3460013,-0.06336629,0.998298,0.029887455,0.016304882,-0.047350235,0.9890102,-0.00087689876,0.0013584548,0.1478383,1
1256826626,-0.18061154,0.13074082,0.06346035,0.9982816,0.029498309,0.018326113,-0.04720017,0.9890102,-0.00087689876,0.0013584548,0.1478383,1
1256870631,-0.08083905,0.10674025,-0.06942817,0.9982152,0.029719185,0.020507978,-0.047568534,0.9890102,-0.00087689876,0.0013584548,0.1478383,1
1256910618,-0.2619991,0.08790157,0.12473849,0.99814725,0.030634161,0.02202374,-0.04773366,0.9890102,-0.00087689876,0.0013584548,0.1478383,1
1256954785,0.009464661,0.2639554,-0.04513184,0.99801093,0.032311805,0.023901286,-0.048570406,0.9890102,-0.00087689876,0.0013584548,0.1478383,1
1256994727,-0.04509738,0.06957126,0.041048415,0.99789065,0.033990253,0.025121894,-0.049274676,0.9890102,-0.00087689876,0.0013584548,0.1478383,1
1257038866,0.03941147,0.19949463,0.03130717,0.99771315,0.036395334,0.026718147,-0.050298955,0.9890102,-0.00087689876,0.0013584548,0.1478383,1
1257078768,-0.006161511,-0.17367274,-0.018116483,0.99756247,0.038446505,0.027490728,-0.051335838,0.9890102,-0.00087689876,0.0013584548,0.1478383,1
1257122718,-0.14790976,-0.29593605,-0.056268904,0.9974234,0.040222123,0.02783623,-0.05247746,0.9890102,-0.00087689876,0.0013584548,0.1478383,1
1257162863,0.19683821,0.03043408,-0.083366916,0.9973205,0.041333467,0.028167725,-0.053385656,0.9890102,-0.00087689876,0.0013584548,0.1478383,1
1257202772,0.33319008,0.14284079,-0.09318654,0.9972797,0.0413464,0.027902067,-0.054269336,0.9890102,-0.00087689876,0.0013584548,0.1478383,1
1257242771,0.17545944,0.244372,-0.17335819,0.9972934,0.040247582,0.02718478,-0.055200595,0.9890102,-0.00087689876,0.0013584548,0.1478383,1
1257286851,-0.17496394,0.050537623,-0.0062212725,0.9973273,0.038652662,0.026790006,-0.055914894,0.9890102,-0.00087689876,0.0013584548,0.1478383,1
1257326854,0.04203309,0.1754511,-0.0038610115,0.9973235,0.03763484,0.027162218,-0.056496244,0.9890102,-0.00087689876,0.0013584548,0.1478383,1
1257366796,-0.3226328,-0.022559145,0.12095205,0.9973489,0.03643212,0.027252708,-0.05679017,0.9890102,-0.00087689876,0.0013584548,0.1478383,1
1257410791,-0.008037906,0.17224611,-0.07347067,0.997302,0.036509987,0.028022468,-0.057188872,0.9890102,-0.00087689876,0.0013584548,0.1478383,1
1257450768,-0.015508557,0.29453343,0.0007623747,0.9972579,0.036836617,0.029187975,-0.057165105,0.9890102,-0.00087689876,0.0013584548,0.1478383,1
1257494836,0.44389936,0.5884606,-0.061596103,0.99713403,0.038254824,0.03126533,-0.05729575,0.9890102,-0.00087689876,0.0013584548,0.1478383,1
1257534784,0.3839302,0.48882914,-0.12560944,0.9970593,0.039024245,0.032585077,-0.05734309,0.9890102,-0.00087689876,0.0013584548,0.1478383,1
1257578856,0.21483526,0.44423074,-0.043194216,0.99698657,0.03949551,0.034329146,-0.057265975,0.9890102,-0.00087689876,0.0013584548,0.1478383,1
1257618711,-0.13074483,-0.165107,0.06093947,0.99695325,0.03953142,0.035219226,-0.05728097,0.9890102,-0.00087689876,0.0013584548,0.1478383,1
1257662762,-0.027724935,-0.12890796,-0.024849357,0.99690145,0.039523143,0.036355536,-0.05747969,0.9890102,-0.00087689876,0.0013584548,0.1478383,1
1257706582,0.064949125,-0.13872716,-0.08486786,0.9968575,0.0395936,0.037228014,-0.057633188,0.9890102,-0.00087689876,0.0013584548,0.1478383,1
1257746758,0.1565662,0.019680252,0.014490348,0.99680907,0.039918087,0.038018007,-0.057731483,0.9890102,-0.00087689876,0.0013584548,0.1478383,1
1257790879,0.1874052,0.006350616,-0.08733607,0.99675965,0.040500168,0.038258165,-0.058020417,0.9890102,-0.00087689876,0.0013584548,0.1478383,1
1257834591,-0.21473044,-0.24308874,0.10000022,0.99678487,0.04029,0.037879635,-0.057982124,0.9890102,-0.00087689876,0.0013584548,0.1478383,1
1257874585,0.65662813,0.58343744,-0.09695576,0.9967204,0.041293986,0.03809866,-0.058241162,0.9890102,-0.00087689876,0.0013584548,0.1478383,1
1257918581,0.19962099,0.02357139,-0.099546984,0.9967824,0.040694293,0.037140682,-0.05821748,0.9890102,-0.00087689876,0.0013584548,0.1478383,1
1257962840,0.097298175,0.07438074,-0.1047986,0.9968516,0.0396897,0.036552127,-0.05809929,0.9890102,-0.00087689876,0.0013584548,0.1478383,1
1258002614,-0.112647206,-0.42635748,-0.070887096,0.99695253,0.03853638,0.035564434,-0.057756778,0.9890102,-0.00087689876,0.0013584548,0.1478383,1
1258046879,-0.037875924,-0.15195036,-0.009421773,0.9969819,0.038317244,0.03552876,-0.057416137,0.9890102,-0.00087689876,0.0013584548,0.1478383,1
1258086770,0.61160994,0.40010056,-0.23695506,0.9969444,0.039042972,0.035713587,-0.057462957,0.9890102,-0.00087689876,0.0013584548,0.1478383,1
1258130772,0.5508025,0.38272634,-0.1378946,0.9969584,0.03938404,0.03532518,-0.057229582,0.9890102,-0.00087689876,0.0013584548,0.1478383,1
1258170740,0.24352881,0.28332675,-0.045222152,0.99698424,0.03930341,0.03509585,-0.05697358,0.9890102,-0.00087689876,0.0013584548,0.1478383,1
1258214778,0.06662322,0.0393266,0.055336546,0.9969701,0.039953906,0.034973547,-0.05684237,0.9890102,-0.00087689876,0.0013584548,0.1478383,1
1258258768,-0.18005258,-0.25500262,-0.042437196,0.9969312,0.041058183,0.03459559,-0.05696979,0.9890102,-0.00087689876,0.0013584548,0.1478383,1
1258302668,-0.059604228,0.07906867,-0.009428792,0.9968214,0.04311354,0.035036538,-0.057104226,0.9890102,-0.00087689876,0.0013584548,0.1478383,1
1258342789,0.49127275,0.14169198,-0.16578776,0.9967112,0.045221362,0.034954693,-0.05744608,0.9890102,-0.00087689876,0.0013584548,0.1478383,1
1258386743,0.11214882,-0.18994118,0.045705926,0.9966918,0.046445303,0.033811808,-0.057490658,0.9890102,-0.00087689876,0.0013584548,0.1478383,1
1258426778,0.16547263,-0.07189314,0.04924901,0.996674,0.047335714,0.032653827,-0.057740368,0.9890102,-0.00087689876,0.0013584548,0.1478383,1
1258470765,-0.0345156,-0.16550581,-0.05641562,0.9966878,0.047578424,0.031120878,-0.058147945,0.9890102,-0.00087689876,0.0013584548,0.1478383,1
1258510625,-0.19556081,-0.33793905,0.036432292,0.9967282,0.04744021,0.029563397,-0.058382303,0.9890102,-0.00087689876,0.0013584548,0.1478383,1
1258554748,-0.1202786,-0.12158173,0.01271921,0.99675256,0.04709147,0.02862325,-0.058716606,0.9890102,-0.00087689876,0.0013584548,0.1478383,1
1258594632,0.3371297,0.20421192,-0.08742401,0.99674255,0.047244105,0.027958643,-0.059081946,0.9890102,-0.00087689876,0.0013584548,0.1478383,1
1258638784,0.029704407,-0.084715575,0.002060878,0.99679667,0.046512637,0.02710002,-0.059149373,0.9890102,-0.00087689876,0.0013584548,0.1478383,1
1258678612,0.15582508,0.09969712,0.0008750607,0.9968103,0.04612854,0.027052807,-0.059242934,0.9890102,-0.00087689876,0.0013584548,0.1478383,1
1258718733,-0.024795273,-0.124163955,0.013200056,0.9968521,0.045562856,0.026234757,-0.059344668,0.9890102,-0.00087689876,0.0013584548,0.1478383,1
1258758609,-0.17823541,-0.14931038,0.052869387,0.9968894,0.044957004,0.025612472,-0.059450917,0.9890102,-0.00087689876,0.0013584548,0.1478383,1
1258802789,-0.4845627,-0.28861964,0.09568217,0.99697334,0.043595046,0.024585923,-0.059491057,0.9890102,-0.00087689876,0.0013584548,0.1478383,1
1258842731,-0.08150743,0.017817516,-0.0050128456,0.9969835,0.043513224,0.023739211,-0.059724905,0.9890102,-0.00087689876,0.0013584548,0.1478383,1
1258886833,-0.008849913,-0.1587086,-0.02730776,0.9969986,0.04355081,0.022427073,-0.059952714,0.9890102,-0.00087689876,0.0013584548,0.1478383,1
1258926742,0.22085555,0.20264475,-0.10705962,0.99697834,0.044062026,0.021699818,-0.060181804,0.9890102,-0.00087689876,0.0013584548,0.1478383,1
1258970776,-0.06766832,-0.034028668,0.016298337,0.9969794,0.044443298,0.020811012,-0.060198855,0.9890102,-0.00087689876,0.0013584548,0.1478383,1
1259010763,0.14106442,0.06126274,-0.0015658393,0.99692625,0.04564006,0.0205271,-0.06028122,0.9890102,-0.00087689876,0.0013584548,0.1478383,1
1259054740,0.18403363,0.09529765,-0.027152598,0.99687403,0.046771105,0.020558853,-0.060266472,0.9890102,-0.00087689876,0.0013584548,0.1478383,1
1259094589,-0.07584305,-0.07492639,0.044722356,0.9968737,0.04696217,0.020634808,-0.060098074,0.9890102,-0.00087689876,0.0013584548,0.1478383,1
1259138766,-0.29868975,-0.32265675,0.022794032,0.99689317,0.046590682,0.020603381,-0.060074024,0.9890102,-0.00087689876,0.0013584548,0.1478383,1
1259178634,0.038307376,0.12202067,-0.07974851,0.99688476,0.046443645,0.02124053,-0.06010635,0.9890102,-0.00087689876,0.0013584548,0.1478383,1
1259222783,-0.16846819,-0.06724618,-0.033578932,0.9969728,0.044366926,0.02175253,-0.060030095,0.9890102,-0.00087689876,0.0013584548,0.1478383,1
1259262614,-0.16841409,0.100980505,-0.010305006,0.99708086,0.041652437,0.022535233,-0.05989269,0.9890102,-0.00087689876,0.0013584548,0.1478383,1
1259306614,-0.24469028,-0.07176168,0.10006424,0.99724346,0.03776333,0.02300967,-0.05958171,0.9890102,-0.00087689876,0.0013584548,0.1478383,1
1259346718,-0.34256223,-0.0782286,0.01292171,0.9973797,0.033732694,0.02358847,-0.05949405,0.9890102,-0.00087689876,0.0013584548,0.1478383,1
1259390747,-0.27211398,-0.0806702,0.099082634,0.9975006,0.029631855,0.024528265,-0.05926942,0.9890102,-0.00087689876,0.0013584548,0.1478383,1
1259430726,-0.015153313,0.09491169,-0.10562398,0.99756277,0.026566157,0.025312448,-0.059347328,0.9890102,-0.00087689876,0.0013584548,0.1478383,1
1259474751,-0.1504606,-0.13216598,0.063135296,0.9976354,0.024016932,0.025778666,-0.05901208,0.9890102,-0.00087689876,0.0013584548,0.1478383,1
1259514630,-0.035170615,-0.04008063,-0.03943143,0.9976563,0.02265157,0.026368758,-0.058937073,0.9890102,-0.00087689876,0.0013584548,0.1478383,1
1259558795,-0.10591112,-0.081796795,-0.03161661,0.997681,0.021607954,0.026803387,-0.05871385,0.9890102,-0.00087689876,0.0013584548,0.1478383,1
1259598616,0.22120969,0.3676788,8.245687e-05,0.9976939,0.02142346,0.02700883,-0.058467638,0.9890102,-0.00087689876,0.0013584548,0.1478383,1
1259642765,0.047525935,-0.013169978,-0.09983241,0.99774724,0.020693965,0.025831953,-0.05835224,0.9890102,-0.00087689876,0.0013584548,0.1478383,1
1259682753,-0.3791108,-0.21800093,0.14981961,0.99782616,0.02007952,0.024377631,-0.05784246,0.9890102,-0.00087689876,0.0013584548,0.1478383,1
1259726625,0.21153809,0.33585584,-0.034129623,0.9978576,0.02023246,0.023191856,-0.057732128,0.9890102,-0.00087689876,0.0013584548,0.1478383,1
1259766749,-0.15374087,-0.02096069,0.058969162,0.99792963,0.019788204,0.021170223,-0.057417076,0.9890102,-0.00087689876,0.0013584548,0.1478383,1
1259810753,0.18597154,0.27002427,-0.011042378,0.99795425,0.02010312,0.019924628,-0.05732632,0.9890102,-0.00087689876,0.0013584548,0.1478383,1
1259850768,-0.25262463,-0.21887043,0.0781334,0.9980086,0.019545259,0.018186959,-0.05714968,0.9890102,-0.00087689876,0.0013584548,0.1478383,1
1259894595,0.025832023,0.057509545,0.05480785,0.9980309,0.019480715,0.017002894,-0.057146635,0.9890102,-0.00087689876,0.0013584548,0.1478383,1
1259934903,-0.21991657,-0.4032262,0.039770722,0.9980693,0.018974302,0.015175891,-0.05716085,0.9890102,-0.00087689876,0.0013584548,0.1478383,1
1259978767,0.044416066,0.13024974,0.042444594,0.9980705,0.019154785,0.014720175,-0.057200253,0.9890102,-0.00087689876,0.0013584548,0.1478383,1
1260018593,-0.05008699,-0.110797025,-0.002438152,0.9980753,0.019132584,0.013906258,-0.05732786,0.9890102,-0.00087689876,0.0013584548,0.1478383,1
1260062720,-0.31495658,-0.010511847,0.09873272,0.9980834,0.019011801,0.013401801,-0.05734497,0.9890102,-0.00087689876,0.0013584548,0.1478383,1
1260102589,-0.08524929,-0.15299986,0.031052731,0.99807286,0.019603837,0.012429093,-0.057547342,0.9890102,-0.00087689876,0.0013584548,0.1478383,1
1260146665,0.020585349,-0.075568154,0.04204156,0.9980733,0.020223249,0.011308177,-0.05755765,0.9890102,-0.00087689876,0.0013584548,0.1478383,1
1260190739,0.28527018,0.27429458,0.031365864,0.9980597,0.0211811,0.010708707,-0.057564866,0.9890102,-0.00087689876,0.0013584548,0.1478383,1
1260230765,-0.0097348355,0.11652906,0.06981294,0.99806976,0.021276643,0.009756115,-0.057522994,0.9890102,-0.00087689876,0.0013584548,0.1478383,1
1260270622,0.13066423,-0.024526566,0.016925575,0.9980659,0.021641228,0.009290027,-0.057532612,0.9890102,-0.00087689876,0.0013584548,0.1478383,1
1260314848,-0.3344514,-0.09081625,0.06413361,0.9980864,0.021094257,0.009001509,-0.057425175,0.9890102,-0.00087689876,0.0013584548,0.1478383,1
1260354625,-0.0532545,-0.25858757,0.03488409,0.9980993,0.020846698,0.008644715,-0.057345398,0.9890102,-0.00087689876,0.0013584548,0.1478383,1
1260398779,-0.08913034,-0.25836623,-0.019999275,0.9981225,0.02011293,0.008421905,-0.05723648,0.9890102,-0.00087689876,0.0013584548,0.1478383,1
1260438614,-0.108195744,0.052154794,0.031939585,0.9981356,0.01995966,0.009013692,-0.0569705,0.9890102,-0.00087689876,0.0013584548,0.1478383,1
1260482822,0.31391317,0.32746592,-0.12524797,0.99812996,0.020010725,0.009900656,-0.05690462,0.9890102,-0.00087689876,0.0013584548,0.1478383,1
1260522611,0.17081189,0.13234647,0.013125222,0.9981569,0.019226255,0.010448583,-0.05660494,0.9890102,-0.00087689876,0.0013584548,0.1478383,1
1260566768,0.46438074,0.36023322,-0.068379015,0.99816483,0.018645832,0.01131476,-0.056492202,0.9890102,-0.00087689876,0.0013584548,0.1478383,1
1260606748,-0.07350597,-0.11822442,0.008595008,0.99819994,0.01753304,0.01133258,-0.05622414,0.9890102,-0.00087689876,0.0013584548,0.1478383,1
1260650814,0.08982284,0.07332188,-0.04106827,0.99820805,0.017177382,0.012085402,-0.05603381,0.9890102,-0.00087689876,0.0013584548,0.1478383,1
1260690624,-0.22456563,-0.36463714,-0.025258293,0.9982297,0.016277496,0.012426674,-0.05584077,0.9890102,-0.00087689876,0.0013584548,0.1478383,1
1260734745,-0.41241854,-0.42369902,0.08246328,0.9982402,0.01588592,0.013152829,-0.05559852,0.9890102,-0.00087689876,0.0013584548,0.1478383,1
1260774749,-0.17992869,-0.08775142,-0.0082156155,0.9982275,0.016532661,0.013917625,-0.055452462,0.9890102,-0.00087689876,0.0013584548,0.1478383,1
1260818840,0.2563882,0.14548656,-0.09643321,0.9981986,0.018177526,0.014238315,-0.055375505,0.9890102,-0.00087689876,0.0013584548,0.1478383,1
1260858625,0.14528349,0.22459649,-0.001162845,0.99818116,0.020015601,0.013965355,-0.055126138,0.9890102,-0.00087689876,0.0013584548,0.1478383,1
1260902723,0.6264634,0.48867336,-0.15651923,0.99809825,0.023510974,0.014268836,-0.055168457,0.9890102,-0.00087689876,0.0013584548,0.1478383,1
1260942759,0.031280957,-0.12557496,0.03417882,0.99807507,0.025749424,0.0133116795,-0.054826666,0.9890102,-0.00087689876,0.0013584548,0.1478383,1
1260986758,0.16383415,-0.020544568,-0.07427918,0.99798226,0.028908033,0.013516965,-0.054892052,0.9890102,-0.00087689876,0.0013584548,0.1478383,1
1261026715,-0.08672338,-0.033756763,0.008428408,0.99791765,0.031061463,0.013521489,-0.05488897,0.9890102,-0.00087689876,0.0013584548,0.1478383,1
1261070736,0.1947232,0.22282882,-0.01185189,0.99781895,0.03362447,0.013548807,-0.055166215,0.9890102,-0.00087689876,0.0013584548,0.1478383,1
1261110713,0.18287204,0.21925026,0.024479078,0.99772936,0.03581067,0.013293912,-0.05547185,0.9890102,-0.00087689876,0.0013584548,0.1478383,1
1261154800,0.14212896,0.14544322,-0.053041846,0.9976044,0.038257737,0.013593803,-0.056009088,0.9890102,-0.00087689876,0.0013584548,0.1478383,1
1261194609,-0.12030603,-0.05767171,0.029295897,0.9975224,0.039708614,0.013936529,-0.056373704,0.9890102,-0.00087689876,0.0013584548,0.1478383,1
1261239049,0.27877527,0.43856588,-0.0012037922,0.9973979,0.041794606,0.015046914,-0.056781746,0.9890102,-0.00087689876,0.0013584548,0.1478383,1
1261278754,-0.06314588,-0.25364,0.02673557,0.99737126,0.04229486,0.014488777,-0.057026025,0.9890102,-0.00087689876,0.0013584548,0.1478383,1
1261322751,0.22545421,0.22115545,-0.046611503,0.99730116,0.043145068,0.015479664,-0.057353083,0.9890102,-0.00087689876,0.0013584548,0.1478383,1
1261362755,-0.010574557,0.12267983,-0.072276436,0.9972732,0.04318995,0.016361443,-0.057560403,0.9890102,-0.00087689876,0.0013584548,0.1478383,1
1261402789,0.106117606,0.024918925,-0.019252904,0.99724585,0.04325643,0.017510843,-0.05764654,0.9890102,-0.00087689876,0.0013584548,0.1478383,1
1261446624,-0.029290918,0.07177952,0.019606639,0.99721646,0.04312178,0.019162616,-0.05773022,0.9890102,-0.00087689876,0.0013584548,0.1478383,1
1261490735,-0.14311418,0.049856115,-0.0049748756,0.99721944,0.042327847,0.020376507,-0.057850704,0.9890102,-0.00087689876,0.0013584548,0.1478383,1
1261530618,-0.16178676,0.04122793,0.07256782,0.99725217,0.041326962,0.021094777,-0.057751812,0.9890102,-0.00087689876,0.0013584548,0.1478383,1
1261574882,-0.193719,0.032353703,0.017229388,0.9972868,0.04030748,0.021686578,-0.057654984,0.9890102,-0.00087689876,0.0013584548,0.1478383,1
1261614764,-0.07937276,0.2592357,-0.02080369,0.9973095,0.039398775,0.02252368,-0.05757034,0.9890102,-0.00087689876,0.0013584548,0.1478383,1
1261658729,0.053519614,0.35131323,-0.047820933,0.99734265,0.037704814,0.024262378,-0.057423953,0.9890102,-0.00087689876,0.0013584548,0.1478383,1
1261698712,-0.1675601,0.035625666,-0.022854598,0.99742675,0.03522714,0.025069226,-0.057188634,0.9890102,-0.00087689876,0.0013584548,0.1478383,1
1261742732,-0.16796389,-0.18906265,0.13476662,0.9975337,0.032596257,0.025144482,-0.056849867,0.9890102,-0.00087689876,0.0013584548,0.1478383,1
1261782752,-0.26812214,-0.38009712,0.046741895,0.9976509,0.029416421,0.02460648,-0.05676196,0.9890102,-0.00087689876,0.0013584548,0.1478383,1
1261826744,-0.19173993,-0.35195833,-0.026422996,0.9978045,0.025035752,0.023454286,-0.056651108,0.9890102,-0.00087689876,0.0013584548,0.1478383,1
1261866592,-0.10354836,-0.14053343,-0.0084985765,0.9979172,0.021111632,0.022958541,-0.05646773,0.9890102,-0.00087689876,0.0013584548,0.1478383,1
1261910747,-0.29206175,0.022217527,0.020992596,0.9979405,0.018181825,0.02493919,-0.056235343,0.9890102,-0.00087689876,0.0013584548,0.1478383,1
1261950771,-0.24750286,-0.03165401,0.04664313,0.99785244,0.017168885,0.02928662,-0.056018334,0.9890102,-0.00087689876,0.0013584548,0.1478383,1
1261994623,0.060147945,0.36715543,-0.012945048,0.9976451,0.017982477,0.035415497,-0.055917185,0.9890102,-0.00087689876,0.0013584548,0.1478383,1
1262034605,0.21303183,0.40422696,-0.029626574,0.99741256,0.01985525,0.040414833,-0.05604192,0.9890102,-0.00087689876,0.0013584548,0.1478383,1
1262078809,-0.07997784,0.16981417,0.052700628,0.99717206,0.021842597,0.044866934,-0.05619548,0.9890102,-0.00087689876,0.0013584548,0.1478383,1
1262118619,0.23667265,0.2567766,-0.047672827,0.9970117,0.023324758,0.047115747,-0.056600455,0.9890102,-0.00087689876,0.0013584548,0.1478383,1
1262162816,0.10785943,0.23200932,-0.022314634,0.9969497,0.023443157,0.04789155,-0.05699403,0.9890102,-0.00087689876,0.0013584548,0.1478383,1
1262202615,0.14732033,0.02767336,-0.030283967,0.9969413,0.023202399,0.047697563,-0.05739815,0.9890102,-0.00087689876,0.0013584548,0.1478383,1
1262246822,-0.09873261,-0.009478219,-0.058272053,0.9969606,0.022169136,0.047199503,-0.05788165,0.9890102,-0.00087689876,0.0013584548,0.1478383,1
1262286628,0.017048365,0.006966971,-0.037527945,0.9969942,0.021026848,0.046576202,-0.058232207,0.9890102,-0.00087689876,0.0013584548,0.1478383,1
1262330829,-0.017769177,-0.1387696,0.011756936,0.9970666,0.019098176,0.045548834,-0.05847069,0.9890102,-0.00087689876,0.0013584548,0.1478383,1
1262370740,-0.18496121,-0.03334118,-5.2024363e-05,0.9971014,0.017432876,0.045143835,-0.058710057,0.9890102,-0.00087689876,0.0013584548,0.1478383,1
1262414797,-0.07679778,-0.05630669,-0.030092359,0.9971809,0.01517666,0.044064607,-0.05880825,0.9890102,-0.00087689876,0.0013584548,0.1478383,1
1262458629,-0.05266528,-0.15440364,0.01322914,0.99727345,0.012500621,0.042687852,-0.058883604,0.9890102,-0.00087689876,0.0013584548,0.1478383,1
1262502779,-0.1987293,-0.29373693,0.0325513,0.99736714,0.009744954,0.041269377,-0.05882823,0.9890102,-0.00087689876,0.0013584548,0.1478383,1
1262542785,-0.41735172,-0.34454477,0.0511167,0.99745876,0.0067797047,0.03978394,-0.058715064,0.9890102,-0.00087689876,0.0013584548,0.1478383,1
1262586726,-0.30820584,-0.15074323,0.012134452,0.9975385,0.0038844259,0.038058136,-0.058766585,0.9890102,-0.00087689876,0.0013584548,0.1478383,1
1262626618,-0.22347257,-0.10289881,-0.037730277,0.99761564,0.0013389844,0.036137722,-0.05878205,0.9890102,-0.00087689876,0.0013584548,0.1478383,1
1262670886,-0.3220962,-0.2167844,-0.04751333,0.9976922,-0.0011847878,0.03372253,-0.058921408,0.9890102,-0.00087689876,0.0013584548,0.1478383,1
1262710753,-0.07495694,0.030029971,-0.07922888,0.9977385,-0.0027865537,0.031868786,-0.059116077,0.9890102,-0.00087689876,0.0013584548,0.1478383,1
1262754632,-0.25650272,-0.3277526,0.033151783,0.9978229,-0.004785875,0.028903564,-0.059086643,0.9890102,-0.00087689876,0.0013584548,0.1478383,1
1262794753,-0.020780258,-0.09211736,-0.04940689,0.9978601,-0.0057946644,0.026953375,-0.05929115,0.9890102,-0.00087689876,0.0013584548,0.1478383,1
1262838770,0.009272807,-0.1650478,-0.008640608,0.9979199,-0.0070975637,0.024191603,-0.059332043,0.9890102,-0.00087689876,0.0013584548,0.1478383,1
1262878809,0.0117120035,-0.27067664,-0.010638263,0.9979549,-0.007912921,0.022171892,-0.059429005,0.9890102,-0.00087689876,0.0013584548,0.1478383,1
1262922735,-0.07975896,-0.35662282,-0.06278111,0.99799275,-0.009438791,0.019473929,-0.05951556,0.9890102,-0.00087689876,0.0013584548,0.1478383,1
1262962774,-0.19711745,-0.36913246,0.044178355,0.99802077,-0.010331075,0.017631507,-0.05947258,0.9890102,-0.00087689876,0.0013584548,0.1478383,1
1263006799,-0.14232042,-0.30650693,-0.004986191,0.99804664,-0.011028623,0.015489786,-0.059509207,0.9890102,-0.00087689876,0.0013584548,0.1478383,1
1263046783,-0.09705533,-0.186512,-0.036174636,0.99805915,-0.011190167,0.014247485,-0.05958084,0.9890102,-0.00087689876,0.0013584548,0.1478383,1
1263090618,0.063832834,-0.00602483,0.032215603,0.9980765,-0.010790337,0.013202814,-0.05960375,0.9890102,-0.00087689876,0.0013584548,0.1478383,1
1263130799,-0.10054558,-0.18492699,-0.019872783,0.99808943,-0.0108781485,0.01191083,-0.05964432,0.9890102,-0.00087689876,0.0013584548,0.1478383,1
1263174787,-0.0740511,-0.13692732,0.050017536,0.9981123,-0.010936793,0.010579764,-0.059500575,0.9890102,-0.00087689876,0.0013584548,0.1478383,1
1263218799,0.16587083,0.10054675,-0.026134847,0.998118,-0.010907086,0.009692961,-0.059561536,0.9890102,-0.00087689876,0.0013584548,0.1478383,1
1263258753,-0.29989874,-0.27673084,0.002583329,0.9981227,-0.011464984,0.008406243,-0.059574146,0.9890102,-0.00087689876,0.0013584548,0.1478383,1
1263298585,-0.019932881,0.009163929,-0.048781045,0.99812657,-0.010898495,0.008142329,-0.059651185,0.9890102,-0.00087689876,0.0013584548,0.1478383,1
1263342843,0.070444986,-0.06950451,-0.038382243,0.9981407,-0.010224088,0.007625962,-0.05960378,0.9890102,-0.00087689876,0.0013584548,0.1478383,1
1263382619,0.08695114,-0.04331223,-0.031285208,0.99814695,-0.009326777,0.0078090164,-0.059621762,0.9890102,-0.00087689876,0.0013584548,0.1478383,1
1263422791,-0.17828527,0.08924786,-0.009087935,0.99815285,-0.008590637,0.007815013,-0.059633985,0.9890102,-0.00087689876,0.0013584548,0.1478383,1
1263466747,-0.2164036,-0.31122527,0.08455618,0.99817824,-0.006990698,0.0071108867,-0.059503783,0.9890102,-0.00087689876,0.0013584548,0.1478383,1
1263510626,0.22058949,-0.12714213,0.015132863,0.9981934,-0.0045424616,0.006961925,-0.059506252,0.9890102,-0.00087689876,0.0013584548,0.1478383,1
1263550794,-0.03431173,-0.046723172,0.03596159,0.9982066,-0.0031959128,0.0069015455,-0.059377987,0.9890102,-0.00087689876,0.0013584548,0.1478383,1
1263594621,0.10819054,-0.056986734,-0.034287643,0.99821895,-0.0016668326,0.006353059,-0.059295036,0.9890102,-0.00087689876,0.0013584548,0.1478383,1
1263634711,0.20646201,0.13711196,0.039028782,0.99823284,-0.00048232457,0.0065276627,-0.059064105,0.9890102,-0.00087689876,0.0013584548,0.1478383,1
1263678751,-0.06846029,0.10200307,0.013352173,0.99824375,0.00015795715,0.0066184974,-0.05887022,0.9890102,-0.00087689876,0.0013584548,0.1478383,1
1263718911,0.11052708,0.0864885,-0.03766851,0.9982537,0.0011042771,0.006683837,-0.058683448,0.9890102,-0.00087689876,0.0013584548,0.1478383,1
1263762603,0.06327627,0.22290559,0.015337992,0.99825877,0.0019650343,0.0074233348,-0.058484096,0.9890102,-0.00087689876,0.0013584548,0.1478383,1
1263802746,0.2905753,0.26605675,0.018206224,0.99826264,0.0027226917,0.008001478,-0.05831248,0.9890102,-0.00087689876,0.0013584548,0.1478383,1
1263846617,0.26112235,0.37868205,-0.012700961,0.9982608,0.0031797255,0.009181714,-0.058147613,0.9890102,-0.00087689876,0.0013584548,0.1478383,1
1263886603,-0.027242133,0.2911115,-0.03175908,0.99825716,0.003419493,0.0099212155,-0.05807356,0.9890102,-0.00087689876,0.0013584548,0.1478383,1
1263930737,0.041475784,0.1887361,-0.05237238,0.9982465,0.0039233635,0.010908999,-0.05804872,0.9890102,-0.00087689876,0.0013584548,0.1478383,1
1263970623,0.0304441,0.1688703,-0.06325076,0.99824405,0.004503304,0.011310993,-0.057971902,0.9890102,-0.00087689876,0.0013584548,0.1478383,1
1264014902,-0.091938585,-0.14810199,0.040228207,0.99825025,0.0053107026,0.011383903,-0.057782587,0.9890102,-0.00087689876,0.0013584548,0.1478383,1
1264058722,0.18343423,0.108781785,-0.055963296,0.99823785,0.0063114576,0.011513473,-0.0578698,0.9890102,-0.00087689876,0.0013584548,0.1478383,1
1264102631,0.12980787,0.15192957,-0.05250499,0.99822235,0.0072684335,0.011694593,-0.057987902,0.9890102,-0.00087689876,0.0013584548,0.1478383,1
1264142864,0.057121575,-0.10490264,-0.00074089866,0.9982229,0.007883672,0.011015882,-0.058031406,0.9890102,-0.00087689876,0.0013584548,0.1478383,1
1264186742,-0.00836903,0.06973041,-0.032246485,0.9982143,0.008231171,0.010870162,-0.05815869,0.9890102,-0.00087689876,0.0013584548,0.1478383,1
1264226634,-0.16680148,-0.28831172,-0.030791992,0.9982159,0.008168928,0.010166216,-0.058265973,0.9890102,-0.00087689876,0.0013584548,0.1478383,1
1264270803,-0.20508155,-0.14502315,0.02693515,0.99821436,0.008379489,0.00951739,-0.05837284,0.9890102,-0.00087689876,0.0013584548,0.1478383,1
1264310736,0.050635442,-0.15933193,0.042542,0.998212,0.008952135,0.008949393,-0.05841677,0.9890102,-0.00087689876,0.0013584548,0.1478383,1
1264354749,0.0704947,0.12253526,-0.03176268,0.9982002,0.009309982,0.008743719,-0.0585942,0.9890102,-0.00087689876,0.0013584548,0.1478383,1
1264394758,-0.048967615,-0.10944914,0.0021211128,0.99819374,0.0099211885,0.008480767,-0.058642752,0.9890102,-0.00087689876,0.0013584548,0.1478383,1
1264438837,0.011744677,0.04573662,-0.012894088,0.9981748,0.011093594,0.008911582,-0.05869081,0.9890102,-0.00087689876,0.0013584548,0.1478383,1
1264482728,0.06371723,0.073594466,-9.438942e-05,0.9981516,0.012492764,0.009193726,-0.058761783,0.9890102,-0.00087689876,0.0013584548,0.1478383,1
1264522773,0.22259785,0.014775589,-0.067214385,0.99812675,0.013810618,0.009578048,-0.05882648,0.9890102,-0.00087689876,0.0013584548,0.1478383,1
1264566771,0.047645472,0.030192735,0.0060541625,0.9981176,0.014746545,0.010218186,-0.058646128,0.9890102,-0.00087689876,0.0013584548,0.1478383,1
1264606747,-0.0059265923,-0.21146555,0.032778185,0.9980997,0.015488092,0.011382791,-0.05854544,0.9890102,-0.00087689876,0.0013584548,0.1478383,1
1264646774,-0.014165936,-0.17167178,-0.010579137,0.99807227,0.015818067,0.013172715,-0.058550462,0.9890102,-0.00087689876,0.0013584548,0.1478383,1
1264686756,-0.18102404,0.017584436,0.05179114,0.998058,0.015253702,0.015258555,-0.058437064,0.9890102,-0.00087689876,0.0013584548,0.1478383,1
1264726733,-0.11107846,0.049734425,0.009523291,0.99805135,0.014380956,0.016957128,-0.058302924,0.9890102,-0.00087689876,0.0013584548,0.1478383,1
1264770799,-0.11578408,0.0832178,0.01016442,0.9980511,0.013233143,0.018468812,-0.058119662,0.9890102,-0.00087689876,0.0013584548,0.1478383,1
1264810763,0.025195356,0.17095518,0.031795412,0.9980485,0.012190831,0.020093074,-0.057854056,0.9890102,-0.00087689876,0.0013584548,0.1478383,1
1264854771,-0.049298376,0.25352982,0.03346682,0.99804205,0.010914146,0.022045359,-0.05750709,0.9890102,-0.00087689876,0.0013584548,0.1478383,1
1264894611,-0.14216201,0.20955962,0.016503805,0.9980511,0.009714702,0.023262486,-0.057083786,0.9890102,-0.00087689876,0.0013584548,0.1478383,1
1264938782,-0.20476684,0.22585456,0.03205562,0.998035,0.008474532,0.025153298,-0.05675979,0.9890102,-0.00087689876,0.0013584548,0.1478383,1
1264978818,0.07929772,0.2910283,-0.047980633,0.99800336,0.008125778,0.026798436,-0.056613177,0.9890102,-0.00087689876,0.0013584548,0.1478383,1
1265022730,-0.13585047,0.10818577,-0.025172845,0.9979784,0.0075378804,0.0285307,-0.056287546,0.9890102,-0.00087689876,0.0013584548,0.1478383,1
1265062790,0.12715514,0.25609404,0.021664204,0.9979358,0.0067866454,0.030540228,-0.056085385,0.9890102,-0.00087689876,0.0013584548,0.1478383,1
1265106626,-0.16229188,-0.12940462,-0.018522818,0.99792516,0.005460152,0.031363208,-0.055963263,0.9890102,-0.00087689876,0.0013584548,0.1478383,1
1265146840,-0.12673514,0.1255099,1.829669e-05,0.9979057,0.004705072,0.031974338,-0.056035496,0.9890102,-0.00087689876,0.0013584548,0.1478383,1
