timestamp,roll,pitch,yaw,thrust
1244930058,-0.21243696,-0.17033738,-0.0032269945,0.5100735
1244974003,-0.21378236,-0.17153509,-0.00321056,0.5191484
1245018050,-0.2158847,-0.17299394,-0.0032031655,0.52821356
1245061997,-0.2165874,-0.1738397,-0.0031806566,0.53754985
1245102003,-0.22507587,-0.18174125,-0.0033834076,0.54612726
1245146042,-0.22938846,-0.18418048,-0.003481261,0.5545719
1245186035,-0.18991226,-0.1825194,-0.003062162,0.56398046
1245230009,-0.233103,-0.15626438,-0.0022784346,0.5733408
1245274041,-0.27280083,-0.20018233,-0.0054056942,0.58122313
1245318016,-0.17621866,-0.1662913,-0.0025175246,0.59063095
1245362058,-0.15329659,-0.18314302,-0.0037957614,0.6004304
1245402069,-0.25214663,-0.21853149,-0.005978636,0.60929096
1245446043,-0.2247375,-0.16787909,-0.003566876,0.61789197
1245486015,-0.2214236,-0.20904905,-0.004314564,0.62684107
1245530064,-0.23732877,-0.20407772,-0.0040232693,0.63619435
1245570074,-0.24709588,-0.18636489,-0.00406531,0.6456893
1245614044,-0.22444355,-0.1963326,-0.004312089,0.65491897
1245658044,-0.20063902,-0.18425274,-0.003964373,0.66534066
1245701996,-0.20730269,-0.17436421,-0.0041267346,0.67501545
1245742054,-0.2163002,-0.19128664,-0.0046539064,0.6829756
1245786012,-0.1828919,-0.1853839,-0.0042617326,0.6910725
1245826078,-0.13231966,-0.13232721,-0.0021291955,0.6940378
1245870009,-0.00031257162,-0.013665001,0.0022136986,0.70050937
1245910040,0.22079593,0.07773052,0.004583837,0.6831776
1245954036,0.5361862,0.2311047,0.008711711,0.643615
1245994066,0.78111404,0.34947258,0.013557808,0.6046929
1246038009,0.834182,0.3244481,0.018324278,0.5852716
1246078043,0.7086735,0.1962013,0.017168501,0.564465
1246122038,0.504872,0.13650863,0.013654764,0.5386658
1246162099,0.5983734,0.20957278,0.009828238,0.51100427
1246206010,0.7583288,0.29557392,0.00085776334,0.49660033
1246246054,0.731254,0.2706072,-0.0050831256,0.49413088
1246290041,0.5522308,0.20867,-0.007694339,0.4900764
1246330067,0.49795336,0.17293364,-0.011118114,0.49279654
1246374006,0.5640178,0.23786934,-0.01703509,0.49250528
1246418033,0.5536649,0.20307475,-0.019305568,0.4968186
1246462000,0.501076,0.17148699,-0.021199144,0.49656588
1246501993,0.4704462,0.12998988,-0.022730926,0.4971233
1246542003,0.505559,0.15443955,-0.027729593,0.49603778
1246582052,0.50410473,0.16080736,-0.031797916,0.4965692
1246622044,0.43726552,0.09548705,-0.03229321,0.49851808
1246666070,0.4045667,0.087122224,-0.03610823,0.49722663
1246710009,0.37299323,0.11139423,-0.040801678,0.5002259
1246750031,0.36494946,0.10557851,-0.043989256,0.49743307
1246794046,0.30698663,0.031708736,-0.04279789,0.5001253
1246834086,0.29255152,0.060268827,-0.048232783,0.49613667
1246878005,0.28057197,0.06217099,-0.05158581,0.49721363
1246918037,0.25110027,0.026504887,-0.05198484,0.49869752
1246962064,0.21470357,-0.0037370855,-0.052895762,0.49912745
1247002080,0.22282803,-0.0022196297,-0.05506252,0.50120467
1247046005,0.19666852,-0.02090022,-0.055577274,0.50221884
1247086037,0.18648164,-0.058237456,-0.053915605,0.50280327
1247130042,0.18852957,-0.06711531,-0.0539445,0.5020718
1247170065,0.16232313,-0.06507752,-0.05424332,0.5016594
1247213999,0.16291234,-0.064063326,-0.054131653,0.502074
1247254055,0.15472059,-0.060390905,-0.054422885,0.50025004
1247297995,0.15739442,-0.04318916,-0.054757908,0.50090283
1247338059,0.17032126,-0.04415647,-0.05427338,0.5014511
1247382003,0.1646755,-0.06623985,-0.052660868,0.5017328
1247422059,0.15789315,-0.08603612,-0.051314082,0.50239927
1247466012,0.17253084,-0.06824936,-0.052168094,0.500474
1247506061,0.20901051,-0.047878753,-0.052767776,0.4987174
1247549999,0.15749867,-0.06557972,-0.050276883,0.50113475
1247594012,0.15321253,-0.07063143,-0.049330927,0.5019255
1247638005,0.14622928,-0.07035142,-0.048063785,0.50325525
1247682032,0.13231446,-0.07152125,-0.04585368,0.5067494
1247722003,0.103051916,-0.06335672,-0.044710647,0.5096151
1247766019,0.09588958,-0.059373368,-0.04206915,0.5120838
1247806021,0.07389407,-0.07527712,-0.038178533,0.51691914
1247845999,0.08997467,-0.045543313,-0.03760194,0.5165491
1247890016,0.08478638,-0.039286576,-0.0353043,0.51863766
1247929996,0.07837522,-0.017053727,-0.034532927,0.5204845
1247974004,0.11030342,-0.002670889,-0.033772767,0.5190742
1248018001,0.0990041,0.017259382,-0.033530638,0.5188662
1248062000,0.095050216,0.0037663686,-0.032223076,0.5201934
1248101999,0.08631052,0.009488223,-0.031889446,0.518334
1248142004,0.089838505,0.021906262,-0.0320448,0.5175374
1248186040,0.07974658,0.017200377,-0.031333696,0.5182231
1248230000,0.08229142,0.037158407,-0.03221427,0.5162281
1248270035,0.10837114,0.045987528,-0.03321722,0.5184498
1248310004,0.087983206,0.049399298,-0.033416227,0.518552
1248354034,0.07586995,0.048860956,-0.03416709,0.51740474
1248398001,0.06786556,0.0487485,-0.03475645,0.5191237
1248438058,0.08793287,0.05946178,-0.03629686,0.51499856
1248478052,0.08262351,0.062026195,-0.03708372,0.5151641
1248518010,0.09652998,0.049243085,-0.03744646,0.516696
1248562021,0.09048514,0.05850678,-0.037931457,0.51597065
1248602009,0.10287672,0.058810826,-0.037862256,0.51583207
1248646049,0.10171668,0.07800928,-0.03818871,0.5137558
1248689999,0.08952851,0.06596221,-0.037175044,0.51492494
1248734030,0.102120675,0.101186536,-0.03731477,0.51464725
1248774053,0.108071074,0.078082055,-0.035881426,0.5166802
1248814033,0.1336053,0.08315893,-0.035233464,0.51383865
1248858005,0.13456365,0.070743084,-0.03362813,0.5144315
1248902017,0.11175972,0.08688301,-0.03288715,0.51297873
1248942036,0.11572305,0.09633695,-0.03217179,0.50980014
1248982037,0.11117689,0.09537436,-0.031166412,0.5117755
1249022033,0.12170126,0.099946275,-0.030277468,0.510025
1249066020,0.10935851,0.08307416,-0.02851939,0.5125143
1249106009,0.10985941,0.09053265,-0.027834903,0.50949895
1249150049,0.12495097,0.102806486,-0.02706117,0.51015353
1249190045,0.12664619,0.10091735,-0.026387628,0.50940174
1249234001,0.13442162,0.12043274,-0.026003934,0.5076119
1249274012,0.15154335,0.10735865,-0.025607917,0.5085416
1249318033,0.15118809,0.10264692,-0.025882978,0.50601965
1249358033,0.16913001,0.11597944,-0.025993483,0.5032437
1249402007,0.14629743,0.10893196,-0.025647707,0.5049548
1249442002,0.15203841,0.11025175,-0.025733603,0.5030854
1249486046,0.16069087,0.10759425,-0.025474878,0.504496
1249529999,0.18269199,0.10933429,-0.02625088,0.5010021
1249570006,0.15965499,0.097469695,-0.025355443,0.5036625
1249614095,0.12475897,0.08980299,-0.024853967,0.50496805
1249658004,0.1382223,0.072978094,-0.024701357,0.50319785
1249697995,0.1298026,0.081901036,-0.024548963,0.504142
1249738001,0.15284418,0.080227844,-0.024976432,0.5040817
1249782059,0.14454284,0.08388916,-0.02437757,0.5034891
1251082021,0.14719364,0.010729138,-0.018262742,0.4990418
1252502042,0.04742162,-0.17814621,0.0019665866,0.49680477
1252542063,0.0457898,-0.17759718,0.0038631025,0.49767613
1252586259,0.03640514,-0.17078346,0.0065812618,0.49900725
1252838096,0.035163842,-0.03343026,0.01059725,0.5009955
1252878060,0.016930182,-0.06025623,0.012577627,0.50532556
1252922044,0.0033973265,-0.05142541,0.012516928,0.50524014
1252962025,0.05123266,-0.03969448,0.011758324,0.50380814
1253006081,0.01866027,-0.020103412,0.011312565,0.50336236
1253046044,0.013788339,-0.04072352,0.01173217,0.50647676
1253090036,-0.021640744,-0.04790584,0.012352164,0.5109933
1253130012,0.010707107,-0.019216008,0.01045825,0.50632197
1253170029,0.021886092,-0.036104005,0.010414733,0.50776005
1253214074,0.021446645,-0.015034789,0.009493165,0.5092957
1253254042,-0.02999848,-0.020347767,0.010806642,0.5102955
1253294014,-0.01554912,-0.0046773506,0.010300979,0.5113664
1253338062,-0.019067015,0.0060552,0.010882088,0.5150415
1253382069,-0.04796618,0.010899949,0.012044873,0.51819074
1253422051,-0.034633458,0.01590491,0.012488566,0.51794946
1253462001,-0.03929941,-0.0024765814,0.013815012,0.5216797
1253506000,-0.060758103,0.0014260825,0.014338121,0.5234532
1253546115,-0.038026668,0.020178946,0.0137001,0.5192765
1253586017,-0.070966065,0.022906415,0.013755882,0.5237027
1253630003,-0.062420096,0.04178485,0.012853151,0.52398264
1253674009,-0.04308631,0.027968738,0.012522672,0.5229778
1253714007,-0.0338763,0.040067066,0.01141298,0.5248373
1253758040,-0.045084618,0.034212977,0.0112943435,0.52467406
1253802020,-0.030925052,0.029611647,0.0108124,0.52457213
1253842001,-0.056440886,0.019326327,0.010645015,0.5252925
1253882001,-0.05132509,0.026313717,0.009952908,0.5248487
1253925997,-0.050422005,0.047036856,0.008442728,0.5248131
1253966004,-0.024003634,0.056434296,0.0070850016,0.52481306
1254006014,-0.03146619,0.03458604,0.006830404,0.52883166
1254046007,-0.03962763,0.03277473,0.006062097,0.52929556
1254085997,-0.05726998,0.04151021,0.0055729863,0.5295819
1254130044,-0.063623086,0.022596471,0.0053040907,0.5291807
1254170060,-0.0503468,0.024371903,0.004707082,0.53352904
1254218055,-0.051154945,9.603542e-05,0.004488546,0.5354136
1254258088,-0.035727102,0.019765384,0.0036736822,0.532151
1254302005,-0.053392503,-3.713458e-05,0.0036760645,0.5351338
1254346026,-0.046252333,0.0021421837,0.003160878,0.53583425
1254390046,-0.037115477,-0.0093297055,0.0020295705,0.5346564
1254434063,-0.047742,-0.007764015,0.0010278412,0.5329547
1254474014,-0.029471988,-0.0027652867,-6.64076e-05,0.5338596
1254518040,0.0077049434,0.011508407,-0.0013659089,0.5296789
1254558019,-0.032613438,-0.023596922,-0.0015085402,0.53395134
1254602050,-0.037234854,0.004010272,-0.002722606,0.5304051
1254642046,-0.030020367,0.0066857515,-0.0040403935,0.5269822
1254686038,-0.042382017,0.028323716,-0.005067926,0.5268478
1254726007,-0.030431185,0.027311696,-0.0062406734,0.5282412
1254770080,-0.046729296,0.044473626,-0.0075883097,0.52788186
1254810037,-0.059391074,0.034326933,-0.008433279,0.5284711
1254854043,-0.06122049,0.06678327,-0.009774971,0.5257643
1254894016,-0.063784495,0.07403092,-0.011141101,0.5265187
1254938056,-0.050416015,0.08286476,-0.012959178,0.5222799
1254978064,-0.07133703,0.085748434,-0.013611999,0.5227924
1255022027,-0.06843805,0.092764944,-0.015041662,0.5207768
1255062016,-0.054604605,0.09933025,-0.01602515,0.5187282
1255106068,-0.040836494,0.08872912,-0.016753621,0.51732886
1255146048,-0.050970655,0.06020978,-0.016704606,0.51826024
1255190037,-0.06503571,0.071467295,-0.016848769,0.5175895
1255230017,-0.06650053,0.06481136,-0.0163838,0.51582277
1255274093,-0.051315602,0.050615244,-0.015756827,0.51610297
1255314058,-0.052886523,0.03162823,-0.014918918,0.51831967
1255358038,-0.026626756,0.029923785,-0.014299702,0.51395637
1255398031,-0.031898066,0.022744305,-0.0129071055,0.51237404
1255437996,-0.016099641,0.0140058715,-0.011730232,0.511249
1255477999,-0.025017917,0.015893748,-0.010316283,0.5104148
1255522058,-0.020390406,0.0011086247,-0.008833468,0.510539
1255562061,-0.027246892,0.0033420525,-0.0074945446,0.50826955
1255602012,-0.00022110925,0.0023693137,-0.0064004497,0.5073906
1255645993,-0.008358105,0.011722396,-0.004306221,0.50440896
1255686006,0.024451103,0.00420802,-0.0030326096,0.50389266
1255729994,0.016777938,-0.023233918,-0.00050820666,0.50751215
1255770023,0.031732384,0.008488951,0.000834307,0.5002786
1255813993,0.04596222,0.012364721,0.0024491656,0.49587688
1255857993,0.057850044,0.025470817,0.003856195,0.49423042
1255902024,0.06689875,0.024560617,0.004568411,0.49533737
1255942008,0.08939914,0.048908368,0.004714621,0.4935788
1255981997,0.054609284,0.03629723,0.005488552,0.4992077
1256026011,0.10555672,0.06652498,0.0037812567,0.49475327
1256065998,0.12496343,0.08280855,0.0023875874,0.49288908
1256106006,0.13733177,0.097599156,0.0007009019,0.49203363
1256150015,0.15276495,0.12337478,-0.0015310203,0.4930621
1256193998,0.1567888,0.11606056,-0.0034730325,0.49459708
1256234011,0.15791526,0.12727511,-0.0062621944,0.4931562
1256274005,0.13327904,0.15777075,-0.008860321,0.49177957
1256318014,0.12462413,0.15983403,-0.011635806,0.49444765
1256362011,0.14314318,0.14872578,-0.013796577,0.49577793
1256406005,0.13723448,0.1629042,-0.016645106,0.49435094
1256450088,0.10844872,0.15778404,-0.018391274,0.49481323
1256490014,0.108071275,0.18884182,-0.021684231,0.49125946
1256534043,0.11326533,0.18860659,-0.024183115,0.49239618
1256574051,0.120955154,0.22036532,-0.027641045,0.49287418
1256618048,0.0699302,0.19568302,-0.028600484,0.4956692
1256658022,0.05995366,0.23209372,-0.031815216,0.49103138
1256702035,0.084782645,0.19400981,-0.033099983,0.4933909
1256742014,0.08090775,0.20190279,-0.03472746,0.49287832
1256786052,0.09366671,0.19246589,-0.036019232,0.49413565
1256826021,0.066762894,0.15404887,-0.034268692,0.4935378
1256870038,0.097875796,0.15539789,-0.03451578,0.49312544
1256910024,0.061209965,0.14166404,-0.032119025,0.49431303
1256954051,0.0725407,0.14734101,-0.031107692,0.49326885
1256994033,0.04308474,0.14124447,-0.028146548,0.49898547
1257038044,0.015630202,0.11673173,-0.024162088,0.50019383
1257078062,0.0059370208,0.11923762,-0.021647766,0.50477195
1257122022,-0.024863726,0.1142533,-0.018040095,0.50874716
1257162016,-0.021851966,0.13198523,-0.015795767,0.50956124
1257202007,-0.021846274,0.117278606,-0.01213131,0.5104376
1257246048,-0.043971334,0.12655374,-0.008226531,0.51174414
1257290035,-0.008600555,0.15901978,-0.006838895,0.5063883
1257330012,0.0029961606,0.1416848,-0.0041110613,0.5045479
1257374048,-0.009046391,0.15714514,-0.0022574423,0.50171274
1257414061,0.003854898,0.1463399,-0.0016999352,0.50165623
1257458033,0.0145412395,0.16358232,-0.0023998823,0.49724543
1257498019,0.019180542,0.11387931,-0.0010508469,0.50476754
1257542107,0.0453531,0.12969007,-0.0027003055,0.49922872
1257582057,0.013707387,0.09030231,-0.0008330371,0.5029564
1257626259,-0.005016184,0.06901981,0.0004275741,0.50484836
1257666014,0.0104067465,0.084841296,-9.5683965e-05,0.499842
1257710060,0.014529842,0.06743771,0.0009651673,0.5036512
1257750056,0.020981794,0.06040991,0.0013945568,0.50712293
1257794055,0.004711574,0.050513994,0.0027025202,0.5079023
1257834006,-0.0003790849,0.044264767,0.0034514896,0.5132205
1257878099,0.0011671188,0.025615633,0.0043190606,0.5135238
1257918035,0.03760098,0.046483718,0.0028686058,0.5089097
1257962052,0.043436617,0.041172475,0.0028870574,0.50844723
1258002002,0.05794386,0.04395252,0.0018150929,0.508565
1258046062,0.062035963,0.042189535,0.0013044162,0.5084102
1258086068,0.108607575,0.057885658,-0.0007430738,0.5007802
1258130053,0.067770734,0.056937277,-0.00068881427,0.5057162
1258170026,0.055298492,0.032251433,7.1513066e-05,0.5060636
1258214077,0.053661097,0.014438522,0.0008260477,0.5096419
1258258048,0.04764489,-0.012937315,0.0014831129,0.5118113
1258302046,0.012104427,0.0033038028,0.0013543015,0.51119447
1258342078,0.02902521,0.010370486,0.00092725584,0.5089319
1258386007,-0.0077863345,0.0021195733,0.002701923,0.51464856
1258426109,-0.019517764,0.030664904,0.0024779756,0.51389277
1258470028,-0.01097326,0.017043523,0.0038681454,0.5128198
1258510068,-0.05211889,0.0071671857,0.0059180567,0.5153709
1258553999,-0.057564292,0.01583119,0.0068757343,0.51489455
1258594036,-0.047653623,0.037505098,0.0068419753,0.5114046
1258638100,-0.060867783,0.02518254,0.008246767,0.51347184
1258678064,-0.054287225,0.037934426,0.008216087,0.512575
1258718067,-0.030117095,0.0364873,0.008697897,0.5143304
1258758012,-0.06235163,0.028842798,0.009861206,0.5153651
1258802047,-0.055745967,0.027073834,0.010564898,0.5157943
1258842027,-0.041671794,0.027094293,0.010979037,0.51287997
1258886089,-0.06442704,0.028107341,0.011693447,0.51590735
1258926002,-0.08137656,0.05710791,0.011184474,0.511209
1258970056,-0.09288221,0.052597705,0.012198648,0.51482755
1259010037,-0.08903342,0.07217853,0.011573883,0.5154607
1259054037,-0.10329327,0.07017246,0.011344621,0.51850265
1259093999,-0.10756089,0.06915469,0.011131276,0.52256215
1259138048,-0.123597965,0.04687873,0.01166684,0.52607185
1259178028,-0.13991928,0.050783046,0.01122372,0.5261207
1259222039,-0.14181387,0.034254283,0.011900293,0.5293458
1259262017,-0.123317644,0.0049324944,0.012777384,0.5286018
1259306018,-0.10527939,0.035704926,0.011758466,0.52919626
1259346039,-0.06935609,0.01759294,0.011694682,0.5258289
1259390032,-0.07381622,-0.0011379439,0.012301588,0.52644414
1259430017,-0.019538173,-0.00040626887,0.011421609,0.52067655
1259474050,-0.022411657,-0.008848865,0.011732835,0.5207182
1259514033,0.01861597,-0.0013664268,0.010728357,0.5176274
1259558038,0.0226125,-0.022957576,0.010541088,0.51636595
1259598015,0.036763255,-0.008009559,0.00971332,0.51214474
1259642103,0.05232184,-0.022460207,0.008983844,0.5122174
1259682049,-0.004048859,-0.031727705,0.009131456,0.5138619
1259726044,0.04816421,-0.0025649527,0.007120478,0.5076146
1259766023,0.024801474,-0.0020893505,0.006716978,0.5096357
1259810052,0.027034909,0.0105420025,0.0057827355,0.5072544
1259850061,-0.003112195,0.01343925,0.0057617216,0.5097622
1259894031,0.031190442,0.031924687,0.0053281495,0.50599444
1259934030,0.042362466,0.028407536,0.0053391093,0.50898737
1259978112,0.039526656,0.044375546,0.005327583,0.5061779
1260018064,0.023275986,0.033598606,0.0057018697,0.50896204
1260062046,0.017437814,0.043893866,0.006318916,0.5070951
1260102016,0.031034788,0.039077852,0.0065954593,0.50788784
1260146066,0.031420562,0.05575092,0.006390494,0.50621
1260190046,0.023601307,0.069559366,0.0061458778,0.5060002
1260230043,0.014824638,0.06939629,0.006279271,0.50505596
1260270018,0.024419388,0.089310534,0.005423438,0.5036101
1260309996,0.04369129,0.09267092,0.004675124,0.50195146
1260350000,0.043866955,0.06255102,0.005178095,0.5033752
1260394045,0.036165178,0.092114784,0.0046830242,0.5038514
1260433999,0.0505404,0.07204431,0.0041696765,0.50559825
1260478055,0.044673797,0.07644222,0.0035084125,0.5030902
1260518003,0.091676384,0.08191052,0.0018910065,0.497529
1260562102,0.07214581,0.06701807,0.0022098245,0.5006719
1260602010,0.08980617,0.07970375,0.001237837,0.49519962
1260646000,0.11553123,0.07930894,0.00041676353,0.49665514
1260685995,0.12407675,0.10719541,-0.0008761758,0.49105036
1260730002,0.14706887,0.076869525,-0.0011830203,0.49183553
1260770024,0.114080586,0.08011172,-0.0016974669,0.4938284
1260810006,0.1195343,0.08772656,-0.0029101234,0.49136555
1260854001,0.09169922,0.0788435,-0.0029028195,0.49837333
1260894014,0.13081384,0.09110281,-0.0049182633,0.4935817
1260934058,0.069300435,0.061358787,-0.0039529083,0.5006339
1260974069,0.04281872,0.07847337,-0.0047805193,0.50074387
1261018001,0.040019356,0.0972962,-0.0060894946,0.49854884
1261057996,0.032979608,0.09809524,-0.005678552,0.49880898
1261102019,-0.026850784,0.11047681,-0.0045868563,0.5033452
1261142026,-0.07867578,0.098983034,-0.0025469505,0.5052713
1261182051,-0.08645884,0.123295546,-0.0022695588,0.5017191
1261222055,-0.10920932,0.14525495,-0.001817024,0.5060723
1261266009,-0.14497454,0.1369522,-0.0004502922,0.5079687
1261305998,-0.1550268,0.15934178,-0.00036634388,0.50713706
1261350047,-0.16936547,0.13566858,0.0011068758,0.5127259
1261390038,-0.18960968,0.13417289,0.0018263687,0.5152521
1261430093,-0.19155398,0.13014017,0.0019708266,0.5152108
1261474004,-0.23982656,0.12681803,0.0031859616,0.52083915
1261518040,-0.22275306,0.1424374,0.0025072126,0.5185903
1261558039,-0.21061632,0.15646127,0.0018783243,0.51610833
1261602021,-0.23525102,0.12298909,0.002642752,0.52079433
1261642006,-0.25421292,0.12842292,0.0023162132,0.521509
1261686057,-0.24894819,0.108374484,0.0020690556,0.5257542
1261726003,-0.23198748,0.10853168,0.0018056533,0.5267025
1261770007,-0.21925652,0.17542338,0.00073885964,0.52147907
1261810001,-0.21388929,0.15711819,0.0013577433,0.52309906
1261854035,-0.18663074,0.16611291,0.0016086375,0.5202777
1261893993,-0.1352731,0.16203907,0.0007397366,0.5199987
1261938008,-0.15547906,0.12087316,0.0012089796,0.52311414
1261978003,-0.171325,0.074074276,0.0007433507,0.5248097
1262022015,-0.17436586,0.019774718,0.0003464305,0.52966833
1262062002,-0.20240778,-0.011493973,0.00060053234,0.5347703
1262106004,-0.24520445,-0.0790126,0.0014451914,0.5375004
1262146002,-0.25529507,-0.08416802,0.0023292385,0.5413704
1262186048,-0.24380875,-0.090679154,0.0036564216,0.54249793
1262230004,-0.27693126,-0.112768665,0.005302721,0.5467684
1262270085,-0.2984943,-0.14054106,0.006513546,0.54815024
1262310041,-0.28380668,-0.13790706,0.007738905,0.5476268
1262350006,-0.2759764,-0.13076094,0.008886481,0.5499506
1262390008,-0.28184488,-0.13130641,0.009356186,0.55132633
1262429999,-0.270494,-0.15117934,0.00972819,0.55204564
1262474036,-0.23797718,-0.14717925,0.0102857,0.55232364
1262514029,-0.23434018,-0.15495285,0.010342668,0.5549632
1262558026,-0.21295737,-0.1536695,0.010444992,0.55355453
1262598024,-0.18920058,-0.15733749,0.01045813,0.551965
1262642029,-0.19051652,-0.17007393,0.010372566,0.55340594
1262682055,-0.16972859,-0.1517867,0.01081441,0.5525301
1262726000,-0.1535829,-0.15542038,0.012041044,0.55353147
1262766024,-0.13036354,-0.13787444,0.012293609,0.55177283
1262810054,-0.1194581,-0.12294547,0.012813396,0.5502665
1262850039,-0.11986819,-0.12130291,0.012871617,0.5500621
1262894014,-0.1007707,-0.08945162,0.013585905,0.5470657
1262934006,-0.10574474,-0.09256314,0.013899379,0.5486211
1262978035,-0.080730565,-0.075062215,0.014357574,0.54707795
1263018004,-0.06427327,-0.05296093,0.014650246,0.54437333
1263061997,-0.08997695,-0.067927495,0.014735875,0.5456812
1263101999,-0.06660026,-0.06314282,0.014615685,0.5442001
1263146001,-0.0722444,-0.06554787,0.014875243,0.54417765
1263186014,-0.055288017,-0.056702375,0.014602147,0.5443283
1263230018,-0.033688694,-0.05185373,0.014673611,0.5431835
1263270008,-0.01980637,-0.024990583,0.0150552355,0.5421886
1263314003,-0.038468912,-0.046944562,0.014814523,0.54597664
1263354008,-0.041836616,-0.0368256,0.01477127,0.5450026
1263398017,-0.037566394,-0.029237403,0.015093921,0.54692477
1263438006,-0.052950785,-0.05114556,0.01511972,0.54724663
1263481997,-0.047183838,-0.02217944,0.0152196735,0.54410434
1263521999,-0.06316823,-0.02388449,0.01489105,0.54109263
1263566006,-0.06934131,-0.020552563,0.014221022,0.5420669
1263606007,-0.07068825,-0.0047434913,0.013859193,0.5410952
1263649999,-0.07045534,-0.018386897,0.012888997,0.5418959
1263689999,-0.09363746,-0.008368596,0.012575254,0.5424568
1263734001,-0.09135779,-0.0052859313,0.012056242,0.5421528
1263774039,-0.085189424,-0.0011822066,0.011287359,0.5418879
1263814046,-0.081672855,-0.00034902853,0.010795298,0.5409678
1263858004,-0.07732816,-0.021295987,0.009937787,0.5397502
1263902040,-0.08210719,-0.043387666,0.009391842,0.539822
1263942044,-0.084756546,-0.032294698,0.00904523,0.5375349
1263986012,-0.08089159,-0.038555685,0.008965945,0.53861356
1264026014,-0.082980484,-0.035918962,0.008779962,0.540137
1264070031,-0.085083336,-0.013550642,0.009045893,0.539627
1264110027,-0.08323066,-0.024980497,0.00930513,0.539931
1264154006,-0.096834,-0.0045686765,0.009514574,0.53843075
1264194013,-0.10326953,-0.0037208572,0.009825743,0.5426698
1264238020,-0.09475655,0.016030828,0.010037153,0.5404968
1264278032,-0.11474077,0.007212241,0.01089503,0.5457297
1264321997,-0.10237611,0.024205903,0.010951176,0.5439473
1264362013,-0.10360453,0.029185932,0.011383448,0.54529846
1264406034,-0.08914976,0.037143957,0.011385554,0.54328597
1264446047,-0.11780021,0.037311573,0.011690173,0.5440566
1264490010,-0.12337533,0.03454351,0.011569531,0.54267675
1264530009,-0.12380074,0.044672064,0.01140234,0.545002
1264574057,-0.14877838,0.027294084,0.011263235,0.54942596
1264614033,-0.16459578,0.02183427,0.011137276,0.55021656
1264658011,-0.16916896,0.02938653,0.010904463,0.5489877
1264698002,-0.16661574,0.01785674,0.010554641,0.55002606
1264742031,-0.15356702,0.0115491785,0.00982891,0.54906595
1264782047,-0.150279,0.012439754,0.009352512,0.54802614
1264826001,-0.13515739,-0.02104795,0.008055905,0.54763806
1264866015,-0.115323514,-0.025958177,0.00697657,0.54503536
1264910032,-0.12966554,-0.05953462,0.0056446046,0.5480047
1264950033,-0.10289782,-0.05552391,0.004543927,0.546209
1264994003,-0.10111688,-0.10146619,0.0038051833,0.54734164
1265034010,-0.08865223,-0.100145,0.0029866323,0.54810494
1265078029,-0.053912506,-0.1405629,0.0023886103,0.54809386
1265118055,-0.034781132,-0.13241528,0.0024390838,0.5464149
1265162016,-0.058310363,-0.15557347,0.0027948814,0.5485507
1265202020,-0.045625784,-0.16304769,0.0039944123,0.546567
1265246044,-0.010467446,-0.17162266,0.0062977956,0.5469955
1265286029,0.031348873,-0.16339129,0.008839512,0.5448042
1265329996,0.077628404,-0.15529063,0.012128252,0.5407905
1265370010,0.09831896,-0.14968899,0.015876263,0.53709173
1265414045,0.15983136,-0.12630811,0.019854734,0.5343358
1265458011,0.19171807,-0.12165325,0.023097357,0.53025323
1265502069,0.22147752,-0.09646719,0.025841692,0.5233526
1265542045,0.24348247,-0.06421254,0.027627852,0.5231692
1265582004,0.29620996,-0.036067195,0.02800505,0.51948917
1265622000,0.2717272,-0.019726302,0.028979367,0.51844144
1265665996,0.28117186,0.030021101,0.028517425,0.51309395
1265706010,0.28199273,0.021837054,0.028645137,0.5159788
1265750007,0.26299274,0.056649894,0.028056549,0.51638937
1265790019,0.24245246,0.051428832,0.027973112,0.51518065
1265834003,0.2583823,0.08721241,0.025804041,0.51250637
1265874006,0.24271944,0.077813886,0.02551302,0.5111736
1265917997,0.21807879,0.092765614,0.02411856,0.5163465
1265958024,0.18021213,0.10646045,0.022744987,0.5159862
1266002007,0.2054884,0.10516798,0.020428533,0.51149815
1266042003,0.17287283,0.059454165,0.020588078,0.51521957
1266086014,0.13908139,0.05031653,0.018616576,0.51515025
1266126015,0.1408211,0.026438648,0.016971277,0.51538664
1266170030,0.11482395,-0.007581421,0.016456367,0.51991946
1266210043,0.123197354,-0.017000556,0.014828838,0.51759964
1266254005,0.10364941,-0.039416984,0.013851357,0.5135243
1266293996,0.10855292,-0.08003715,0.013705167,0.5145922
1266338041,0.105456434,-0.08240046,0.012224612,0.5149958
1266378055,0.0957319,-0.09522117,0.011062387,0.51479656
1266422009,0.09835738,-0.098988816,0.009590773,0.51468945
1266466053,0.11062266,-0.12184615,0.009128505,0.5125148
1266510041,0.11517989,-0.11866601,0.0073526385,0.513055
1266553999,0.088083416,-0.12239967,0.006471431,0.5159268
1266598000,0.10075654,-0.10164922,0.004823089,0.51378024
1266638047,0.13357991,-0.052845757,0.0023176468,0.50413483
1266682000,0.105930194,-0.074269675,0.0026822437,0.5085706
1266722044,0.07274655,-0.060317446,0.0016724538,0.5125689
1266766014,0.067238025,-0.05542393,-9.792263e-05,0.5093755
1266810005,0.07692603,-0.06318628,-0.0007826805,0.51297015
1266850009,0.065218374,-0.058784287,-0.0019456166,0.5122363
1266893999,0.09125225,-0.041139524,-0.0043914225,0.5073374
1266934002,0.05255968,-0.05740163,-0.0046412754,0.5117066
1266978028,0.04509753,-0.04578871,-0.005851917,0.51469827
1267018015,0.053711474,-0.034819763,-0.00783844,0.5102166
1267062004,0.046617195,-0.046793252,-0.008317391,0.5110205
1267102000,0.04527039,-0.041656844,-0.008798704,0.5091556
1267146002,0.036735676,-0.028655402,-0.0085891485,0.5113559
1267186006,0.002258339,-0.042468414,-0.0071198936,0.51788914
1267230004,-0.018685285,-0.019176574,-0.006509663,0.5179447
1267274011,-0.03152289,-0.018512478,-0.004518339,0.5189737
1267314013,-0.04391423,-0.022536261,-0.0019103583,0.52022165
1267358004,-0.06650373,0.0001066151,-0.000302552,0.5163275
1267402007,-0.06722269,0.029244892,0.00049977336,0.51595664
1267442024,-0.06289781,0.03120874,0.001665779,0.51588535
1267486003,-0.05467431,0.054768357,0.0022020992,0.5140668
1267526004,-0.0268345,0.06341679,0.0021106577,0.51178455
1267570019,-0.0094471555,0.10700932,0.00043701922,0.50866115
1267610007,-0.025119059,0.09988112,0.0005518755,0.5122541
1267654004,-0.009324438,0.098883376,-0.0010273693,0.5052355
1267693997,0.0022050084,0.0758165,-0.0023023095,0.5067915
1267734005,-0.01576748,0.093801074,-0.003848913,0.50716656
1267774006,-0.03940818,0.10119821,-0.004527114,0.50666124
1267818039,-0.05278018,0.07188335,-0.0038163904,0.5082042
1267858025,-0.039553422,0.0768357,-0.0041241455,0.50890857
1267902009,-0.06359536,0.082912326,-0.003384092,0.5081472
1267942009,-0.07094533,0.0828282,-0.0020793353,0.51086634
1267986050,-0.06199957,0.07881004,-0.0009915545,0.51248175
1268026040,-0.08917111,0.07091306,0.00053289527,0.5140503
1268070012,-0.083760574,0.09614725,0.0013975956,0.51166314
1268110002,-0.059584804,0.05235977,0.0023665982,0.5153456
1268154044,-0.085430525,0.08437104,0.0033389213,0.5163424
1268194027,-0.057600267,0.07684296,0.002911449,0.51113343
1268238003,-0.06212514,0.05547468,0.0033584237,0.51254743
1268278004,-0.048623297,0.083945334,0.002799983,0.51107496
1268322035,-0.060557473,0.067561574,0.002642647,0.5114584
1268362055,-0.037884388,0.077920154,0.0022694427,0.5079413
1268406006,-0.050670084,0.058390282,0.0024328665,0.51231396
1268446004,-0.07228556,0.05965107,0.0024333226,0.510809
1268486042,-0.09162757,0.04930524,0.0025711053,0.51312333
1268530029,-0.11815408,0.035195112,0.0032550828,0.5144049
1268570094,-0.073766224,0.058396958,0.0025328193,0.50788337
1268610084,-0.09478314,0.07887543,0.0036131726,0.5101917
1268654059,-0.09627235,0.08847317,0.003731405,0.51010776
1268694025,-0.09636511,0.07198669,0.0047330316,0.5124468
1268738076,-0.080168486,0.07995266,0.0052827834,0.51049554
1268782003,-0.08480488,0.10459145,0.0060594683,0.51228905
1268822099,-0.09064761,0.093251534,0.006665208,0.5127603
1268862049,-0.09278749,0.06556007,0.0069332267,0.5147449
1268906054,-0.08735903,0.095194146,0.00707996,0.51435924
1268950016,-0.08772435,0.12786971,0.0068265633,0.5117407
1268990067,-0.11011307,0.09684469,0.0069651185,0.5145732
1269030053,-0.08610143,0.089838326,0.0058084372,0.51297605
1269074033,-0.07418117,0.095781505,0.0049676658,0.51195645
1269118008,-0.09481579,0.08980052,0.0044499566,0.5154165
1269158045,-0.0886053,0.107656606,0.004025683,0.5120211
1269198069,-0.055234876,0.10834701,0.003229461,0.50911576
1269238058,-0.072872505,0.10032685,0.003158783,0.513386
1269278050,-0.09054606,0.09752339,0.00300562,0.51409465
1269318029,-0.07168229,0.10001741,0.0026778227,0.5110972
1269362004,-0.052559976,0.09844452,0.0019176025,0.50877553
1269402011,-0.07433679,0.11254924,0.002067639,0.51155275
1269446031,-0.0794865,0.094531395,0.0015726085,0.5130105
1269486043,-0.057255365,0.08667933,0.00062486215,0.5119274
1269530000,-0.08010688,0.07490942,0.00045690918,0.51321554
1269570015,-0.058532227,0.08483682,-0.0003061589,0.50973785
1269614042,-0.05477107,0.0821792,-0.00083478173,0.5099037
1269658006,-0.060707472,0.06835442,-0.0011189056,0.5136956
1269702093,-0.054343987,0.059482824,-0.0015332394,0.5118662
1269742038,-0.06733086,0.06170429,-0.0018499261,0.51356983
1269786032,-0.06611155,0.067573905,-0.0020478214,0.5141423
1269826026,-0.08170265,0.030430038,-0.002228526,0.5172758
1269870068,-0.06397058,0.01894591,-0.002457416,0.51565343
1269914049,-0.08848508,0.009677857,-0.001973868,0.51994455
1269958017,-0.0685653,0.002314409,-0.0020060414,0.5186554
1269998073,-0.067503,0.0047073904,-0.0014606654,0.51844305
1270038107,-0.07576764,0.009537084,-0.00060174393,0.51909655
1270082086,-0.080284975,0.020757176,-3.9386723e-05,0.5182611
1270122037,-0.072656795,0.0018375195,0.00018607239,0.5219908
1270166147,-0.08536804,-0.0049710767,0.0011092995,0.52516127
1270206093,-0.08002775,0.0003348716,0.0013988782,0.5222643
1270250073,-0.085070826,-0.0095259175,0.0020418111,0.5230021
1270290040,-0.1059193,-0.010679861,0.0023504104,0.5285451
1270334083,-0.09444712,0.0014697575,0.0027184563,0.5268532
1270374106,-0.09349258,-0.017467385,0.0027386127,0.52880013
1270418079,-0.08578969,0.005151296,0.0028588334,0.52788925
1270462043,-0.087324426,-0.009147545,0.003140592,0.53079575
1270502092,-0.10031294,-0.0046505295,0.0032327732,0.52975255
1270542070,-0.088649735,0.022441775,0.0035182883,0.52674097
1270586083,-0.10277884,0.0030242323,0.0034755643,0.53131706
1270630036,-0.09642613,0.030943902,0.0032063602,0.5291243
1270670069,-0.09356814,0.011447333,0.0028255146,0.5296893
1270710085,-0.09798625,0.037651733,0.002338909,0.52540773
1270754071,-0.11117372,0.050958388,0.0018243834,0.5266393
1270794048,-0.10565024,0.0641551,0.0006080947,0.52725184
1270833999,-0.11471067,0.041090064,-9.526067e-05,0.52730477
1270878093,-0.13525498,0.06348003,-0.00062488177,0.52994275
1270917998,-0.12209141,0.06326132,-0.0019493788,0.52910763
1270958009,-0.11841283,0.038855035,-0.0034899397,0.53293276
1270998006,-0.120906696,0.03200363,-0.0044593057,0.5301931
1271042054,-0.12369103,0.049343318,-0.005279966,0.5318227
1271082037,-0.11454288,0.055515334,-0.006648003,0.52982205
1271126004,-0.0859015,0.065538295,-0.008365323,0.52379584
1271166027,-0.07712799,0.074172646,-0.00953595,0.51739234
1271210050,-0.09225144,0.05188206,-0.010475556,0.51317304
1271250037,-0.09442332,0.037434842,-0.011107482,0.51018405
1271293999,-0.083648466,0.032151744,-0.011866305,0.50247705
1271338037,-0.08554592,0.020652987,-0.011902374,0.5015454
1271382039,-0.0883854,0.039464273,-0.01162207,0.496767
1271422016,-0.0785124,0.044510197,-0.011438472,0.49609014
1271466040,-0.06589633,0.048381813,-0.010336409,0.49530667
1271506034,-0.0552907,0.08969593,-0.00923894,0.490975
1271550047,-0.055207755,0.09238092,-0.0075418698,0.4906814
1271590019,-0.053966943,0.13458392,-0.006284804,0.49197388
1271630020,0.44213116,0.87266463,-0.0490011,0.47315678
1271674034,0.42609638,0.87266463,-0.047461778,0.48638204
1271718049,0.3949431,0.87266463,-0.048197914,0.49348336
1271762068,0.31764477,0.87266463,-0.046181574,0.51169354
1271802052,0.2722051,0.87266463,-0.0477284,0.51618403
1271846046,0.2048125,0.87266463,-0.048694193,0.5266115
1271886057,0.6106237,0.5487346,0.7853982,0.52768075
1271930082,0.52254236,0.4510095,0.7853982,0.5346408
1271970059,0.48533556,0.33206505,0.7853982,0.53660434
1272010036,0.36400133,0.27001864,0.7853982,0.5367865
1272054044,0.22607535,0.19468133,0.7853982,0.53137076
1272098094,0.12629798,0.113550365,0.7853982,0.53286135
1272138114,0.060608838,0.06980988,0.7853982,0.5312032
1272182093,-0.047925346,0.002647946,0.7853982,0.5324818
1272226030,-0.13630576,-0.019289304,0.7853982,0.5311681
1272270010,-0.19855316,-0.08105198,0.7853982,0.53412306
1272313995,-0.24206422,-0.13376953,0.7853982,0.5381122
1272358006,-0.29539332,-0.13140778,0.7853982,0.535731
1272402005,-0.3176704,-0.15078643,0.7853982,0.5403924
1272442038,-0.3431212,-0.19577327,0.7853982,0.54323244
1272482023,-0.31299707,-0.21244648,0.7853982,0.54366237
1272526058,-0.3028035,-0.2131382,0.7853982,0.54377943
1272566016,-0.2971814,-0.2200939,0.7853982,0.5446961
1272610007,-0.25830534,-0.22494291,0.7853982,0.54078054
1272650026,-0.20003004,-0.21653178,0.7853982,0.5362727
1272694004,-0.19117033,-0.19929457,0.7853982,0.5343551
1272734005,-0.18015942,-0.19070666,0.7853982,0.53082764
1272778044,-0.0966337,-0.17952065,0.7853982,0.5226986
1272818013,-0.06316635,-0.19499274,0.7853982,0.52159745
1272862004,-0.03897216,-0.1941288,0.7853982,0.5192423
1272902013,0.028417934,-0.18020621,0.7853982,0.50911736
1272946009,0.028947204,-0.17267755,0.73378056,0.5095668
1272986030,0.061534084,-0.15570214,0.6760534,0.50562876
1273033988,0.1065036,-0.15821853,0.61892307,0.4994298
1273078017,0.14352521,-0.14084709,0.55676204,0.49167693
1273118004,0.13068715,-0.15191658,0.50241816,0.49152225
1273161992,0.13442592,-0.1792185,0.45237908,0.48593187
1273202029,0.121380135,-0.17417699,0.40401703,0.48440793
1273242019,0.11125548,-0.20386885,0.36133617,0.48725492
1273290025,0.1174824,-0.19748735,0.3107819,0.48242116
1273330010,0.12197511,-0.25271365,0.27746242,0.48285696
1273370046,0.15837298,-0.2427804,0.24363382,0.48107094
1273414012,0.13600066,-0.26770338,0.20920432,0.4787362
1273458038,0.1272834,-0.33063218,0.1817429,0.48006266
1273498025,0.14739896,-0.32130396,0.14591528,0.47927266
1273538101,0.14210537,-0.32512122,0.12021668,0.48072043
1273578039,0.14427356,-0.33736396,0.10062063,0.48300767
1273622011,0.12856601,-0.34781888,0.0786812,0.48031497
1273662011,0.12792313,-0.317003,0.057859894,0.47639498
1273706040,0.11739893,-0.3339655,0.043580353,0.47898662
1273746038,0.10482103,-0.36712512,0.028157527,0.48596802
1273790015,0.10753255,-0.34796324,0.013584533,0.487683
1273834050,0.082273796,-0.34580195,0.0030586172,0.48782438
1273874036,0.14901684,-0.36225796,-0.0047470597,0.48506734
1273914042,0.11870164,-0.32682353,-0.015791789,0.48231924
1273958005,0.122802615,-0.34425884,-0.020460999,0.48299935
1274002030,0.10538752,-0.3470137,-0.0245107,0.4859642
1274046014,0.15638761,-0.33480144,-0.02842755,0.48219857
1274090069,0.14190337,-0.30884215,-0.040471945,0.48324668
1274130060,0.13714765,-0.33770603,-0.04170705,0.48404387
1274174048,0.18167132,-0.29092276,-0.045703653,0.47979057
1274218044,0.17500341,-0.31081498,-0.044195067,0.48194286
1274262014,0.18281868,-0.34647313,-0.042624984,0.4866711
1274306000,0.16652341,-0.313119,-0.045010142,0.48272628
1274346017,0.17386273,-0.34661347,-0.043574918,0.48563978
1274386061,0.09893161,-0.3933498,-0.042564623,0.48177728
1274430021,0.01653347,-0.4759063,-0.04054005,0.48643818
1274473998,-0.0153714735,-0.5472896,-0.03822001,0.48814628
1274521997,-0.10351365,-0.5964005,-0.039100386,0.48586845
1274569995,-0.09081155,-0.6786359,-0.03393898,0.48269284
1274610029,-0.12379542,-0.7136846,-0.034527976,0.4846577
1274654033,-0.13116327,-0.7620461,-0.03475864,0.4817159
1274698006,-0.13341579,-0.7543506,-0.045742825,0.48230204
1274742122,-0.12146483,-0.760291,-0.046982817,0.48316756
1274786054,-0.07812048,-0.7098617,-0.047614772,0.48126525
1274826053,-0.07436911,-0.72658956,-0.047441106,0.48351923
1274870091,-0.07301045,-0.69737005,-0.04929447,0.48299608
1274910064,-0.06133943,-0.6761178,-0.04715673,0.4874776
1274954075,-0.052010957,-0.6710849,-0.045877807,0.490568
1274994059,-0.048445098,-0.60890007,-0.0485209,0.48848805
1275038100,0.030660957,-0.55977076,-0.045695268,0.4888879
1275078160,0.012983401,-0.54405195,-0.044617552,0.49103388
1275122060,0.011215833,-0.5116948,-0.044467513,0.49842218
1275162053,0.095358856,-0.48744345,-0.04209499,0.49210745
1275206122,0.06436639,-0.43636754,-0.039534695,0.4961939
1275250003,0.08904533,-0.33468634,-0.034207713,0.49001992
1275298003,0.12264688,-0.29072267,-0.028237266,0.48912865
1275338006,0.13800332,-0.20309591,-0.027026035,0.48597825
1275382012,0.1545822,-0.15255018,-0.02125174,0.48704207
1275425989,0.20034331,-0.11068101,-0.016643835,0.48453593
1275470010,0.19658534,-0.032031134,-0.009162239,0.48401135
1275514005,0.12816112,-0.03622367,-0.004739835,0.49509785
1275558045,0.16492948,0.00898931,0.000118621494,0.49459445
1275602090,0.14946905,0.02671488,0.0046450514,0.49066332
1275642021,0.16284466,0.049261868,0.008733384,0.49363926
1275690042,0.15289684,0.04672326,0.008228626,0.4968376
1275730149,0.17283551,0.05958242,0.010799278,0.49650925
1275774006,0.11405524,-0.00034345945,0.01270749,0.50984
1275814047,0.15355814,0.051410526,0.014732771,0.5030177
1275858043,0.14899287,0.054756142,0.01679012,0.5022607
1275898054,0.13241953,0.02059383,0.01784255,0.5112284
1275942000,0.1488508,0.0076705427,0.01870662,0.51103526
1275982051,0.1596746,0.038852584,0.019840222,0.5085609
1276022049,0.12966266,0.0112892045,0.020240268,0.514044
1276066056,0.12067796,-0.01477984,0.01983401,0.51176345
1276106079,0.11306434,-0.04655028,0.018690703,0.51172185
1276146010,0.15388477,-0.053487953,0.016734384,0.5078754
1276190029,0.122401655,-0.0445711,0.014581349,0.5100406
1276234050,0.07551254,-0.11441775,0.012434034,0.5166113
1276274047,0.12588683,-0.12097693,0.011482859,0.50804454
1276314022,0.12699918,-0.17013443,0.010313333,0.51004666
1276358065,0.08998646,-0.16098055,0.008810764,0.5058497
1276398057,0.16094671,-0.1669095,0.0076009743,0.49926955
1276442037,0.09936545,-0.22600059,0.007291398,0.51289433
1276482002,0.09733715,-0.20215413,0.006496843,0.50521857
1276530003,0.081889294,-0.20307878,0.004454686,0.5046387
1276570125,0.053511545,-0.20501177,0.0041418653,0.50850546
1276614011,0.014039865,-0.26034412,0.003265385,0.516461
1276658049,0.011298839,-0.24849263,0.0014498003,0.5140177
1276701992,0.0011227375,-0.23462301,0.0006464625,0.51825017
1276742006,0.015952906,-0.26649916,-0.00020959476,0.51503634
1276786005,0.011298803,-0.2315339,-0.0021936097,0.50914115
1276826010,-0.0122202225,-0.2680605,-0.003863763,0.51222175
1276866009,-0.04203886,-0.30224183,-0.0051258914,0.515604
1276906045,-0.007427183,-0.30950403,-0.006032604,0.51267004
1276950111,-0.05623872,-0.33172792,-0.007377312,0.5183311
1276994000,-0.10620525,-0.3402003,-0.009749416,0.5150628
1277042004,-0.08333726,-0.3786045,-0.011670233,0.51818424
1277082024,-0.07452729,-0.38059512,-0.013669346,0.51271904
1277126000,-0.116062075,-0.3970713,-0.016228165,0.51126087
1277166040,-0.11146038,-0.41393086,-0.017499883,0.520833
1277210007,-0.117723234,-0.40593645,-0.01875522,0.516249
1277254005,-0.10991906,-0.3395623,-0.02067142,0.5145474
1277294020,-0.12929556,-0.32749668,-0.021685641,0.5181488
1277334038,-0.15777312,-0.34915072,-0.022260204,0.52679086
1277378006,-0.13672549,-0.29584578,-0.023585057,0.52548504
1277426028,-0.171008,-0.28152713,-0.024803605,0.53589946
1277466009,-0.1263901,-0.2243726,-0.026699193,0.53049797
1277510000,-0.14940035,-0.2320458,-0.026943527,0.53589416
1277550003,-0.17677853,-0.19134215,-0.028228275,0.5372224
1277594044,-0.18112224,-0.16317782,-0.029230379,0.53784394
1277634006,-0.17952962,-0.17410214,-0.029410113,0.5379479
1277678007,-0.17863882,-0.19296794,-0.030177107,0.5440038
1277718003,-0.17036371,-0.18825626,-0.031234656,0.54203105
1277762097,-0.17807598,-0.17077434,-0.032131504,0.5359182
1277802013,-0.15057814,-0.18189232,-0.032397248,0.5354501
1277846010,-0.14680052,-0.20486677,-0.031517707,0.5403637
1277886037,-0.17693928,-0.19528706,-0.03110927,0.5323918
1277930007,-0.15237159,-0.17512217,-0.030354043,0.52782327
1277970021,-0.13114844,-0.15539363,-0.029523086,0.5236129
1278014009,-0.14222774,-0.16320986,-0.0281722,0.52193683
1278058002,-0.14280018,-0.18968083,-0.026942562,0.52764606
1278098000,-0.10967271,-0.13653554,-0.02612503,0.52207947
1278138036,-0.11351898,-0.12707281,-0.024639132,0.52586675
1278182005,-0.13980144,-0.13425952,-0.023105158,0.52899945
1278222030,-0.0980019,-0.09864673,-0.022650987,0.5241052
1278262032,-0.11047469,-0.09320512,-0.02167192,0.5297651
1278305999,-0.1112607,-0.08613899,-0.020584768,0.531503
1278346008,-0.12377908,-0.05047757,-0.01934268,0.5276694
1278386004,-0.13204694,-0.050869234,-0.018996969,0.5332185
1278430043,-0.11579423,-0.051768765,-0.018194616,0.53613955
1278470027,-0.16008498,-0.07804752,-0.017067058,0.5420325
1278514013,-0.11853049,-0.038962033,-0.01731649,0.5383203
1278554006,-0.13248606,-0.062110335,-0.016450522,0.5398663
1278601992,-0.1266774,-0.053147685,-0.015402769,0.5382944
1278642012,-0.12540586,-0.055919997,-0.01379714,0.53408164
1278690042,-0.14736159,-0.09402673,-0.011242221,0.5419693
1278730020,-0.12727028,-0.093248755,-0.008897475,0.53707016
1278774062,-0.095510185,-0.087013654,-0.006071371,0.5325557
1278814035,-0.09775389,-0.086212374,-0.0034429946,0.52840364
1278858055,-0.06516585,-0.086039096,-0.00075448904,0.5259691
1278898040,-0.0682016,-0.08341409,0.0021393402,0.52441204
1278946003,-0.05547369,-0.093801565,0.006041473,0.52189887
1278986050,-0.078660145,-0.13062268,0.009149201,0.52849525
1279034002,-0.024706123,-0.109349996,0.011577972,0.5199545
1279082043,-0.017327053,-0.09419689,0.014522358,0.5167186
1279122035,0.039426643,-0.09220428,0.016404968,0.5107442
1279166004,0.048557058,-0.12639481,0.018148294,0.5128059
1279206012,0.03793719,-0.11703544,0.020023538,0.51208746
1279246009,0.07721391,-0.111088835,0.020627242,0.50801593
1279290046,0.08841667,-0.13734494,0.02173572,0.50985956
1279330022,0.09476385,-0.12813747,0.02279643,0.50254005
1279370142,0.120761,-0.12775135,0.023500994,0.5026713
1279414005,0.08900746,-0.15148614,0.024291942,0.505239
1279458011,0.108580425,-0.15480149,0.02429472,0.49848473
1279498000,0.14246365,-0.16672426,0.023423404,0.49668118
1279538002,0.13575298,-0.15971908,0.022946367,0.49295986
1279582008,0.1582278,-0.1600635,0.02156931,0.49141514
1279626010,0.17234857,-0.19288632,0.021054864,0.49433503
1279670003,0.16674154,-0.17610702,0.018890783,0.4885569
1279709999,0.11915523,-0.20952076,0.019505782,0.49662882
1279754079,0.17024577,-0.16823956,0.017275427,0.4872433
1279794003,0.18774426,-0.1958996,0.016372098,0.48252276
1279838006,0.16817637,-0.25784332,0.01709729,0.48739403
1279878005,0.17633972,-0.22198324,0.015041784,0.47951677
1279922021,0.2091509,-0.21303569,0.012930371,0.47737324
1279962006,0.15458736,-0.24931385,0.012011437,0.48286396
1280006022,0.207067,-0.23224215,0.009357659,0.46880496
1280050003,0.1959053,-0.24792641,0.0071676676,0.47694948
1280090006,0.17022426,-0.23601991,0.0037199468,0.47459784
1280130015,0.1766575,-0.22567306,0.0005162213,0.4698952
1280174016,0.17007484,-0.28568628,0.0006563342,0.46795854
1280218016,0.17200361,-0.2757951,-0.0018253456,0.4684216
1280258058,0.11441491,-0.2285685,-0.0055381604,0.46935278
1280297996,0.11842377,-0.2595431,-0.0048995856,0.47033787
1280342012,0.09138472,-0.24778372,-0.0070792884,0.46876815
1280386015,0.08336967,-0.20906849,-0.009606067,0.47349876
1280430028,0.06437897,-0.25098354,-0.008229209,0.47553626
1280470003,0.12230994,-0.20172912,-0.011232495,0.4688009
1280510052,0.08540231,-0.18696713,-0.011950458,0.4743514
1280553999,0.108018085,-0.16741039,-0.0132215815,0.47124738
1280594030,0.025380936,-0.1847366,-0.011247221,0.47794187
1280634008,0.060174473,-0.15474,-0.012391988,0.4778007
1280678058,0.050151203,-0.104056045,-0.013583381,0.4752871
1280722003,-0.007908832,-0.14830199,-0.00972844,0.48668078
1280762006,0.022022251,-0.0898246,-0.011624414,0.47634292
1280806056,0.009222282,-0.13026783,-0.008213375,0.48309323
1280846036,0.07301183,-0.12249578,-0.0067171715,0.47544175
1280890024,0.054098345,-0.12644216,-0.004440474,0.4787829
1280934043,0.025218178,-0.10081833,-0.0030029141,0.48046076
1280974034,0.06624539,-0.10762426,-0.0013714735,0.4722104
1281018024,0.057367105,-0.13112926,0.0010089349,0.4739323
1281058020,0.08697931,-0.10681092,0.00085015694,0.47130856
1281102048,0.034957875,-0.100102834,0.0011610462,0.4726881
1281142060,0.11057426,-0.15768741,0.003550979,0.4691295
1281186022,0.05755997,-0.121301055,0.0029056566,0.46967915
1281226030,0.06260064,-0.12052724,0.0025711535,0.4726581
1281270050,0.05610536,-0.09649667,0.0022515585,0.4704149
1281314105,0.006989262,-0.08985023,0.0020954653,0.47921476
1281354006,-0.0265551,-0.031692084,0.00035534415,0.48331922
1281398070,-0.06555335,-0.020824302,0.00069009594,0.49232107
1281438053,-0.013875628,0.018507162,-0.001933682,0.48982713
1281482050,-0.054292466,-0.016144898,-0.0005771235,0.5006085
1281522016,-0.09977482,0.011922442,-0.0022829808,0.5014319
1281566112,-0.07104953,0.004209635,-0.00382746,0.49940643
1281606064,-0.0801756,-0.016524477,-0.004587072,0.50367576
1281650054,-0.06042834,0.023543458,-0.007521632,0.49841553
1281690029,-0.12061131,-0.005171617,-0.0064180186,0.49654317
1281734101,-0.0730852,-0.030740084,-0.005893451,0.49895626
1281778047,-0.05435031,-0.021253249,-0.00596493,0.4958946
1281826007,0.06297771,-0.049386732,-0.0056332974,0.47703922
1281865999,0.01638833,-0.08042375,-0.00379158,0.48588282
1281909997,0.08995693,-0.049322948,-0.0046697054,0.47600725
1281950044,0.13639498,-0.110392384,-0.0042921673,0.46599144
1281994004,0.13845013,-0.11908476,-0.0054857903,0.46058926
1282034010,0.16815363,-0.18605486,-0.005241822,0.456152
1282078032,0.19993086,-0.17603584,-0.0073536546,0.44661498
1282122008,0.19990164,-0.27738556,-0.0056616883,0.44464123
1282166032,0.19785696,-0.27128282,-0.006745146,0.43890107
1282206038,0.22797859,-0.24860254,-0.0072752684,0.43606037
1282250009,0.19841667,-0.24496709,-0.008056189,0.43182665
1282290041,0.13509294,-0.32351997,-0.0055936966,0.43823457
1282330025,0.10290004,-0.32574242,-0.0059764446,0.43425557
1282370004,0.2064976,-0.33132315,-0.004321667,0.43221834
1282418008,0.11089361,-0.3714494,-0.004873593,0.43135124
1282462003,0.12794153,-0.41638902,-0.0018776938,0.4337375
1282502033,0.07828547,-0.39148384,-0.0042572506,0.43426117
1282546009,0.016073916,-0.34016615,-0.007647986,0.43111816
1282586000,-0.010815282,-0.33085316,-0.0077580377,0.43238205
1282630010,-0.037124917,-0.27153772,-0.010780402,0.43365636
1282670047,-0.05321394,-0.2224504,-0.012781461,0.4393387
1282714019,-0.0124690095,-0.23576471,-0.011828976,0.43293115
1282754001,-0.061205603,-0.1874578,-0.013667608,0.43712375
1282798034,-0.06779875,-0.16340023,-0.014090155,0.44337684
1282838029,-0.110559344,-0.16695009,-0.014219763,0.4472984
1282882006,-0.08673799,-0.10146327,-0.016643826,0.44337314
1282922006,-0.06647041,-0.117594704,-0.016615298,0.44506565
1282966025,-0.022183439,-0.123673126,-0.0187384,0.4468368
1283006074,-0.08139197,-0.12311356,-0.019264419,0.4463586
1283050006,-0.056253824,-0.13088924,-0.02063817,0.44688275
1283090003,-0.034383196,-0.07858846,-0.022719616,0.44179425
1283134029,-0.044959657,-0.0850351,-0.022616124,0.44811517
1283174030,-0.078065805,-0.100498244,-0.021577587,0.45087755
1283218001,-0.07089643,-0.106479436,-0.021802885,0.44746777
1283258012,-0.079069845,-0.08981734,-0.021804394,0.44200298
1283302050,-0.056308046,-0.11773775,-0.020597951,0.44564956
1283342065,0.016489673,-0.14535938,-0.020608183,0.44621393
1283386030,-0.05455376,-0.1603685,-0.019050766,0.44676188
1283426003,-0.075501874,-0.1643378,-0.018182153,0.4503488
1283470033,-0.07536594,-0.14283513,-0.017437823,0.4508978
1283510023,-0.06242737,-0.14046451,-0.015831795,0.44940415
1283554036,-0.07278348,-0.08350766,-0.01567516,0.4500215
1283594017,-0.1528044,-0.061896242,-0.014596006,0.46053132
1283638051,-0.13138561,-0.0040740212,-0.0141210295,0.45928782
1283678059,-0.05709409,0.009007619,-0.013962882,0.45888978
1283722006,-0.12720941,0.0022131437,-0.012024922,0.4725125
1283762004,-0.19058025,0.023380585,-0.010381817,0.47405946
1283806031,-0.1780444,-0.030818362,-0.009241925,0.47508076
1283846046,-0.18565094,-0.034764428,-0.008351851,0.47538593
1283890000,-0.2171776,-0.0064212065,-0.007956445,0.471163
1283930019,-0.18513192,-0.062473867,-0.009010386,0.46919742
1283974048,-0.14982378,-0.058353506,-0.008532494,0.46422148
1284018008,-0.17503291,-0.092913166,-0.007779276,0.46324015
1284058010,-0.19035973,-0.0757056,-0.0076199314,0.4592679
1284097997,-0.21505535,-0.121515736,-0.006130507,0.46519393
1284142036,-0.2129376,-0.13142872,-0.005673698,0.46089557
1284182006,-0.21116994,-0.1683066,-0.005434558,0.46202958
1284226003,-0.16175893,-0.15306336,-0.004691377,0.4569841
1284266011,-0.1802886,-0.13802068,-0.0029859853,0.45433676
1284309993,-0.12195708,-0.1675626,-0.00228079,0.45314148
1284350004,-0.097308435,-0.11989054,-0.0014396337,0.44600475
1284394004,-0.05650366,-0.12173254,-0.00088961225,0.4409456
1284434003,0.0051074885,-0.16035496,0.0008968463,0.44079635
1284478020,0.040261455,-0.14977062,0.0011482809,0.44035256
1284518003,-0.07961987,-0.13471016,0.002515938,0.4410394
1284562004,0.0115333665,-0.17644387,0.0038626408,0.43952057
1284602006,0.016454378,-0.17690694,0.0054126144,0.43472084
1284646034,-0.02726451,-0.14105181,0.0072153257,0.436299
1284686012,-0.057439193,-0.11797912,0.007685035,0.43334782
1284730122,-0.04523509,-0.20782456,0.009607605,0.4380443
1284770256,-0.040543444,-0.13225344,0.01122588,0.43796575
1284810051,-0.03944132,-0.12032167,0.011363436,0.43777168
1284850035,-0.07146132,-0.0890507,0.011602627,0.44117436
1284894015,-0.05909297,-0.10567511,0.013284483,0.4456494
1284934037,-0.106869586,-0.057118386,0.014968324,0.44978178
1284974038,-0.13261724,-0.06841016,0.015956244,0.45706528
1285018052,-0.15364093,-0.037044007,0.01726466,0.45882487
1285058027,-0.17026919,-0.016347557,0.019094435,0.467831
1285102018,-0.1313392,0.021750677,0.019447077,0.4611521
1285142009,-0.1454633,0.006873309,0.019443613,0.46193478
1285186050,-0.15455133,0.022221787,0.019157484,0.46344355
1285226050,-0.12794876,0.037731986,0.01934906,0.4703865
1285270008,-0.18126038,0.018136282,0.018473972,0.46751553
1285314051,-0.18726048,0.010780992,0.016701307,0.462168
1285354041,-0.15530011,-0.024532743,0.014987329,0.45836776
1285398008,-0.08897943,-0.08270164,0.013666469,0.45635858
1285438004,-0.1645604,-0.07346235,0.013642647,0.4569307
1285482070,-0.15589276,-0.08537139,0.012456651,0.44608876
1285522044,-0.08338439,-0.13440901,0.012058957,0.44621402
1285566017,0.0008024644,-0.13055909,0.012850907,0.43965465
1285606001,-0.020195456,-0.17398581,0.012300812,0.44260705
1285650073,-0.0859763,-0.11617108,0.01166717,0.43750185
1285690049,-0.034485526,-0.12625188,0.011603976,0.44001928
1285734034,0.014012185,-0.1528509,0.013635616,0.43789735
1285774011,-0.037007976,-0.1064629,0.013105424,0.43507922
1285818043,-0.096352875,-0.1097806,0.013951543,0.43880984
1285858040,-0.08287497,-0.08832814,0.014340799,0.43952793
1285902012,-0.005644295,-0.089236006,0.013685296,0.43602276
1285942023,-0.108426474,-0.07372089,0.014096783,0.44209152
1285982015,-0.07899857,-0.042469323,0.01260213,0.4362201
1286026065,-0.026107065,-0.025903713,0.011503784,0.43687865
1286066015,0.012523181,-0.07145748,0.009750289,0.44063506
1286109993,-0.058903098,0.00055565406,0.009153994,0.43824905
1286150003,-0.011246506,0.028565025,0.00734873,0.43829736
1286194009,-0.015154737,0.000891629,0.0074676545,0.44460738
1286234007,0.0016103885,0.062551215,0.004988293,0.44111338
1286278025,-0.06512488,0.07022427,0.005292582,0.44405293
1286317999,-0.013328156,0.095675856,0.003922662,0.4371725
1286358039,-0.016028814,0.034677714,0.004593063,0.44960016
1286402016,-0.014920865,0.09972481,0.0043787924,0.44317064
1286446002,-0.12563711,0.09899095,0.0074067204,0.44894242
1286489999,-0.058138065,0.09184568,0.0075549716,0.44483933
1286530001,-0.025940424,0.016707525,0.008184606,0.44939497
1286570003,-0.00976448,0.027295314,0.0073205302,0.44480422
1286614001,-0.025144948,0.010763852,0.00786946,0.44261923
1286658012,-0.0009759482,-0.003263093,0.0075189862,0.441308
1286698006,0.041713327,-0.02793447,0.0069469563,0.4312309
1286742039,0.009154322,-0.022517402,0.006298758,0.4341666
1286782023,0.020716019,-0.050911583,0.0061330236,0.43111977
1286826013,0.028904682,-0.044821516,0.004989602,0.43899444
1286866022,0.017566117,-0.08556872,0.0047844257,0.43146387
1286905997,0.035690233,-0.05310589,0.003648077,0.42692876
1286950033,0.025156638,-0.04753704,0.0030500065,0.43352875
1286994006,0.030575095,-0.011498704,0.0017534574,0.42818832
1287033999,0.028097212,-0.05485114,0.0017308654,0.42938235
1287078032,-0.04463979,-0.029689196,0.001318513,0.4271757
1287122007,0.0023997163,-0.055532984,0.0020106882,0.4312329
1287162013,-0.008493541,-0.04318897,0.002819426,0.43171862
1287206021,0.04054398,-0.045159906,0.002968274,0.42662036
1287246020,0.006950774,-0.030600507,0.0028580471,0.42479593
1287290004,-0.024376152,-0.04238599,0.0047734566,0.42601243
1287330005,-0.035404228,-0.00781341,0.0044790288,0.42300916
1287370032,-0.07840583,-0.03605718,0.0066970596,0.42733142
1287414025,-0.0046125883,-0.018938879,0.0062009594,0.42615485
1287454043,-0.08108252,0.003690327,0.008208545,0.43122053
1287498007,-0.120186366,0.01950003,0.009524048,0.4271376
1287542033,-0.082175635,-0.005466675,0.010136227,0.43715766
1287586005,-0.03509875,0.034446023,0.01030017,0.4325782
1287626001,-0.06649421,0.028195173,0.011306161,0.43682468
1287670052,-0.09048969,0.017653663,0.012744918,0.44424424
1287710013,-0.04084287,0.09220988,0.011814315,0.44130826
1287753998,-0.07802895,0.11154963,0.012826188,0.44928658
1287794008,-0.050996646,0.08156732,0.013527181,0.4481869
1287838002,0.014254333,0.11390397,0.012971677,0.45492753
1287878063,-0.0011093987,0.12273438,0.012131348,0.46190217
1287922006,0.013138388,0.16622761,0.010199535,0.46016398
1287962006,0.06009414,0.18149823,0.009486201,0.4609768
1288006053,0.10605706,0.20851757,0.007680992,0.46508554
1288046035,0.08169384,0.19006304,0.008531352,0.46372423
1288089993,0.12494719,0.19620128,0.0075424165,0.46672562
1288130009,0.16559076,0.17400654,0.006303897,0.4654256
1288174036,0.20795016,0.17594208,0.0053054523,0.46976745
1288217996,0.17485853,0.11668206,0.00694325,0.47323024
1288258007,0.25753295,0.14858638,0.0041273898,0.46631455
1288297993,0.25481513,0.16499884,0.0035789716,0.46484807
1288342044,0.2638673,0.16366777,0.002721189,0.46588367
1288382024,0.22476125,0.14964588,0.0030760006,0.46849388
1288422049,0.32992864,0.16524018,-0.0004690375,0.4616187
1288466004,0.26582512,0.17920016,-0.0006894694,0.46584448
1288510027,0.22302572,0.11627689,0.0012499157,0.47023243
1288550052,0.26918948,0.12804449,-0.0012631335,0.46484256
1288594009,0.22959515,0.122406594,-0.0010851249,0.4746741
1288634002,0.2764816,0.12289057,-0.002964211,0.4670156
1288678054,0.2563936,0.12681924,-0.0039545996,0.46502346
1288718027,0.21384057,0.06676124,-0.0024246485,0.47548124
1288762007,0.15739411,0.07352622,-0.0039898804,0.47249618
1288802008,0.21419345,0.04960978,-0.006939839,0.47359374
1288846031,0.14406645,0.054866876,-0.007833718,0.47745267
1288885999,0.19992962,0.035886277,-0.010919458,0.47180656
1288930010,0.16658561,0.058926597,-0.01355775,0.47148874
1288970020,0.10082681,0.07177235,-0.015127177,0.4727122
1289014052,0.13958709,0.023205316,-0.014844268,0.4795546
1289058107,0.10219782,0.05012229,-0.017391171,0.47964454
1289102042,0.07619844,0.06953791,-0.01876024,0.48284626
1289142052,0.096466266,0.06824038,-0.02020093,0.48485202
1289186007,0.05897751,0.09261599,-0.021769088,0.48275474
1289226013,0.107590064,0.11915698,-0.025445726,0.47872224
1289270052,0.08985139,0.108657286,-0.025826849,0.48573357
1289310029,0.078261726,0.10151586,-0.026646063,0.48429754
1289354003,0.1276927,0.13331127,-0.028881757,0.47859102
1289394001,0.08893206,0.106523946,-0.027434072,0.48471233
1289438047,0.10782478,0.11489568,-0.027559351,0.4804943
1289478009,0.09189622,0.078889355,-0.025473643,0.4876619
1289521998,0.08894518,0.12012699,-0.027390366,0.48480248
1289562007,0.0521081,0.13986775,-0.026556231,0.48832282
1289606048,0.043035146,0.14768647,-0.026286796,0.48980778
1289646014,0.036232747,0.13855983,-0.02511087,0.49384156
1289686005,0.023067763,0.18378472,-0.02571996,0.4929197
1289726000,0.02825522,0.13660964,-0.02339086,0.49470088
1289770017,-0.00063949556,0.13298182,-0.022064721,0.49761346
1289810027,0.02720008,0.13754168,-0.021854468,0.4941694
1289854014,0.018025994,0.10862861,-0.020018073,0.5009013
1289894004,-0.011714192,0.12259804,-0.019290712,0.50357026
1289938027,0.021544782,0.11398109,-0.019021314,0.50141054
1289978031,0.019824307,0.07375076,-0.017014872,0.5068841
1290022013,0.03393051,0.13622439,-0.018879183,0.49749237
1290061997,0.0031067478,0.10405301,-0.017169163,0.5047916
1290106014,0.010250629,0.12668476,-0.017940465,0.49944416
1290146037,-0.015825205,0.12063939,-0.01740042,0.5015936
1290190007,-0.057687603,0.124245636,-0.017401984,0.5037944
1290230011,-0.013099344,0.13282904,-0.018486252,0.5031684
1290274015,-0.04592374,0.082796834,-0.015966695,0.50702286
1290314039,0.013229984,0.09538634,-0.016753916,0.5015408
1290358006,-0.0066901105,0.077004984,-0.0156041505,0.50444573
1290398010,-0.012541803,0.087545216,-0.014430021,0.5015127
1290442038,0.014456881,0.07602104,-0.014290659,0.5001302
1290482055,0.016259003,0.06461385,-0.01501391,0.49648538
1290525997,0.09755018,0.1263456,-0.017748438,0.48757488
1290566003,0.016448736,0.0814,-0.01485353,0.49373543
1290610035,0.045875534,0.09883904,-0.01567453,0.48783514
1290650037,0.09452766,0.086834624,-0.01635569,0.48114005
1290694000,0.04092984,0.045801252,-0.014163626,0.489876
1290734011,0.008603475,0.0779384,-0.014431312,0.4863615
1290778057,0.011092654,0.07995943,-0.014346153,0.4904402
1290818049,0.0262261,0.055341832,-0.014062735,0.4885877
1290862018,0.00910841,0.07714916,-0.013664863,0.49224976
1290902003,-0.014571668,0.09642379,-0.012239607,0.49216512
1290946042,-0.049636446,0.038184516,-0.009033153,0.50473654
1290986051,-0.06860848,0.08902143,-0.00853023,0.5015666
1291030003,-0.08041304,0.05010676,-0.0066848085,0.51024747
1291070010,-0.08860037,0.033842348,-0.0048966585,0.5161763
1291114050,-0.034820512,0.07686148,-0.0052214274,0.5078857
1291154117,-0.07438479,0.093321525,-0.003901344,0.50901896
1291194015,-0.055252746,0.047644626,-0.0026300224,0.5090408
1291234013,-0.05594528,0.041773234,-0.0006766238,0.5132897
1291274011,-0.0064068106,0.06479864,-0.0011157893,0.5048516
1291317999,-0.0039507505,0.04867092,-6.425062e-05,0.50813276
1291358014,-0.033771906,0.055447914,0.0010035019,0.50689155
1291398049,0.006855352,0.044413377,0.0009363917,0.5040849
1291438096,-0.002506044,0.062689655,0.0027139992,0.5041213
1291482011,-0.030568168,0.032220323,0.0046539567,0.5129643
