timestamp,lat,lon,alt,delta_alt,vel_n,vel_e,vel_d,yaw,eph,epv,terrain_alt,lat_lon_reset_counter,alt_reset_counter,terrain_alt_valid,dead_reckoning
1244762829,37.102553056180454,-76.38846018562289,2.464294,-0.0,-0.027737038,0.12652113,-0.005798462,-0.11011748,1.0141118,1.2091192,0.0,2,0,0,0
1244966764,37.102552901068655,-76.38845985636935,2.454789,-0.0,-0.028622411,0.12862523,-0.003011739,-0.11019784,1.0142637,1.2092868,0.0,2,0,0,0
1245170755,37.102552742174595,-76.38845951542666,2.4503279,-0.0,-0.026976852,0.12833287,-0.009492272,-0.1102877,1.0142479,1.2093387,0.0,2,0,0,0
1245374823,37.10255258829782,-76.38845919932476,2.44582,-0.0,-0.038016953,0.110682346,0.0053639445,-0.10972915,1.0145186,1.2091805,0.0,2,0,0,0
1245574760,37.102552451051075,-76.38845887411459,2.4342155,-0.0,-0.025792371,0.13517109,0.004617663,-0.11017824,1.0144763,1.2092372,0.0,2,0,0,0
1245774620,37.1025523207085,-76.3884585370755,2.4187562,-0.0,-0.038313687,0.14247076,-0.0045415284,-0.110336445,1.0144795,1.2092878,0.0,2,0,0,0
1245978750,37.10255222914484,-76.38845841138743,2.4203808,-0.0,0.11559406,-0.27130437,-0.35264516,-0.11258983,1.014352,1.2093418,0.0,2,0,0,0
1246182791,37.10255247684037,-76.38845948193962,2.5594687,-0.0,0.20956665,-0.55165035,-0.91431624,-0.11123259,1.014639,1.2091825,0.0,2,0,0,0
1246382766,37.102552825469076,-76.38846116189772,2.7702224,-0.0,0.28876197,-0.78679293,-1.0150024,-0.10303101,1.0147071,1.209238,0.0,2,0,0,0
1246586792,37.10255329002314,-76.38846306589626,2.9922135,-0.0,0.32441065,-0.8659904,-1.0352119,-0.09599262,1.0147611,1.2092979,0.0,2,0,0,0
1246790774,37.1025537996344,-76.38846491181474,3.2594938,-0.0,0.2989178,-0.8094782,-1.0372261,-0.087082416,1.0150812,1.2091453,0.0,2,0,0,0
1246994773,37.10255430189999,-76.38846652872485,3.5163066,-0.0,0.2565563,-0.6754769,-1.043535,-0.07900028,1.0150483,1.2092065,0.0,2,0,0,0
1247194791,37.102554583181266,-76.3884677550106,3.7226093,-0.0,0.17696491,-0.5084532,-1.0287788,-0.0767585,1.0149592,1.2092729,0.0,2,0,0,0
1247398729,37.10255466589742,-76.3884686608499,3.917964,-0.0,0.09543535,-0.33284286,-1.0344799,-0.077731915,1.0151062,1.2091328,0.0,2,0,0,0
1247602818,37.10255457400715,-76.38846926888984,4.126154,-0.0,0.035907973,-0.18476485,-1.0121355,-0.079945184,1.014962,1.2091959,0.0,2,0,0,0
1247806722,37.10255438076748,-76.38846959642231,4.335762,-0.0,-0.00044128153,-0.0696875,-0.96167153,-0.085954934,1.0151055,1.2090582,0.0,2,0,0,0
1248006653,37.10255410611898,-76.38846966796551,4.538174,-0.0,0.0011437829,0.0648594,-0.9356115,-0.09183727,1.0149345,1.2091184,0.0,2,0,0,0
1248210749,37.10255382948103,-76.38846940145893,4.7502365,-0.0,0.02328177,0.16856872,-0.9371748,-0.09291536,1.014744,1.2091773,0.0,2,0,0,0
1248414715,37.10255358226525,-76.3884689756918,4.959219,-0.0,0.049672715,0.23034835,-0.94905615,-0.091089234,1.0148505,1.2093498,0.0,2,0,0,0
1248618625,37.10255344986457,-76.38846838548095,5.153001,-0.0,0.08970792,0.28018048,-0.95761555,-0.089746356,1.0146401,1.2094078,0.0,2,0,0,0
1248818597,37.10255334584386,-76.38846777815046,5.3390493,-0.0,0.13352339,0.29457414,-0.9607954,-0.09170479,1.0144459,1.2091441,0.0,2,0,0,0
1249022811,37.102553342868404,-76.38846712045031,5.5244184,-0.0,0.15965706,0.2969454,-0.95307595,-0.09459429,1.0072887,1.209105,0.0,2,0,0,0
1249227109,37.10255333313461,-76.38846643654367,5.718825,-0.0,0.18190248,0.2643442,-0.9762772,-0.09677391,1.0071458,1.2091652,0.0,2,0,0,0
1249430746,37.10255337222309,-76.38846576027214,5.9133563,-0.0,0.21218231,0.23696339,-0.99607044,-0.09706293,1.0072848,1.2090133,0.0,2,0,0,0
1249630727,37.10255345110256,-76.38846522924938,6.1076727,-0.0,0.21514046,0.19090013,-0.99266726,-0.09707315,1.0071673,1.2090689,0.0,2,0,0,0
1251050740,37.10255432738808,-76.38846357376815,7.4720016,-0.0,0.051567584,0.0008628145,-1.0316855,-0.10010409,1.0070919,1.209019,0.0,2,0,0,0
1252870739,37.10255330732516,-76.38846445474356,9.40188,-0.0,-0.15739396,0.034043368,-1.121218,-0.11601867,1.0086209,1.2092563,0.0,2,0,0,0
1253070616,37.10255312695094,-76.3884642092604,9.619985,-0.0,-0.10794415,0.07506507,-1.0892544,-0.11667038,1.0087141,1.2093073,0.0,2,0,0,0
1253270800,37.10255301993243,-76.38846387492048,9.841671,-0.0,-0.05678399,0.07664423,-1.08181,-0.11580839,1.0087919,1.2090362,0.0,2,0,0,0
1253474761,37.10255295044948,-76.38846347857543,10.071747,-0.0,0.001291047,0.11483745,-1.0500879,-0.11866989,1.008905,1.2090908,0.0,2,0,0,0
1253678577,37.10255292739168,-76.38846304087214,10.300618,-0.0,0.049702536,0.1332447,-1.0449669,-0.11811766,1.0092887,1.2089473,0.0,2,0,0,0
1253882751,37.10255300280612,-76.3884626037927,10.528087,-0.0,0.09449278,0.1404712,-1.0462943,-0.11659787,1.0094124,1.2090124,0.0,2,0,0,0
1254082789,37.102553121459486,-76.38846215255084,10.739235,-0.0,0.12480651,0.13628809,-1.0528812,-0.114265755,1.009533,1.2090794,0.0,2,0,0,0
1254286617,37.10255327266963,-76.38846169259864,10.950277,-0.0,0.13169198,0.13878998,-1.0373973,-0.11276839,1.0099277,1.2089386,0.0,2,0,0,0
1254486785,37.10255343653881,-76.38846125071247,11.156071,-0.0,0.13604252,0.114985436,-1.0817535,-0.110296875,1.0100244,1.2090057,0.0,2,0,0,0
1254690609,37.102553616613505,-76.38846078371668,11.370262,-0.0,0.11762104,0.09976779,-1.1199127,-0.10754498,1.0101203,1.2090772,0.0,2,0,0,0
1254890784,37.10255382691645,-76.38846028648186,11.58321,-0.0,0.12707397,0.093388595,-1.1258022,-0.10449602,1.0102534,1.2088397,0.0,2,0,0,0
1255090714,37.10255406155975,-76.38845981734619,11.810364,-0.0,0.13912186,0.08000054,-1.1721337,-0.10150214,1.0103858,1.2089192,0.0,2,0,0,0
1255294747,37.10255431009707,-76.38845943336818,12.05006,-0.0,0.115592495,0.058805704,-1.1886095,-0.10176325,1.010761,1.2088008,0.0,2,0,0,0
1255498738,37.10255452880058,-76.38845916339969,12.303051,-0.0,0.09015095,0.016671006,-1.2591194,-0.10512223,1.0108584,1.2088764,0.0,2,0,0,0
1255702616,37.10255468437595,-76.38845899122421,12.559467,-0.0,0.050576206,-0.02858702,-1.3018283,-0.10947809,1.011277,1.2090653,0.0,2,0,0,0
1255902717,37.10255478389455,-76.38845895798501,12.816446,-0.0,0.019137338,-0.100441,-1.3456588,-0.113167375,1.0113945,1.2091353,0.0,2,0,0,0
1256106632,37.10255487660312,-76.38845916449704,13.086693,-0.0,0.029364059,-0.20008394,-1.3391073,-0.11166104,1.0114772,1.2088927,0.0,2,0,0,0
1256310727,37.102555010153246,-76.3884596161909,13.35862,-0.0,0.05907557,-0.27943555,-1.3298361,-0.106001504,1.0118998,1.209068,0.0,2,0,0,0
1256510592,37.10255519472543,-76.38846019242213,13.622599,-0.0,0.09623226,-0.31572184,-1.354548,-0.100062184,1.011996,1.209136,0.0,2,0,0,0
1256714792,37.102555466774604,-76.3884608187652,13.903641,-0.0,0.12265404,-0.31871077,-1.3606651,-0.09474755,1.01209,1.2091991,0.0,2,0,0,0
1256914852,37.102555767598304,-76.38846139481379,14.182632,-0.0,0.120454356,-0.27743402,-1.3547221,-0.094836295,1.0122019,1.2089472,0.0,2,0,0,0
1257118615,37.10255605784712,-76.38846191148107,14.469072,-0.0,0.107629694,-0.2240713,-1.2778634,-0.10249062,1.0125992,1.2091253,0.0,2,0,0,0
1257318739,37.102556305864866,-76.3884622994601,14.7488,-0.0,0.09344314,-0.16858171,-1.2898452,-0.110847235,1.0126987,1.2091863,0.0,2,0,0,0
1257522756,37.10255649622651,-76.388462586108,15.039429,-0.0,0.07211684,-0.15811975,-1.3327985,-0.11198111,1.0128309,1.209245,0.0,2,0,0,0
1257722739,37.102556601465444,-76.38846284023693,15.307148,-0.0,0.037237536,-0.14164458,-1.2996669,-0.112556964,1.0129607,1.2089863,0.0,2,0,0,0
1257926795,37.10255660802631,-76.38846309087081,15.577749,-0.0,-0.0053645927,-0.120945156,-1.2845279,-0.11356975,1.0133581,1.2091534,0.0,2,0,0,0
1258130772,37.10255652826801,-76.38846332670764,15.853643,-0.0,-0.06838353,-0.11280503,-1.2737987,-0.1118757,1.0134573,1.2092011,0.0,2,0,0,0
1258334817,37.1025563825471,-76.3884635513176,16.130451,-0.0,-0.115009554,-0.08453438,-1.2403604,-0.111711405,1.0139045,1.2090462,0.0,2,0,0,0
1258534763,37.10255618265646,-76.38846369639396,16.391052,-0.0,-0.12919815,-0.031197622,-1.2515328,-0.11468871,1.0140287,1.2090925,0.0,2,0,0,0
1258738757,37.102555960102286,-76.38846369926486,16.664717,-0.0,-0.13523167,0.019757874,-1.2504117,-0.116669185,1.014162,1.2091433,0.0,2,0,0,0
1258942818,37.10255570264148,-76.38846355998402,16.941994,-0.0,-0.10871144,0.058520067,-1.2554089,-0.11856532,1.0146439,1.2093062,0.0,2,0,0,0
1259142798,37.1025554773902,-76.38846331902806,17.20335,-0.0,-0.09352359,0.107467465,-1.1803349,-0.11844956,1.0148472,1.2093495,0.0,2,0,0,0
1259346718,37.10255527651799,-76.388462962998,17.44873,-0.0,-0.08097795,0.13395588,-1.1900582,-0.117508106,1.0149769,1.2093852,0.0,2,0,0,0
1259546761,37.10255502693076,-76.38846253210141,17.675896,-0.0,-0.10450599,0.1289941,-1.2254103,-0.11651749,1.0150445,1.2091037,0.0,2,0,0,0
1259750729,37.102554698756144,-76.38846211025921,17.913221,-0.0,-0.11765902,0.08373424,-1.2635567,-0.11432271,1.0155307,1.2092649,0.0,2,0,0,0
1259950808,37.1025543141989,-76.38846177272508,18.15119,-0.0,-0.10621441,0.04766893,-1.2895116,-0.113965206,1.0157083,1.2093076,0.0,2,0,0,0
1260150730,37.10255398075809,-76.3884615468455,18.39571,-0.0,-0.078319594,0.013565109,-1.2904001,-0.11483203,1.015856,1.2090379,0.0,2,0,0,0
1260350875,37.102553733829296,-76.38846144825628,18.64435,-0.0,-0.029708453,-0.018633679,-1.2934333,-0.11448347,1.016037,1.2090945,0.0,2,0,0,0
1260550758,37.1025535660839,-76.38846143228696,18.890705,-0.0,-0.0027620606,-0.050392248,-1.3168932,-0.11266035,1.016208,1.2091459,0.0,2,0,0,0
1260754729,37.10255344092122,-76.38846151570236,19.141443,-0.0,0.01698441,-0.085119545,-1.3472289,-0.11081931,1.0163355,1.2092019,0.0,2,0,0,0
1260958724,37.10255338968875,-76.38846167957621,19.383741,-0.0,0.053267572,-0.10542445,-1.330266,-0.10908271,1.016791,1.2090505,0.0,2,0,0,0
1261158797,37.1025534685934,-76.38846176478773,19.62636,-0.0,0.11272547,-0.061596017,-1.286392,-0.111115254,1.0168924,1.2090946,0.0,2,0,0,0
1261362755,37.1025536847709,-76.3884617293012,19.880278,-0.0,0.1688449,0.022068683,-1.2471342,-0.11371879,1.0169923,1.20914,0.0,2,0,0,0
1261562755,37.10255397261462,-76.38846151933781,20.113955,-0.0,0.22152348,0.10812984,-1.2081317,-0.11368045,1.0170847,1.2091821,0.0,2,0,0,0
1261766732,37.1025542476236,-76.38846114585537,20.351423,-0.0,0.24076866,0.18115135,-1.210648,-0.11229605,1.0175084,1.2093347,0.0,2,0,0,0
1261966754,37.10255448508856,-76.38846073078875,20.591578,-0.0,0.19708529,0.21866274,-1.2076049,-0.11110301,1.0176204,1.2093717,0.0,2,0,0,0
1262166760,37.10255462228459,-76.38846020988515,20.815195,-0.0,0.13669874,0.2496051,-1.1143986,-0.112283505,1.017714,1.2090945,0.0,2,0,0,0
1262366865,37.1025545960794,-76.3884595278711,21.025324,-0.0,0.031099146,0.2960649,-1.0554338,-0.11625648,1.0178037,1.2091445,0.0,2,0,0,0
1262570810,37.10255436838848,-76.38845879760544,21.2305,-0.0,-0.065922484,0.29217142,-1.0624185,-0.11747295,1.0178912,1.2091904,0.0,2,0,0,0
1262770789,37.10255395760426,-76.38845812852745,21.424858,-0.0,-0.13254721,0.2402495,-1.0917014,-0.11877876,1.0179822,1.2092432,0.0,2,0,0,0
1262974752,37.10255353130485,-76.38845761924772,21.613905,-0.0,-0.14875746,0.14518546,-1.1002042,-0.11952371,1.0183525,1.2090869,0.0,2,0,0,0
1263174787,37.10255310913488,-76.38845731233978,21.80318,-0.0,-0.15234242,0.052023724,-1.1340848,-0.11931419,1.0184023,1.2091401,0.0,2,0,0,0
1263378754,37.10255274428645,-76.38845719587793,22.004559,-0.0,-0.118313506,-0.033700656,-1.109881,-0.119345695,1.0184671,1.2091995,0.0,2,0,0,0
1263578780,37.10255247901646,-76.38845726893744,22.208145,-0.0,-0.06814503,-0.09538537,-1.1257946,-0.11868936,1.0184842,1.2092552,0.0,2,0,0,0
1263782756,37.10255235360926,-76.38845745895316,22.416283,-0.0,-0.013530694,-0.14149104,-1.1473595,-0.1168877,1.0188339,1.2091081,0.0,2,0,0,0
1263986612,37.10255229402312,-76.38845772945956,22.627565,-0.0,0.017617304,-0.16211629,-1.1632079,-0.11576536,1.018884,1.2091658,0.0,2,0,0,0
1264190757,37.102552319002214,-76.38845801366615,22.845446,-0.0,0.04981138,-0.17323714,-1.1386745,-0.11617482,1.0192472,1.209336,0.0,2,0,0,0
1264390800,37.10255235224056,-76.38845831589575,23.061607,-0.0,0.09059095,-0.18299697,-1.1325186,-0.11719323,1.0192853,1.2093856,0.0,2,0,0,0
1264594767,37.102552495945545,-76.38845857096028,23.285809,-0.0,0.12745121,-0.16567004,-1.1149547,-0.116963275,1.019299,1.2091117,0.0,2,0,0,0
1264794746,37.10255273115864,-76.38845873528616,23.512587,-0.0,0.14848338,-0.14433643,-1.1303797,-0.11551185,1.0193108,1.2091659,0.0,2,0,0,0
1264994635,37.10255288812744,-76.38845886140444,23.736359,-0.0,0.10454181,-0.1394774,-1.111294,-0.11267315,1.0193204,1.2092108,0.0,2,0,0,0
1265194852,37.10255294688132,-76.38845899555552,23.970268,-0.0,0.040389434,-0.15823615,-1.1396978,-0.11275345,1.0193288,1.2092537,0.0,2,0,0,0
1265394611,37.102552881201554,-76.38845919998113,24.219774,-0.0,-0.01771831,-0.22857027,-1.192392,-0.12135937,1.0193533,1.2093036,0.0,2,0,0,0
1265598647,37.10255269079214,-76.38845957418418,24.50318,-0.0,-0.035894748,-0.3491106,-1.2881075,-0.12676916,1.0197016,1.209153,0.0,2,0,0,0
1265802791,37.102552522334264,-76.38846025316543,24.799028,-0.0,0.0009809672,-0.45981938,-1.299066,-0.12683105,1.0197304,1.209214,0.0,2,0,0,0
1266006775,37.10255245575767,-76.3884610933431,25.091211,-0.0,0.06613702,-0.5047747,-1.3093952,-0.12397112,1.0200845,1.2090635,0.0,2,0,0,0
1266206747,37.10255247858779,-76.3884619794602,25.379715,-0.0,0.08635705,-0.46710053,-1.2931728,-0.118699156,1.0200909,1.2091255,0.0,2,0,0,0
1266410813,37.10255254831484,-76.38846276706377,25.679766,-0.0,0.055147238,-0.39820838,-1.318502,-0.113841794,1.0200942,1.2091929,0.0,2,0,0,0
1266614779,37.10255261868096,-76.38846340495589,25.988771,-0.0,0.02620276,-0.3217341,-1.3141617,-0.11092367,1.0127679,1.2088464,0.0,2,0,0,0
1266818907,37.102552624293914,-76.38846387161857,26.300802,-0.0,0.0059476155,-0.25253907,-1.3149225,-0.108383454,1.0127562,1.2089101,0.0,2,0,0,0
1267018872,37.10255261749242,-76.38846414641571,26.591368,-0.0,0.008527008,-0.17409676,-1.3139925,-0.10518606,1.0127455,1.2089784,0.0,2,0,0,0
1267222611,37.102552679072325,-76.38846423345534,26.872406,-0.0,0.01597187,-0.09942306,-1.2823857,-0.106117755,1.0130173,1.2088455,0.0,2,0,0,0
1267426501,37.102552714699584,-76.38846416647131,27.150816,-0.0,0.05617558,-0.010434042,-1.2862123,-0.11172385,1.013021,1.2089105,0.0,2,0,0,0
1267630748,37.10255276425536,-76.38846396325008,27.431858,-0.0,0.120527826,0.047726363,-1.3200809,-0.11186133,1.0133045,1.209089,0.0,2,0,0,0
1267830933,37.102552954458915,-76.38846361692033,27.707607,-0.0,0.15936944,0.08595558,-1.3317484,-0.10909253,1.0133082,1.2088386,0.0,2,0,0,0
1268034599,37.102553185289906,-76.38846316171056,27.979836,-0.0,0.18514366,0.123320445,-1.305455,-0.111625105,1.0133283,1.2089059,0.0,2,0,0,0
1268238625,37.102553421871605,-76.38846262088074,28.24714,-0.0,0.20207866,0.13438405,-1.3210163,-0.11261262,1.01363,1.2087778,0.0,2,0,0,0
1268438590,37.10255369637471,-76.38846209621362,28.507235,-0.0,0.19196816,0.14017315,-1.3118745,-0.11223381,1.0136431,1.2088419,0.0,2,0,0,0
1268642749,37.10255397798788,-76.38846150130406,28.777096,-0.0,0.1854608,0.14655872,-1.3054017,-0.11294368,1.0136706,1.2089077,0.0,2,0,0,0
1268842773,37.10255422581355,-76.38846088529591,29.02992,-0.0,0.16940108,0.13937755,-1.3015429,-0.11441429,1.013694,1.2089692,0.0,2,0,0,0
1269046947,37.102554468900614,-76.38846030226901,29.278976,-0.0,0.1761335,0.10434212,-1.3224536,-0.113370374,1.0140007,1.2091475,0.0,2,0,0,0
1269250782,37.102554762726704,-76.3884598694483,29.53516,-0.0,0.16285202,0.069419526,-1.3043964,-0.11182142,1.0140177,1.2092036,0.0,2,0,0,0
1269450772,37.102555048902374,-76.3884595520673,29.781977,-0.0,0.14736955,0.04343541,-1.2861431,-0.11112314,1.0139984,1.2089394,0.0,2,0,0,0
1269650782,37.10255526946273,-76.38845927182913,30.022709,-0.0,0.11474052,0.0100559825,-1.2978432,-0.109727025,1.0140307,1.2089858,0.0,2,0,0,0
1269854806,37.10255541483196,-76.38845907602801,30.266699,-0.0,0.07014557,-0.027786968,-1.2903533,-0.10892477,1.0143124,1.2091422,0.0,2,0,0,0
1270054757,37.10255547285704,-76.38845897093327,30.499828,-0.0,0.027170664,-0.05901607,-1.2555157,-0.11027171,1.0143546,1.2091817,0.0,2,0,0,0
1270258725,37.10255545255626,-76.38845893149984,30.728178,-0.0,-0.0062729656,-0.080111034,-1.2392045,-0.111597225,1.0144074,1.2092241,0.0,2,0,0,0
1270462770,37.102555356777074,-76.3884589452643,30.946993,-0.0,-0.0344894,-0.097298644,-1.228351,-0.11220608,1.0147041,1.2090665,0.0,2,0,0,0
1270662608,37.102555214062434,-76.3884589945693,31.163881,-0.0,-0.046540033,-0.10090787,-1.2366202,-0.11214166,1.014759,1.209122,0.0,2,0,0,0
1270866787,37.102555087493215,-76.38845905118677,31.394554,-0.0,-0.043731514,-0.097597726,-1.2174541,-0.11007737,1.0148224,1.2088685,0.0,2,0,0,0
1271070789,37.1025550037641,-76.38845912400996,31.624922,-0.0,-0.0265514,-0.10827727,-1.2201645,-0.10658594,1.015188,1.2090462,0.0,2,0,0,0
1271270844,37.102554927265025,-76.38845924554688,31.856688,-0.0,-0.02456037,-0.11726692,-1.1593533,-0.10382443,1.0152658,1.2088051,0.0,2,0,0,0
1271470742,37.10255486333062,-76.38845940744206,32.069267,-0.0,-0.004925805,-0.13770287,-1.014817,-0.10450058,1.0153127,1.2088712,0.0,2,0,0,0
1271674738,37.1025548836098,-76.38845963060054,32.248146,-0.0,0.03715836,-0.17209455,-0.8594406,-0.10836129,1.0153775,1.2089336,0.0,2,0,0,0
1271878633,37.10255488692018,-76.38845982185309,32.383858,-0.0,-0.047940284,-0.09028548,-0.647009,-0.10774887,1.0157328,1.2091069,0.0,2,0,0,0
1272082632,37.10255449903503,-76.38845969677757,32.494377,-0.0,-0.35350576,0.15849529,-0.593994,-0.025953615,1.0157775,1.2091651,0.0,2,0,0,0
1272282759,37.102553402436016,-76.38845893005605,32.584393,-0.0,-0.7790662,0.469032,-0.38350934,0.10610411,1.0158751,1.2092249,0.0,2,0,0,0
1272486723,37.102551483766305,-76.38845743655226,32.636173,-0.0,-1.1990929,0.7930817,-0.24209456,0.25045776,1.016143,1.2090665,0.0,2,0,0,0
1272690846,37.10254881405292,-76.38845528846599,32.675335,-0.0,-1.5543433,1.0343156,-0.22043249,0.39817202,1.0161424,1.209109,0.0,2,0,0,0
1272891026,37.102545570020666,-76.38845281021179,32.733715,-0.0,-1.7814304,1.1446071,-0.29059833,0.5515101,1.0161611,1.2091482,0.0,2,0,0,0
1273090874,37.10254193921383,-76.38845022812066,32.80531,-0.0,-1.9131223,1.1865008,-0.29218945,0.7020004,1.0161177,1.2091796,0.0,2,0,0,0
1273294751,37.10253802127959,-76.38844760863924,32.891346,-0.0,-2.0076356,1.1885233,-0.23918647,0.83029777,1.0164409,1.209319,0.0,2,0,0,0
1273498607,37.10253390383209,-76.38844507128834,32.973667,-0.0,-2.0967212,1.1639861,-0.15252556,0.9203115,1.0164871,1.2093381,0.0,2,0,0,0
1273702729,37.102529532692934,-76.388442648533,33.049152,-0.0,-2.1769338,1.1313065,-0.0952493,0.97368467,1.016972,1.2091514,0.0,2,0,0,0
1273906715,37.102525051565216,-76.3884403111505,33.099857,-0.0,-2.2380323,1.0950032,-0.014943791,1.0000014,1.0171006,1.2091714,0.0,2,0,0,0
1274106624,37.10252063744421,-76.38843808999844,33.136417,-0.0,-2.2666874,1.0719843,-0.00095539354,1.0088543,1.0172521,1.2092007,0.0,2,0,0,0
1274310629,37.10251618827702,-76.38843585776506,33.159126,-0.0,-2.2650166,1.0627662,0.02434132,1.0066743,1.0177535,1.2093484,0.0,2,0,0,0
1274514784,37.1025118075028,-76.3884336415656,33.169193,-0.0,-2.263374,1.05613,0.075971484,0.9988506,1.0179341,1.2093765,0.0,2,0,0,0
1274714898,37.10250768878538,-76.38843155995309,33.173943,-0.0,-2.1377416,1.0313792,0.031481117,0.98971784,1.0181962,1.2094021,0.0,2,0,0,0
1274914618,37.102503979090265,-76.38842941413158,33.179016,-0.0,-1.8553162,1.1034855,0.003570865,0.9788552,1.0184407,1.2094241,0.0,2,0,0,0
1275123298,37.10250075982478,-76.38842698065785,33.192566,-0.0,-1.4137549,1.2540243,0.019318447,0.9686396,1.018954,1.2092375,0.0,2,0,0,0
1275326722,37.10249850864733,-76.38842426615659,33.209633,-0.0,-0.81691587,1.4537175,-0.003921481,0.959959,1.0195578,1.2093619,0.0,2,0,0,0
1275526861,37.10249737966491,-76.3884211074476,33.213882,-0.0,-0.25093657,1.6505172,0.09813923,0.9470372,1.0198064,1.2093664,0.0,2,0,0,0
1275726604,37.10249719805348,-76.38841756746059,33.199036,-0.0,0.275227,1.8073521,0.14000495,0.93789816,1.0200865,1.2093674,0.0,2,0,0,0
1275930742,37.10249775912,-76.38841367342334,33.168556,-0.0,0.6892057,1.9124008,0.19128327,0.93119097,1.0204204,1.2093682,0.0,2,0,0,0
1276138614,37.10249895034854,-76.38840942131917,33.14204,-0.0,1.0124832,1.9644417,0.19922224,0.9303962,1.0211474,1.2094804,0.0,2,0,0,0
1276338810,37.10250058612125,-76.38840510954356,33.13094,-0.0,1.2304158,1.963852,0.16328542,0.9341269,1.0216616,1.2094823,0.0,2,0,0,0
1276538773,37.1025027329104,-76.38840066609046,33.123867,-0.0,1.3727887,1.9365405,0.17301214,0.93715787,1.0220631,1.2094756,0.0,2,0,0,0
1276738624,37.10250520598779,-76.38839620690482,33.12658,-0.0,1.4450535,1.894541,0.19887973,0.9409071,1.0224427,1.2094666,0.0,2,0,0,0
1276942782,37.102507867212594,-76.38839164009713,33.11614,-0.0,1.4581913,1.8690661,0.17489974,0.94618005,1.0231827,1.2092588,0.0,2,0,0,0
1277146735,37.10251051963332,-76.38838714229486,33.09726,-0.0,1.4319499,1.7998115,0.17268363,0.9532988,1.0235689,1.2095912,0.0,2,0,0,0
1277346876,37.102513113390984,-76.38838275507132,33.078896,-0.0,1.4078462,1.8006833,0.2113682,0.9556043,1.0238607,1.209271,0.0,2,0,0,0
1277546753,37.10251572260138,-76.38837832640588,33.048035,-0.0,1.4228499,1.8639201,0.22728379,0.957306,1.0241257,1.2096006,0.0,2,0,0,0
1277746728,37.10251835050434,-76.38837370445256,33.00553,-0.0,1.43704,1.9327282,0.1901314,0.95893705,1.0244503,1.2095954,0.0,2,0,0,0
1277950624,37.10252104638526,-76.3883689765815,32.977535,-0.0,1.4518553,2.006056,0.11026123,0.9571782,1.0249661,1.2093774,0.0,2,0,0,0
1278150789,37.10252375542465,-76.38836418422896,32.952534,-0.0,1.4889235,2.0495126,0.06463713,0.95336473,1.0251217,1.2097005,0.0,2,0,0,0
1278354620,37.10252668467661,-76.38835915567262,32.92346,-0.0,1.5373161,2.1085732,0.069243,0.9505964,1.0252783,1.2096841,0.0,2,0,0,0
1278555363,37.10252966921097,-76.3883541685145,32.894165,-0.0,1.5760761,2.1412709,0.091794886,0.94869876,1.0254087,1.2096702,0.0,2,0,0,0
1278754783,37.102532692869424,-76.38834917017998,32.871765,-0.0,1.6124108,2.1823776,0.029963054,0.94348323,1.0255502,1.2096585,0.0,2,0,0,0
1278958567,37.102535756110804,-76.3883439925754,32.859657,-0.0,1.6427895,2.1770165,-0.015282628,0.9356011,1.0260253,1.2094346,0.0,2,0,0,0
1279158789,37.10253883116838,-76.38833892597496,32.865623,-0.0,1.6943051,2.163821,-0.07585178,0.92909145,1.0261443,1.2094418,0.0,2,0,0,0
1279362620,37.102542175106414,-76.38833383220646,32.88693,-0.0,1.7534466,2.126366,-0.10525537,0.92686963,1.0262624,1.2094519,0.0,2,0,0,0
1279563125,37.1025456257243,-76.38832895287605,32.919563,-0.0,1.8115654,2.071434,-0.13084015,0.9291698,1.0263482,1.2094605,0.0,2,0,0,0
1279762740,37.10254920948942,-76.38832414517748,32.94158,-0.0,1.8314829,2.00576,-0.115286976,0.9342344,1.0265214,1.2094712,0.0,2,0,0,0
1279966564,37.10255289792316,-76.38831934439834,32.96331,-0.0,1.8052425,1.9691602,-0.13286507,0.939889,1.027028,1.2095991,0.0,2,0,0,0
1280166794,37.10255641895443,-76.38831475591346,32.99321,-0.0,1.7749717,1.9503115,-0.16481447,0.9489345,1.027059,1.2092906,0.0,2,0,0,0
1280370728,37.10255990498441,-76.3883101295836,33.029343,-0.0,1.7257226,1.9600548,-0.15266764,0.9550472,1.0271447,1.2093161,0.0,2,0,0,0
1280571080,37.10256317017109,-76.38830554528117,33.05267,-0.0,1.6713991,2.0104868,-0.09609932,0.9562825,1.0272369,1.2093445,0.0,2,0,0,0
1280774771,37.102566368249924,-76.38830081595282,33.05455,-0.0,1.6162504,2.067497,-0.093644515,0.9538268,1.0277027,1.2094967,0.0,2,0,0,0
1280974766,37.10256939750249,-76.38829608286044,33.051746,-0.0,1.5538341,2.1237392,-0.050104592,0.9481571,1.0277722,1.2092086,0.0,2,0,0,0
1281174835,37.10257232998508,-76.3882912670834,33.059055,-0.0,1.5235407,2.160663,-0.08609067,0.94670945,1.0277985,1.2092491,0.0,2,0,0,0
1281378809,37.10257528060687,-76.38828629490575,33.068443,-0.0,1.4800153,2.2265232,0.026992293,0.9455121,1.0278317,1.2092898,0.0,2,0,0,0
1281578770,37.102578181218256,-76.38828122513358,33.05297,-0.0,1.4596007,2.2888854,0.0857127,0.947734,1.0278876,1.2093391,0.0,2,0,0,0
1281782804,37.10258107875886,-76.38827594263884,33.045235,-0.0,1.4575112,2.362309,0.01657058,0.9490201,1.0282879,1.2091883,0.0,2,0,0,0
1281986796,37.10258398680548,-76.38827055063987,33.06373,-0.0,1.4525218,2.3444407,-0.10687743,0.9500735,1.0283566,1.2092502,0.0,2,0,0,0
1282190867,37.102586922399944,-76.38826521875303,33.10621,-0.0,1.4913203,2.2893405,-0.1763574,0.953218,1.0288029,1.2091013,0.0,2,0,0,0
1282390718,37.10258976465526,-76.38826015256566,33.134506,-0.0,1.4643914,2.202805,-0.16832131,0.9549277,1.0289137,1.209166,0.0,2,0,0,0
1282594614,37.10259255704608,-76.38825519140292,33.14564,-0.0,1.3593746,2.1413615,-0.13850957,0.95663303,1.0289543,1.209236,0.0,2,0,0,0
1282798779,37.10259519691912,-76.38825032065625,33.150505,-0.0,1.3124446,2.160131,-0.093090065,0.9561059,1.0292859,1.2090979,0.0,2,0,0,0
1283002762,37.1025977562148,-76.38824543082173,33.141937,-0.0,1.2870754,2.207167,-0.08158018,0.957124,1.0292532,1.2091576,0.0,2,0,0,0
1283202729,37.10260028367395,-76.3882405567947,33.130093,-0.0,1.2963682,2.2372003,-0.06459199,0.95795757,1.0292846,1.209219,0.0,2,0,0,0
1283406723,37.102602743240446,-76.38823557758656,33.118435,-0.0,1.2928975,2.2579975,-0.07773487,0.9562143,1.0295616,1.2093925,0.0,2,0,0,0
1283610741,37.102605182857495,-76.38823054652428,33.101955,-0.0,1.269997,2.289524,-0.019981273,0.95115757,1.0296481,1.209445,0.0,2,0,0,0
1283810736,37.10260760375164,-76.38822553086086,33.067436,-0.0,1.2694895,2.2953315,0.023177635,0.9482812,1.0297346,1.2094946,0.0,2,0,0,0
1284018601,37.102610103892985,-76.38822019718093,33.03785,-0.0,1.2618335,2.3241603,-0.04836052,0.94623536,1.0218431,1.2091107,0.0,2,0,0,0
1284218796,37.1026124906345,-76.38821502361112,33.018517,-0.0,1.2700392,2.295134,-0.14113002,0.94338566,1.0302886,1.2093698,0.0,2,0,0,0
1284422791,37.10261492849237,-76.38820989822776,33.02277,-0.0,1.3140225,2.2240071,-0.17665717,0.94010586,1.0223244,1.209312,0.0,2,0,0,0
1284622761,37.10261726189606,-76.38820511742175,33.044388,-0.0,1.3719325,2.1642394,-0.1872192,0.93569845,1.0224588,1.2090368,0.0,2,0,0,0
1284822826,37.102619710560596,-76.3882004389572,33.052555,-0.0,1.3998108,2.133632,-0.16457213,0.93265426,1.022544,1.209077,0.0,2,0,0,0
1285026583,37.10262236791067,-76.38819568821698,33.038048,-0.0,1.4353963,2.131045,-0.10391414,0.92962277,1.0226164,1.2094344,0.0,2,0,0,0
1285230723,37.10262498692316,-76.38819094592883,33.02141,-0.0,1.4645293,2.1500049,-0.056083858,0.9282311,1.0230402,1.2092535,0.0,2,0,0,0
1285430667,37.102627615266805,-76.38818620649005,33.01419,-0.0,1.5068257,2.1358237,-0.14601222,0.9317231,1.0230951,1.2092905,0.0,2,0,0,0
1285634725,37.102630366135465,-76.38818139659305,33.025257,-0.0,1.4824116,2.131647,-0.18426569,0.93155795,1.0231549,1.2093302,0.0,2,0,0,0
1285834727,37.10263310072586,-76.38817680095046,33.04428,-0.0,1.5105461,2.067356,-0.17382409,0.93122435,1.0231965,1.2093698,0.0,2,0,0,0
1286038594,37.102635949041655,-76.38817211912793,33.06271,-0.0,1.5439373,2.056739,-0.1447206,0.9329471,1.0235672,1.2091966,0.0,2,0,0,0
1286242848,37.10263889241142,-76.38816725404197,33.081173,-0.0,1.5603839,2.077675,-0.064289436,0.9350603,1.0236216,1.2092307,0.0,2,0,0,0
1286446622,37.10264190012249,-76.38816230023828,33.097378,-0.0,1.6199361,2.0935004,-0.043744158,0.9355686,1.0240024,1.2093738,0.0,2,0,0,0
1286646621,37.10264485838949,-76.38815748169309,33.1234,-0.0,1.6430398,2.0832086,-0.04068787,0.9354814,1.0241134,1.2094033,0.0,2,0,0,0
1286850780,37.102647909352136,-76.38815264454354,33.158768,-0.0,1.6770049,2.0516617,-0.051206373,0.93737596,1.0241867,1.2094283,0.0,2,0,0,0
1287054742,37.102650992717095,-76.38814786769973,33.191883,-0.0,1.7026503,2.016173,-0.03369303,0.94040334,1.0246261,1.20924,0.0,2,0,0,0
1287254827,37.10265400537654,-76.38814318277748,33.218662,-0.0,1.6635627,2.0701482,-0.014031945,0.9383378,1.0247389,1.2092587,0.0,2,0,0,0
1287454747,37.102657021329044,-76.38813841008398,33.235527,-0.0,1.6315554,2.0824418,0.03889871,0.93571573,1.0248151,1.2092777,0.0,2,0,0,0
1287658723,37.10266011959914,-76.38813340683261,33.227295,-0.0,1.6146462,2.1258652,0.0849976,0.9335856,1.0248948,1.2092971,0.0,2,0,0,0
1287863031,37.10266326099196,-76.38812829406604,33.2079,-0.0,1.6547257,2.1387126,0.1478715,0.9334465,1.0252712,1.2094287,0.0,2,0,0,0
1288066589,37.1026664728155,-76.38812314396229,33.182316,-0.0,1.6991216,2.163688,0.2031619,0.9348624,1.025297,1.2094555,0.0,2,0,0,0
1288266633,37.10266978812421,-76.38811805941175,33.17971,-0.0,1.785967,2.1602633,0.16598794,0.93731475,1.0252689,1.2091587,0.0,2,0,0,0
1288466757,37.10267327089946,-76.3881130126484,33.184875,-0.0,1.8845884,2.1414778,0.16435786,0.9407511,1.0252024,1.2091925,0.0,2,0,0,0
1288666762,37.10267687903017,-76.38810801509268,33.192703,-0.0,1.9350145,2.136052,0.16160846,0.94299316,1.0251601,1.2092341,0.0,2,0,0,0
1288870602,37.10268055328612,-76.38810296183257,33.194893,-0.0,1.921266,2.1373875,0.21413286,0.9488158,1.025501,1.2093828,0.0,2,0,0,0
1289070860,37.10268406161924,-76.38809803909982,33.188866,-0.0,1.8532954,2.1751926,0.23463129,0.953746,1.0255274,1.2094148,0.0,2,0,0,0
1289274752,37.10268749780552,-76.3880929778174,33.17929,-0.0,1.7902156,2.207635,0.24357992,0.9584241,1.0255265,1.2094427,0.0,2,0,0,0
1289474760,37.1026907457866,-76.38808787930618,33.16233,-0.0,1.7315497,2.2330954,0.24960828,0.9594008,1.025559,1.2091485,0.0,2,0,0,0
1289678774,37.10269391052246,-76.38808254255943,33.13867,-0.0,1.6587092,2.2766917,0.29671985,0.95739603,1.0259335,1.2092896,0.0,2,0,0,0
1289882821,37.10269689926616,-76.38807716312104,33.10453,-0.0,1.6055373,2.3332767,0.27348408,0.9553675,1.0259724,1.209316,0.0,2,0,0,0
1290082738,37.10269968947859,-76.3880718269555,33.061256,-0.0,1.555698,2.358319,0.25454524,0.95427966,1.0260206,1.2093377,0.0,2,0,0,0
1290282791,37.10270240246696,-76.3880664396457,33.028927,-0.0,1.5257614,2.373089,0.18998362,0.9539173,1.0260658,1.2093585,0.0,2,0,0,0
1290482896,37.10270510873084,-76.38806097151141,33.009136,-0.0,1.5240195,2.3884215,0.14916436,0.952908,1.0261073,1.2093748,0.0,2,0,0,0
1290686738,37.10270783746491,-76.38805540713184,33.001915,-0.0,1.5134257,2.3694673,0.09905682,0.95209557,1.0264958,1.2095045,0.0,2,0,0,0
1290890776,37.10271049585377,-76.38804996259039,32.991943,-0.0,1.5110232,2.336827,0.105600655,0.949793,1.0265509,1.2095187,0.0,2,0,0,0
1291090603,37.102713050706136,-76.38804469462323,32.967793,-0.0,1.4802158,2.3229194,0.17325617,0.9454516,1.0265814,1.2095335,0.0,2,0,0,0
1291294747,37.1027156542903,-76.38803934987476,32.935993,-0.0,1.4896259,2.3094893,0.11658093,0.9423403,1.0269419,1.2093401,0.0,2,0,0,0
1291494594,37.10271826133961,-76.38803417139822,32.906063,-0.0,1.503055,2.278633,0.115945786,0.93870026,1.0269483,1.2093617,0.0,2,0,0,0
1291698610,37.10272105290567,-76.38802899700691,32.889603,-0.0,1.585622,2.2258403,0.04691111,0.9351508,1.0269598,1.209389,0.0,2,0,0,0
1291902641,37.10272397521341,-76.38802390720254,32.871933,-0.0,1.6495711,2.1857817,0.033548415,0.9348713,1.0273236,1.2092104,0.0,2,0,0,0
1292106567,37.10272699970284,-76.38801892443878,32.86092,-0.0,1.6815529,2.1275158,0.026251739,0.93492776,1.0274011,1.209245,0.0,2,0,0,0
1292306773,37.10273003134551,-76.38801413483098,32.866245,-0.0,1.6951282,2.102462,-0.018839363,0.93432105,1.0274305,1.2092772,0.0,2,0,0,0
1292510734,37.102733137415555,-76.38800929609995,32.873795,-0.0,1.7005326,2.0752037,0.013257308,0.9333789,1.0278023,1.2094258,0.0,2,0,0,0
1292710774,37.10273621132344,-76.38800455094662,32.885582,-0.0,1.730589,2.0823705,0.033960685,0.93409497,1.0277724,1.2091403,0.0,2,0,0,0
1292910633,37.102739337617024,-76.38799981377183,32.89581,-0.0,1.7248112,2.0942507,0.030413449,0.935696,1.0277773,1.2091728,0.0,2,0,0,0
1293114717,37.10274256823567,-76.38799490849566,32.889812,-0.0,1.6951218,2.1021166,0.08456661,0.9366906,1.027762,1.2092025,0.0,2,0,0,0
1293314721,37.10274566142278,-76.38799003380302,32.877506,-0.0,1.6729691,2.134189,0.054585673,0.93681693,1.027747,1.209241,0.0,2,0,0,0
1293518800,37.10274874496931,-76.3879850709949,32.864914,-0.0,1.616394,2.1398973,0.055414446,0.9378384,1.0280768,1.209081,0.0,2,0,0,0
1293722631,37.1027517522868,-76.38798009614271,32.85984,-0.0,1.5686593,2.152848,0.029126363,0.93986547,1.0280819,1.2091235,0.0,2,0,0,0
1293922737,37.10275459999376,-76.38797518499535,32.85853,-0.0,1.5272847,2.1555412,-0.008402635,0.94150525,1.0280867,1.2091628,0.0,2,0,0,0
1294122790,37.10275734596483,-76.38797025376037,32.845627,-0.0,1.478405,2.167725,0.0069374526,0.9419048,1.0280889,1.2092086,0.0,2,0,0,0
1294326718,37.102760098453686,-76.38796524802396,32.83741,-0.0,1.4479531,2.1495042,-0.009810429,0.94144315,1.0284522,1.2090557,0.0,2,0,0,0
1294530731,37.102762806241145,-76.3879602609557,32.83199,-0.0,1.4260404,2.1190193,-0.009320255,0.94063157,1.0284855,1.2091104,0.0,2,0,0,0
1294730919,37.102765411555666,-76.38795541613645,32.83726,-0.0,1.4377341,2.1091266,-0.071187556,0.94092745,1.0285119,1.2091581,0.0,2,0,0,0
1294930820,37.102768040318516,-76.38795059979233,32.83632,-0.0,1.4385246,2.0913844,0.012635723,0.9409732,1.0285363,1.2092074,0.0,2,0,0,0
1295134783,37.10277074580725,-76.38794573398083,32.832554,-0.0,1.4695678,2.082704,-0.04162791,0.9420373,1.0288858,1.2093666,0.0,2,0,0,0
1295338616,37.10277351941129,-76.38794091131211,32.841064,-0.0,1.5100737,2.0702913,-0.061684206,0.9420938,1.0288868,1.2094088,0.0,2,0,0,0
1295542607,37.102776337184814,-76.38793614494874,32.855145,-0.0,1.5107175,2.060185,-0.046647552,0.94259536,1.0292178,1.2092466,0.0,2,0,0,0
1295742777,37.10277911451134,-76.3879314990258,32.86927,-0.0,1.5009501,2.0607147,-0.053373024,0.9420339,1.0292019,1.2093005,0.0,2,0,0,0
1295942775,37.10278183259082,-76.38792692971161,32.8704,-0.0,1.4814825,2.0600061,-0.0038185827,0.942002,1.0291873,1.2090417,0.0,2,0,0,0
1296146722,37.10278461791015,-76.3879222239548,32.864853,-0.0,1.4562651,2.0826151,-0.002794031,0.9429058,1.0291551,1.2091018,0.0,2,0,0,0
1296350796,37.102787404858866,-76.38791752082152,32.857975,-0.0,1.453016,2.1068745,-0.04902073,0.94509304,1.0294535,1.209271,0.0,2,0,0,0
1296554790,37.102790123554676,-76.38791277897523,32.85914,-0.0,1.4302266,2.1080241,-0.046480615,0.94606644,1.0293951,1.2093244,0.0,2,0,0,0
1296754937,37.10279278060202,-76.38790812169547,32.8676,-0.0,1.4123616,2.1045382,-0.061009243,0.9472779,1.0293452,1.2093748,0.0,2,0,0,0
1296958787,37.1027954983367,-76.38790333485537,32.882336,-0.0,1.4224787,2.101298,-0.074943446,0.94803023,1.0296545,1.20921,0.0,2,0,0,0
1297162763,37.10279826248744,-76.38789846740552,32.906136,-0.0,1.4222358,2.0980253,-0.037332937,0.947364,1.0296179,1.2092481,0.0,2,0,0,0
1297366768,37.102801052092794,-76.38789346342716,32.922028,-0.0,1.4104968,2.1081285,-0.0132999495,0.94815683,1.0299337,1.2093937,0.0,2,0,0,0
1297566600,37.102803764234345,-76.38788852263718,32.924545,-0.0,1.4049296,2.1308749,0.0017317059,0.9495515,1.0298853,1.2094321,0.0,2,0,0,0
1297770799,37.10280642707711,-76.38788350932474,32.922947,-0.0,1.3806546,2.1150718,0.015147508,0.95015615,1.0298381,1.2094668,0.0,2,0,0,0
1297974727,37.10280902816818,-76.38787850435713,32.922474,-0.0,1.3574808,2.106167,0.05204309,0.9505847,1.0301337,1.209295,0.0,2,0,0,0
1298179073,37.10281159165933,-76.387873524854,32.938972,-0.0,1.3644841,2.1078603,0.0012916699,0.95029885,1.0300854,1.2093307,0.0,2,0,0,0
1298378905,37.1028140950115,-76.38786862750861,32.955288,-0.0,1.348257,2.115351,0.07512638,0.9483999,1.0300227,1.2093612,0.0,2,0,0,0
1298582773,37.10281664436777,-76.38786358782764,32.951996,-0.0,1.3496234,2.1310785,0.093936145,0.94752145,1.0303056,1.2095022,0.0,2,0,0,0
1298786752,37.102819189641274,-76.3878585296501,32.960686,-0.0,1.3751966,2.129372,0.048444375,0.94746,1.0301867,1.209525,0.0,2,0,0,0
1298986737,37.10282169601165,-76.38785360012886,32.963345,-0.0,1.3841782,2.0952404,0.045013152,0.9482826,1.0301079,1.2095454,0.0,2,0,0,0
1299186799,37.102824247631986,-76.3878486750375,32.9558,-0.0,1.4366367,2.0489826,0.028785761,0.9469134,1.0300212,1.2095616,0.0,2,0,0,0
1299390873,37.102826901176606,-76.38784379218534,32.96278,-0.0,1.4886904,2.0119922,0.041290045,0.94625336,1.030322,1.2096906,0.0,2,0,0,0
1299590762,37.10282957060582,-76.38783912608284,32.972507,-0.0,1.5481627,1.9811397,-0.008715635,0.9486397,1.0302961,1.2093768,0.0,2,0,0,0
1299794632,37.10283226250574,-76.38783450665058,32.97438,-0.0,1.5603285,1.9635853,0.010000698,0.9493819,1.0302951,1.2093952,0.0,2,0,0,0
1299994603,37.10283491227779,-76.38783001518645,32.959663,-0.0,1.5764028,1.9463707,-0.024579268,0.9483364,1.0302675,1.2097397,0.0,2,0,0,0
1300194755,37.10283757638962,-76.38782549395587,32.93858,-0.0,1.5427481,1.9398042,0.011493377,0.94702077,1.0303041,1.2094175,0.0,2,0,0,0
1300395055,37.102840137959575,-76.38782099638368,32.919216,-0.0,1.5212455,1.9508215,0.0012055188,0.9449613,1.030354,1.2094325,0.0,2,0,0,0
1300598787,37.102842681860885,-76.38781635174468,32.893826,-0.0,1.4910682,1.9951704,0.020354979,0.94210565,1.0307565,1.209563,0.0,2,0,0,0
1300802780,37.10284520133525,-76.3878115712227,32.869904,-0.0,1.4665629,2.0315561,-0.01680027,0.94161516,1.0307913,1.2095786,0.0,2,0,0,0
1301002725,37.102847597718274,-76.38780683763012,32.866776,-0.0,1.4640287,2.0430803,-0.080980085,0.94072497,1.0307803,1.2096,0.0,2,0,0,0
1301202794,37.102849961372584,-76.38780205375352,32.87879,-0.0,1.4780843,2.0017707,-0.120791614,0.939209,1.0306671,1.2092967,0.0,2,0,0,0
1301402773,37.10285237912812,-76.3877973216657,32.895355,-0.0,1.5104305,1.9606398,-0.11751898,0.93827975,1.0305212,1.2093182,0.0,2,0,0,0
1301602726,37.102854778838314,-76.38779258949168,32.903324,-0.0,1.5388795,1.920666,-0.12462565,0.9394666,1.0303866,1.2093375,0.0,2,0,0,0
1301806622,37.10285727230751,-76.3877878171411,32.91887,-0.0,1.5513206,1.920972,-0.0842989,0.9400952,1.0221088,1.2092582,0.0,2,0,0,0
1302010808,37.10285981346249,-76.38778306006,32.937267,-0.0,1.5698961,1.9056447,-0.096866,0.94122016,1.0304649,1.2094953,0.0,2,0,0,0
1302210828,37.102862265901344,-76.38777839266454,32.94972,-0.0,1.5549321,1.901187,-0.035429712,0.9423998,1.0302801,1.2095197,0.0,2,0,0,0
1302410770,37.10286470990065,-76.38777372221482,32.973904,-0.0,1.5581813,1.90868,-0.048524287,0.93946385,1.0300868,1.2095474,0.0,2,0,0,0
1302618619,37.10286734814182,-76.38776889858855,32.981777,-0.0,1.5916976,1.8863722,0.02291056,0.9332972,1.0216693,1.2091448,0.0,2,0,0,0
1302822767,37.10287005029623,-76.38776419467088,32.976852,-0.0,1.6483787,1.8768145,0.030733077,0.9298011,1.0217419,1.2092754,0.0,2,0,0,0
1303022794,37.10287283993232,-76.3877596050418,32.961243,-0.0,1.7063385,1.8542051,0.043776996,0.9296165,1.0214926,1.2093018,0.0,2,0,0,0
1303226725,37.102875790773695,-76.38775495510473,32.95964,-0.0,1.7351563,1.8538489,0.010238811,0.9340351,1.0211952,1.2090186,0.0,2,0,0,0
1303426599,37.10287869238586,-76.38775043464142,32.966778,-0.0,1.7137513,1.8547069,0.023445027,0.93628263,1.0208944,1.2090565,0.0,2,0,0,0
1303630626,37.10288165667516,-76.38774582001847,32.976715,-0.0,1.7074467,1.8663337,-0.005943074,0.93913674,1.0209467,1.2092061,0.0,2,0,0,0
1303830616,37.10288455355275,-76.38774130974895,32.979843,-0.0,1.6758373,1.891093,0.0033224775,0.94259095,1.0206133,1.2092421,0.0,2,0,0,0
1304034622,37.10288745368838,-76.38773662806612,32.979534,-0.0,1.6280097,1.9152757,-0.0048917187,0.94347453,1.020368,1.209284,0.0,2,0,0,0
1304234874,37.102890303874005,-76.38773200075373,32.976994,-0.0,1.5992812,1.9227147,0.018849313,0.93720824,1.020114,1.2093217,0.0,2,0,0,0
1304438819,37.10289321128201,-76.38772727575451,32.978638,-0.0,1.5987465,1.9288785,-0.01578371,0.93198365,1.0201708,1.2091465,0.0,2,0,0,0
1304638859,37.10289607790021,-76.3877226822077,32.977863,-0.0,1.6118051,1.9305383,-0.053180274,0.9287157,1.0198972,1.2091798,0.0,2,0,0,0
1304842784,37.1028990545387,-76.38771806168948,32.964893,-0.0,1.6256223,1.9084332,-0.02458747,0.9251761,1.0196861,1.2092141,0.0,2,0,0,0
1305042622,37.1029020105252,-76.38771355675118,32.949844,-0.0,1.6158401,1.9207244,-0.059315063,0.92331797,1.0194802,1.2092375,0.0,2,0,0,0
1305246779,37.10290497673434,-76.38770896208409,32.944942,-0.0,1.5683763,1.911881,-0.08975334,0.92434597,1.0195576,1.2093729,0.0,2,0,0,0
1305450729,37.10290783631946,-76.38770445022055,32.951992,-0.0,1.51479,1.8699346,-0.17075315,0.9274863,1.0194069,1.2093976,0.0,2,0,0,0
1305650761,37.10291054447684,-76.3877000923931,32.969475,-0.0,1.4647324,1.8379406,-0.22711039,0.92878723,1.0192574,1.2091061,0.0,2,0,0,0
1305850770,37.10291320933963,-76.387695779774,32.978737,-0.0,1.4847811,1.8229846,-0.18671517,0.9295306,1.0191215,1.2091362,0.0,2,0,0,0
1306050626,37.102915925113244,-76.38769151928781,32.979267,-0.0,1.495402,1.8557817,-0.1270763,0.92816997,1.018992,1.2091622,0.0,2,0,0,0
1306254756,37.102918736257905,-76.38768715324275,32.976406,-0.0,1.5225606,1.889006,-0.112373024,0.9264135,1.0191712,1.2093011,0.0,2,0,0,0
1306458776,37.10292157783174,-76.38768270757714,32.970634,-0.0,1.5305442,1.9222839,-0.08326015,0.92597824,1.019035,1.2093306,0.0,2,0,0,0
1306662740,37.10292447388329,-76.38767814620155,32.967968,-0.0,1.5493896,1.959713,-0.08599767,0.9261843,1.0191936,1.2091613,0.0,2,0,0,0
1306862769,37.10292729614195,-76.38767364496061,32.97841,-0.0,1.5528766,2.001477,-0.055947863,0.92762053,1.019056,1.2092086,0.0,2,0,0,0
1307066756,37.10293018704683,-76.38766901944967,32.990322,-0.0,1.5750432,2.0146542,-0.07534991,0.9317487,1.01892,1.2092543,0.0,2,0,0,0
1307270790,37.10293309431541,-76.38766434700933,33.00183,-0.0,1.5746266,2.0433085,-0.04059694,0.93339336,1.019061,1.2090883,0.0,2,0,0,0
1307474763,37.102935969644264,-76.38765962501614,33.00875,-0.0,1.5674057,2.0590136,-0.021061907,0.9378163,1.018938,1.2091216,0.0,2,0,0,0
1307674719,37.10293872719952,-76.38765498006278,33.01705,-0.0,1.5544289,2.0802398,0.020764394,0.9403867,1.0188166,1.2091509,0.0,2,0,0,0
1307878840,37.102941488836244,-76.3876501977205,33.02198,-0.0,1.5478016,2.1216462,0.07872196,0.9399794,1.0190059,1.2092931,0.0,2,0,0,0
1308078877,37.10294422748753,-76.38764542157219,33.02908,-0.0,1.594412,2.146241,0.118189596,0.93971986,1.0188675,1.2093211,0.0,2,0,0,0
1308282779,37.102947135233805,-76.38764047190116,33.036655,-0.0,1.6755297,2.2085907,0.050533004,0.94025713,1.018733,1.2093462,0.0,2,0,0,0
1308482905,37.10295014161091,-76.38763554601587,33.0458,-0.0,1.7480677,2.2176826,0.029719874,0.94142824,1.0186034,1.2093651,0.0,2,0,0,0
1308682735,37.10295328089055,-76.38763057969521,33.04196,-0.0,1.7797605,2.2230532,0.08954728,0.94259995,1.0184789,1.20938,0.0,2,0,0,0
1308886804,37.102956562815656,-76.38762556037882,33.038815,-0.0,1.8398749,2.2105527,0.0325073,0.9426046,1.018663,1.2095176,0.0,2,0,0,0
1309090626,37.10295990251257,-76.3876205504386,33.032402,-0.0,1.848246,2.206272,0.0636493,0.9429612,1.0185456,1.2095367,0.0,2,0,0,0
1309294622,37.102963296962045,-76.38761549946149,33.03734,-0.0,1.8338969,2.2253842,0.020197276,0.9463481,1.0187238,1.2093419,0.0,2,0,0,0
1309494756,37.102966593570116,-76.38761055344048,33.05227,-0.0,1.7773966,2.2255125,0.056261722,0.9524402,1.0186007,1.2093595,0.0,2,0,0,0
1309698734,37.10296982629902,-76.38760553721987,33.06143,-0.0,1.7005974,2.2252574,0.021975815,0.9557224,1.0184609,1.2093753,0.0,2,0,0,0
1309902798,37.10297291679342,-76.38760052538773,33.084347,-0.0,1.6260277,2.2006643,0.019856906,0.9597107,1.0186028,1.2091905,0.0,2,0,0,0
1310102742,37.102975821656365,-76.38759561739427,33.09864,-0.0,1.5463021,2.2008412,0.056055427,0.96204114,1.0184314,1.2092193,0.0,2,0,0,0
1310302754,37.102978661714175,-76.38759068694745,33.127525,-0.0,1.5875648,2.2427485,-0.25135157,0.99188256,1.018269,1.209245,0.0,2,0,0,0
1310506629,37.10298181059566,-76.38758539982015,33.25725,-0.0,1.8644968,2.4615092,-0.866847,1.0526668,1.0181072,1.209268,0.0,2,0,0,0
1310710624,37.102985683576925,-76.38757932818484,33.503582,-0.0,2.3463967,2.93093,-1.2451165,1.1106944,1.0182828,1.2094015,0.0,2,0,0,0
1310910780,37.10299024065435,-76.38757213403292,33.777065,-0.0,2.685317,3.463803,-1.2308918,1.149912,1.0183183,1.2094173,0.0,2,0,0,0
1311114802,37.10299545365947,-76.38756340537047,34.033516,-0.0,2.966188,4.1001215,-1.1395302,1.1765201,1.0183436,1.2094272,0.0,2,0,0,0
1311314724,37.10300088306175,-76.38755364495628,34.264126,-0.0,3.1281054,4.617769,-1.0400158,1.1965005,1.0184537,1.2094396,0.0,2,0,0,0
1311518791,37.10300645053845,-76.38754270628314,34.48597,-0.0,3.0495076,4.939518,-1.0440567,1.2148283,1.0189338,1.2095615,0.0,2,0,0,0
1311718618,37.103011613881876,-76.38753134641372,34.727474,-0.0,2.8527985,5.1018624,-1.2459238,1.2309967,1.0192038,1.2092493,0.0,2,0,0,0
1311922868,37.10301646894342,-76.38751948714653,34.991936,-0.0,2.6220608,5.164594,-1.2321155,1.2307322,1.0194947,1.2092638,0.0,2,0,0,0
1312122737,37.103020875687804,-76.38750762650638,35.254345,-0.0,2.4601946,5.3427887,-1.2334658,1.2258366,1.0197029,1.2095945,0.0,2,0,0,0
1312322609,37.103025003482685,-76.38749534983062,35.505444,-0.0,2.373647,5.609588,-1.2447379,1.2216561,1.0199449,1.2095785,0.0,2,0,0,0
1312526749,37.103029075213165,-76.38748218860155,35.773846,-0.0,2.3158758,5.9247932,-1.2215886,1.2223756,1.0205057,1.2099897,0.0,2,0,0,0
1312730843,37.10303308395061,-76.38746834989152,36.03874,-0.0,2.2771947,6.1798697,-1.1922941,1.2238178,1.0207412,1.2099493,0.0,2,0,0,0
1312939221,37.103037147432666,-76.38745361432449,36.314705,-0.0,2.2924464,6.428954,-1.2920514,1.2288344,1.0212786,1.2096925,0.0,2,0,0,0
1313138778,37.103041053516826,-76.38743909563753,36.580368,-0.0,2.3007884,6.5166526,-1.3263718,1.235456,1.0214502,1.2096595,0.0,2,0,0,0
1313342842,37.103044944192774,-76.38742421201316,36.847954,-0.0,2.2608354,6.521722,-1.2965615,1.2379568,1.022004,1.209735,0.0,2,0,0,0
1313542737,37.10304872694092,-76.38740957658301,37.071033,-0.0,2.2514243,6.5546618,-1.1966033,1.2343625,1.0222939,1.209702,0.0,2,0,0,0
1313746792,37.103052612397335,-76.38739453414566,37.285095,-0.0,2.2939904,6.5919943,-1.1678684,1.2300429,1.0224776,1.2096711,0.0,2,0,0,0
1313946839,37.10305654787256,-76.38737973362042,37.497627,-0.0,2.375054,6.6019926,-1.2243239,1.2245632,1.0226471,1.2096368,0.0,2,0,0,0
1314146766,37.10306067779469,-76.38736494401682,37.721615,-0.0,2.4683924,6.5722685,-1.2269801,1.2215439,1.0228704,1.2096032,0.0,2,0,0,0
1314354630,37.103065194069195,-76.38734962997201,37.957806,-0.0,2.559792,6.5445237,-1.2247145,1.2219386,1.02338,1.2096859,0.0,2,0,0,0
1314562912,37.10306989937011,-76.38733433192425,38.200787,-0.0,2.6589246,6.5294175,-1.1943363,1.2222292,1.0238788,1.2097706,0.0,2,0,0,0
1314762832,37.10307462700824,-76.38731968907337,38.43709,-0.0,2.7363575,6.4900756,-1.2235624,1.2249914,1.0240253,1.2097429,0.0,2,0,0,0
1314971337,37.10307967485655,-76.38730460264917,38.679523,-0.0,2.792976,6.4277196,-1.2454007,1.2253996,1.0245098,1.2095009,0.0,2,0,0,0
1315174789,37.10308469100729,-76.38728990154864,38.92394,-0.0,2.8018453,6.4129567,-1.3415664,1.2256744,1.0250232,1.2096063,0.0,2,0,0,0
1315378849,37.10308973604284,-76.38727527141994,39.17483,-0.0,2.8078523,6.393587,-1.3383344,1.224296,1.0251691,1.2092851,0.0,2,0,0,0
1315578712,37.103094698264464,-76.38726102179812,39.418182,-0.0,2.8009493,6.3912253,-1.299369,1.2234015,1.0252824,1.2092911,0.0,2,0,0,0
1315782718,37.103099755441505,-76.38724645326238,39.64958,-0.0,2.7618437,6.3952394,-1.2069124,1.2228202,1.0257609,1.209409,0.0,2,0,0,0
1315986767,37.10310473974915,-76.3872317976641,39.871414,-0.0,2.6792424,6.4413857,-1.2003887,1.2265373,1.0259037,1.2094126,0.0,2,0,0,0
1316186764,37.10310949612592,-76.38721741624278,40.06851,-0.0,2.5689566,6.4663773,-1.1424806,1.2292538,1.0260135,1.2097427,0.0,2,0,0,0
1316386624,37.103114082271894,-76.3872029602348,40.27639,-0.0,2.5047266,6.5085196,-1.2084672,1.2291868,1.0261633,1.2097119,0.0,2,0,0,0
1316590590,37.10311860480823,-76.38718811485727,40.49111,-0.0,2.4305336,6.540898,-1.1731154,1.2257369,1.0266845,1.209798,0.0,2,0,0,0
1316790778,37.103122919653906,-76.38717348128546,40.69089,-0.0,2.3482704,6.550606,-1.0795469,1.2197158,1.0268706,1.2097795,0.0,2,0,0,0
1316994750,37.10312724409961,-76.38715845369738,40.883587,-0.0,2.3178532,6.6218743,-1.1003083,1.2189593,1.0270455,1.2097635,0.0,2,0,0,0
1317194833,37.103131392072484,-76.38714354113169,41.079727,-0.0,2.2815354,6.689822,-1.1380521,1.2222935,1.0272241,1.2097502,0.0,2,0,0,0
1317398738,37.1031356446736,-76.3871282022872,41.299137,-0.0,2.2740893,6.705776,-1.1581254,1.2221516,1.027767,1.2095196,0.0,2,0,0,0
1317598608,37.10313988458133,-76.38711305038298,41.517857,-0.0,2.3118393,6.7292895,-1.1689204,1.221541,1.0279664,1.2095023,0.0,2,0,0,0
1317802742,37.10314425965145,-76.38709762515954,41.74063,-0.0,2.3639834,6.750928,-1.2406535,1.2229084,1.0281545,1.2094884,0.0,2,0,0,0
1318002744,37.10314854257449,-76.38708237715636,41.959545,-0.0,2.3663263,6.748706,-1.2209228,1.2230973,1.0283939,1.2094749,0.0,2,0,0,0
1318202860,37.10315285520574,-76.3870672065774,42.191135,-0.0,2.3859706,6.732023,-1.2868882,1.2273064,1.0285798,1.2094748,0.0,2,0,0,0
1318402839,37.103157191368865,-76.38705200003602,42.43603,-0.0,2.3967376,6.7344017,-1.3503447,1.2310109,1.0287755,1.2094811,0.0,2,0,0,0
1318606770,37.10316168629641,-76.38703646477185,42.696644,-0.0,2.4193106,6.7539268,-1.242337,1.2324152,1.0293217,1.2092811,0.0,2,0,0,0
1318810808,37.10316619961041,-76.38702095247535,42.96084,-0.0,2.450474,6.825526,-1.1871666,1.2337062,1.0294688,1.209305,0.0,2,0,0,0
1319010730,37.1031705798841,-76.38700560914111,43.22553,-0.0,2.405488,6.878974,-1.207091,1.2360207,1.029644,1.2093396,0.0,2,0,0,0
1319210872,37.1031748491399,-76.38699022933065,43.50159,-0.0,2.3712463,6.903323,-1.2444053,1.2340331,1.029809,1.2090635,0.0,2,0,0,0
1319414744,37.103179145011076,-76.38697446978415,43.790264,-0.0,2.3256338,6.9090767,-1.3032897,1.2362726,1.0303284,1.209228,0.0,2,0,0,0
1319614543,37.10318326770591,-76.38695908919861,44.100636,-0.0,2.3064556,6.8919315,-1.3738664,1.2378414,1.0221547,1.2090667,0.0,2,0,0,0
1319814616,37.1031874200399,-76.3869437429366,44.432144,-0.0,2.3433857,6.8757715,-1.272819,1.2363355,1.022303,1.2088073,0.0,2,0,0,0
1320018751,37.103191759474605,-76.38692803044212,44.75679,-0.0,2.3776531,6.87857,-1.3002315,1.232957,1.0224478,1.2088662,0.0,2,0,0,0
1320218753,37.103196053214,-76.38691255581807,45.056156,-0.0,2.390194,6.879198,-1.2739099,1.2292141,1.0225657,1.2089208,0.0,2,0,0,0
1320418598,37.10320047518794,-76.38689701933464,45.3433,-0.0,2.414961,6.8650208,-1.345961,1.2266726,1.0226641,1.2089771,0.0,2,0,0,0
1320622606,37.1032049412068,-76.38688128274408,45.656586,-0.0,2.430518,6.8818707,-1.437956,1.2245672,1.0230647,1.2088301,0.0,2,0,0,0
1320822705,37.103209293331055,-76.38686592451138,45.972908,-0.0,2.4520016,6.865413,-1.4039359,1.2245121,1.0231553,1.2088838,0.0,2,0,0,0
1321022705,37.1032136652843,-76.38685071407512,46.28311,-0.0,2.4602036,6.8470554,-1.3765309,1.2265153,1.0232333,1.2089344,0.0,2,0,0,0
1321222731,37.10321806214291,-76.38683557091163,46.596,-0.0,2.4591272,6.8352356,-1.4214457,1.2294304,1.0233096,1.2089795,0.0,2,0,0,0
1321426616,37.103222548466086,-76.38682007192673,46.910423,-0.0,2.4352021,6.8569474,-1.4304339,1.230267,1.0233918,1.2090238,0.0,2,0,0,0
1321630619,37.10322691238261,-76.38680461716166,47.206417,-0.0,2.4099953,6.8704324,-1.4549782,1.2305499,1.0237787,1.2091802,0.0,2,0,0,0
1321830743,37.10323110689664,-76.38678950531175,47.491898,-0.0,2.3622918,6.8607597,-1.469222,1.2303882,1.0238521,1.2089103,0.0,2,0,0,0
1322031023,37.10323522586641,-76.38677442064706,47.782547,-0.0,2.3415859,6.8485293,-1.4710442,1.2283862,1.0239159,1.2089516,0.0,2,0,0,0
1322230726,37.10323934744191,-76.38675936006892,48.06314,-0.0,2.3269258,6.8076587,-1.439442,1.2249706,1.0239683,1.2089982,0.0,2,0,0,0
1322434740,37.10324359052559,-76.38674406565843,48.337685,-0.0,2.365728,6.783272,-1.4410276,1.2241304,1.0240259,1.2090442,0.0,2,0,0,0
1322638591,37.103247835529245,-76.38672882923008,48.604576,-0.0,2.4195278,6.760696,-1.389777,1.2215118,1.0243965,1.2091964,0.0,2,0,0,0
1322838711,37.1032521387186,-76.38671388340636,48.853497,-0.0,2.4906728,6.7904434,-1.3121426,1.2185884,1.0244504,1.2092335,0.0,2,0,0,0
1323038686,37.10325660458608,-76.38669886978614,49.096123,-0.0,2.5339105,6.8112926,-1.215878,1.2176045,1.0245044,1.2092674,0.0,2,0,0,0
1323242881,37.10326128465606,-76.38668351651496,49.34725,-0.0,2.5791452,6.8078046,-1.2806859,1.2198479,1.0245252,1.2092992,0.0,2,0,0,0
1323442780,37.10326592136701,-76.38666860543452,49.589943,-0.0,2.5896072,6.752714,-1.2515744,1.2235322,1.0245749,1.2093278,0.0,2,0,0,0
1323646691,37.103270643358314,-76.38665345002651,49.83393,-0.0,2.6123965,6.7392974,-1.3124633,1.2271167,1.0249532,1.2091451,0.0,2,0,0,0
1323850709,37.10327536706269,-76.38663827224892,50.08636,-0.0,2.615152,6.736671,-1.342829,1.228662,1.0249867,1.2091793,0.0,2,0,0,0
1324050701,37.10327994791743,-76.38662337905834,50.350098,-0.0,2.5648017,6.7575345,-1.359944,1.2285239,1.0250647,1.208906,0.0,2,0,0,0
1324254602,37.103284570549064,-76.38660804694236,50.613705,-0.0,2.5329826,6.786264,-1.3535861,1.2287228,1.0254723,1.209062,0.0,2,0,0,0
1324458748,37.103289100824526,-76.3865926217427,50.87094,-0.0,2.4600246,6.807533,-1.2872987,1.2308406,1.0255748,1.209105,0.0,2,0,0,0
1324662727,37.10329348838227,-76.38657712255913,51.140858,-0.0,2.3743443,6.824192,-1.2966819,1.2319849,1.0260044,1.20894,0.0,2,0,0,0
1324866622,37.1032977719196,-76.38656152994815,51.41878,-0.0,2.3339298,6.8665214,-1.3423,1.2308829,1.026107,1.2089872,0.0,2,0,0,0
1325066720,37.10330188269217,-76.38654622020469,51.69757,-0.0,2.3252037,6.8888445,-1.3595248,1.2297505,1.0262108,1.2090379,0.0,2,0,0,0
1325270766,37.10330607709621,-76.38653054775696,51.97723,-0.0,2.3181622,6.8962855,-1.322634,1.2276363,1.026664,1.2091963,0.0,2,0,0,0
1325474707,37.103310342099306,-76.38651478136151,52.24583,-0.0,2.3611596,6.9041862,-1.2653604,1.2241699,1.0267848,1.2092365,0.0,2,0,0,0
1325678730,37.103314713312855,-76.38649901134843,52.50924,-0.0,2.3984234,6.8815093,-1.2201978,1.2250092,1.0272493,1.2090648,0.0,2,0,0,0
1325882904,37.10331910305159,-76.38648335712888,52.758472,-0.0,2.3904805,6.853024,-1.2045059,1.2265491,1.0273577,1.2090981,0.0,2,0,0,0
1326086791,37.10332343995786,-76.38646779427224,53.006527,-0.0,2.382272,6.8155518,-1.2098082,1.2286994,1.0278002,1.2092363,0.0,2,0,0,0
1326286723,37.103327701668846,-76.38645263007675,53.259655,-0.0,2.3867686,6.740575,-1.2381469,1.2305455,1.0279088,1.2092589,0.0,2,0,0,0
1326490769,37.10333203596789,-76.38643731962743,53.499153,-0.0,2.4174404,6.689212,-1.2658081,1.229941,1.028003,1.209283,0.0,2,0,0,0
1326690616,37.103336248621076,-76.38642241558323,53.73872,-0.0,2.4220858,6.646347,-1.2723088,1.2284673,1.0280836,1.2093111,0.0,2,0,0,0
1326894703,37.10334059183837,-76.38640725602613,53.972385,-0.0,2.4569619,6.651465,-1.1929022,1.2233266,1.0285059,1.2091328,0.0,2,0,0,0
1327094737,37.10334492394233,-76.38639233184455,54.193924,-0.0,2.4797356,6.6667924,-1.1329824,1.2193098,1.0285894,1.2091634,0.0,2,0,0,0
1327298732,37.103349399301955,-76.38637704788174,54.418575,-0.0,2.5225327,6.679282,-1.2133349,1.2190199,1.028621,1.2091914,0.0,2,0,0,0
1327498702,37.103353832398724,-76.38636203732031,54.657787,-0.0,2.5291903,6.683479,-1.2769158,1.2195971,1.0286778,1.2092193,0.0,2,0,0,0
1327702748,37.10335831948738,-76.38634676075213,54.908722,-0.0,2.5115077,6.6721406,-1.237606,1.2194598,1.0291002,1.2093587,0.0,2,0,0,0
1327906622,37.10336275326193,-76.38633148401154,55.156937,-0.0,2.4813182,6.6929736,-1.1732302,1.2185507,1.0291692,1.2093825,0.0,2,0,0,0
1328110707,37.1033671261041,-76.38631607495721,55.407185,-0.0,2.4644601,6.73188,-1.1905477,1.2181975,1.029602,1.2091945,0.0,2,0,0,0
1328310609,37.10337137928697,-76.38630086411662,55.654892,-0.0,2.4489946,6.745924,-1.2107942,1.2192631,1.0297275,1.2092215,0.0,2,0,0,0
1328514716,37.10337569874179,-76.3862853036481,55.916035,-0.0,2.4283392,6.766284,-1.247675,1.2209518,1.029864,1.2092495,0.0,2,0,0,0
1328718612,37.103380014214906,-76.38626973560729,56.180885,-0.0,2.4387145,6.7747455,-1.2962575,1.2241559,1.0303495,1.2090714,0.0,2,0,0,0
1328918626,37.10338424365155,-76.38625450790035,56.46532,-0.0,2.4146192,6.768044,-1.2553662,1.2281431,1.0304995,1.2090968,0.0,2,0,0,0
1329122851,37.10338854656384,-76.38623890337982,56.751472,-0.0,2.3949864,6.78474,-1.2744571,1.2287884,1.0306463,1.2091284,0.0,2,0,0,0
1329322771,37.10339272597583,-76.38622356486466,57.0229,-0.0,2.3680499,6.7834015,-1.1989939,1.2270291,1.0307901,1.209169,0.0,2,0,0,0
1329526650,37.10339697756034,-76.38620788463598,57.290108,-0.0,2.36324,6.809293,-1.3223885,1.2295871,1.0312709,1.2090015,0.0,2,0,0,0
1329730700,37.1034011922284,-76.38619216586531,57.57721,-0.0,2.3584082,6.8028164,-1.4605575,1.2319936,1.0313904,1.2090458,0.0,2,0,0,0
1329930751,37.10340533204365,-76.38617676574891,57.8815,-0.0,2.3863535,6.7884264,-1.4487482,1.233044,1.0315022,1.20909,0.0,2,0,0,0
1330130696,37.10340955028191,-76.38616139625512,58.183132,-0.0,2.4283233,6.7808614,-1.3277476,1.2310674,1.031561,1.2091323,0.0,2,0,0,0
1330334771,37.103414020732544,-76.38614568951596,58.459568,-0.0,2.5285025,6.822787,-1.2528279,1.2268939,1.0319995,1.20928,0.0,2,0,0,0
1330538756,37.10341872062031,-76.38612987574726,58.73578,-0.0,2.6147056,6.8623514,-1.2755464,1.224658,1.0320455,1.2090006,0.0,2,0,0,0
1330742800,37.1034235949177,-76.38611395718729,59.00499,-0.0,2.6590643,6.8729315,-1.290201,1.2202725,1.0324397,1.2091594,0.0,2,0,0,0
1330942620,37.103428371652306,-76.38609839341463,59.25285,-0.0,2.6306117,6.852391,-1.2179667,1.213211,1.0324694,1.2088987,0.0,2,0,0,0
1331146620,37.103433187900585,-76.38608255451584,59.480686,-0.0,2.6048849,6.851181,-1.2331483,1.212081,1.0324918,1.2089553,0.0,2,0,0,0
1331350789,37.10343786994085,-76.38606675209569,59.698418,-0.0,2.5417697,6.8499966,-1.2463518,1.2124655,1.0328255,1.2091217,0.0,2,0,0,0
1331550776,37.10344228549239,-76.3860512323753,59.917297,-0.0,2.4714296,6.8632593,-1.2595028,1.214601,1.0328263,1.2091812,0.0,2,0,0,0
1331750810,37.10344658391996,-76.38603571713024,60.145447,-0.0,2.3892064,6.8463483,-1.2400177,1.2163839,1.0328677,1.2089212,0.0,2,0,0,0
1331954832,37.103450928174965,-76.3860200038416,60.384384,-0.0,2.354856,6.7985744,-1.2121961,1.2184832,1.0328658,1.2089708,0.0,2,0,0,0
1332158810,37.10345526138422,-76.38600444127557,60.621124,-0.0,2.38782,6.7319326,-1.3050405,1.2166542,1.0332065,1.209127,0.0,2,0,0,0
1332362782,37.10345962272531,-76.38598901119266,60.873558,-0.0,2.387306,6.6776996,-1.2983946,1.2192757,1.0331943,1.2091776,0.0,2,0,0,0
1332562718,37.10346391422184,-76.3859738436729,61.133263,-0.0,2.3744414,6.727705,-1.3965282,1.2212025,1.0331693,1.2092258,0.0,2,0,0,0
1332762596,37.10346811727324,-76.38595861163193,61.386395,-0.0,2.3362222,6.787477,-1.4322269,1.2225916,1.0331355,1.2089607,0.0,2,0,0,0
1332966711,37.103472367381784,-76.3859429208772,61.648685,-0.0,2.3074367,6.8337393,-1.4173696,1.2270814,1.0334717,1.2091308,0.0,2,0,0,0
1333166777,37.10347646716036,-76.38592736415985,61.921646,-0.0,2.3151073,6.925573,-1.4288555,1.2264911,1.0334337,1.2091936,0.0,2,0,0,0
1333366812,37.10348069743593,-76.38591168527438,62.17346,-0.0,2.357582,6.945685,-1.3208368,1.2232909,1.0333961,1.20925,0.0,2,0,0,0
1333570786,37.103485101018364,-76.38589566811252,62.437267,-0.0,2.4309187,6.953439,-1.26956,1.2220023,1.0333595,1.2093002,0.0,2,0,0,0
1333770717,37.10348954350827,-76.38587994809433,62.691814,-0.0,2.4663064,6.94041,-1.1527579,1.2189592,1.0333232,1.2093416,0.0,2,0,0,0
1333974752,37.10349423169071,-76.38586385486909,62.940815,-0.0,2.521598,6.929239,-1.2295452,1.2173519,1.0336463,1.209175,0.0,2,0,0,0
1334174736,37.10349895363717,-76.38584817458364,63.187992,-0.0,2.572372,6.8667336,-1.2303462,1.2177126,1.0336127,1.2092208,0.0,2,0,0,0
1334374728,37.103503838128155,-76.38583263073404,63.45174,-0.0,2.6334949,6.839901,-1.2238767,1.2197204,1.0336027,1.209264,0.0,2,0,0,0
1334578848,37.10350889839938,-76.38581691258022,63.707874,-0.0,2.7037845,6.807203,-1.1988696,1.2201222,1.0336114,1.2093029,0.0,2,0,0,0
1334778714,37.10351386069645,-76.38580151996432,63.957104,-0.0,2.6887333,6.7816877,-1.2100612,1.2190702,1.0336112,1.2093452,0.0,2,0,0,0
1334982761,37.10351887355297,-76.38578584103752,64.209885,-0.0,2.6580067,6.7709117,-1.1598427,1.2160681,1.0339764,1.2091647,0.0,2,0,0,0
1335186744,37.10352382602855,-76.38577018017698,64.45467,-0.0,2.6521878,6.7861485,-1.2859883,1.2165018,1.0339943,1.2092025,0.0,2,0,0,0
1335390918,37.10352873952812,-76.38575443225356,64.70478,-0.0,2.6285856,6.7846484,-1.2816103,1.217735,1.0343834,1.2093593,0.0,2,0,0,0
1335590806,37.103533574470276,-76.38573897167036,64.95629,-0.0,2.6321037,6.7873454,-1.2501466,1.2104137,1.0344073,1.2093991,0.0,2,0,0,0
