timestamp,baro_alt_meter,baro_temp_celcius,baro_pressure_pa,rho
1244900787,47.83655,44.41,100751.734,1.1970973
1244929031,48.003017,44.399998,100749.74,1.1970736
1244940870,48.42315,44.399998,100744.734,1.1970141
1244953149,48.338593,44.399998,100745.74,1.1970261
1244979891,47.752,44.41,100752.74,1.1971092
1244992136,47.670086,44.41,100753.74,1.1971211
1245004809,48.087574,44.41,100748.74,1.1970618
1245028778,47.92111,44.399998,100750.734,1.1970854
1245041424,48.003017,44.399998,100749.74,1.1970736
1245052877,48.42315,44.399998,100744.734,1.1970141
1245076810,47.92111,44.399998,100750.734,1.1970854
1245089457,48.42315,44.399998,100744.734,1.1970141
1245100949,47.585533,44.399998,100754.74,1.1971331
1245125687,48.172127,44.41,100747.74,1.1970499
1245137701,47.670086,44.41,100753.74,1.1971211
1245149007,47.92111,44.41,100750.734,1.1970854
1245173428,48.087574,44.41,100748.74,1.1970618
1245185532,47.585533,44.41,100754.74,1.1971331
1245197272,47.92111,44.41,100750.734,1.1970854
1245221231,47.752,44.41,100752.74,1.1971092
1245233839,47.752,44.41,100752.74,1.1971092
1245245674,48.338593,44.41,100745.74,1.1970261
1245269654,48.172127,44.41,100747.74,1.1970499
1245281637,47.83655,44.41,100751.734,1.1970973
1245292890,47.670086,44.41,100753.74,1.1971211
1245316782,47.752,44.41,100752.74,1.1971092
1245329508,48.087574,44.41,100748.74,1.1970618
1245340930,47.752,44.41,100752.74,1.1971092
1245365607,48.087574,44.41,100748.74,1.1970618
1245377833,48.25404,44.41,100746.74,1.1970379
1245389669,48.003017,44.41,100749.74,1.1970736
1245413670,47.752,44.41,100752.74,1.1971092
1245427826,48.087574,44.41,100748.74,1.1970618
1245440641,47.752,44.41,100752.74,1.1971092
1245465441,47.50362,44.41,100755.74,1.1971449
1245477688,47.83655,44.41,100751.734,1.1970973
1245489608,47.92111,44.41,100750.734,1.1970854
1245513521,47.92111,44.41,100750.734,1.1970854
1245525627,47.585533,44.41,100754.74,1.1971331
1245537482,47.419067,44.41,100756.74,1.1971568
1245561228,47.92111,44.41,100750.734,1.1970854
1245572815,48.25404,44.41,100746.74,1.1970379
1245585425,47.92111,44.41,100750.734,1.1970854
1245609132,47.83655,44.41,100751.734,1.1970973
1245620997,47.92111,44.41,100750.734,1.1970854
1245633148,47.670086,44.41,100753.74,1.1971211
1245657194,47.92111,44.41,100750.734,1.1970854
1245668782,47.83655,44.41,100751.734,1.1970973
1245681466,47.752,44.41,100752.74,1.1971092
1245705312,47.92111,44.41,100750.734,1.1970854
1245716835,47.83655,44.41,100751.734,1.1970973
1245731678,48.087574,44.41,100748.74,1.1970618
1245756901,47.92111,44.399998,100750.734,1.1970854
1245769691,47.670086,44.399998,100753.74,1.1971211
1245781679,47.92111,44.399998,100750.734,1.1970854
1245809269,48.25404,44.399998,100746.74,1.1970379
1245820914,48.087574,44.399998,100748.74,1.1970618
1245833491,47.83655,44.399998,100751.734,1.1970973
1245857287,48.003017,44.41,100749.74,1.1970736
1245868896,48.25404,44.41,100746.74,1.1970379
1245881224,48.25404,44.41,100746.74,1.1970379
1245905120,48.25404,44.41,100746.74,1.1970379
1245917100,48.92519,44.41,100738.734,1.1969428
1245929261,48.003017,44.41,100749.74,1.1970736
1245953312,48.50506,44.41,100743.74,1.1970023
1245964866,48.50506,44.41,100743.74,1.1970023
1245977253,48.50506,44.41,100743.74,1.1970023
1246001539,48.589615,44.41,100742.74,1.1969905
1246013610,47.83655,44.41,100751.734,1.1970973
1246027836,47.752,44.41,100752.74,1.1971092
1246052835,47.83655,44.41,100751.734,1.1970973
1246065321,48.589615,44.41,100742.74,1.1969905
1246076894,48.172127,44.41,100747.74,1.1970499
1246100713,47.670086,44.41,100753.74,1.1971211
1246113530,47.92111,44.41,100750.734,1.1970854
1246125671,47.83655,44.41,100751.734,1.1970973
1246148869,48.25404,44.41,100746.74,1.1970379
1246161593,47.419067,44.41,100756.74,1.1971568
1246173624,47.83655,44.41,100751.734,1.1970973
1246197753,49.0071,44.41,100737.74,1.196931
1246209658,47.670086,44.41,100753.74,1.1971211
1246221666,48.50506,44.41,100743.74,1.1970023
1246244869,48.087574,44.41,100748.74,1.1970618
1246258358,48.25404,44.41,100746.74,1.1970379
1246268795,48.75608,44.41,100740.74,1.1969666
1246292785,48.42315,44.42,100744.734,1.1970141
1246305565,48.50506,44.42,100743.74,1.1970023
1246316852,47.92111,44.42,100750.734,1.1970854
1246340910,49.17621,44.41,100735.74,1.1969073
1246353681,49.17621,44.41,100735.74,1.1969073
1246365765,49.50914,44.41,100731.74,1.1968597
1246392474,49.67825,44.41,100729.74,1.196836
1246404870,49.17621,44.41,100735.74,1.1969073
1246417125,48.50506,44.41,100743.74,1.1970023
1246441430,49.17621,44.41,100735.74,1.1969073
1246452851,49.17621,44.41,100735.74,1.1969073
1246465209,49.0071,44.41,100737.74,1.196931
1246489321,49.50914,44.42,100731.74,1.1968597
1246500753,49.760162,44.42,100728.74,1.1968241
1246513462,49.50914,44.42,100731.74,1.1968597
1246537445,48.92519,44.42,100738.734,1.1969428
1246548779,49.17621,44.42,100735.74,1.1969073
1246561031,49.50914,44.42,100731.74,1.1968597
1246585104,48.92519,44.41,100738.734,1.1969428
1246596818,49.17621,44.41,100735.74,1.1969073
1246609022,49.25812,44.41,100734.74,1.1968954
1246633314,48.840633,44.42,100739.74,1.1969547
1246644852,49.091656,44.42,100736.74,1.1969191
1246657630,48.840633,44.42,100739.74,1.1969547
1246681287,48.589615,44.42,100742.74,1.1969905
1246692744,48.338593,44.42,100745.74,1.1970261
1246705234,49.0071,44.42,100737.74,1.196931
1246729061,48.087574,44.42,100748.74,1.1970618
1246740997,48.674168,44.42,100741.74,1.1969786
1246753161,47.92111,44.42,100750.734,1.1970854
1246777222,48.840633,44.41,100739.74,1.1969547
1246788740,49.42723,44.41,100732.734,1.1968715
1246801131,48.50506,44.41,100743.74,1.1970023
1246827952,47.92111,44.42,100750.734,1.1970854
1246840781,48.25404,44.42,100746.74,1.1970379
1246852946,48.42315,44.42,100744.734,1.1970141
1246876863,49.0071,44.41,100737.74,1.196931
1246889668,48.50506,44.41,100743.74,1.1970023
1246900807,48.75608,44.41,100740.74,1.1969666
1246924863,48.92519,44.42,100738.734,1.1969428
1246937661,48.42315,44.42,100744.734,1.1970141
1246949672,48.840633,44.42,100739.74,1.1969547
1246973698,48.92519,44.41,100738.734,1.1969428
1246985657,48.840633,44.41,100739.74,1.1969547
1246997684,48.338593,44.41,100745.74,1.1970261
1247021745,48.674168,44.41,100741.74,1.1969786
1247033571,48.42315,44.41,100744.734,1.1970141
1247045128,49.25812,44.41,100734.74,1.1968954
1247069148,49.342674,44.41,100733.74,1.1968834
1247081270,49.593697,44.41,100730.74,1.1968478
1247092815,49.50914,44.41,100731.74,1.1968597
1247116809,49.0071,44.42,100737.74,1.196931
1247129370,48.840633,44.42,100739.74,1.1969547
1247140908,48.840633,44.42,100739.74,1.1969547
1247164781,49.67825,44.41,100729.74,1.196836
1247180131,48.92519,44.41,100738.734,1.1969428
1247192460,48.840633,44.41,100739.74,1.1969547
1247217571,50.01118,44.42,100725.734,1.1967883
1247228815,49.342674,44.42,100733.74,1.1968834
1247241210,49.50914,44.42,100731.74,1.1968597
1247265430,49.342674,44.41,100733.74,1.1968834
1247276775,50.177647,44.41,100723.74,1.1967647
1247289289,49.25812,44.41,100734.74,1.1968954
1247313264,49.593697,44.41,100730.74,1.1968478
1247324798,49.593697,44.41,100730.74,1.1968478
1247337306,49.342674,44.41,100733.74,1.1968834
1247361458,49.25812,44.42,100734.74,1.1968954
1247373002,49.760162,44.42,100728.74,1.1968241
1247385325,49.17621,44.42,100735.74,1.1969073
1247409502,49.593697,44.42,100730.74,1.1968478
1247421143,49.17621,44.42,100735.74,1.1969073
1247432921,49.67825,44.42,100729.74,1.196836
1247457121,49.593697,44.41,100730.74,1.1968478
1247468866,50.262203,44.41,100722.74,1.1967528
1247481206,49.50914,44.41,100731.74,1.1968597
1247505459,49.92927,44.41,100726.734,1.1968002
1247516897,49.92927,44.41,100726.734,1.1968002
1247530461,50.346756,44.41,100721.74,1.1967409
1247554429,49.25812,44.42,100734.74,1.1968954
1247565662,50.095737,44.42,100724.74,1.1967765
1247578369,49.67825,44.42,100729.74,1.196836
1247601628,49.593697,44.42,100730.74,1.1968478
1247612880,49.760162,44.42,100728.74,1.1968241
1247627919,49.50914,44.42,100731.74,1.1968597
1247657235,49.67825,44.42,100729.74,1.196836
1247668859,50.346756,44.42,100721.74,1.1967409
1247681139,49.17621,44.42,100735.74,1.1969073
1247705015,50.346756,44.41,100721.74,1.1967409
1247716874,49.760162,44.41,100728.74,1.1968241
1247729155,49.92927,44.41,100726.734,1.1968002
1247753246,49.92927,44.41,100726.734,1.1968002
1247764837,50.93335,44.41,100714.74,1.1966578
1247777156,50.095737,44.41,100724.74,1.1967765
1247801124,50.51322,44.42,100719.734,1.196717
1247812864,49.760162,44.42,100728.74,1.1968241
1247827715,50.177647,44.42,100723.74,1.1967647
1247852780,49.844715,44.41,100727.74,1.1968122
1247865723,50.42867,44.41,100720.74,1.1967291
1247877710,49.844715,44.41,100727.74,1.1968122
1247901674,50.679688,44.41,100717.74,1.1966934
1247913727,50.177647,44.41,100723.74,1.1967647
1247924740,50.679688,44.41,100717.74,1.1966934
1247953180,50.01118,44.41,100725.734,1.1967883
1247964857,50.177647,44.41,100723.74,1.1967647
1247977369,50.01118,44.41,100725.734,1.1967883
1248002438,50.679688,44.42,100717.74,1.1966934
1248012740,50.177647,44.42,100723.74,1.1967647
1248027733,50.59778,44.42,100718.74,1.1967052
1248052771,50.679688,44.42,100717.74,1.1966934
1248065013,50.346756,44.42,100721.74,1.1967409
1248076880,49.760162,44.42,100728.74,1.1968241
1248100782,50.679688,44.41,100717.74,1.1966934
1248113251,50.262203,44.41,100722.74,1.1967528
1248124788,50.764244,44.41,100716.74,1.1966815
1248149706,49.92927,44.41,100726.734,1.1968002
1248161829,50.679688,44.41,100717.74,1.1966934
1248173604,50.346756,44.41,100721.74,1.1967409
1248196943,50.262203,44.42,100722.74,1.1967528
1248209578,49.92927,44.42,100726.734,1.1968002
1248220938,50.262203,44.42,100722.74,1.1967528
1248244899,50.095737,44.42,100724.74,1.1967765
1248257629,50.346756,44.42,100721.74,1.1967409
1248268890,50.262203,44.42,100722.74,1.1967528
1248292925,50.51322,44.42,100719.734,1.196717
1248305650,50.177647,44.42,100723.74,1.1967647
1248317697,50.51322,44.42,100719.734,1.196717
1248344183,50.346756,44.41,100721.74,1.1967409
1248355970,50.42867,44.41,100720.74,1.1967291
1248368489,50.764244,44.41,100716.74,1.1966815
1248393410,50.262203,44.42,100722.74,1.1967528
1248404751,50.177647,44.42,100723.74,1.1967647
1248417209,50.848797,44.42,100715.74,1.1966696
1248441240,49.92927,44.42,100726.734,1.1968002
1248452808,50.93335,44.42,100714.74,1.1966578
1248464997,50.51322,44.42,100719.734,1.196717
1248488957,51.350838,44.42,100709.74,1.1965983
1248500837,50.59778,44.42,100718.74,1.1967052
1248513007,50.262203,44.42,100722.74,1.1967528
1248537315,50.095737,44.42,100724.74,1.1967765
1248548811,50.93335,44.42,100714.74,1.1966578
1248561502,50.262203,44.42,100722.74,1.1967528
1248585520,50.848797,44.42,100715.74,1.1966696
1248597607,50.51322,44.42,100719.734,1.196717
1248609569,50.177647,44.42,100723.74,1.1967647
1248633506,50.59778,44.42,100718.74,1.1967052
1248644791,49.760162,44.42,100728.74,1.1968241
1248657518,50.848797,44.42,100715.74,1.1966696
1248681432,50.93335,44.42,100714.74,1.1966578
1248692921,50.764244,44.42,100716.74,1.1966815
1248705322,50.93335,44.42,100714.74,1.1966578
1248729169,50.51322,44.42,100719.734,1.196717
1248740832,51.015263,44.42,100713.734,1.1966457
1248753294,50.93335,44.42,100714.74,1.1966578
1248777444,50.42867,44.42,100720.74,1.1967291
1248788782,51.68377,44.42,100705.74,1.1965508
1248801111,50.848797,44.42,100715.74,1.1966696
1248827732,50.679688,44.42,100717.74,1.1966934
1248841631,51.09982,44.42,100712.74,1.1966339
1248853735,50.262203,44.42,100722.74,1.1967528
1248877028,51.517303,44.42,100707.734,1.1965744
1248889559,51.015263,44.42,100713.734,1.1966457
1248901657,51.015263,44.42,100713.734,1.1966457
1248924825,50.848797,44.41,100715.74,1.1966696
1248939971,51.266285,44.41,100710.74,1.1966102
1248952223,51.015263,44.41,100713.734,1.1966457
1248977254,51.43275,44.42,100708.74,1.1965865
1248988774,50.93335,44.42,100714.74,1.1966578
1249001260,51.18173,44.42,100711.74,1.1966221
1249027867,50.59778,44.42,100718.74,1.1967052
1249041257,50.93335,44.42,100714.74,1.1966578
1249052904,51.350838,44.42,100709.74,1.1965983
1249076835,51.18173,44.41,100711.74,1.1966221
1249089276,50.93335,44.41,100714.74,1.1966578
1249100860,51.266285,44.41,100710.74,1.1966102
1249125669,51.18173,44.42,100711.74,1.1966221
1249139691,50.59778,44.42,100718.74,1.1967052
1249153151,51.09982,44.42,100712.74,1.1966339
1249177164,51.60186,44.42,100706.74,1.1965626
1249188832,51.266285,44.42,100710.74,1.1966102
1249203875,50.764244,44.42,100716.74,1.1966815
1249228053,51.517303,44.41,100707.734,1.1965744
1249241260,51.517303,44.41,100707.734,1.1965744
1249252901,51.60186,44.41,100706.74,1.1965626
1249276873,51.68377,44.41,100705.74,1.1965508
1249289133,51.60186,44.41,100706.74,1.1965626
1249300875,51.09982,44.41,100712.74,1.1966339
1249324788,51.93743,44.42,100702.74,1.1965152
1249337552,50.848797,44.42,100715.74,1.1966696
1249348802,51.68377,44.42,100705.74,1.1965508
1249373651,51.015263,44.42,100713.734,1.1966457
1249385675,51.68377,44.42,100705.74,1.1965508
1249397665,51.18173,44.42,100711.74,1.1966221
1249420787,50.848797,44.42,100715.74,1.1966696
1249433512,51.68377,44.42,100705.74,1.1965508
1249445117,52.436832,44.42,100696.74,1.1964439
1249468868,51.517303,44.42,100707.734,1.1965744
1249481457,51.43275,44.42,100708.74,1.1965865
1249492777,51.93743,44.42,100702.74,1.1965152
1249517106,50.679688,44.42,100717.74,1.1966934
1249529346,51.93743,44.42,100702.74,1.1965152
1249540927,51.768326,44.42,100704.74,1.1965389
1249565236,51.768326,44.42,100704.74,1.1965389
1249579958,51.266285,44.42,100710.74,1.1966102
1249593033,51.266285,44.42,100710.74,1.1966102
1249620101,51.68377,44.42,100705.74,1.1965508
1249633225,51.09982,44.42,100712.74,1.1966339
1249645214,51.68377,44.42,100705.74,1.1965508
1249668889,51.60186,44.42,100706.74,1.1965626
1249681126,51.43275,44.42,100708.74,1.1965865
1249692738,51.85288,44.42,100703.74,1.196527
1249716908,51.68377,44.42,100705.74,1.1965508
1249729187,51.517303,44.42,100707.734,1.1965744
1249740820,51.350838,44.42,100709.74,1.1965983
1249768520,51.768326,44.42,100704.74,1.1965389
1249780806,51.93743,44.42,100702.74,1.1965152
1249793116,51.768326,44.42,100704.74,1.1965389
1251053619,52.436832,44.43,100696.74,1.1964439
1251076891,52.85696,44.43,100691.74,1.1963844
1251089681,52.772408,44.43,100692.74,1.1963964
1251100865,53.10798,44.43,100688.734,1.1963488
1252500856,54.865124,44.42,100667.74,1.1960993
1252513283,55.03159,44.42,100665.74,1.1960756
1252524781,54.865124,44.42,100667.74,1.1960993
1252548775,54.196617,44.43,100675.734,1.1961943
1252561317,54.865124,44.43,100667.74,1.1960993
1252573002,54.363083,44.43,100673.74,1.1961706
1252600454,54.52955,44.43,100671.74,1.1961468
1252845674,55.03159,44.43,100665.74,1.1960756
1252859872,54.780567,44.43,100668.74,1.1961112
1252873115,55.282608,44.43,100662.74,1.1960399
1252897270,55.53363,44.42,100659.74,1.1960043
1252908811,55.282608,44.42,100662.74,1.1960399
1252921151,54.6141,44.42,100670.74,1.1961349
1252945265,54.865124,44.43,100667.74,1.1960993
1252956933,55.451717,44.43,100660.74,1.1960162
1252969270,54.363083,44.43,100673.74,1.1961706
1252993235,54.698658,44.43,100669.734,1.196123
1253004877,54.949677,44.43,100666.74,1.1960875
1253017209,55.282608,44.43,100662.74,1.1960399
1253041434,55.618183,44.43,100658.74,1.1959924
1253052769,55.70274,44.43,100657.734,1.1959804
1253065124,55.2007,44.43,100663.734,1.1960517
1253089442,54.363083,44.43,100673.74,1.1961706
1253100873,56.28669,44.43,100650.734,1.1958972
1253113301,55.869205,44.43,100655.74,1.1959567
1253137262,55.70274,44.43,100657.734,1.1959804
1253148861,54.949677,44.43,100666.74,1.1960875
1253161309,56.20478,44.43,100651.734,1.1959091
1253185602,55.282608,44.43,100662.74,1.1960399
1253197118,55.70274,44.43,100657.734,1.1959804
1253209620,54.865124,44.43,100667.74,1.1960993
1253233457,54.780567,44.44,100668.734,1.1961111
1253244795,55.2007,44.44,100663.73,1.1960516
1253257615,55.869205,44.44,100655.734,1.1959566
1253281219,55.451717,44.43,100660.74,1.1960162
1253292819,55.367165,44.43,100661.74,1.196028
1253305216,55.78465,44.43,100656.74,1.1959686
1253329522,55.451717,44.44,100660.734,1.1960161
1253340881,55.95376,44.44,100654.734,1.1959448
1253353278,54.865124,44.44,100667.734,1.1960992
1253377214,56.120224,44.43,100652.74,1.1959211
1253388770,55.618183,44.43,100658.74,1.1959924
1253401121,55.95376,44.43,100654.74,1.1959448
1253425211,55.2007,44.43,100663.734,1.1960517
1253436978,56.28669,44.43,100650.734,1.1958972
1253449158,55.2007,44.43,100663.734,1.1960517
1253473192,55.95376,44.43,100654.74,1.1959448
1253484810,56.20478,44.43,100651.734,1.1959091
1253497243,55.70274,44.43,100657.734,1.1959804
1253521099,56.54035,44.43,100647.74,1.1958617
1253532775,55.282608,44.43,100662.74,1.1960399
1253547862,55.95376,44.43,100654.74,1.1959448
1253572803,56.03567,44.43,100653.74,1.195933
1253585446,55.78465,44.43,100656.74,1.1959686
1253596898,55.70274,44.43,100657.734,1.1959804
1253621666,55.618183,44.43,100658.74,1.1959924
1253633739,55.451717,44.43,100660.74,1.1960162
1253645664,56.54035,44.43,100647.74,1.1958617
1253668772,55.78465,44.43,100656.74,1.1959686
1253681507,55.367165,44.43,100661.74,1.196028
1253693673,56.371246,44.43,100649.74,1.1958854
1253716770,55.95376,44.43,100654.74,1.1959448
1253729538,55.451717,44.43,100660.74,1.1960162
1253740929,56.03567,44.43,100653.74,1.195933
1253765446,56.54035,44.44,100647.734,1.1958616
1253777575,55.53627,44.44,100659.734,1.1960042
1253788901,56.120224,44.44,100652.734,1.195921
1253813650,55.451717,44.43,100660.74,1.1960162
1253825591,56.28669,44.43,100650.734,1.1958972
1253836886,56.03567,44.43,100653.74,1.195933
1253864072,56.371246,44.43,100649.74,1.1958854
1253875924,55.95376,44.43,100654.74,1.1959448
1253888058,56.20478,44.43,100651.734,1.1959091
1253912148,56.54035,44.43,100647.74,1.1958617
1253923727,56.20478,44.43,100651.734,1.1959091
1253937703,56.28669,44.43,100650.734,1.1958972
1253961642,55.95376,44.43,100654.74,1.1959448
1253973685,56.28669,44.43,100650.734,1.1958972
1253985609,55.78465,44.43,100656.74,1.1959686
1254009720,55.95376,44.44,100654.734,1.1959448
1254020902,56.289333,44.44,100650.73,1.1958971
1254033009,55.70274,44.44,100657.73,1.1959803
1254057274,56.289333,44.44,100650.73,1.1958971
1254068737,56.03831,44.44,100653.734,1.1959329
1254081296,56.03831,44.44,100653.734,1.1959329
1254105325,56.289333,44.44,100650.73,1.1958971
1254116839,56.54035,44.44,100647.734,1.1958616
1254130384,56.20478,44.44,100651.73,1.195909
1254153662,56.4558,44.43,100648.74,1.1958735
1254164846,56.03567,44.43,100653.74,1.195933
1254177285,56.371246,44.43,100649.74,1.1958854
1254201210,56.20478,44.44,100651.73,1.195909
1254212873,57.042393,44.44,100641.734,1.1957903
1254225224,56.120224,44.44,100652.734,1.195921
1254249189,56.54035,44.44,100647.734,1.1958616
1254261155,56.70682,44.44,100645.734,1.1958379
1254273296,56.4558,44.44,100648.734,1.1958735
1254297453,56.120224,44.44,100652.734,1.195921
1254308785,56.120224,44.44,100652.734,1.195921
1254321129,57.20886,44.44,100639.734,1.1957666
1254345341,56.54035,44.43,100647.74,1.1958617
1254356828,56.4558,44.43,100648.74,1.1958735
1254369698,56.791374,44.43,100644.734,1.1958259
1254393460,56.54035,44.44,100647.734,1.1958616
1254404906,56.54035,44.44,100647.734,1.1958616
1254417357,56.622265,44.44,100646.734,1.1958497
1254441572,56.120224,44.44,100652.734,1.195921
1254453659,56.20478,44.44,100651.73,1.195909
1254465610,56.622265,44.44,100646.734,1.1958497
1254489615,57.293415,44.44,100638.73,1.1957545
1254501005,56.20478,44.44,100651.73,1.195909
1254513285,56.70682,44.44,100645.734,1.1958379
1254537579,57.124306,44.44,100640.734,1.1957784
1254548968,56.20478,44.44,100651.73,1.195909
1254561463,57.375328,44.44,100637.734,1.1957427
1254585462,57.20886,44.43,100639.74,1.1957666
1254597732,56.4558,44.43,100648.74,1.1958735
1254609695,57.375328,44.43,100637.74,1.1957428
1254634379,57.124306,44.44,100640.734,1.1957784
1254645670,56.791374,44.44,100644.73,1.1958258
1254657698,56.791374,44.44,100644.73,1.1958258
1254681212,56.622265,44.44,100646.734,1.1958497
1254692766,57.293415,44.44,100638.73,1.1957545
1254705025,57.124306,44.44,100640.734,1.1957784
1254728983,56.873287,44.44,100643.734,1.195814
1254740923,56.622265,44.44,100646.734,1.1958497
1254753158,57.293415,44.44,100638.73,1.1957545
1254777267,57.375328,44.43,100637.74,1.1957428
1254788754,57.124306,44.43,100640.74,1.1957785
1254801671,57.45988,44.43,100636.74,1.1957309
1254825317,57.042393,44.45,100641.734,1.1957903
1254836781,56.95784,44.45,100642.734,1.1958022
1254849157,57.293415,44.45,100638.73,1.1957545
1254873026,57.042393,44.44,100641.734,1.1957903
1254884892,56.791374,44.44,100644.73,1.1958258
1254897018,57.293415,44.44,100638.73,1.1957545
1254921218,57.45988,44.44,100636.734,1.1957309
1254932699,56.873287,44.44,100643.734,1.195814
1254945134,57.626347,44.44,100634.734,1.1957071
1254971679,56.873287,44.44,100643.734,1.195814
1254984413,56.873287,44.44,100643.734,1.195814
1254995945,57.45988,44.44,100636.734,1.1957309
1255020742,57.042393,44.44,100641.734,1.1957903
1255033698,57.626347,44.44,100634.734,1.1957071
1255045661,57.88001,44.44,100631.734,1.1956714
1255069683,57.795456,44.44,100632.73,1.1956832
1255081742,57.375328,44.44,100637.734,1.1957427
1255093667,57.293415,44.44,100638.73,1.1957545
1255117608,57.96192,44.44,100630.734,1.1956596
1255129700,57.124306,44.44,100640.734,1.1957784
1255141670,57.7109,44.44,100633.734,1.1956953
1255165693,57.293415,44.43,100638.734,1.1957546
1255177471,57.20886,44.43,100639.74,1.1957666
1255189745,57.544434,44.43,100635.74,1.1957191
1255217262,57.7109,44.44,100633.734,1.1956953
1255229173,57.7109,44.44,100633.734,1.1956953
1255241249,57.45988,44.44,100636.734,1.1957309
1255264997,57.7109,44.44,100633.734,1.1956953
1255276859,58.21294,44.44,100627.734,1.195624
1255289020,57.45988,44.44,100636.734,1.1957309
1255313129,57.626347,44.44,100634.734,1.1957071
1255324782,57.45988,44.44,100636.734,1.1957309
1255337155,58.463963,44.44,100624.734,1.1955884
1255361182,57.293415,44.44,100638.73,1.1957545
1255372808,57.96192,44.44,100630.734,1.1956596
1255385302,57.7109,44.44,100633.734,1.1956953
1255409451,57.544434,44.44,100635.734,1.195719
1255421668,57.042393,44.44,100641.734,1.1957903
1255433703,57.626347,44.44,100634.734,1.1957071
1255457513,57.544434,44.44,100635.734,1.195719
1255468747,57.544434,44.44,100635.734,1.195719
1255483574,57.20886,44.44,100639.734,1.1957666
1255508752,57.544434,44.44,100635.734,1.195719
1255521294,57.795456,44.44,100632.73,1.1956832
1255532868,57.45988,44.44,100636.734,1.1957309
1255559998,58.463963,44.44,100624.734,1.1955884
1255572794,58.21294,44.44,100627.734,1.195624
1255585322,57.795456,44.44,100632.73,1.1956832
1255609442,58.13103,44.44,100628.734,1.1956358
1255620804,58.046474,44.44,100629.734,1.1956477
1255633280,57.96192,44.44,100630.734,1.1956596
1255657243,57.626347,44.44,100634.734,1.1957071
1255668823,58.548515,44.44,100623.734,1.1955764
1255681520,57.7109,44.44,100633.734,1.1956953
1255705684,57.626347,44.44,100634.734,1.1957071
1255716780,58.21294,44.44,100627.734,1.195624
1255729285,57.7109,44.44,100633.734,1.1956953
1255753458,58.297497,44.43,100626.734,1.1956121
1255764891,58.21294,44.43,100627.74,1.195624
1255777454,58.463963,44.43,100624.74,1.1955884
1255801033,58.799538,44.44,100620.734,1.1955408
1255812835,58.21294,44.44,100627.734,1.195624
1255824921,58.548515,44.44,100623.734,1.1955764
1255851856,57.795456,44.44,100632.73,1.1956832
1255864209,58.046474,44.44,100629.734,1.1956477
1255875851,58.38205,44.44,100625.73,1.1956
1255900767,58.13103,44.44,100628.734,1.1956358
1255913511,58.463963,44.44,100624.734,1.1955884
1255924904,58.463963,44.44,100624.734,1.1955884
1255953485,58.13103,44.44,100628.734,1.1956358
1255965712,58.38205,44.44,100625.73,1.1956
1255977695,59.30158,44.44,100614.734,1.1954695
1256001718,58.297497,44.44,100626.73,1.195612
1256013686,58.13103,44.44,100628.734,1.1956358
1256027675,58.13103,44.44,100628.734,1.1956358
1256051717,58.88409,44.43,100619.734,1.1955289
1256064350,59.552597,44.43,100611.74,1.195434
1256075849,58.548515,44.43,100623.74,1.1955765
1256100738,58.128387,44.43,100628.74,1.1956359
1256113359,58.88409,44.43,100619.734,1.1955289
1256124843,59.135113,44.43,100616.74,1.1954933
1256149715,58.548515,44.44,100623.734,1.1955764
1256161602,58.297497,44.44,100626.73,1.195612
1256173014,58.463963,44.44,100624.734,1.1955884
1256196991,58.968647,44.44,100618.734,1.1955171
1256209494,58.463963,44.44,100624.734,1.1955884
1256220794,58.463963,44.44,100624.734,1.1955884
1256244903,58.38205,44.44,100625.73,1.1956
1256257545,58.88409,44.44,100619.73,1.1955287
1256268826,59.219666,44.44,100615.734,1.1954814
1256292803,58.799538,44.44,100620.734,1.1955408
1256305239,58.71498,44.44,100621.734,1.1955527
1256316777,59.552597,44.44,100611.734,1.1954339
1256340874,59.050556,44.44,100617.734,1.1955051
1256353685,59.219666,44.44,100615.734,1.1954814
1256365714,59.30158,44.44,100614.734,1.1954695
1256392491,59.888172,44.44,100607.73,1.1953862
1256404777,59.135113,44.44,100616.734,1.1954932
1256417366,59.219666,44.44,100615.734,1.1954814
1256441540,59.135113,44.44,100616.734,1.1954932
1256452858,59.470684,44.44,100612.734,1.1954458
1256465436,59.135113,44.44,100616.734,1.1954932
1256489460,59.050556,44.44,100617.734,1.1955051
1256501681,59.470684,44.44,100612.734,1.1954458
1256513714,59.219666,44.44,100615.734,1.1954814
1256537401,59.135113,44.44,100616.734,1.1954932
1256548871,59.050556,44.44,100617.734,1.1955051
1256561675,59.972725,44.44,100606.734,1.1953745
1256585477,58.88409,44.44,100619.73,1.1955287
1256597697,59.38613,44.44,100613.73,1.1954575
1256609425,59.135113,44.44,100616.734,1.1954932
1256633153,59.470684,44.44,100612.734,1.1954458
1256644946,59.637154,44.44,100610.734,1.1954219
1256657214,59.888172,44.44,100607.73,1.1953862
1256681277,59.721706,44.44,100609.734,1.1954101
1256692748,59.80362,44.44,100608.734,1.1953982
1256705073,59.219666,44.44,100615.734,1.1954814
1256729544,59.30158,44.44,100614.734,1.1954695
1256740795,60.3083,44.44,100602.734,1.1953269
1256753599,59.80362,44.44,100608.734,1.1953982
1256777291,60.139194,44.44,100604.734,1.1953506
1256788854,59.30158,44.44,100614.734,1.1954695
1256801117,59.80362,44.44,100608.734,1.1953982
1256827688,59.38613,44.44,100613.73,1.1954575
1256841578,59.552597,44.44,100611.734,1.1954339
1256852789,60.139194,44.44,100604.734,1.1953506
1256877005,59.80362,44.44,100608.734,1.1953982
1256889512,60.390213,44.44,100601.73,1.1953149
1256901597,59.38613,44.44,100613.73,1.1954575
1256929199,59.30158,44.44,100614.734,1.1954695
1256940901,59.972725,44.44,100606.734,1.1953745
1256953143,59.972725,44.44,100606.734,1.1953745
1256977226,60.139194,44.44,100604.734,1.1953506
1256988743,60.64123,44.44,100598.734,1.1952794
1257001711,59.972725,44.44,100606.734,1.1953745
1257027873,60.3083,44.44,100602.734,1.1953269
1257040161,59.972725,44.44,100606.734,1.1953745
1257051843,60.559322,44.44,100599.734,1.1952913
1257076886,59.972725,44.44,100606.734,1.1953745
1257089593,60.81034,44.44,100596.734,1.1952556
1257101676,60.64123,44.44,100598.734,1.1952794
1257125686,60.81034,44.44,100596.734,1.1952556
1257137788,59.972725,44.44,100606.734,1.1953745
1257149683,60.3083,44.44,100602.734,1.1953269
1257173684,60.223747,44.44,100603.734,1.1953388
1257185655,60.976807,44.44,100594.73,1.1952318
1257196902,60.05728,44.44,100605.734,1.1953626
1257225297,59.972725,44.44,100606.734,1.1953745
1257236915,59.972725,44.44,100606.734,1.1953745
1257249628,60.474766,44.44,100600.73,1.1953031
1257273548,60.3083,44.44,100602.734,1.1953269
1257284792,60.474766,44.44,100600.73,1.1953031
1257297365,59.80362,44.44,100608.734,1.1953982
1257323578,60.05728,44.45,100605.734,1.1953626
1257336186,59.721706,44.45,100609.734,1.1954101
1257347879,60.72579,44.45,100597.734,1.1952674
1257372876,60.559322,44.44,100599.734,1.1952913
1257385352,60.72579,44.44,100597.734,1.1952674
1257396894,60.3083,44.44,100602.734,1.1953269
1257420755,60.3083,44.44,100602.734,1.1953269
1257433267,60.3083,44.44,100602.734,1.1953269
1257444806,60.64123,44.44,100598.734,1.1952794
1257469662,60.05728,44.44,100605.734,1.1953626
1257481629,60.3083,44.44,100602.734,1.1953269
1257493658,61.31238,44.44,100590.734,1.1951844
1257517642,61.143272,44.44,100592.734,1.1952081
1257529642,60.81034,44.44,100596.734,1.1952556
1257541684,60.976807,44.44,100594.73,1.1952318
1257565614,60.139194,44.44,100604.734,1.1953506
1257577731,61.061363,44.44,100593.734,1.19522
1257588754,60.559322,44.44,100599.734,1.1952913
1257612713,61.143272,44.44,100592.734,1.1952081
1257627694,60.892254,44.44,100595.734,1.1952437
1257640116,60.559322,44.44,100599.734,1.1952913
1257665425,60.72579,44.45,100597.734,1.1952674
1257676879,60.559322,44.45,100599.734,1.1952913
1257689546,61.563404,44.45,100587.734,1.1951487
1257713641,60.72579,44.44,100597.734,1.1952674
1257725712,61.48149,44.44,100588.73,1.1951605
1257739727,61.061363,44.44,100593.734,1.19522
1257763903,61.061363,44.45,100593.734,1.19522
1257777569,61.061363,44.45,100593.734,1.19522
1257788808,61.563404,44.45,100587.734,1.1951487
1257813701,61.814423,44.44,100584.734,1.1951131
1257827715,60.892254,44.44,100595.734,1.1952437
1257841225,61.48149,44.44,100588.73,1.1951605
1257865136,61.563404,44.44,100587.734,1.1951487
1257876857,60.05728,44.44,100605.734,1.1953626
1257889496,61.814423,44.44,100584.734,1.1951131
1257913110,61.48149,44.44,100588.73,1.1951605
1257924763,61.647957,44.44,100586.734,1.1951368
1257937200,61.22783,44.44,100591.734,1.1951962
1257961263,61.983532,44.44,100582.73,1.1950892
1257973242,61.814423,44.44,100584.734,1.1951131
1257985275,61.89898,44.44,100583.734,1.1951011
1258009222,61.061363,44.44,100593.734,1.19522
1258020944,60.81034,44.44,100596.734,1.1952556
1258033438,61.061363,44.44,100593.734,1.19522
1258059725,61.39694,44.44,100589.734,1.1951724
1258072414,61.647957,44.44,100586.734,1.1951368
1258083956,61.983532,44.44,100582.73,1.1950892
1258108744,61.39694,44.44,100589.734,1.1951724
1258121459,61.563404,44.44,100587.734,1.1951487
1258132838,60.559322,44.44,100599.734,1.1952913
1258157031,61.39694,44.44,100589.734,1.1951724
1258169694,61.983532,44.44,100582.73,1.1950892
1258181658,61.983532,44.44,100582.73,1.1950892
1258204907,61.563404,44.44,100587.734,1.1951487
1258219918,61.563404,44.44,100587.734,1.1951487
1258232440,61.814423,44.44,100584.734,1.1951131
1258257244,60.892254,44.44,100595.734,1.1952437
1258268855,61.39694,44.44,100589.734,1.1951724
1258281168,61.31238,44.44,100590.734,1.1951844
1258305208,62.149998,44.44,100580.734,1.1950655
1258316824,61.983532,44.44,100582.73,1.1950892
1258329289,61.48149,44.44,100588.73,1.1951605
1258353232,61.563404,44.44,100587.734,1.1951487
1258364984,62.40102,44.44,100577.734,1.1950299
1258377757,61.983532,44.44,100582.73,1.1950892
1258401696,62.149998,44.44,100580.734,1.1950655
1258413718,61.983532,44.44,100582.73,1.1950892
1258427605,62.316463,44.44,100578.734,1.1950418
1258451842,62.40102,44.44,100577.734,1.1950299
1258465237,61.983532,44.44,100582.73,1.1950892
1258477026,61.983532,44.44,100582.73,1.1950892
1258501003,61.983532,44.44,100582.73,1.1950892
1258513291,63.072166,44.44,100569.73,1.1949347
1258524895,62.485573,44.44,100576.73,1.1950179
1258548856,62.65204,44.44,100574.734,1.1949942
1258561548,61.143272,44.44,100592.734,1.1952081
1258573041,62.987614,44.44,100570.734,1.1949466
1258596790,61.814423,44.45,100584.734,1.1951131
1258609253,62.316463,44.45,100578.734,1.1950418
1258620800,62.485573,44.45,100576.73,1.1950179
1258645658,62.149998,44.45,100580.734,1.1950655
1258659931,62.73659,44.45,100573.734,1.1949823
1258673043,62.65204,44.45,100574.734,1.1949942
1258697447,61.89898,44.44,100583.734,1.1951011
1258708797,62.40102,44.44,100577.734,1.1950299
1258723601,62.149998,44.44,100580.734,1.1950655
1258748862,61.814423,44.44,100584.734,1.1951131
1258761158,62.40102,44.44,100577.734,1.1950299
1258772808,62.65204,44.44,100574.734,1.1949942
1258797722,63.072166,44.45,100569.73,1.1949347
1258809306,62.316463,44.45,100578.734,1.1950418
1258820653,62.570126,44.45,100575.73,1.195006
1258848026,62.65204,44.44,100574.734,1.1949942
1258860751,62.149998,44.44,100580.734,1.1950655
1258872907,62.570126,44.44,100575.73,1.195006
1258899735,62.818504,44.44,100572.734,1.1949705
1258913180,62.73659,44.44,100573.734,1.1949823
1258924814,62.23191,44.44,100579.734,1.1950536
1258948913,62.987614,44.44,100570.734,1.1949466
1258961318,63.072166,44.44,100569.73,1.1949347
1258972865,62.987614,44.44,100570.734,1.1949466
1258996925,62.23191,44.44,100579.734,1.1950536
1259009466,62.316463,44.44,100578.734,1.1950418
1259021693,62.485573,44.44,100576.73,1.1950179
1259049169,62.903057,44.45,100571.734,1.1949586
1259060815,62.65204,44.45,100574.734,1.1949942
1259072979,62.065445,44.45,100581.734,1.1950774
1259097041,61.89898,44.44,100583.734,1.1951011
1259108777,62.40102,44.44,100577.734,1.1950299
1259121024,62.903057,44.44,100571.734,1.1949586
1259145516,61.983532,44.45,100582.73,1.1950892
1259157652,62.73659,44.45,100573.734,1.1949823
1259169502,62.40102,44.45,100577.734,1.1950299
1259193602,63.15408,44.45,100568.734,1.1949229
1259204896,62.065445,44.45,100581.734,1.1950774
1259217285,63.15408,44.45,100568.734,1.1949229
1259241564,62.316463,44.44,100578.734,1.1950418
1259253659,62.73659,44.44,100573.734,1.1949823
1259265671,63.072166,44.44,100569.73,1.1949347
1259289372,62.40102,44.45,100577.734,1.1950299
1259300790,62.818504,44.45,100572.734,1.1949705
1259313283,62.818504,44.45,100572.734,1.1949705
1259337245,62.987614,44.45,100570.734,1.1949466
1259348757,63.405098,44.45,100565.734,1.1948873
1259361158,62.485573,44.45,100576.73,1.1950179
1259385423,62.73659,44.45,100573.734,1.1949823
1259396876,63.238632,44.45,100567.734,1.194911
1259409152,63.15408,44.45,100568.734,1.1949229
1259433471,62.485573,44.45,100576.73,1.1950179
1259444803,63.15408,44.45,100568.734,1.1949229
1259457224,62.818504,44.45,100572.734,1.1949705
1259481281,62.903057,44.45,100571.734,1.1949586
1259492819,62.485573,44.45,100576.73,1.1950179
1259507570,63.072166,44.45,100569.73,1.1949347
1259532743,63.15408,44.45,100568.734,1.1949229
1259545271,63.740673,44.45,100561.734,1.1948397
1259556877,62.73659,44.45,100573.734,1.1949823
1259584103,63.072166,44.45,100569.73,1.1949347
1259595943,63.405098,44.45,100565.734,1.1948873
1259609271,62.40102,44.45,100577.734,1.1950299
1259633456,63.489655,44.44,100564.734,1.1948754
1259644867,63.405098,44.44,100565.734,1.1948873
1259657247,63.15408,44.44,100568.734,1.1949229
1259681220,62.903057,44.44,100571.734,1.1949586
1259692912,63.15408,44.44,100568.734,1.1949229
1259705259,63.574207,44.44,100563.73,1.1948634
1259729205,63.072166,44.45,100569.73,1.1949347
1259740841,63.82523,44.45,100560.734,1.1948279
1259753149,63.32319,44.45,100566.734,1.1948992
1259777545,63.65612,44.45,100562.734,1.1948516
1259788789,63.238632,44.45,100567.734,1.194911
1259801459,63.991695,44.45,100558.734,1.1948041
1259824893,63.238632,44.45,100567.734,1.194911
1259836800,64.160805,44.45,100556.734,1.1947803
1259849421,62.987614,44.45,100570.734,1.1949466
1259874407,63.574207,44.45,100563.73,1.1948634
1259885670,63.405098,44.45,100565.734,1.1948873
1259897821,63.574207,44.45,100563.73,1.1948634
1259923590,63.238632,44.45,100567.734,1.194911
1259936441,63.90714,44.45,100559.734,1.194816
1259948837,63.574207,44.45,100563.73,1.1948634
1259972784,63.405098,44.45,100565.734,1.1948873
1259985697,63.90714,44.45,100559.734,1.194816
1259997775,63.991695,44.45,100558.734,1.1948041
1260021624,63.740673,44.45,100561.734,1.1948397
1260033663,63.82523,44.45,100560.734,1.1948279
1260044773,63.90714,44.45,100559.734,1.194816
1260068916,63.740673,44.45,100561.734,1.1948397
1260081684,63.65612,44.45,100562.734,1.1948516
1260092877,63.82523,44.45,100560.734,1.1948279
1260116911,63.90714,44.45,100559.734,1.194816
1260129457,63.405098,44.45,100565.734,1.1948873
1260140926,63.90714,44.45,100559.734,1.194816
1260164931,63.991695,44.46,100558.734,1.1948041
1260177518,63.32319,44.46,100566.734,1.1948992
1260189679,63.991695,44.46,100558.734,1.1948041
1260212778,63.574207,44.45,100563.73,1.1948634
1260227593,63.991695,44.45,100558.734,1.1948041
1260240635,63.991695,44.45,100558.734,1.1948041
1260265509,64.57829,44.45,100551.73,1.1947209
1260276907,64.160805,44.45,100556.734,1.1947803
1260289149,64.07625,44.45,100557.73,1.1947922
1260313266,63.65612,44.45,100562.734,1.1948516
1260324808,64.32727,44.45,100554.734,1.1947566
1260337222,64.57829,44.45,100551.73,1.1947209
1260361225,63.489655,44.45,100564.734,1.1948754
1260372926,63.90714,44.45,100559.734,1.194816
1260385105,63.82523,44.45,100560.734,1.1948279
1260409566,64.66284,44.45,100550.73,1.194709
1260421667,63.072166,44.45,100569.73,1.1949347
1260433367,64.07625,44.45,100557.73,1.1947922
1260457211,64.57829,44.45,100551.73,1.1947209
1260468784,64.242714,44.45,100555.734,1.1947684
1260481436,64.7474,44.45,100549.734,1.1946971
1260505319,64.32727,44.45,100554.734,1.1947566
1260516783,63.90714,44.45,100559.734,1.194816
1260529516,64.07625,44.45,100557.73,1.1947922
1260553696,63.574207,44.45,100563.73,1.1948634
1260564956,64.66284,44.45,100550.73,1.194709
1260579654,63.90714,44.45,100559.734,1.194816
1260604870,64.32727,44.45,100554.734,1.1947566
1260617745,64.07625,44.45,100557.73,1.1947922
1260629587,63.991695,44.45,100558.734,1.1948041
1260656230,63.90714,44.45,100559.734,1.194816
1260668808,64.49374,44.45,100552.734,1.1947328
1260681211,64.41183,44.45,100553.734,1.1947447
1260705229,64.160805,44.45,100556.734,1.1947803
1260716881,64.32727,44.45,100554.734,1.1947566
1260729025,64.913864,44.45,100547.734,1.1946734
1260755631,64.7474,44.45,100549.734,1.1946971
1260768135,64.57829,44.45,100551.73,1.1947209
1260779929,64.160805,44.45,100556.734,1.1947803
1260804788,63.991695,44.45,100558.734,1.1948041
1260819922,65.66692,44.45,100538.73,1.1945664
1260833047,64.49374,44.45,100552.734,1.1947328
1260857251,64.49374,44.45,100552.734,1.1947328
1260868941,64.82931,44.45,100548.734,1.1946853
1260881113,64.99842,44.45,100546.734,1.1946615
1260904939,64.41183,44.45,100553.734,1.1947447
1260916820,64.913864,44.45,100547.734,1.1946734
1260929164,65.08033,44.45,100545.734,1.1946497
1260953222,65.08033,44.45,100545.734,1.1946497
1260964942,65.08033,44.45,100545.734,1.1946497
1260979739,65.16489,44.45,100544.73,1.1946377
1261004827,65.08033,44.45,100545.734,1.1946497
1261017452,65.249435,44.45,100543.734,1.1946259
1261028799,65.582375,44.45,100539.734,1.1945784
1261052825,64.82931,44.44,100548.734,1.1946853
1261065238,65.249435,44.44,100543.734,1.1946259
1261076859,65.33135,44.44,100542.734,1.194614
1261100783,65.33135,44.45,100542.734,1.194614
1261115660,64.57829,44.45,100551.73,1.1947209
1261129222,65.08033,44.45,100545.734,1.1946497
1261153155,64.66284,44.45,100550.73,1.194709
1261164824,64.82931,44.45,100548.734,1.1946853
1261177248,65.08033,44.45,100545.734,1.1946497
1261201301,64.49374,44.45,100552.734,1.1947328
1261212850,65.249435,44.45,100543.734,1.1946259
1261227936,65.33135,44.45,100542.734,1.194614
1261252073,65.4159,44.45,100541.734,1.1946021
1261264109,64.99842,44.45,100546.734,1.1946615
1261276013,65.249435,44.45,100543.734,1.1946259
1261300918,65.08033,44.45,100545.734,1.1946497
1261313559,65.66692,44.45,100538.73,1.1945664
1261324952,65.66692,44.45,100538.73,1.1945664
1261349629,64.99842,44.45,100546.734,1.1946615
1261363630,65.66692,44.45,100538.73,1.1945664
1261376204,65.75148,44.45,100537.734,1.1945546
1261400411,66.08705,44.45,100533.734,1.1945071
1261412900,65.249435,44.45,100543.734,1.1946259
1261427855,65.249435,44.45,100543.734,1.1946259
1261453099,65.33135,44.45,100542.734,1.194614
1261465203,65.08033,44.45,100545.734,1.1946497
1261476939,66.33807,44.45,100530.734,1.1944715
1261500908,65.249435,44.45,100543.734,1.1946259
1261513159,65.75148,44.45,100537.734,1.1945546
1261524783,65.75148,44.45,100537.734,1.1945546
1261548886,66.42263,44.45,100529.734,1.1944596
1261561639,65.582375,44.45,100539.734,1.1945784
1261573697,66.17161,44.45,100532.73,1.1944951
1261601580,66.0025,44.45,100534.734,1.1945189
1261612782,65.66692,44.45,100538.73,1.1945664
1261625128,65.33135,44.45,100542.734,1.194614
1261649540,65.75148,44.45,100537.734,1.1945546
1261661637,65.50046,44.45,100540.734,1.1945902
1261673682,65.83604,44.45,100536.734,1.1945428
1261697226,66.50454,44.45,100528.734,1.1944476
1261708782,66.0025,44.45,100534.734,1.1945189
1261721295,65.920586,44.45,100535.734,1.1945308
1261745295,65.33135,44.45,100542.734,1.194614
1261756869,66.25352,44.45,100531.734,1.1944833
1261769247,66.25352,44.45,100531.734,1.1944833
1261793265,65.66692,44.45,100538.73,1.1945664
1261804824,66.17161,44.45,100532.73,1.1944951
1261819896,65.920586,44.45,100535.734,1.1945308
1261845688,65.582375,44.46,100539.734,1.1945784
1261857680,65.920586,44.46,100535.734,1.1945308
1261869634,65.33135,44.46,100542.734,1.194614
1261892755,65.33135,44.45,100542.734,1.194614
1261905225,66.33807,44.45,100530.734,1.1944715
1261916841,65.50046,44.45,100540.734,1.1945902
1261940784,65.50046,44.46,100540.734,1.1945902
1261953487,66.33807,44.46,100530.734,1.1944715
1261964880,66.42263,44.46,100529.734,1.1944596
1261988776,66.08705,44.45,100533.734,1.1945071
1262001274,66.33807,44.45,100530.734,1.1944715
1262012861,66.67365,44.45,100526.73,1.1944238
1262036759,66.08705,44.46,100533.734,1.1945071
1262049600,66.25352,44.46,100531.734,1.1944833
1262060752,65.920586,44.46,100535.734,1.1945308
1262085704,66.25352,44.46,100531.734,1.1944833
1262097458,66.33807,44.46,100530.734,1.1944715
1262108776,66.7582,44.46,100525.73,1.1944119
1262132911,66.589096,44.46,100527.734,1.1944358
1262145822,65.83604,44.46,100536.734,1.1945428
1262157717,66.0025,44.46,100534.734,1.1945189
1262181667,66.42263,44.46,100529.734,1.1944596
1262195932,66.42263,44.46,100529.734,1.1944596
1262208128,66.25352,44.46,100531.734,1.1944833
1262233222,65.83604,44.46,100536.734,1.1945428
1262244737,66.33807,44.46,100530.734,1.1944715
1262257586,66.0025,44.46,100534.734,1.1945189
1262281282,66.17161,44.46,100532.73,1.1944951
1262292744,66.42263,44.46,100529.734,1.1944596
1262305331,66.50454,44.46,100528.734,1.1944476
1262329671,67.009224,44.45,100522.734,1.1943763
1262341695,66.589096,44.45,100527.734,1.1944358
1262353311,66.67365,44.45,100526.73,1.1944238
1262377661,66.92467,44.45,100523.734,1.1943883
1262389694,66.7582,44.45,100525.73,1.1944119
1262401663,66.42263,44.45,100529.734,1.1944596
1262425339,66.25352,44.45,100531.734,1.1944833
1262436790,66.08705,44.45,100533.734,1.1945071
1262449592,66.33807,44.45,100530.734,1.1944715
1262473271,65.83604,44.46,100536.734,1.1945428
1262484846,66.0025,44.46,100534.734,1.1945189
1262497024,67.09378,44.46,100521.734,1.1943645
1262521026,65.920586,44.46,100535.734,1.1945308
1262532783,66.67365,44.46,100526.73,1.1944238
1262545271,66.84012,44.46,100524.734,1.1944002
1262569069,66.589096,44.46,100527.734,1.1944358
1262580874,66.589096,44.46,100527.734,1.1944358
1262593544,66.08705,44.46,100533.734,1.1945071
1262619895,66.50454,44.46,100528.734,1.1944476
1262632746,66.84012,44.46,100524.734,1.1944002
1262644751,66.67365,44.46,100526.73,1.1944238
1262672006,66.17161,44.46,100532.73,1.1944951
1262683732,66.08705,44.46,100533.734,1.1945071
1262696117,66.67365,44.46,100526.73,1.1944238
1262721266,66.33807,44.45,100530.734,1.1944715
1262732810,66.42263,44.45,100529.734,1.1944596
1262745297,66.92467,44.45,100523.734,1.1943883
1262769183,66.7582,44.45,100525.73,1.1944119
1262781172,67.009224,44.45,100522.734,1.1943763
1262792890,66.50454,44.45,100528.734,1.1944476
1262817466,66.17161,44.46,100532.73,1.1944951
1262829723,66.42263,44.46,100529.734,1.1944596
1262841486,66.589096,44.46,100527.734,1.1944358
1262865683,67.42671,44.46,100517.734,1.194317
1262877601,66.84012,44.46,100524.734,1.1944002
1262889726,66.7582,44.46,100525.73,1.1944119
1262913620,67.17569,44.46,100520.734,1.1943526
1262925731,67.09378,44.46,100521.734,1.1943645
1262937668,66.92467,44.46,100523.734,1.1943883
1262961152,66.92467,44.46,100523.734,1.1943883
1262973160,67.51126,44.46,100516.734,1.1943051
1262985311,66.92467,44.46,100523.734,1.1943883
1263009183,67.17569,44.46,100520.734,1.1943526
1263020953,67.009224,44.46,100522.734,1.1943763
1263033245,66.84012,44.46,100524.734,1.1944002
1263057154,67.09378,44.46,100521.734,1.1943645
1263068756,66.92467,44.46,100523.734,1.1943883
1263081090,66.92467,44.46,100523.734,1.1943883
1263105316,67.17569,44.46,100520.734,1.1943526
1263116864,66.67365,44.46,100526.73,1.1944238
1263129296,67.26025,44.46,100519.73,1.1943406
1263153447,67.344795,44.46,100518.734,1.1943289
1263164796,67.17569,44.46,100520.734,1.1943526
1263177691,67.009224,44.46,100522.734,1.1943763
1263203741,67.26025,44.46,100519.73,1.1943406
1263217656,67.26025,44.46,100519.73,1.1943406
1263228772,67.009224,44.46,100522.734,1.1943763
1263252772,67.9314,44.46,100511.734,1.1942457
1263267861,67.009224,44.46,100522.734,1.1943763
1263280119,67.51126,44.46,100516.734,1.1943051
1263305103,67.59582,44.46,100515.734,1.1942933
1263316796,67.59582,44.46,100515.734,1.1942933
1263329221,67.009224,44.46,100522.734,1.1943763
1263353475,67.67773,44.46,100514.734,1.1942813
1263364853,67.42671,44.46,100517.734,1.194317
1263377295,67.42671,44.46,100517.734,1.194317
1263401157,67.51126,44.46,100516.734,1.1943051
1263412777,67.51126,44.46,100516.734,1.1943051
1263427679,67.344795,44.46,100518.734,1.1943289
1263452903,67.42671,44.46,100517.734,1.194317
1263465580,66.92467,44.46,100523.734,1.1943883
1263477588,67.67773,44.46,100514.734,1.1942813
1263501724,67.76228,44.46,100513.73,1.1942693
1263513680,66.92467,44.46,100523.734,1.1943883
1263525665,68.26697,44.46,100507.73,1.194198
1263548881,67.344795,44.46,100518.734,1.1943289
1263561263,67.9314,44.46,100511.734,1.1942457
1263572943,67.51126,44.46,100516.734,1.1943051
1263596911,67.51126,44.46,100516.734,1.1943051
1263609263,67.09378,44.46,100521.734,1.1943645
1263620809,68.18241,44.46,100508.734,1.19421
1263645594,67.67773,44.46,100514.734,1.1942813
1263657750,67.59582,44.46,100515.734,1.1942933
1263669728,67.59582,44.46,100515.734,1.1942933
1263693664,67.76228,44.46,100513.73,1.1942693
1263707646,67.51126,44.46,100516.734,1.1943051
1263720138,67.9314,44.46,100511.734,1.1942457
1263744689,67.09378,44.46,100521.734,1.1943645
1263756851,67.84684,44.46,100512.734,1.1942575
1263769484,68.18241,44.46,100508.734,1.19421
1263793277,67.9314,44.46,100511.734,1.1942457
1263804791,68.013306,44.46,100510.734,1.1942338
1263819878,67.84684,44.46,100512.734,1.1942575
1263844852,68.013306,44.46,100510.734,1.1942338
1263857150,67.84684,44.46,100512.734,1.1942575
1263868838,67.51126,44.46,100516.734,1.1943051
1263892818,68.684456,44.46,100502.734,1.1941388
1263905290,68.09786,44.46,100509.734,1.1942219
1263916892,67.9314,44.46,100511.734,1.1942457
1263940793,68.09786,44.46,100509.734,1.1942219
1263953831,68.013306,44.46,100510.734,1.1942338
1263965706,68.09786,44.46,100509.734,1.1942219
1263989660,67.9314,44.46,100511.734,1.1942457
1264003624,68.013306,44.46,100510.734,1.1942338
1264017547,68.51799,44.46,100504.734,1.1941625
1264041477,68.26697,44.46,100507.73,1.194198
1264052770,68.34888,44.46,100506.734,1.1941862
1264065465,67.76228,44.46,100513.73,1.1942693
1264091546,68.26697,44.46,100507.73,1.194198
1264105181,68.09786,44.46,100509.734,1.1942219
1264116837,67.76228,44.46,100513.73,1.1942693
1264140779,68.26697,44.45,100507.73,1.194198
1264153141,68.09786,44.45,100509.734,1.1942219
1264165259,68.09786,44.45,100509.734,1.1942219
1264193145,68.18241,44.46,100508.734,1.19421
1264204870,68.43343,44.46,100505.734,1.1941744
1264219859,68.26697,44.46,100507.73,1.194198
1264245327,68.684456,44.45,100502.734,1.1941388
1264257211,68.684456,44.45,100502.734,1.1941388
1264268913,68.51799,44.45,100504.734,1.1941625
1264292766,68.013306,44.46,100510.734,1.1942338
1264305216,68.26697,44.46,100507.73,1.194198
1264316806,68.85356,44.46,100500.73,1.1941149
1264340861,68.34888,44.46,100506.734,1.1941862
1264353692,69.02003,44.46,100498.734,1.1940912
1264365702,69.10458,44.46,100497.734,1.1940793
1264389657,68.5999,44.46,100503.734,1.1941506
1264401785,68.85356,44.46,100500.73,1.1941149
1264413678,68.5999,44.46,100503.734,1.1941506
1264436778,69.18649,44.46,100496.734,1.1940675
1264449618,68.769005,44.46,100501.73,1.1941267
1264460769,68.43343,44.46,100505.734,1.1941744
1264484821,68.85356,44.46,100500.73,1.1941149
1264497318,68.93548,44.46,100499.734,1.1941031
1264508696,68.684456,44.46,100502.734,1.1941388
1264533005,68.684456,44.46,100502.734,1.1941388
1264545325,68.34888,44.46,100506.734,1.1941862
1264557002,69.10458,44.46,100497.734,1.1940793
1264580884,68.5999,44.469997,100503.734,1.1941506
1264593281,69.02003,44.469997,100498.734,1.1940912
1264604888,69.10458,44.469997,100497.734,1.1940793
1264633428,68.684456,44.469997,100502.734,1.1941388
1264645242,68.51799,44.469997,100504.734,1.1941625
1264657485,68.93548,44.469997,100499.734,1.1941031
1264681281,68.85356,44.46,100500.73,1.1941149
1264692776,68.93548,44.46,100499.734,1.1941031
1264705428,68.93548,44.46,100499.734,1.1941031
1264729404,68.93548,44.46,100499.734,1.1941031
1264740824,68.769005,44.46,100501.73,1.1941267
1264755689,69.69118,44.46,100490.734,1.1939962
1264779939,69.02003,44.46,100498.734,1.1940912
1264795720,69.18649,44.46,100496.734,1.1940675
1264808197,69.355606,44.46,100494.73,1.1940436
1264833192,69.10458,44.46,100497.734,1.1940793
1264844907,69.52207,44.46,100492.734,1.1940199
1264857407,69.355606,44.46,100494.73,1.1940436
1264881473,69.02003,44.46,100498.734,1.1940912
1264893622,68.93548,44.46,100499.734,1.1941031
1264905606,69.60662,44.46,100491.734,1.194008
1264929421,69.69118,44.46,100490.734,1.1939962
1264941162,69.69118,44.46,100490.734,1.1939962
1264953420,69.27105,44.46,100495.734,1.1940556
1264977290,69.355606,44.46,100494.73,1.1940436
1264988816,69.77309,44.46,100489.734,1.1939843
1265001187,69.10458,44.46,100497.734,1.1940793
1265025429,69.355606,44.469997,100494.73,1.1940436
1265036918,69.69118,44.469997,100490.734,1.1939962
1265049192,69.85764,44.469997,100488.73,1.1939723
1265073451,69.52207,44.46,100492.734,1.1940199
1265084779,69.60662,44.46,100491.734,1.194008
1265097332,69.440155,44.46,100493.734,1.1940318
1265121155,69.77309,44.46,100489.734,1.1939843
1265132870,69.27105,44.46,100495.734,1.1940556
1265145446,69.60662,44.46,100491.734,1.194008
1265169236,69.69118,44.469997,100490.734,1.1939962
1265180971,70.02411,44.469997,100486.734,1.1939486
1265193282,70.02411,44.469997,100486.734,1.1939486
1265219909,70.19322,44.46,100484.734,1.1939249
1265232669,69.85764,44.46,100488.73,1.1939723
1265244892,69.77309,44.46,100489.734,1.1939843
1265269634,70.19322,44.469997,100484.734,1.1939249
1265281633,70.02411,44.469997,100486.734,1.1939486
1265293627,70.19322,44.469997,100484.734,1.1939249
1265317635,69.85764,44.46,100488.73,1.1939723
1265329692,70.61335,44.46,100479.734,1.1938654
1265341643,70.02411,44.46,100486.734,1.1939486
1265365207,69.9422,44.46,100487.734,1.1939605
1265377570,69.85764,44.46,100488.73,1.1939723
1265388867,70.52879,44.46,100480.734,1.1938773
1265412758,70.19322,44.469997,100484.734,1.1939249
1265425366,70.19322,44.469997,100484.734,1.1939249
1265436855,70.108665,44.469997,100485.734,1.1939367
1265460797,69.60662,44.46,100491.734,1.194008
1265473328,70.02411,44.46,100486.734,1.1939486
1265484834,70.864365,44.46,100476.73,1.1938298
1265509671,70.108665,44.469997,100485.734,1.1939367
1265521684,69.9422,44.469997,100487.734,1.1939605
1265532820,70.27777,44.469997,100483.734,1.193913
1265556876,70.02411,44.469997,100486.734,1.1939486
1265569329,70.44424,44.469997,100481.734,1.1938893
1265580770,70.61335,44.469997,100479.734,1.1938654
1265605686,70.108665,44.469997,100485.734,1.1939367
1265619827,70.02411,44.469997,100486.734,1.1939486
1265632222,70.36233,44.469997,100482.73,1.1939011
1265657141,70.52879,44.46,100480.734,1.1938773
1265668644,70.36233,44.46,100482.73,1.1939011
1265681634,70.27777,44.46,100483.734,1.193913
1265705434,69.9422,44.46,100487.734,1.1939605
1265717163,70.69526,44.46,100478.734,1.1938536
1265729373,70.27777,44.46,100483.734,1.193913
1265753540,70.44424,44.469997,100481.734,1.1938893
1265764921,70.36233,44.469997,100482.73,1.1939011
1265777537,70.864365,44.469997,100476.73,1.1938298
1265801638,71.197296,44.46,100472.734,1.1937823
1265812783,70.02411,44.46,100486.734,1.1939486
1265825277,71.11539,44.46,100473.734,1.1937941
1265851834,71.532875,44.469997,100468.734,1.1937348
1265865447,71.11539,44.469997,100473.734,1.1937941
1265876830,70.779816,44.469997,100477.734,1.1938417
1265900744,70.69526,44.46,100478.734,1.1938536
1265913597,70.779816,44.46,100477.734,1.1938417
1265924809,71.36641,44.46,100470.734,1.1937585
1265948881,69.77309,44.469997,100489.734,1.1939843
1265961513,70.27777,44.469997,100483.734,1.193913
1265972802,70.864365,44.469997,100476.73,1.1938298
1265997201,69.9422,44.46,100487.734,1.1939605
1266009661,71.61743,44.46,100467.734,1.1937228
1266021731,71.61743,44.46,100467.734,1.1937228
1266044916,70.864365,44.469997,100476.73,1.1938298
1266057665,71.450966,44.469997,100469.73,1.1937466
1266069696,71.03083,44.469997,100474.734,1.193806
1266093664,71.36641,44.46,100470.734,1.1937585
1266105727,71.11539,44.46,100473.734,1.1937941
1266117702,70.779816,44.46,100477.734,1.1938417
1266140927,70.61335,44.469997,100479.734,1.1938654
1266153290,71.28185,44.469997,100471.734,1.1937704
1266165461,71.70198,44.469997,100466.734,1.193711
1266188903,71.450966,44.469997,100469.73,1.1937466
1266201319,70.44424,44.469997,100481.734,1.1938893
1266212758,70.864365,44.469997,100476.73,1.1938298
1266236851,71.87109,44.469997,100464.734,1.1936872
1266249291,71.36641,44.469997,100470.734,1.1937585
1266260840,71.450966,44.469997,100469.73,1.1937466
1266284739,71.450966,44.469997,100469.73,1.1937466
1266297246,71.61743,44.469997,100467.734,1.1937228
1266308779,71.532875,44.469997,100468.734,1.1937348
1266332758,71.78654,44.469997,100465.734,1.1936991
1266345429,71.78654,44.469997,100465.734,1.1936991
1266356784,71.532875,44.469997,100468.734,1.1937348
1266385065,71.36641,44.469997,100470.734,1.1937585
1266396906,71.78654,44.469997,100465.734,1.1936991
1266409211,71.78654,44.469997,100465.734,1.1936991
1266433119,72.03756,44.469997,100462.734,1.1936635
1266444791,71.450966,44.469997,100469.73,1.1937466
1266457144,72.288574,44.469997,100459.734,1.1936278
1266481156,71.78654,44.469997,100465.734,1.1936991
1266492770,71.450966,44.469997,100469.73,1.1937466
1266505239,71.450966,44.469997,100469.73,1.1937466
1266528948,71.78654,44.469997,100465.734,1.1936991
1266540865,72.288574,44.469997,100459.734,1.1936278
1266553003,71.450966,44.469997,100469.73,1.1937466
1266577684,72.12211,44.469997,100461.734,1.1936516
1266589609,71.450966,44.469997,100469.73,1.1937466
1266601422,71.953,44.469997,100463.73,1.1936753
1266625288,71.78654,44.469997,100465.734,1.1936991
1266636745,72.204025,44.469997,100460.734,1.1936398
1266649580,71.78654,44.469997,100465.734,1.1936991
1266673337,72.5396,44.469997,100456.734,1.1935922
1266684786,71.197296,44.469997,100472.734,1.1937823
1266697579,71.87109,44.469997,100464.734,1.1936872
1266721667,71.70198,44.469997,100466.734,1.193711
1266733703,71.61743,44.469997,100467.734,1.1937228
1266745806,71.78654,44.469997,100465.734,1.1936991
1266769789,71.450966,44.469997,100469.73,1.1937466
1266781682,72.12211,44.469997,100461.734,1.1936516
1266793286,71.953,44.469997,100463.73,1.1936753
1266819969,71.70198,44.469997,100466.734,1.193711
1266833707,72.288574,44.469997,100459.734,1.1936278
1266845690,72.288574,44.469997,100459.734,1.1936278
1266869784,71.70198,44.48,100466.734,1.193711
1266881667,71.61743,44.48,100467.734,1.1937228
1266893633,72.62415,44.48,100455.734,1.1935803
1266916874,71.70198,44.469997,100466.734,1.193711
1266929645,72.204025,44.469997,100460.734,1.1936398
1266940908,72.204025,44.469997,100460.734,1.1936398
1266969222,72.37313,44.469997,100458.734,1.1936159
1266980867,72.204025,44.469997,100460.734,1.1936398
1266993212,72.204025,44.469997,100460.734,1.1936398
1267019837,71.78654,44.469997,100465.734,1.1936991
1267033130,72.37313,44.469997,100458.734,1.1936159
1267044868,72.37313,44.469997,100458.734,1.1936159
1267068850,72.37313,44.469997,100458.734,1.1936159
1267081177,72.79062,44.469997,100453.734,1.1935565
1267092669,72.204025,44.469997,100460.734,1.1936398
1267116928,72.875175,44.469997,100452.734,1.1935446
1267128993,72.5396,44.469997,100456.734,1.1935922
1267140787,72.45769,44.469997,100457.73,1.193604
1267165308,72.45769,44.469997,100457.73,1.193604
1267177621,72.70606,44.469997,100454.734,1.1935685
1267188789,73.2953,44.469997,100447.734,1.1934853
1267212788,72.45769,44.469997,100457.73,1.193604
1267225328,72.70606,44.469997,100454.734,1.1935685
1267236961,72.875175,44.469997,100452.734,1.1935446
1267260975,72.288574,44.469997,100459.734,1.1936278
1267273319,72.79062,44.469997,100453.734,1.1935565
1267284751,72.959724,44.469997,100451.73,1.1935327
1267309670,72.70606,44.469997,100454.734,1.1935685
1267321718,72.12211,44.469997,100461.734,1.1936516
1267333671,72.5396,44.469997,100456.734,1.1935922
1267357662,72.70606,44.469997,100454.734,1.1935685
1267369719,72.45769,44.469997,100457.73,1.193604
1267381707,72.62415,44.469997,100455.734,1.1935803
1267404773,72.12211,44.469997,100461.734,1.1936516
1267419829,72.959724,44.469997,100451.73,1.1935327
1267433323,72.5396,44.469997,100456.734,1.1935922
1267457567,72.959724,44.469997,100451.73,1.1935327
1267468992,72.79062,44.469997,100453.734,1.1935565
1267481584,73.37985,44.469997,100446.734,1.1934733
1267505666,72.79062,44.469997,100453.734,1.1935565
1267516936,73.21075,44.469997,100448.734,1.1934972
1267529201,72.959724,44.469997,100451.73,1.1935327
1267553442,73.37985,44.469997,100446.734,1.1934733
1267565253,72.875175,44.469997,100452.734,1.1935446
1267577241,72.79062,44.469997,100453.734,1.1935565
1267601144,72.70606,44.469997,100454.734,1.1935685
1267612840,73.04428,44.469997,100450.73,1.1935208
1267625286,73.630875,44.469997,100443.734,1.1934377
1267649297,72.79062,44.469997,100453.734,1.1935565
1267660789,73.04428,44.469997,100450.73,1.1935208
1267673241,72.5396,44.469997,100456.734,1.1935922
1267697297,73.37985,44.48,100446.734,1.1934733
1267708883,72.37313,44.48,100458.734,1.1936159
1267721253,73.21075,44.48,100448.734,1.1934972
1267745212,73.46177,44.469997,100445.734,1.1934615
1267756928,73.546326,44.469997,100444.73,1.1934495
1267769177,73.12619,44.469997,100449.734,1.193509
1267793160,73.37985,44.469997,100446.734,1.1934733
1267804887,73.37985,44.469997,100446.734,1.1934733
1267819944,73.37985,44.469997,100446.734,1.1934733
1267844800,72.70606,44.469997,100454.734,1.1935685
1267857318,73.2953,44.469997,100447.734,1.1934853
1267868789,73.96645,44.469997,100439.734,1.1933903
1267893682,73.37985,44.469997,100446.734,1.1934733
1267905677,73.630875,44.469997,100443.734,1.1934377
1267916792,73.04428,44.469997,100450.73,1.1935208
1267940872,73.37985,44.469997,100446.734,1.1934733
1267953752,73.12619,44.469997,100449.734,1.193509
1267965792,73.46177,44.469997,100445.734,1.1934615
1267988983,73.2953,44.469997,100447.734,1.1934853
1268001282,73.12619,44.469997,100449.734,1.193509
1268012787,73.546326,44.469997,100444.73,1.1934495
1268036830,73.546326,44.48,100444.73,1.1934495
1268049632,73.71279,44.48,100442.734,1.1934259
1268061699,72.959724,44.48,100451.73,1.1935327
1268085650,73.630875,44.469997,100443.734,1.1934377
1268099861,73.71279,44.469997,100442.734,1.1934259
1268112027,73.96645,44.469997,100439.734,1.1933903
1268136214,74.46849,44.469997,100433.734,1.193319
1268147830,73.46177,44.469997,100445.734,1.1934615
1268163955,73.2953,44.469997,100447.734,1.1934853
1268188927,73.546326,44.469997,100444.73,1.1934495
1268201270,74.051,44.469997,100438.73,1.1933782
1268212810,74.302025,44.469997,100435.734,1.1933427
1268236870,73.8819,44.469997,100440.734,1.193402
1268249437,73.8819,44.469997,100440.734,1.193402
1268260894,73.546326,44.469997,100444.73,1.1934495
1268285671,74.302025,44.469997,100435.734,1.1933427
1268297687,73.96645,44.469997,100439.734,1.1933903
1268308772,74.302025,44.469997,100435.734,1.1933427
