timestamp,x,y,z,yaw,yawspeed,vx,vy,vz,acc_x,acc_y,acc_z,thrust[0],thrust[1],thrust[2]
1244968099,6.297444,-9.511015,-30.392174,-0.11049406,0.0,0.10913789,-0.20973139,-0.1563341,0.13537222,-0.33433816,-5.0869513,0.0,0.0,0.0
1245067418,6.297444,-9.511015,-30.392174,-0.11049406,0.0,0.11741412,-0.22375341,-0.25577408,0.1422223,-0.36404216,-5.2845573,0.0,0.0,0.0
1245172074,6.297444,-9.511015,-30.392174,-0.11049406,0.0,0.12592272,-0.23845582,-0.3602151,0.1472738,-0.3601673,-5.48429,0.0,0.0,0.0
1245275565,6.297444,-9.511015,-30.392174,-0.11049406,0.0,0.13444765,-0.2521879,-0.4637551,0.17197983,-0.51844347,-5.7191477,0.0,0.0,0.0
1245376527,6.297444,-9.511015,-30.392174,-0.11049406,0.0,0.14217755,-0.2650874,-0.56482303,0.21007216,-0.3754923,-5.933132,0.0,0.0,0.0
1245479853,6.297444,-9.511015,-30.392174,-0.11049406,0.0,0.14993148,-0.27951983,-0.66801304,0.20384312,-0.4095795,-6.1457624,0.0,0.0,0.0
1245579633,6.297444,-9.511015,-30.392174,-0.11049406,0.0,0.15677035,-0.29299372,-0.76792794,0.17731266,-0.44976813,-6.358627,0.0,0.0,0.0
1245679936,6.297444,-9.511015,-30.392174,-0.11049406,0.0,0.1643023,-0.30718064,-0.86824495,0.21773724,-0.49803305,-6.5732837,0.0,0.0,0.0
1245784152,6.297444,-9.511015,-30.392174,-0.11049406,0.0,0.17099847,-0.32200354,-0.9724809,0.2582503,-0.49833697,-6.7726994,0.0,0.0,0.0
1245883421,6.297444,-9.511015,-30.392174,-0.11049406,0.0,0.17802127,-0.33557168,-1.0,0.21549028,-0.41671413,-6.816257,0.0,0.0,0.0
1245987583,6.297444,-9.511015,-30.392174,-0.11049406,0.0,0.17945,-0.32923427,-1.0,-0.08020919,0.32613888,-6.1185775,0.0,0.0,0.0
1246088186,6.297444,-9.511015,-30.392174,-0.11049406,0.0,0.16629955,-0.28438953,-1.0,0.076753974,0.122719705,-5.486472,0.0,0.0,0.0
1246187525,6.297444,-9.511015,-30.392174,-0.11049406,0.0,0.15312283,-0.2391797,-1.0,-0.11921251,0.3454507,-5.0651836,0.0,0.0,0.0
1246291407,6.297444,-9.511015,-30.392174,-0.11049406,0.0,0.13483132,-0.16777405,-1.0,-0.048348073,0.43864894,-4.868475,0.0,0.0,0.0
1246392391,6.297444,-9.511015,-30.392174,-0.11049406,0.0,0.115279146,-0.09345927,-1.0,-0.14138295,0.6302977,-4.883527,0.0,0.0,0.0
1246496010,6.297444,-9.511015,-30.392174,-0.11049406,0.0,0.09166722,-0.012451935,-1.0,-0.15960811,0.66214687,-4.86834,0.0,0.0,0.0
1246600415,6.297444,-9.511015,-30.392174,-0.11049406,0.0,0.064966775,0.07042718,-1.0,-0.2042506,0.8077582,-4.8440247,0.0,0.0,0.0
1246703748,6.297444,-9.511015,-30.392174,-0.11049406,0.0,0.038162135,0.14983726,-1.0,-0.23603135,0.85287523,-4.822638,0.0,0.0,0.0
1246803600,6.297444,-9.511015,-30.392174,-0.11049406,0.0,0.010913109,0.22516493,-1.0,-0.21418278,0.8510776,-4.794052,0.0,0.0,0.0
1246907333,6.297444,-9.511015,-30.392174,-0.11049406,0.0,-0.016826963,0.29642925,-1.0,-0.24451928,0.872128,-4.8049307,0.0,0.0,0.0
1247008001,6.297444,-9.511015,-30.392174,-0.11049406,0.0,-0.041690517,0.35955143,-1.0,-0.23295523,0.86584944,-4.8204756,0.0,0.0,0.0
1247107370,6.297444,-9.511015,-30.392174,-0.11049406,0.0,-0.057220552,0.41389728,-1.0,-0.19248326,0.8413755,-4.8492923,0.0,0.0,0.0
1247211641,6.297444,-9.511015,-30.392174,-0.11049406,0.0,-0.07045617,0.4627809,-1.0,-0.17118494,0.822553,-4.857708,0.0,0.0,0.0
1247311889,6.297444,-9.511015,-30.392174,-0.11049406,0.0,-0.074747846,0.5024298,-1.0,-0.17104696,0.8223262,-4.8362765,0.0,0.0,0.0
1247415864,6.297444,-9.511015,-30.392174,-0.11049406,0.0,-0.07763479,0.5368148,-1.0,-0.13551617,0.77607834,-4.8397837,0.0,0.0,0.0
1247520111,6.297444,-9.511015,-30.392174,-0.11049406,0.0,-0.07134766,0.5653644,-1.0,-0.098968565,0.81018126,-4.8290505,0.0,0.0,0.0
1247619643,6.297444,-9.511015,-30.392174,-0.11049406,0.0,-0.06681862,0.5861768,-1.0,-0.06968858,0.7350309,-4.8959193,0.0,0.0,0.0
1247723412,6.297444,-9.511015,-30.392174,-0.11049406,0.0,-0.054965995,0.6026695,-1.0,-0.08468867,0.72796965,-4.9183745,0.0,0.0,0.0
1247825486,6.297444,-9.511015,-30.392174,-0.11049406,0.0,-0.044970654,0.6121878,-1.0,-0.031939276,0.7212867,-5.025859,0.0,0.0,0.0
1247927716,6.297444,-9.511015,-30.392174,-0.11049406,0.0,-0.027947092,0.61751324,-1.0,-0.042758007,0.6424564,-5.0647864,0.0,0.0,0.0
1248032430,6.297444,-9.511015,-30.392174,-0.11049406,0.0,-0.014036966,0.6155309,-1.0,-0.025347961,0.6160335,-5.065529,0.0,0.0,0.0
1248136474,6.297444,-9.511015,-30.392174,-0.11049406,0.0,0.0031311035,0.6051075,-1.0,-0.033692397,0.593301,-5.0569863,0.0,0.0,0.0
1248240050,6.297444,-9.511015,-30.392174,-0.11049406,0.0,0.016404318,0.59037066,-1.0,-0.07022215,0.54719573,-5.0473857,0.0,0.0,0.0
1248344046,6.297444,-9.511015,-30.392174,-0.11049406,0.0,0.031157922,0.5730028,-1.0,-0.029734697,0.514778,-5.0496407,0.0,0.0,0.0
1248443585,6.297444,-9.511015,-30.392174,-0.11049406,0.0,0.040170263,0.55224293,-1.0,-0.052625693,0.5059498,-5.0284834,0.0,0.0,0.0
1248544082,6.297444,-9.511015,-30.392174,-0.11049406,0.0,0.049368788,0.5283502,-1.0,-0.017573,0.4261925,-5.0634003,0.0,0.0,0.0
1248648513,6.297444,-9.511015,-30.392174,-0.11049406,0.0,0.055342436,0.5020275,-1.0,-0.051909517,0.42140007,-5.0407124,0.0,0.0,0.0
1248751932,6.297444,-9.511015,-30.392174,-0.11049406,0.0,0.062174056,0.47557712,-1.0,-0.07299621,0.38927805,-5.031146,0.0,0.0,0.0
1248851584,6.297444,-9.511015,-30.392174,-0.11049406,0.0,0.06380665,0.4490153,-1.0,-0.104039,0.35707954,-5.016823,0.0,0.0,0.0
1248955946,6.297444,-9.511015,-30.392174,-0.11049406,0.0,0.06417358,0.4208254,-1.0,-0.1005096,0.3673932,-5.000578,0.0,0.0,0.0
1249056154,6.297444,-9.511015,-30.392174,-0.11049406,0.0,0.064572215,0.3929254,-1.0,-0.12862264,0.3556058,-5.0105224,0.0,0.0,0.0
1249155706,6.297444,-9.511015,-30.392174,-0.11049406,0.0,0.06542566,0.36457515,-1.0,-0.116086125,0.3277265,-4.9978995,0.0,0.0,0.0
1249259584,6.297444,-9.511015,-30.392174,-0.11049406,0.0,0.06435478,0.3349103,-1.0,-0.16671619,0.34884903,-4.945651,0.0,0.0,0.0
1249360465,6.297444,-9.511015,-30.392174,-0.11049406,0.0,0.06301346,0.3063571,-1.0,-0.15477881,0.2994242,-4.9783106,0.0,0.0,0.0
1249459545,6.297444,-9.511015,-30.392174,-0.11049406,0.0,0.05866878,0.28089693,-1.0,-0.18544383,0.31974205,-4.927908,0.0,0.0,0.0
1249563838,6.297444,-9.511015,-30.392174,-0.11049406,0.0,0.054738138,0.25733212,-1.0,-0.192775,0.3163808,-4.93049,0.0,0.0,0.0
1249663733,6.297444,-9.511015,-30.392174,-0.11049406,0.0,0.04971714,0.23617001,-1.0,-0.20181338,0.33483773,-4.904782,0.0,0.0,0.0
1249768443,6.297444,-9.511015,-30.392174,-0.11049406,0.0,0.04187398,0.21624002,-1.0,-0.19982794,0.34215528,-4.9154997,0.0,0.0,0.0
1251091340,6.297444,-9.511015,-30.392174,-0.11049406,0.0,-0.04213264,0.10315699,-1.0016354,-0.1557822,0.36305463,-4.865394,0.0,0.0,0.0
1252515863,6.297444,-9.511015,-30.392174,-0.11049406,0.0,0.009557747,0.19397712,-1.0887474,0.12269063,0.5085074,-4.8658834,0.0,0.0,0.0
1252928838,6.297444,-9.511015,-30.392174,-0.11049406,0.0,0.072423525,0.1727416,-1.1132696,0.103955664,0.42441434,-4.9494886,0.0,0.0,0.0
1253032079,6.297444,-9.511015,-30.392174,-0.11049406,0.0,0.08213212,0.16275848,-1.1197873,0.078517,0.44322413,-4.934079,0.0,0.0,0.0
1253131593,6.297444,-9.511015,-30.392174,-0.11049406,0.0,0.08937008,0.14911427,-1.1261661,0.07640809,0.41155225,-4.951328,0.0,0.0,0.0
1253235632,6.297444,-9.511015,-30.392174,-0.11049406,0.0,0.09491021,0.13505964,-1.1327218,0.057637185,0.39175293,-4.981921,0.0,0.0,0.0
1253336006,6.297444,-9.511015,-30.392174,-0.11049406,0.0,0.09873893,0.11871467,-1.1391996,0.022477845,0.39534146,-5.0353675,0.0,0.0,0.0
1253435688,6.297444,-9.511015,-30.392174,-0.11049406,0.0,0.1015543,0.10288701,-1.1456418,0.015591775,0.35029963,-5.0731606,0.0,0.0,0.0
1253539637,6.297444,-9.511015,-30.392174,-0.11049406,0.0,0.10632751,0.0838449,-1.1522347,-0.00076657307,0.3080692,-5.1066947,0.0,0.0,0.0
1253640394,6.297444,-9.511015,-30.392174,-0.11049406,0.0,0.10715604,0.06591897,-1.1586388,-0.0039674286,0.30559027,-5.125759,0.0,0.0,0.0
1253744171,6.297444,-9.511015,-30.392174,-0.11049406,0.0,0.104246445,0.047291804,-1.1654375,-0.03904926,0.27845505,-5.113345,0.0,0.0,0.0
1253848814,6.297444,-9.511015,-30.392174,-0.11049406,0.0,0.09998693,0.028497934,-1.172048,-0.03683299,0.26269794,-5.147788,0.0,0.0,0.0
1253951906,6.297444,-9.511015,-30.392174,-0.11049406,0.0,0.09463797,0.008994674,-1.1784323,-0.07751578,0.23950346,-5.14929,0.0,0.0,0.0
1254051607,6.297444,-9.511015,-30.392174,-0.11049406,0.0,0.08798256,-0.009802818,-1.184437,-0.097898506,0.23721996,-5.191525,0.0,0.0,0.0
1254155607,6.297444,-9.511015,-30.392174,-0.11049406,0.0,0.08028708,-0.029964732,-1.1907086,-0.10576267,0.18547446,-5.203397,0.0,0.0,0.0
1254255991,6.297444,-9.511015,-30.392174,-0.11049406,0.0,0.072333835,-0.048924398,-1.1965915,-0.11577159,0.21173644,-5.213392,0.0,0.0,0.0
1254360479,6.297444,-9.511015,-30.392174,-0.11049406,0.0,0.063597366,-0.067769,-1.2026173,-0.12527362,0.17417118,-5.2348614,0.0,0.0,0.0
1254464045,6.297444,-9.511015,-30.392174,-0.11049406,0.0,0.054638933,-0.0873538,-1.2087932,-0.1313672,0.14896084,-5.2141714,0.0,0.0,0.0
1254563668,6.297444,-9.511015,-30.392174,-0.11049406,0.0,0.045808695,-0.10603261,-1.2147933,-0.102469176,0.12799747,-5.215462,0.0,0.0,0.0
1254667622,6.297444,-9.511015,-30.392174,-0.11049406,0.0,0.0359488,-0.12636395,-1.2210522,-0.116769224,0.12133856,-5.181634,0.0,0.0,0.0
1254768418,6.297444,-9.511015,-30.392174,-0.11049406,0.0,0.025586532,-0.14695983,-1.2269866,-0.15037544,0.10802368,-5.174319,0.0,0.0,0.0
1254867371,6.297444,-9.511015,-30.392174,-0.11049406,0.0,0.014222694,-0.16806126,-1.2331392,-0.18416853,0.10702262,-5.13451,0.0,0.0,0.0
1254971595,6.297444,-9.511015,-30.392174,-0.11049406,0.0,0.0014917135,-0.18986845,-1.2397562,-0.18724224,0.09913849,-5.118172,0.0,0.0,0.0
1255071827,6.297444,-9.511015,-30.392174,-0.11049406,0.0,-0.010935759,-0.20972867,-1.2463217,-0.1726909,0.031982407,-5.12386,0.0,0.0,0.0
1255176111,6.297444,-9.511015,-30.392174,-0.11049406,0.0,-0.02392857,-0.2270811,-1.2531798,-0.1943755,0.039911848,-5.0870504,0.0,0.0,0.0
1255275641,6.297444,-9.511015,-30.392174,-0.11049406,0.0,-0.0370224,-0.24204625,-1.2599784,-0.2127598,0.05264025,-5.0448365,0.0,0.0,0.0
1255376734,6.297444,-9.511015,-30.392174,-0.11049406,0.0,-0.049599815,-0.2552991,-1.2669265,-0.19599408,0.017475067,-5.0194626,0.0,0.0,0.0
1255480398,6.297444,-9.511015,-30.392174,-0.11049406,0.0,-0.06091156,-0.2665252,-1.2743952,-0.17295054,0.039047763,-5.0104065,0.0,0.0,0.0
1255584059,6.297444,-9.511015,-30.392174,-0.11049406,0.0,-0.07021563,-0.2742814,-1.2820126,-0.17637052,0.060234435,-5.0041704,0.0,0.0,0.0
1255683534,6.297444,-9.511015,-30.392174,-0.11049406,0.0,-0.07779334,-0.28120318,-1.2861111,-0.17343408,0.080481194,-4.9379225,0.0,0.0,0.0
1255787590,6.297444,-9.511015,-30.392174,-0.11049406,0.0,-0.08409495,-0.28463688,-1.2861111,-0.15437959,0.08748172,-4.9156213,0.0,0.0,0.0
1255888375,6.297444,-9.511015,-30.392174,-0.11049406,0.0,-0.0890548,-0.28578657,-1.2861111,-0.17140087,0.111892946,-4.824139,0.0,0.0,0.0
1255987352,6.297444,-9.511015,-30.392174,-0.11049406,0.0,-0.09313402,-0.28082445,-1.2861111,-0.2260485,0.12730612,-4.8789954,0.0,0.0,0.0
1256091402,6.297444,-9.511015,-30.392174,-0.11049406,0.0,-0.09870541,-0.27022165,-1.2861111,-0.19277622,0.24498153,-4.8353343,0.0,0.0,0.0
1256191836,6.297444,-9.511015,-30.392174,-0.11049406,0.0,-0.10449559,-0.25427985,-1.2861111,-0.23899245,0.3061856,-4.8423333,0.0,0.0,0.0
1256291416,6.297444,-9.511015,-30.392174,-0.11049406,0.0,-0.111884855,-0.23426017,-1.2861111,-0.26323983,0.30787417,-4.8511133,0.0,0.0,0.0
1256395597,6.297444,-9.511015,-30.392174,-0.11049406,0.0,-0.12068655,-0.2092811,-1.2861111,-0.25842342,0.36491913,-4.8450847,0.0,0.0,0.0
1256496034,6.297444,-9.511015,-30.392174,-0.11049406,0.0,-0.13134237,-0.18534574,-1.2861111,-0.33585054,0.40284884,-4.8046827,0.0,0.0,0.0
1256600075,6.297444,-9.511015,-30.392174,-0.11049406,0.0,-0.1433866,-0.15871234,-1.2861111,-0.3430367,0.4047637,-4.831934,0.0,0.0,0.0
1256703736,6.297444,-9.511015,-30.392174,-0.11049406,0.0,-0.16016373,-0.13196568,-1.2861111,-0.3527902,0.43287376,-4.8452635,0.0,0.0,0.0
1256803616,6.297444,-9.511015,-30.392174,-0.11049406,0.0,-0.1758188,-0.10518913,-1.2861111,-0.40022123,0.43191653,-4.816605,0.0,0.0,0.0
1256907336,6.297444,-9.511015,-30.392174,-0.11049406,0.0,-0.19246909,-0.08189883,-1.2861111,-0.38329005,0.41523597,-4.819253,0.0,0.0,0.0
1257008233,6.297444,-9.511015,-30.392174,-0.11049406,0.0,-0.20718782,-0.06045947,-1.2861111,-0.40767005,0.41913375,-4.870842,0.0,0.0,0.0
1257107429,6.297444,-9.511015,-30.392174,-0.11049406,0.0,-0.22238672,-0.038923167,-1.2861111,-0.4450296,0.3987247,-4.9348335,0.0,0.0,0.0
1257211664,6.297444,-9.511015,-30.392174,-0.11049406,0.0,-0.23723817,-0.018994998,-1.2861111,-0.40930322,0.39427033,-4.980507,0.0,0.0,0.0
1257311732,6.297444,-9.511015,-30.392174,-0.11049406,0.0,-0.24961038,-0.0049584867,-1.2861111,-0.44282225,0.4108594,-4.93096,0.0,0.0,0.0
1257411517,6.297444,-9.511015,-30.392174,-0.11049406,0.0,-0.26022497,0.0083822245,-1.2861111,-0.45795172,0.40250427,-4.88598,0.0,0.0,0.0
1257515666,6.297444,-9.511015,-30.392174,-0.11049406,0.0,-0.2700006,0.019400882,-1.2861111,-0.4645739,0.46701106,-4.8073626,0.0,0.0,0.0
1257616988,6.297444,-9.511015,-30.392174,-0.11049406,0.0,-0.2773423,0.030334378,-1.2861111,-0.48251903,0.4395356,-4.909209,0.0,0.0,0.0
1257720038,6.297444,-9.511015,-30.392174,-0.11049406,0.0,-0.2816086,0.04114194,-1.2861111,-0.45090884,0.44371986,-4.932153,0.0,0.0,0.0
1257825460,6.297444,-9.511015,-30.392174,-0.11049406,0.0,-0.28368378,0.052213144,-1.2861111,-0.40680218,0.4187191,-5.0007186,0.0,0.0,0.0
1257928068,6.297444,-9.511015,-30.392174,-0.11049406,0.0,-0.28244755,0.06277518,-1.2861111,-0.43443528,0.45287654,-4.9425673,0.0,0.0,0.0
1258027544,6.297444,-9.511015,-30.392174,-0.11049406,0.0,-0.27892688,0.07331638,-1.2861111,-0.39679423,0.48284695,-4.9641404,0.0,0.0,0.0
1258131540,6.297444,-9.511015,-30.392174,-0.11049406,0.0,-0.27402228,0.08264446,-1.2861111,-0.3664625,0.46763986,-4.963855,0.0,0.0,0.0
1258232189,6.297444,-9.511015,-30.392174,-0.11049406,0.0,-0.2672654,0.09228782,-1.2861111,-0.32259014,0.48414946,-4.946852,0.0,0.0,0.0
1258336464,6.297444,-9.511015,-30.392174,-0.11049406,0.0,-0.25862905,0.10156789,-1.2861111,-0.31189474,0.45446205,-5.0298777,0.0,0.0,0.0
1258440145,6.297444,-9.511015,-30.392174,-0.11049406,0.0,-0.24805388,0.10912385,-1.2861111,-0.3391456,0.467862,-5.0291767,0.0,0.0,0.0
1258539624,6.297444,-9.511015,-30.392174,-0.11049406,0.0,-0.23700306,0.11395097,-1.2861111,-0.2853012,0.4535895,-5.024548,0.0,0.0,0.0
1258643594,6.297444,-9.511015,-30.392174,-0.11049406,0.0,-0.22490537,0.11591787,-1.2861111,-0.26817095,0.42087886,-5.033611,0.0,0.0,0.0
1258744189,6.297444,-9.511015,-30.392174,-0.11049406,0.0,-0.21360178,0.11390204,-1.2861111,-0.3052171,0.41342708,-5.0365295,0.0,0.0,0.0
1258843420,6.297444,-9.511015,-30.392174,-0.11049406,0.0,-0.20117204,0.10963664,-1.2861111,-0.28380144,0.36803296,-5.0056887,0.0,0.0,0.0
1258947628,6.297444,-9.511015,-30.392174,-0.11049406,0.0,-0.18638627,0.1020997,-1.2861111,-0.29271394,0.37212893,-5.0321627,0.0,0.0,0.0
1259047741,6.297444,-9.511015,-30.392174,-0.11049406,0.0,-0.17349946,0.09283233,-1.2861111,-0.30693838,0.33189774,-5.068306,0.0,0.0,0.0
1259147591,6.297444,-9.511015,-30.392174,-0.11049406,0.0,-0.1626457,0.08162794,-1.2861111,-0.28407753,0.32802933,-5.1139913,0.0,0.0,0.0
1259251601,6.297444,-9.511015,-30.392174,-0.11049406,0.0,-0.15236406,0.06771827,-1.2861111,-0.3124894,0.29980037,-5.13195,0.0,0.0,0.0
1259352797,6.297444,-9.511015,-30.392174,-0.11049406,0.0,-0.14129512,0.05121746,-1.2861111,-0.2773618,0.24918202,-5.1565986,0.0,0.0,0.0
1259455860,6.297444,-9.511015,-30.392174,-0.11049406,0.0,-0.12918746,0.033485413,-1.2861111,-0.23654251,0.23919839,-5.084709,0.0,0.0,0.0
1259560000,6.297444,-9.511015,-30.392174,-0.11049406,0.0,-0.11344497,0.013313532,-1.2861111,-0.22385012,0.23150334,-5.041227,0.0,0.0,0.0
1259659416,6.297444,-9.511015,-30.392174,-0.11049406,0.0,-0.09699762,-0.004442072,-1.2861111,-0.25396064,0.25577977,-4.9792914,0.0,0.0,0.0
1259763552,6.297444,-9.511015,-30.392174,-0.11049406,0.0,-0.07900555,-0.021288062,-1.2861111,-0.19283585,0.24745269,-4.9880896,0.0,0.0,0.0
1259864016,6.297444,-9.511015,-30.392174,-0.11049406,0.0,-0.058491204,-0.036678124,-1.2861111,-0.18761635,0.2296718,-4.976171,0.0,0.0,0.0
1259963647,6.297444,-9.511015,-30.392174,-0.11049406,0.0,-0.03823235,-0.049311254,-1.2861111,-0.16125779,0.26238742,-4.968618,0.0,0.0,0.0
1260067623,6.297444,-9.511015,-30.392174,-0.11049406,0.0,-0.019048,-0.06015143,-1.2861111,-0.19131364,0.24073577,-4.9424906,0.0,0.0,0.0
1260168190,6.297444,-9.511015,-30.392174,-0.11049406,0.0,-0.0026685952,-0.06833343,-1.2861111,-0.18838982,0.26057485,-4.9235973,0.0,0.0,0.0
1260267879,6.297444,-9.511015,-30.392174,-0.11049406,0.0,0.011043119,-0.07328014,-1.2861111,-0.20131183,0.26466432,-4.929253,0.0,0.0,0.0
1260371658,6.297444,-9.511015,-30.392174,-0.11049406,0.0,0.022768902,-0.075671956,-1.2861111,-0.18864444,0.29587352,-4.8831964,0.0,0.0,0.0
1260472052,6.297444,-9.511015,-30.392174,-0.11049406,0.0,0.03283627,-0.07720127,-1.2861111,-0.20445794,0.32284817,-4.8587627,0.0,0.0,0.0
1260576203,6.297444,-9.511015,-30.392174,-0.11049406,0.0,0.040249083,-0.07648735,-1.2861111,-0.19774547,0.2793747,-4.895537,0.0,0.0,0.0
1260679914,6.297444,-9.511015,-30.392174,-0.11049406,0.0,0.047692705,-0.073776625,-1.2861111,-0.1655944,0.3253345,-4.845099,0.0,0.0,0.0
1260779847,6.297444,-9.511015,-30.392174,-0.11049406,0.0,0.053222418,-0.06834883,-1.2861111,-0.2117203,0.36971816,-4.814935,0.0,0.0,0.0
1260883521,6.297444,-9.511015,-30.392174,-0.11049406,0.0,0.056658838,-0.06181574,-1.2861111,-0.22556202,0.40302873,-4.8022118,0.0,0.0,0.0
1260983753,6.297444,-9.511015,-30.392174,-0.11049406,0.0,0.05726404,-0.054190923,-1.2861111,-0.24885306,0.38080192,-4.871791,0.0,0.0,0.0
1261083368,6.297444,-9.511015,-30.392174,-0.11049406,0.0,0.05398481,-0.05008769,-1.2861111,-0.2714883,0.36555526,-4.8799,0.0,0.0,0.0
1261187354,6.297444,-9.511015,-30.392174,-0.11049406,0.0,0.04670336,-0.048561096,-1.2861111,-0.3335829,0.30141705,-4.935396,0.0,0.0,0.0
1261288044,6.297444,-9.511015,-30.392174,-0.11049406,0.0,0.03670485,-0.049330283,-1.2861111,-0.3746082,0.2681897,-4.9456835,0.0,0.0,0.0
1261391946,6.297444,-9.511015,-30.392174,-0.11049406,0.0,0.022160983,-0.05342898,-1.2861111,-0.39665323,0.2342471,-5.0356545,0.0,0.0,0.0
1261495876,6.297444,-9.511015,-30.392174,-0.11049406,0.0,0.007343054,-0.061914492,-1.2861111,-0.44005877,0.13710575,-5.069971,0.0,0.0,0.0
1261595559,6.297444,-9.511015,-30.392174,-0.11049406,0.0,-0.009766125,-0.073763944,-1.2861111,-0.46615496,0.091463536,-5.109979,0.0,0.0,0.0
1261699383,6.297444,-9.511015,-30.392174,-0.11049406,0.0,-0.02362914,-0.08950462,-1.2861111,-0.45440152,0.04551544,-5.1455574,0.0,0.0,0.0
1261799943,6.297444,-9.511015,-30.392174,-0.11049406,0.0,-0.038328838,-0.10696668,-1.2861111,-0.4919792,-0.0077224295,-5.1126413,0.0,0.0,0.0
1261899521,6.297444,-9.511015,-30.392174,-0.11049406,0.0,-0.050227214,-0.123885155,-1.2861111,-0.46740496,0.02119038,-5.1061177,0.0,0.0,0.0
1262003805,6.297444,-9.511015,-30.392174,-0.11049406,0.0,-0.062635206,-0.14316463,-1.2861111,-0.4523181,-0.04577758,-5.181696,0.0,0.0,0.0
1262103908,6.297444,-9.511015,-30.392174,-0.11049406,0.0,-0.06914022,-0.16492471,-1.2861111,-0.39673546,-0.11295182,-5.269274,0.0,0.0,0.0
1262203534,6.297444,-9.511015,-30.392174,-0.11049406,0.0,-0.07475011,-0.18859553,-1.2861111,-0.3708999,-0.13707373,-5.3426595,0.0,0.0,0.0
1262307613,6.297444,-9.511015,-30.392174,-0.11049406,0.0,-0.072456144,-0.21915278,-1.2861111,-0.3182604,-0.21717966,-5.378514,0.0,0.0,0.0
1262407735,6.297444,-9.511015,-30.392174,-0.11049406,0.0,-0.06802676,-0.24969825,-1.2861111,-0.2688032,-0.2744493,-5.448429,0.0,0.0,0.0
1262507433,6.297444,-9.511015,-30.392174,-0.11049406,0.0,-0.05498774,-0.28000817,-1.2861111,-0.22250454,-0.2855583,-5.4506087,0.0,0.0,0.0
1262611386,6.297444,-9.511015,-30.392174,-0.11049406,0.0,-0.03986449,-0.31042862,-1.2861111,-0.18513012,-0.28398865,-5.425312,0.0,0.0,0.0
1262711698,6.297444,-9.511015,-30.392174,-0.11049406,0.0,-0.01572256,-0.33974466,-1.2861111,-0.15671909,-0.28190026,-5.421607,0.0,0.0,0.0
1262816132,6.297444,-9.511015,-30.392174,-0.11049406,0.0,0.007517457,-0.36581454,-1.2861111,-0.10315894,-0.29068407,-5.4002743,0.0,0.0,0.0
1262919889,6.297444,-9.511015,-30.392174,-0.11049406,0.0,0.030914664,-0.38841718,-1.2861111,-0.0999592,-0.2336494,-5.369511,0.0,0.0,0.0
1263019654,6.297444,-9.511015,-30.392174,-0.11049406,0.0,0.051006816,-0.40465072,-1.2861111,-0.08017481,-0.24452971,-5.350713,0.0,0.0,0.0
1263123415,6.297444,-9.511015,-30.392174,-0.11049406,0.0,0.075762555,-0.41905418,-1.2861111,-0.07442769,-0.2191281,-5.321079,0.0,0.0,0.0
1263224505,6.297444,-9.511015,-30.392174,-0.11049406,0.0,0.09710226,-0.427874,-1.2861111,-0.05342037,-0.20132507,-5.3214855,0.0,0.0,0.0
1263323528,6.297444,-9.511015,-30.392174,-0.11049406,0.0,0.116497256,-0.43311062,-1.2861111,-0.04957577,-0.15679179,-5.329401,0.0,0.0,0.0
1263427598,6.297444,-9.511015,-30.392174,-0.11049406,0.0,0.13291244,-0.43345216,-1.2861111,-0.077119954,-0.1357027,-5.3196135,0.0,0.0,0.0
1263528043,6.297444,-9.511015,-30.392174,-0.11049406,0.0,0.14785902,-0.43080488,-1.2861111,-0.038025305,-0.14252098,-5.2949724,0.0,0.0,0.0
1263632194,6.297444,-9.511015,-30.392174,-0.11049406,0.0,0.15867338,-0.42419568,-1.2861111,-0.06591942,-0.1340263,-5.323365,0.0,0.0,0.0
1263735999,6.297444,-9.511015,-30.392174,-0.11049406,0.0,0.16525675,-0.41641322,-1.2861111,-0.07043879,-0.0706681,-5.2982297,0.0,0.0,0.0
1263835418,6.297444,-9.511015,-30.392174,-0.11049406,0.0,0.16902387,-0.40630597,-1.2861111,-0.094292596,-0.088606,-5.3059936,0.0,0.0,0.0
1263936102,6.297444,-9.511015,-30.392174,-0.11049406,0.0,0.17267275,-0.395512,-1.2861111,-0.10722462,-0.06718447,-5.2763834,0.0,0.0,0.0
1264040121,6.297444,-9.511015,-30.392174,-0.11049406,0.0,0.17356424,-0.38323674,-1.2861111,-0.10810492,-0.06601864,-5.289827,0.0,0.0,0.0
1264139410,6.297444,-9.511015,-30.392174,-0.11049406,0.0,0.17223968,-0.37158117,-1.2861111,-0.12389005,-0.06650936,-5.2855678,0.0,0.0,0.0
1264243713,6.297444,-9.511015,-30.392174,-0.11049406,0.0,0.17030403,-0.35854307,-1.2861111,-0.09201893,-0.030262772,-5.2961245,0.0,0.0,0.0
1264347659,6.297444,-9.511015,-30.392174,-0.11049406,0.0,0.16879782,-0.3454379,-1.2861111,-0.15588637,-0.048884746,-5.3391366,0.0,0.0,0.0
1264448345,6.297444,-9.511015,-30.392174,-0.11049406,0.0,0.16434081,-0.3336691,-1.2861111,-0.16627419,-0.027968597,-5.3311734,0.0,0.0,0.0
1264551868,6.297444,-9.511015,-30.392174,-0.11049406,0.0,0.1564066,-0.32310614,-1.2861111,-0.2006599,-0.06301689,-5.377994,0.0,0.0,0.0
1264656191,6.297444,-9.511015,-30.392174,-0.11049406,0.0,0.1452783,-0.31430534,-1.2861111,-0.21545224,-0.073882826,-5.3854017,0.0,0.0,0.0
1264755608,6.297444,-9.511015,-30.392174,-0.11049406,0.0,0.13245492,-0.30720147,-1.2861111,-0.23184006,-0.057476304,-5.386943,0.0,0.0,0.0
1264859711,6.297444,-9.511015,-30.392174,-0.11049406,0.0,0.12111735,-0.30131254,-1.2861111,-0.22140132,-0.05256167,-5.386009,0.0,0.0,0.0
1264959925,6.297444,-9.511015,-30.392174,-0.11049406,0.0,0.113219835,-0.29629245,-1.2861111,-0.1982645,-0.054942366,-5.3722315,0.0,0.0,0.0
1265059534,6.297444,-9.511015,-30.392174,-0.11049406,0.0,0.107617185,-0.2910866,-1.2861111,-0.15676624,-0.024876859,-5.3649135,0.0,0.0,0.0
1265163705,6.297444,-9.511015,-30.392174,-0.11049406,0.0,0.10484032,-0.28481263,-1.2861111,-0.15242688,-0.03482218,-5.3618016,0.0,0.0,0.0
1265264103,6.297444,-9.511015,-30.392174,-0.11049406,0.0,0.10596783,-0.27888927,-1.2861111,-0.10087192,0.028129596,-5.319524,0.0,0.0,0.0
1265367916,6.297444,-9.511015,-30.392174,-0.11049406,0.0,0.11006789,-0.26914445,-1.2861111,-0.056424093,0.058432057,-5.27335,0.0,0.0,0.0
1265467718,6.297444,-9.511015,-30.392174,-0.11049406,0.0,0.11815522,-0.25733575,-1.2861111,-0.018441958,0.10385902,-5.217117,0.0,0.0,0.0
1265568020,6.297444,-9.511015,-30.392174,-0.11049406,0.0,0.12857457,-0.24106325,-1.2861111,-0.06510681,0.24205483,-5.096916,0.0,0.0,0.0
1265671949,6.297444,-9.511015,-30.392174,-0.11049406,0.0,0.13952708,-0.2175057,-1.2861111,-0.056165807,0.27587044,-5.0445185,0.0,0.0,0.0
1265776291,6.297444,-9.511015,-30.392174,-0.11049406,0.0,0.14788258,-0.18637313,-1.2861111,-0.06545336,0.39213777,-5.0143814,0.0,0.0,0.0
1265875521,6.297444,-9.511015,-30.392174,-0.11049406,0.0,0.1539278,-0.15368228,-1.2861111,-0.09150316,0.4019632,-5.0099792,0.0,0.0,0.0
1265979602,6.297444,-9.511015,-30.392174,-0.11049406,0.0,0.15629198,-0.11605468,-1.2861111,-0.12861525,0.42410994,-5.0589685,0.0,0.0,0.0
1266079996,6.297444,-9.511015,-30.392174,-0.11049406,0.0,0.15687136,-0.07942548,-1.2861111,-0.119237445,0.47258976,-5.0209765,0.0,0.0,0.0
1266179567,6.297444,-9.511015,-30.392174,-0.11049406,0.0,0.15455203,-0.041430045,-1.2861111,-0.1270442,0.49646133,-5.0173097,0.0,0.0,0.0
1266283396,6.297444,-9.511015,-30.392174,-0.11049406,0.0,0.15075184,-0.0058173654,-1.2861111,-0.08785751,0.47738582,-4.996465,0.0,0.0,0.0
1266383748,6.297444,-9.511015,-30.392174,-0.11049406,0.0,0.14731725,0.026177691,-1.2861111,-0.08078949,0.4836045,-5.001551,0.0,0.0,0.0
1266488219,6.297444,-9.511015,-30.392174,-0.11049406,0.0,0.14306498,0.055799056,-1.2861111,-0.07234532,0.46637774,-5.0218067,0.0,0.0,0.0
1266592293,6.297444,-9.511015,-30.392174,-0.11049406,0.0,0.13950534,0.083551355,-1.2861111,-0.068607174,0.47350454,-4.9846497,0.0,0.0,0.0
1266696175,6.297444,-9.511015,-30.392174,-0.11049406,0.0,0.13853367,0.10500159,-1.2861111,-0.008653244,0.4801556,-4.9938674,0.0,0.0,0.0
1266795653,6.297444,-9.511015,-30.392174,-0.11049406,0.0,0.13832483,0.12455649,-1.2861111,-0.06310311,0.4864617,-4.999574,0.0,0.0,0.0
1266899339,6.297444,-9.511015,-30.392174,-0.11049406,0.0,0.13917828,0.13820252,-1.2861111,-0.065926254,0.45621565,-4.9550385,0.0,0.0,0.0
1267000069,6.297444,-9.511015,-30.392174,-0.11049406,0.0,0.13945867,0.1497521,-1.2861111,-0.06681768,0.43517575,-4.9925733,0.0,0.0,0.0
1267103714,6.297444,-9.511015,-30.392174,-0.11049406,0.0,0.13617265,0.15475497,-1.2861111,-0.058676355,0.39576262,-5.0189676,0.0,0.0,0.0
1267207861,6.297444,-9.511015,-30.392174,-0.11049406,0.0,0.13257994,0.15933384,-1.2861111,-0.06173963,0.3641483,-5.0396748,0.0,0.0,0.0
1267307337,6.297444,-9.511015,-30.392174,-0.11049406,0.0,0.13169932,0.1576641,-1.2861111,-0.09839162,0.36733133,-5.0675917,0.0,0.0,0.0
1267408195,6.297444,-9.511015,-30.392174,-0.11049406,0.0,0.12858678,0.15444784,-1.2861111,-0.1443976,0.3394405,-5.0242567,0.0,0.0,0.0
1267512090,6.297444,-9.511015,-30.392174,-0.11049406,0.0,0.12930977,0.14704318,-1.2861111,-0.13156973,0.27328178,-5.0158253,0.0,0.0,0.0
1267611418,6.297444,-9.511015,-30.392174,-0.11049406,0.0,0.124799296,0.13975267,-1.2861111,-0.17514123,0.2799306,-4.9700017,0.0,0.0,0.0
1267715568,6.297444,-9.511015,-30.392174,-0.11049406,0.0,0.11633825,0.12463894,-1.2861111,-0.19678257,0.23069267,-4.9861517,0.0,0.0,0.0
1267819864,6.297444,-9.511015,-30.392174,-0.11049406,0.0,0.10433161,0.10998454,-1.2861111,-0.1961983,0.22986159,-4.998621,0.0,0.0,0.0
1267919866,6.297444,-9.511015,-30.392174,-0.11049406,0.0,0.09393174,0.09050936,-1.2861111,-0.23052321,0.18861845,-4.9954734,0.0,0.0,0.0
1268024060,6.297444,-9.511015,-30.392174,-0.11049406,0.0,0.08061187,0.07112479,-1.2861111,-0.25172105,0.11455027,-5.0361953,0.0,0.0,0.0
1268127886,6.297444,-9.511015,-30.392174,-0.11049406,0.0,0.0691529,0.047413204,-1.2861111,-0.30065528,0.14767659,-5.0005083,0.0,0.0,0.0
1268227521,6.297444,-9.511015,-30.392174,-0.11049406,0.0,0.05543077,0.02648301,-1.2861111,-0.28515905,0.08589366,-5.0200415,0.0,0.0,0.0
1268331375,6.297444,-9.511015,-30.392174,-0.11049406,0.0,0.04099064,0.0031510352,-1.2861111,-0.31937432,0.08968296,-4.9941745,0.0,0.0,0.0
1268431975,6.297444,-9.511015,-30.392174,-0.11049406,0.0,0.026266932,-0.01887722,-1.2861111,-0.28460252,0.048211392,-5.0107126,0.0,0.0,0.0
1268531457,6.297444,-9.511015,-30.392174,-0.11049406,0.0,0.011459422,-0.043809175,-1.2861111,-0.31113333,0.07995845,-4.9857683,0.0,0.0,0.0
1268635557,6.297444,-9.511015,-30.392174,-0.11049406,0.0,-0.0035831928,-0.06875472,-1.2861111,-0.34457713,0.008899857,-5.003673,0.0,0.0,0.0
1268736133,6.297444,-9.511015,-30.392174,-0.11049406,0.0,-0.01657691,-0.09647984,-1.2861111,-0.3473934,-0.007771712,-4.996805,0.0,0.0,0.0
1268835564,6.297444,-9.511015,-30.392174,-0.11049406,0.0,-0.029913545,-0.12072868,-1.2861111,-0.3794207,-0.04318245,-5.0019445,0.0,0.0,0.0
1268939767,6.297444,-9.511015,-30.392174,-0.11049406,0.0,-0.04210818,-0.14768009,-1.2861111,-0.3723083,-0.07256242,-4.9995303,0.0,0.0,0.0
1269039890,6.297444,-9.511015,-30.392174,-0.11049406,0.0,-0.055333376,-0.17036971,-1.2861111,-0.39785886,-0.05079212,-4.9739633,0.0,0.0,0.0
1269143913,6.297444,-9.511015,-30.392174,-0.11049406,0.0,-0.0707932,-0.19112143,-1.2861111,-0.3981971,-0.077262126,-4.9972496,0.0,0.0,0.0
1269247890,6.297444,-9.511015,-30.392174,-0.11049406,0.0,-0.08687317,-0.20835699,-1.2861111,-0.44881505,-0.078700066,-5.0053177,0.0,0.0,0.0
1269347733,6.297444,-9.511015,-30.392174,-0.11049406,0.0,-0.10259211,-0.22251853,-1.2861111,-0.39268976,-0.09566574,-5.0450034,0.0,0.0,0.0
1269451637,6.297444,-9.511015,-30.392174,-0.11049406,0.0,-0.11774888,-0.2353691,-1.2861111,-0.4233267,-0.09751537,-5.0531282,0.0,0.0,0.0
1269552002,6.297444,-9.511015,-30.392174,-0.11049406,0.0,-0.13030817,-0.24859114,-1.2861111,-0.4368075,-0.064566016,-5.004112,0.0,0.0,0.0
1269651552,6.297444,-9.511015,-30.392174,-0.11049406,0.0,-0.14104779,-0.25897923,-1.2861111,-0.4258226,-0.096794926,-5.0293403,0.0,0.0,0.0
1269755835,6.297444,-9.511015,-30.392174,-0.11049406,0.0,-0.14984812,-0.26849574,-1.2861111,-0.42905983,-0.059509534,-5.001058,0.0,0.0,0.0
1269856012,6.297444,-9.511015,-30.392174,-0.11049406,0.0,-0.15640387,-0.2754755,-1.2861111,-0.3947644,-0.08286767,-5.0434275,0.0,0.0,0.0
1269960165,6.297444,-9.511015,-30.392174,-0.11049406,0.0,-0.16068514,-0.28065684,-1.2861111,-0.42690322,-0.0666002,-5.0782256,0.0,0.0,0.0
1270063837,6.297444,-9.511015,-30.392174,-0.11049406,0.0,-0.16256416,-0.28469214,-1.2861111,-0.3982064,-0.08600347,-5.0857306,0.0,0.0,0.0
1270163721,6.297444,-9.511015,-30.392174,-0.11049406,0.0,-0.162426,-0.2865286,-1.2861111,-0.3695831,-0.07297674,-5.137818,0.0,0.0,0.0
1270264430,6.297444,-9.511015,-30.392174,-0.11049406,0.0,-0.16017008,-0.28810048,-1.2861111,-0.33895618,-0.060926124,-5.125702,0.0,0.0,0.0
1270368371,6.297444,-9.511015,-30.392174,-0.11049406,0.0,-0.15615925,-0.28774896,-1.2861111,-0.36222202,-0.091159545,-5.153351,0.0,0.0,0.0
1270467588,6.297444,-9.511015,-30.392174,-0.11049406,0.0,-0.1501385,-0.28616437,-1.2861111,-0.34349445,-0.099045694,-5.184944,0.0,0.0,0.0
1270571691,6.297444,-9.511015,-30.392174,-0.11049406,0.0,-0.14231028,-0.28358048,-1.2861111,-0.31585386,-0.09758273,-5.2099943,0.0,0.0,0.0
1270672400,6.297444,-9.511015,-30.392174,-0.11049406,0.0,-0.13454594,-0.28227225,-1.2861111,-0.34128845,-0.069246486,-5.160096,0.0,0.0,0.0
1270771652,6.297444,-9.511015,-30.392174,-0.11049406,0.0,-0.12751953,-0.27949265,-1.2861111,-0.3167227,-0.046568368,-5.1418242,0.0,0.0,0.0
1270875561,6.297444,-9.511015,-30.392174,-0.11049406,0.0,-0.12139957,-0.27746776,-1.2861111,-0.35334337,-0.09029478,-5.188902,0.0,0.0,0.0
1270975899,6.297444,-9.511015,-30.392174,-0.11049406,0.0,-0.11688547,-0.27474436,-1.2861111,-0.33408746,-0.057274405,-5.1557875,0.0,0.0,0.0
1271075655,6.297444,-9.511015,-30.392174,-0.11049406,0.0,-0.112870574,-0.27101532,-1.2861111,-0.32269204,-0.056827374,-5.1804266,0.0,0.0,0.0
1271179702,6.297444,-9.511015,-30.392174,-0.11049406,0.0,-0.10914695,-0.26547337,-1.2133732,-0.35725635,-0.029116958,-5.0243893,0.0,0.0,0.0
1271279837,6.297444,-9.511015,-30.392174,-0.11049406,0.0,-0.10450465,-0.26077035,-1.100359,-0.33442757,-0.050093595,-4.9377503,0.0,0.0,0.0
1271383817,6.297444,-9.511015,-30.392174,-0.11049406,0.0,-0.10008206,-0.25364926,-0.9882183,-0.36491373,-0.008391492,-4.8662043,0.0,0.0,0.0
1271488160,6.297444,-9.511015,-30.392174,-0.11049406,0.0,-0.097948454,-0.24636602,-0.88124657,-0.362443,-0.0068429247,-4.824445,0.0,0.0,0.0
1271587632,6.297444,-9.511015,-30.392174,-0.11049406,0.0,-0.09808435,-0.23699446,-0.7905941,-0.41128832,-0.0017641418,-4.811211,0.0,0.0,0.0
1271691731,-0.6338088,-6.1990376,-30.330051,-0.11049406,0.0,-6.6766815,2.9154031,-0.64305496,-1.9836311,0.89160925,-4.663876,0.0,0.0,0.0
1271792342,-0.6338088,-6.1990376,-30.388462,-0.11049406,0.0,-6.6874638,2.9279459,-0.63085175,-2.0696607,0.91259855,-4.850726,0.0,0.0,0.0
1271891582,4.2129755,-7.6952257,-30.388462,1.0174923,0.0,-2.080169,1.5130142,-0.57123566,-1.8215489,1.3327672,-4.840276,0.0,0.0,0.0
1271995692,4.1980944,-7.695445,-30.388462,1.0174295,0.0,-2.080169,1.5130142,-0.5140972,-1.8022146,1.2859787,-4.85333,0.0,0.0,0.0
1272096085,4.165657,-7.680722,-30.388462,1.0174295,0.0,-2.0801694,1.5130142,-0.46163368,-1.6256986,1.1546191,-4.836848,0.0,0.0,0.0
1272200986,4.111144,-7.6517315,-30.388462,1.0165309,0.0,-2.0801694,1.5130142,-0.40990448,-1.4618375,0.98895967,-4.9577074,0.0,0.0,0.0
1272299647,4.0351295,-7.6073847,-30.388462,1.0156975,0.0,-2.0801694,1.5130142,-0.3727417,-1.2674183,0.9043261,-5.029581,0.0,0.0,0.0
1272403543,3.934824,-7.5450926,-30.388462,1.0151668,0.0,-2.080169,1.5130142,-0.34391212,-1.1215054,0.73860794,-5.1852393,0.0,0.0,0.0
1272504058,3.8147936,-7.4701166,-30.388462,1.0151668,0.0,-2.080169,1.5130142,-0.32312012,-0.96123236,0.65115446,-5.224514,0.0,0.0,0.0
1272608537,3.671388,-7.378127,-30.388462,1.0119991,0.0,-2.0801692,1.5130142,-0.30542946,-0.82133883,0.5732438,-5.2337832,0.0,0.0,0.0
1272712045,3.505216,-7.2711544,-30.388462,1.0102118,0.0,-2.0801692,1.5130142,-0.28202057,-0.74669254,0.541383,-5.14936,0.0,0.0,0.0
1272811734,3.334029,-7.161236,-30.388462,1.0102118,0.0,-2.0801692,1.5130142,-0.25482368,-0.64450175,0.4935936,-5.0628476,0.0,0.0,0.0
1272916053,3.1303816,-7.0456305,-30.388462,1.0059763,0.0,-2.080169,1.5130142,-0.22044373,-0.6372475,0.5434865,-4.923899,0.0,0.0,0.0
1273016144,2.9311824,-6.931094,-30.388462,1.0036981,0.0,-2.080169,1.5130142,-0.18594742,-0.55267406,0.48407495,-4.882154,0.0,0.0,0.0
1273120431,2.714874,-6.8114157,-30.388462,1.0003055,0.0,-2.0801692,1.5130142,-0.14535522,-0.56371045,0.50979537,-4.7601147,0.0,0.0,0.0
1273224954,2.4966662,-6.6909156,-30.388462,0.99781185,0.0,-2.0801692,1.5130147,-0.101465225,-0.5240202,0.5187776,-4.6730433,0.0,0.0,0.0
1273328438,2.2683442,-6.57598,-30.388462,0.9966349,0.0,-2.0801692,1.5130142,-0.058387756,-0.4653305,0.5396174,-4.6967344,0.0,0.0,0.0
1273428120,2.0488946,-6.4647408,-30.388462,0.9966349,0.0,-2.0801692,1.5130142,-0.019311905,-0.47755808,0.5772371,-4.6821446,0.0,0.0,0.0
1273531939,1.8061216,-6.35151,-30.388462,0.9911654,0.0,-2.0801692,1.5130142,0.024650574,-0.410222,0.5766001,-4.6807747,0.0,0.0,0.0
1273632236,1.5688913,-6.2456017,-30.388462,0.9886255,0.0,-2.0801692,1.5130147,0.06301308,-0.40436235,0.6064865,-4.6385903,0.0,0.0,0.0
1273736379,1.3176582,-6.138479,-30.388462,0.9846861,0.0,-2.080169,1.5130142,0.096515656,-0.33913174,0.6251224,-4.7269926,0.0,0.0,0.0
1273841601,1.0651219,-6.032387,-30.388462,0.98209375,0.0,-2.080169,1.5130147,0.12306023,-0.29632264,0.63121736,-4.720816,0.0,0.0,0.0
1273947705,0.7972119,-5.9241686,-30.388462,0.9807259,0.0,-2.080169,1.5130142,0.14656258,-0.2525187,0.6844391,-4.7204347,0.0,0.0,0.0
1274048090,0.55119014,-5.825848,-30.388462,0.9807259,0.0,-2.080169,1.5130147,0.1654377,-0.2938157,0.70974654,-4.7089562,0.0,0.0,0.0
1274148165,0.30871177,-5.728088,-30.388462,0.9749175,0.0,-2.080169,1.5130147,0.17930794,-0.3197394,0.7040848,-4.67514,0.0,0.0,0.0
1274251819,0.05695939,-5.626645,-30.388462,0.972372,0.0,-2.080169,1.5130147,0.19039154,-0.25964376,0.73844,-4.711876,0.0,0.0,0.0
1274355727,-0.12473609,-5.4991384,-30.388462,0.9698179,0.0,-2.0139852,1.53856,0.1998787,-0.2266334,0.72174245,-4.6798873,0.0,0.0,0.0
1274456112,0.024492681,-5.293971,-30.388462,0.9671943,0.0,-1.6444744,1.6421193,0.20519447,0.10839181,0.8502115,-4.727724,0.0,0.0,0.0
1274555695,0.17302811,-5.0897574,-30.388462,0.9660866,0.0,-1.2789652,1.7457455,0.20844078,0.3989849,0.97960573,-4.707333,0.0,0.0,0.0
1274659963,0.3291115,-4.875166,-30.388462,0.9660866,0.0,-0.9032486,1.8586428,0.2118473,0.6849209,1.1030104,-4.636612,0.0,0.0,0.0
1274763722,0.48862875,-4.6558533,-30.388462,0.95951307,0.0,-0.53465486,1.9760443,0.21167183,0.88391095,1.2163604,-4.6391673,0.0,0.0,0.0
1274863943,0.6476798,-4.437182,-30.388462,0.95724654,0.0,-0.18657885,2.0942633,0.21512794,1.0350759,1.2674966,-4.558229,0.0,0.0,0.0
1274968225,0.8228369,-4.1963673,-30.388462,0.95724654,0.0,0.16755979,2.2242718,0.21935463,1.275442,1.3466522,-4.570541,0.0,0.0,0.0
1275072050,1.003901,-3.947431,-30.388462,0.9530363,0.0,0.51064324,2.3594236,0.22655678,1.3254061,1.3782222,-4.5722623,0.0,0.0,0.0
1275171678,1.1513278,-3.7447412,-30.388462,0.95110905,0.0,0.79338044,2.4468067,0.2335949,1.3940992,1.4086642,-4.531073,0.0,0.0,0.0
1275276178,1.1943963,-3.6855285,-30.388462,0.95110905,0.0,0.9568372,2.3876302,0.2436409,1.2227025,1.2286913,-4.4617777,0.0,0.0,0.0
1275376976,1.2433637,-3.6182055,-30.388462,0.94722867,0.0,1.0918086,2.3290064,0.24840164,1.0990924,1.1440123,-4.4688067,0.0,0.0,0.0
1275475674,1.3012791,-3.5385807,-30.388462,0.9458804,0.0,1.2068324,2.2715352,0.2509632,0.94023484,1.0135969,-4.5181646,0.0,0.0,0.0
1275579698,1.3721061,-3.441204,-30.388462,0.9458804,0.0,1.3072305,2.2152798,0.25007248,0.8999048,0.92988396,-4.696024,0.0,0.0,0.0
1275680075,1.4469192,-3.338347,-30.388462,0.9458804,0.0,1.3885726,2.165221,0.24202538,0.76297843,0.7944463,-4.735831,0.0,0.0,0.0
1275779854,1.532722,-3.220381,-30.388462,0.94300336,0.0,1.4563,2.120261,0.22925186,0.71701145,0.74702424,-4.8544493,0.0,0.0,0.0
1275883642,1.6272233,-3.090456,-30.388462,0.94225466,0.0,1.5167868,2.07742,0.21356964,0.5850689,0.65044624,-4.8856745,0.0,0.0,0.0
1275984027,1.726268,-2.9542842,-30.388462,0.9415484,0.0,1.5649251,2.0414028,0.19848633,0.5530377,0.6257772,-4.9643703,0.0,0.0,0.0
1276091602,1.8422596,-2.7948132,-30.388462,0.94069517,0.0,1.6101214,2.0059469,0.18479538,0.48619717,0.59469384,-4.9673038,0.0,0.0,0.0
1276192063,1.9570057,-2.6370547,-30.388462,0.94069517,0.0,1.6433549,1.9788123,0.17615318,0.433175,0.53285295,-4.9809346,0.0,0.0,0.0
1276291697,2.0778615,-2.4708955,-30.388462,0.94069517,0.0,1.6732272,1.953619,0.16951752,0.3290903,0.6172064,-4.9525824,0.0,0.0,0.0
1276395613,2.2099202,-2.2893348,-30.388462,0.9395654,0.0,1.6939566,1.9356716,0.16781998,0.24960724,0.5658888,-4.8677945,0.0,0.0,0.0
1276495983,2.3450332,-2.1035743,-30.388462,0.9393433,0.0,1.7078547,1.9234208,0.16290283,0.33906162,0.54473716,-4.9586473,0.0,0.0,0.0
1276595965,2.4838192,-1.9127645,-30.388462,0.9393433,0.0,1.7152808,1.9168011,0.16265297,0.3371078,0.6180145,-5.020329,0.0,0.0,0.0
1276699616,2.6312685,-1.7100437,-30.388462,0.9391143,0.0,1.7186898,1.9137449,0.1639576,0.29999033,0.56864876,-5.053006,0.0,0.0,0.0
1276800669,2.7745643,-1.5130336,-30.388462,0.93910444,0.0,1.7184503,1.9139603,0.16429901,0.2892276,0.55099106,-4.974174,0.0,0.0,0.0
1276903940,2.925682,-1.3052688,-30.388462,0.93910444,0.0,1.7186967,1.9137384,0.15700912,0.2793418,0.65288407,-4.9971156,0.0,0.0,0.0
1277008046,3.0758338,-1.0988324,-30.388462,0.93910754,0.0,1.7168007,1.9154403,0.14586067,0.33772576,0.6572706,-5.0096188,0.0,0.0,0.0
1277107898,3.2190442,-0.90193987,-30.388462,0.9391152,0.0,1.7160715,1.9160931,0.13674545,0.35625118,0.69166607,-4.9982133,0.0,0.0,0.0
1277211895,3.3654673,-0.7006295,-30.388462,0.9391152,0.0,1.7139065,1.9180297,0.13087654,0.33709118,0.6939352,-4.973297,0.0,0.0,0.0
1277313590,3.5096693,-0.5023737,-30.388462,0.9391493,0.0,1.7130458,1.9187988,0.12066269,0.35147855,0.6257531,-5.035872,0.0,0.0,0.0
1277416123,3.6580787,-0.2983327,-30.388462,0.93917084,0.0,1.7108009,1.9208,0.10610771,0.33495903,0.6467786,-5.1116033,0.0,0.0,0.0
1277515844,3.8019683,-0.10050583,-30.388462,0.9391762,0.0,1.7100235,1.921493,0.090797424,0.40341735,0.5910103,-5.274101,0.0,0.0,0.0
1277619712,3.9531817,0.10738969,-30.388462,0.9391762,0.0,1.7097062,1.921775,0.07221413,0.4281593,0.5862226,-5.2844515,0.0,0.0,0.0
1277720039,4.1025524,0.312752,-30.388462,0.9391431,0.0,1.7126126,1.9191853,0.04922676,0.3540703,0.500629,-5.2461286,0.0,0.0,0.0
1277824812,4.2575274,0.5258193,-30.388462,0.93909544,0.0,1.715109,1.9169551,0.028528214,0.38480526,0.4933646,-5.2373996,0.0,0.0,0.0
1277928192,4.411413,0.73739004,-30.388462,0.939079,0.0,1.7159419,1.9162091,0.017620087,0.3501688,0.46821478,-5.1545353,0.0,0.0,0.0
1278035872,4.5727644,0.95922303,-30.388462,0.939079,0.0,1.7170213,1.9152426,0.005847931,0.36758024,0.48535848,-5.137441,0.0,0.0,0.0
1278136485,4.7281766,1.1728921,-30.388462,0.93900174,0.0,1.7202822,1.9123135,-0.007966995,0.31672755,0.44172034,-5.1344204,0.0,0.0,0.0
1278240318,4.8913555,1.3972387,-30.388462,0.93895537,0.0,1.7214478,1.9112644,-0.022260666,0.32566822,0.39529544,-5.174058,0.0,0.0,0.0
1278347804,5.064998,1.6359713,-30.388462,0.9389525,0.0,1.7199878,1.9125779,-0.037908554,0.24064441,0.3814175,-5.140614,0.0,0.0,0.0
1278448004,5.227394,1.8592417,-30.388462,0.9389525,0.0,1.7176301,1.9146962,-0.052412033,0.2705896,0.33875126,-5.228863,0.0,0.0,0.0
1278556337,5.4035616,2.1014464,-30.388462,0.9390165,0.0,1.714056,1.9178963,-0.06823349,0.28676647,0.36435106,-5.2960196,0.0,0.0,0.0
1278659711,5.5738506,2.3355677,-30.388462,0.9390574,0.0,1.7099473,1.92156,-0.07965851,0.29491833,0.2964303,-5.288914,0.0,0.0,0.0
1278760019,5.7381287,2.5614257,-30.388462,0.9390574,0.0,1.7058032,1.9252402,-0.09119034,0.18316631,0.33734557,-5.197078,0.0,0.0,0.0
1278864146,5.909516,2.797057,-30.388462,0.9391702,0.0,1.7035654,1.9272207,-0.09890175,0.22351672,0.30298492,-5.1503897,0.0,0.0,0.0
1278964335,6.0744343,3.0237951,-30.388462,0.9391731,0.0,1.702147,1.9284737,-0.10268593,0.21036132,0.28813797,-5.1515903,0.0,0.0,0.0
1279063915,6.240654,3.2523224,-30.388462,0.9391731,0.0,1.6989303,1.931307,-0.10200882,0.17154552,0.28371292,-5.070897,0.0,0.0,0.0
1279167901,6.4139643,3.490598,-30.388462,0.93929285,0.0,1.6929326,1.9365667,-0.096035,0.1618534,0.33523858,-5.017014,0.0,0.0,0.0
1279272299,6.5900636,3.7327082,-30.388462,0.9394275,0.0,1.6815566,1.9464531,-0.08777809,0.11804748,0.40657985,-5.0135303,0.0,0.0,0.0
1279371896,6.7595162,3.9656801,-30.388462,0.93964607,0.0,1.6670132,1.9589231,-0.07410431,0.05209314,0.3686504,-4.916704,0.0,0.0,0.0
1279475833,6.9371033,4.209836,-30.388462,0.9399017,0.0,1.6469799,1.9757961,-0.055423737,0.00086268125,0.43185997,-4.851743,0.0,0.0,0.0
1279576451,7.1072006,4.443695,-30.388462,0.94005555,0.0,1.6246269,1.9942178,-0.04162407,0.01004742,0.48598123,-4.8494067,0.0,0.0,0.0
1279675585,7.279725,4.68089,-30.388462,0.94005555,0.0,1.5983174,2.0153644,-0.030044556,-0.069144756,0.5193206,-4.767103,0.0,0.0,0.0
1279779589,7.4560814,4.923354,-30.388462,0.94100505,0.0,1.5699028,2.0375767,-0.019184113,-0.035782915,0.5740698,-4.819065,0.0,0.0,0.0
1279880478,7.627282,5.158729,-30.388462,0.9414389,0.0,1.5389994,2.061018,-0.01036644,-0.06580198,0.5954116,-4.752567,0.0,0.0,0.0
1279979660,7.793878,5.387774,-30.388462,0.9414389,0.0,1.5092213,2.0829227,0.0025119781,-0.16172853,0.6212201,-4.632882,0.0,0.0,0.0
1280083569,7.9655924,5.623855,-30.388462,0.9424504,0.0,1.4775624,2.1054986,0.015054703,-0.15935649,0.6808018,-4.6485476,0.0,0.0,0.0
1280183982,8.128395,5.8476844,-30.388462,0.9426744,0.0,1.4481263,2.1258502,0.034460068,-0.09466157,0.6750295,-4.606224,0.0,0.0,0.0
1280288205,8.296702,6.079082,-30.388462,0.9432669,0.0,1.4175043,2.1463902,0.053554535,-0.088183954,0.6914153,-4.5916414,0.0,0.0,0.0
1280392455,8.462147,6.3065424,-30.388462,0.94365096,0.0,1.3902969,2.164114,0.06973076,-0.1344786,0.6785654,-4.598305,0.0,0.0,0.0
1280491607,8.620999,6.5249414,-30.388462,0.9438372,0.0,1.3672762,2.1787317,0.081890106,-0.1459195,0.7352115,-4.6030717,0.0,0.0,0.0
1280595834,8.784799,6.750141,-30.388462,0.94428355,0.0,1.3475165,2.1910083,0.092718124,-0.17909823,0.6681186,-4.5746827,0.0,0.0,0.0
1280699836,8.94862,6.9753714,-30.388462,0.94454825,0.0,1.3289174,2.2023377,0.09557152,-0.117497675,0.6446736,-4.6379724,0.0,0.0,0.0
1280800016,9.105274,7.1907477,-30.388462,0.94454825,0.0,1.315583,2.210328,0.091653824,-0.16634068,0.64033324,-4.6033516,0.0,0.0,0.0
1280904052,9.268998,7.4158444,-30.388462,0.9449311,0.0,1.3030437,2.2177448,0.088832855,-0.13459024,0.5945764,-4.652425,0.0,0.0,0.0
1281008717,9.432792,7.6410356,-30.388462,0.9450648,0.0,1.2953907,2.2222233,0.08961105,-0.11697816,0.5803542,-4.628321,0.0,0.0,0.0
1281112152,9.597059,7.8668795,-30.388462,0.94518834,0.0,1.2888685,2.226012,0.09203148,-0.14460929,0.5964387,-4.607856,0.0,0.0,0.0
1281211823,9.754309,8.083073,-30.388462,0.94524413,0.0,1.2868265,2.2271938,0.099393845,-0.13017245,0.5985125,-4.59583,0.0,0.0,0.0
1281315869,9.919099,8.309636,-30.388462,0.945313,0.0,1.2823029,2.2298005,0.1062603,-0.13174823,0.54384154,-4.6239223,0.0,0.0,0.0
1281419649,10.084633,8.537221,-30.388462,0.94533616,0.0,1.282407,2.2297401,0.103199005,-0.09707126,0.5150127,-4.7990227,0.0,0.0,0.0
1281520500,10.248288,8.762222,-30.388462,0.94535977,0.0,1.2819259,2.2300174,0.09595871,-0.05722329,0.4655644,-4.8969803,0.0,0.0,0.0
1281624916,10.418518,8.996262,-30.388462,0.9453091,0.0,1.2875041,2.2268002,0.086221695,-0.1197295,0.42012805,-4.8630567,0.0,0.0,0.0
1281728133,10.589373,9.231163,-30.388462,0.94525915,0.0,1.2926456,2.2238233,0.083086014,-0.07506148,0.4219454,-4.858195,0.0,0.0,0.0
1281831943,10.761067,9.467216,-30.388462,0.9452061,0.0,1.3015786,2.2186048,0.084897995,-0.11964081,0.41876683,-4.678118,0.0,0.0,0.0
1281931803,10.928642,9.697608,-30.388462,0.9450341,0.0,1.3089345,2.2142718,0.09274101,-0.14770518,0.3666247,-4.582996,0.0,0.0,0.0
1282032365,11.095634,9.9271965,-30.388462,0.94492567,0.0,1.3164188,2.209831,0.10854149,-0.0920281,0.45572773,-4.460672,0.0,0.0,0.0
1282136172,11.268793,10.165264,-30.388462,0.9448553,0.0,1.3220115,2.2064903,0.13145447,-0.09770358,0.4989781,-4.3233237,0.0,0.0,0.0
1282240420,11.439747,10.400299,-30.388462,0.94478875,0.0,1.3268268,2.2035983,0.15297127,-0.09961403,0.48335555,-4.2747517,0.0,0.0,0.0
1282339630,11.601453,10.62262,-30.388462,0.9447743,0.0,1.330497,2.2013822,0.16762543,-0.10838933,0.5940646,-4.2422614,0.0,0.0,0.0
1282443717,11.766247,10.849189,-30.388462,0.9447005,0.0,1.3334423,2.1995993,0.17643738,-0.055656645,0.5966045,-4.2054286,0.0,0.0,0.0
1282543993,11.9219265,11.063225,-30.388462,0.9446893,0.0,1.3355633,2.1983137,0.18231201,-0.016708286,0.58303684,-4.2076974,0.0,0.0,0.0
1282643694,12.074205,11.272585,-30.388462,0.9446893,0.0,1.3410989,2.1949399,0.18411636,-0.009194055,0.5919781,-4.228878,0.0,0.0,0.0
1282747911,12.231035,11.488205,-30.388462,0.9445609,0.0,1.3473847,2.1910884,0.18714714,0.08705404,0.589517,-4.3655906,0.0,0.0,0.0
1282848530,12.380898,11.6942425,-30.388462,0.94442403,0.0,1.3558983,2.1858282,0.18688583,0.040672906,0.532896,-4.3090606,0.0,0.0,0.0
1282952176,12.53671,11.90846,-30.388462,0.94442403,0.0,1.3655461,2.179816,0.18201637,0.09972126,0.47652435,-4.3296785,0.0,0.0,0.0
1283056421,12.693505,12.12403,-30.388462,0.9441251,0.0,1.3762187,2.1730936,0.17430878,0.14281529,0.46162844,-4.36,0.0,0.0,0.0
1283160013,12.851728,12.341565,-30.388462,0.9439902,0.0,1.3877248,2.165764,0.16881752,0.10290823,0.44421676,-4.371015,0.0,0.0,0.0
1283259662,13.003052,12.549612,-30.388462,0.94389874,0.0,1.4019724,2.1565673,0.16510391,0.15661322,0.43969005,-4.4009404,0.0,0.0,0.0
1283364098,13.158678,12.763573,-30.388462,0.94349986,0.0,1.4173344,2.1464992,0.15877533,0.20551361,0.4011364,-4.374328,0.0,0.0,0.0
1283464235,13.30849,12.9695425,-30.388462,0.9433647,0.0,1.4331077,2.1360033,0.15139961,0.1815257,0.4192694,-4.3659434,0.0,0.0,0.0
1283568567,13.46483,13.184487,-30.388462,0.9429975,0.0,1.4500606,2.1245325,0.14292145,0.19130759,0.38340512,-4.441742,0.0,0.0,0.0
1283671961,13.622705,13.401542,-30.388462,0.942733,0.0,1.4673115,2.112655,0.12946701,0.26530096,0.3577973,-4.610186,0.0,0.0,0.0
1283771740,13.775385,13.611454,-30.388462,0.942733,0.0,1.4849838,2.100271,0.11105728,0.18771899,0.32616147,-4.5947914,0.0,0.0,0.0
1283876043,13.935252,13.831247,-30.388462,0.942733,0.0,1.5041546,2.0865824,0.09559631,0.22759701,0.2975184,-4.577131,0.0,0.0,0.0
1283976002,14.089885,14.043843,-30.388462,0.9418558,0.0,1.5244523,2.0717983,0.08200264,0.30614692,0.28724635,-4.566182,0.0,0.0,0.0
1284075855,14.24501,14.257119,-30.388462,0.94152457,0.0,1.5450183,2.056508,0.06763649,0.30920705,0.261018,-4.543201,0.0,0.0,0.0
1284176710,14.399756,14.4698715,-30.388462,0.94117314,0.0,1.5660365,2.0405507,0.05755043,0.31418937,0.30783707,-4.4388804,0.0,0.0,0.0
1284280491,14.55894,14.688725,-30.388462,0.94081074,0.0,1.5865961,2.0246062,0.05419731,0.30127102,0.26504323,-4.364274,0.0,0.0,0.0
1284379623,14.710633,14.89728,-30.388462,0.9406596,0.0,1.604223,2.010664,0.05804062,0.32300687,0.31694597,-4.3566985,0.0,0.0,0.0
1284483739,14.863047,15.106828,-30.388462,0.9402136,0.0,1.6213961,1.9968413,0.06844711,0.2932495,0.3531263,-4.3225493,0.0,0.0,0.0
1284584027,15.00832,15.306556,-30.388462,0.9399297,0.0,1.636219,1.9847137,0.078811646,0.32963952,0.37684637,-4.3062706,0.0,0.0,0.0
1284683948,15.153538,15.506208,-30.388462,0.9397998,0.0,1.6468182,1.9759301,0.085739136,0.3109616,0.2741722,-4.2324233,0.0,0.0,0.0
1284787898,15.304517,15.713781,-30.388462,0.939517,0.0,1.6559769,1.9682564,0.09125137,0.37633297,0.35802373,-4.3581443,0.0,0.0,0.0
1284888216,15.451778,15.9162445,-30.388462,0.9393918,0.0,1.6602006,1.9647003,0.08710861,0.3544922,0.34543228,-4.38318,0.0,0.0,0.0
1284992354,15.605917,16.128162,-30.388462,0.9393373,0.0,1.6630082,1.9623221,0.07828331,0.31227177,0.2962944,-4.3958836,0.0,0.0,0.0
1285096227,15.758108,16.337402,-30.388462,0.9392591,0.0,1.6673887,1.9586022,0.0695076,0.24654585,0.32528886,-4.4713926,0.0,0.0,0.0
1285195691,15.90611,16.54088,-30.388462,0.9392197,0.0,1.6718779,1.9547707,0.06321335,0.23242983,0.24807732,-4.506823,0.0,0.0,0.0
1285299957,16.061148,16.754038,-30.388462,0.9390766,0.0,1.6758407,1.9513751,0.053813934,0.3157431,0.24795145,-4.5217333,0.0,0.0,0.0
1285400308,16.21167,16.960983,-30.388462,0.93898344,0.0,1.6805038,1.9473606,0.05150032,0.25426424,0.23763044,-4.470195,0.0,0.0,0.0
1285499609,16.363022,17.169067,-30.388462,0.93893933,0.0,1.6825722,1.9455749,0.054985046,0.38944623,0.24066679,-4.4256525,0.0,0.0,0.0
1285603729,16.520428,17.385475,-30.388462,0.9388753,0.0,1.6837554,1.9445511,0.059923172,0.26096958,0.38816807,-4.320691,0.0,0.0,0.0
1285703974,16.670732,17.592123,-30.388462,0.93886745,0.0,1.6825541,1.9455894,0.06775856,0.26580665,0.39654717,-4.2940407,0.0,0.0,0.0
1285808142,16.825996,17.80559,-30.388462,0.93891215,0.0,1.679953,1.9478345,0.0780983,0.31274807,0.33128232,-4.272178,0.0,0.0,0.0
1285912142,16.98186,18.019875,-30.388462,0.9389728,0.0,1.6757084,1.9514884,0.08938217,0.29142684,0.31282833,-4.256606,0.0,0.0,0.0
1286016088,17.13815,18.23475,-30.388462,0.9390099,0.0,1.6714684,1.9551204,0.09793854,0.25643444,0.34707186,-4.2626853,0.0,0.0,0.0
1286115961,17.29392,18.448915,-30.388462,0.9390853,0.0,1.6676161,1.9584092,0.10660362,0.21906471,0.34129152,-4.2975674,0.0,0.0,0.0
1286219699,17.456333,18.672207,-30.388462,0.939144,0.0,1.6638092,1.9616454,0.11694145,0.2567547,0.37949222,-4.3411613,0.0,0.0,0.0
1286320225,17.616283,18.892113,-30.388462,0.9392146,0.0,1.6596452,1.9651679,0.124801636,0.28617615,0.32002714,-4.4669724,0.0,0.0,0.0
1286425507,17.781635,19.11945,-30.388462,0.93932384,0.0,1.6548933,1.9691741,0.1315651,0.1600813,0.32084677,-4.3488173,0.0,0.0,0.0
1286528217,17.947016,19.34682,-30.388462,0.9393559,0.0,1.6502873,1.9730319,0.14515877,0.19324073,0.34557977,-4.389408,0.0,0.0,0.0
1286627742,18.105614,19.56487,-30.388462,0.9395023,0.0,1.6442696,1.9780511,0.15752983,0.16895047,0.27767473,-4.3312416,0.0,0.0,0.0
1286728464,18.264004,19.782635,-30.388462,0.93961644,0.0,1.6375961,1.9835776,0.17452812,0.10494484,0.34513494,-4.2097692,0.0,0.0,0.0
1286832142,18.428148,20.008305,-30.388462,0.93961644,0.0,1.6290091,1.9906353,0.19375992,0.11953795,0.3563516,-4.2526975,0.0,0.0,0.0
1286931871,18.585833,20.225098,-30.388462,0.93992805,0.0,1.6189164,1.9988544,0.20993996,0.038156547,0.4686326,-4.203394,0.0,0.0,0.0
1287035633,18.749264,20.449791,-30.388462,0.9401192,0.0,1.6082873,2.007414,0.22618484,0.11970892,0.3998634,-4.2341785,0.0,0.0,0.0
1287136216,18.906067,20.665375,-30.388462,0.9403015,0.0,1.5985442,2.015184,0.24190521,0.12619156,0.3839003,-4.24729,0.0,0.0,0.0
1287235690,19.063114,20.88129,-30.388462,0.94048804,0.0,1.5882813,2.0232818,0.25356483,0.067181475,0.3923945,-4.1531982,0.0,0.0,0.0
1287339666,19.227861,21.107794,-30.388462,0.94057477,0.0,1.5790782,2.03047,0.26574898,0.11242798,0.37356305,-4.192828,0.0,0.0,0.0
1287440382,19.386765,21.32626,-30.388462,0.9408104,0.0,1.5710638,2.0366814,0.2731266,0.11525072,0.34325176,-4.176669,0.0,0.0,0.0
1287544327,19.554543,21.55693,-30.388462,0.94095516,0.0,1.5636238,2.0423982,0.26987648,0.075604156,0.3174632,-4.2381763,0.0,0.0,0.0
1287648062,19.723686,21.78948,-30.388462,0.94101375,0.0,1.5571641,2.047325,0.26605606,0.11335111,0.3444921,-4.3061447,0.0,0.0,0.0
1287747613,19.888119,22.015549,-30.388462,0.9411846,0.0,1.5513386,2.0517442,0.2576561,0.0655174,0.3296812,-4.3080387,0.0,0.0,0.0
1287848519,20.053314,22.242666,-30.388462,0.94128555,0.0,1.5456326,2.056046,0.24746513,0.008249568,0.3493114,-4.4382873,0.0,0.0,0.0
1287952008,20.225803,22.479813,-30.388462,0.9414147,0.0,1.5390171,2.0610034,0.23505974,0.0017203941,0.29396084,-4.509274,0.0,0.0,0.0
1288051761,20.3935,22.710371,-30.388462,0.94154924,0.0,1.5307798,2.067128,0.22190094,-0.05441917,0.30205715,-4.5770097,0.0,0.0,0.0
1288155738,20.570692,22.953985,-30.388462,0.94164824,0.0,1.5197756,2.0752313,0.2141552,-0.18686873,0.32422742,-4.5645714,0.0,0.0,0.0
1288256416,20.742504,23.190199,-30.388462,0.9420535,0.0,1.5057237,2.085451,0.2173729,-0.19224668,0.36059874,-4.5713153,0.0,0.0,0.0
1288355687,20.914997,23.427353,-30.388462,0.9423933,0.0,1.4887056,2.097629,0.21938705,-0.23959023,0.38123617,-4.571009,0.0,0.0,0.0
1288460036,21.09541,23.675392,-30.388462,0.9425674,0.0,1.4671539,2.1127627,0.22223854,-0.3087964,0.35945317,-4.565999,0.0,0.0,0.0
1288563668,21.27672,23.924667,-30.388462,0.94327825,0.0,1.4417155,2.1302013,0.2246399,-0.35550082,0.33536825,-4.511653,0.0,0.0,0.0
1288663955,21.451,24.164278,-30.388462,0.9437727,0.0,1.41598,2.1473951,0.23091698,-0.391198,0.3971803,-4.563985,0.0,0.0,0.0
1288764041,21.624086,24.402245,-30.388462,0.9437727,0.0,1.3901882,2.1641831,0.23237228,-0.47827908,0.44856948,-4.5289664,0.0,0.0,0.0
1288864332,21.796303,24.639015,-30.388462,0.9448277,0.0,1.3636191,2.1810184,0.23264313,-0.40776294,0.45216823,-4.5962315,0.0,0.0,0.0
1288967971,21.973637,24.882824,-30.388462,0.9453171,0.0,1.3377749,2.1969674,0.23078346,-0.38052347,0.38465694,-4.6069584,0.0,0.0,0.0
1289072434,22.149828,25.125061,-30.388462,0.94577,0.0,1.3137099,2.2114432,0.22646713,-0.34947607,0.38127363,-4.6704607,0.0,0.0,0.0
1289176698,22.324656,25.365421,-30.388462,0.9461727,0.0,1.2931113,2.2235472,0.22291183,-0.3542655,0.4245129,-4.703513,0.0,0.0,0.0
1289280512,22.49975,25.606153,-30.388462,0.94635195,0.0,1.2759373,2.2334497,0.21713638,-0.3602452,0.38435453,-4.700367,0.0,0.0,0.0
1289384392,22.674343,25.846193,-30.388462,0.9467945,0.0,1.2621826,2.2412503,0.20793724,-0.37637553,0.35916513,-4.6766086,0.0,0.0,0.0
1289487957,22.851856,26.090244,-30.388462,0.9469892,0.0,1.2542117,2.2457206,0.19906616,-0.3753791,0.36973637,-4.7246275,0.0,0.0,0.0
1289592375,23.029194,26.334059,-30.388462,0.9469892,0.0,1.2500786,2.2480218,0.18933868,-0.3701792,0.35245946,-4.7892694,0.0,0.0,0.0
1289696313,23.204525,26.575113,-30.388462,0.9471578,0.0,1.2499046,2.2481215,0.1740017,-0.3119958,0.36788547,-4.8974953,0.0,0.0,0.0
1289800923,23.379393,26.815529,-30.388462,0.947135,0.0,1.2529941,2.2463982,0.15883636,-0.37166044,0.31013796,-4.8085003,0.0,0.0,0.0
1289903873,23.553919,27.055477,-30.388462,0.9469955,0.0,1.261601,2.2415783,0.138134,-0.27882534,0.2761564,-4.909926,0.0,0.0,0.0
1290008074,23.728033,27.294857,-30.388462,0.9468254,0.0,1.2723352,2.2355046,0.11412048,-0.21651296,0.275923,-4.9996443,0.0,0.0,0.0
1290112128,23.901201,27.532936,-30.388462,0.94670534,0.0,1.2864795,2.2273924,0.09411812,-0.30311617,0.24958399,-4.8954463,0.0,0.0,0.0
1290217162,24.074257,27.770864,-30.388462,0.9462962,0.0,1.3021748,2.2182527,0.075315475,-0.16097996,0.2280779,-4.9953914,0.0,0.0,0.0
1290320451,24.248877,28.010939,-30.388462,0.94600946,0.0,1.3188614,2.2083738,0.06335449,-0.24465832,0.2082354,-4.9221706,0.0,0.0,0.0
1290424186,24.423685,28.251278,-30.388462,0.94600946,0.0,1.3362509,2.197897,0.051805496,-0.20837922,0.23428044,-4.8914256,0.0,0.0,0.0
1290527910,24.599878,28.493515,-30.388462,0.9453901,0.0,1.3553184,2.186186,0.04426384,-0.124774404,0.1776557,-4.906275,0.0,0.0,0.0
1290627652,24.76774,28.724298,-30.388462,0.9450517,0.0,1.3722224,2.1756167,0.040513992,-0.14804053,0.25652614,-4.8830833,0.0,0.0,0.0
1290731636,24.939413,28.960327,-30.388462,0.94465566,0.0,1.3908967,2.1637247,0.039527893,-0.17144181,0.18276307,-4.764189,0.0,0.0,0.0
1290832210,25.10297,29.18519,-30.388462,0.9443204,0.0,1.408009,2.1526318,0.0357399,-0.12728713,0.22408944,-4.8242235,0.0,0.0,0.0
1290931600,25.26504,29.408016,-30.388462,0.944123,0.0,1.4264532,2.1404536,0.025074005,-0.16448176,0.20095903,-4.8525133,0.0,0.0,0.0
1291035679,25.432516,29.638264,-30.388462,0.9434927,0.0,1.4449426,2.1280105,0.01241684,-0.020461371,0.19048923,-5.0415006,0.0,0.0,0.0
1291136112,25.59182,29.857288,-30.388462,0.9431183,0.0,1.4623322,2.1161005,3.8146973e-05,-0.073822364,0.12335856,-4.990779,0.0,0.0,0.0
1291240757,25.758156,30.085972,-30.388462,0.94293606,0.0,1.4799792,2.1037989,-0.015352249,-0.028257802,0.15195385,-5.025858,0.0,0.0,0.0
1291343991,25.924883,30.315197,-30.388462,0.94232994,0.0,1.4972509,2.0915372,-0.0347023,-0.08789417,0.17687179,-4.994538,0.0,0.0,0.0
1291443668,26.084373,30.534473,-30.388462,0.9420187,0.0,1.5110093,2.0816221,-0.04953003,-0.096813776,0.15518443,-4.9591575,0.0,0.0,0.0
1291544364,26.242884,30.752401,-30.388462,0.9420187,0.0,1.5218486,2.0737145,-0.06141281,-0.06321445,0.17229073,-4.974874,0.0,0.0,0.0
1291648203,26.408867,30.980606,-30.388462,0.9416154,0.0,1.5293139,2.0682151,-0.069662094,-0.10304254,0.19171906,-4.9654093,0.0,0.0,0.0
1291747759,26.569672,31.201687,-30.388462,0.9415107,0.0,1.5330194,2.0654664,-0.07583618,-0.16995704,0.17046633,-4.932324,0.0,0.0,0.0
1291851708,26.736439,31.43097,-30.388462,0.9415107,0.0,1.5340812,2.0646818,-0.08692932,-0.15912566,0.25133908,-5.072062,0.0,0.0,0.0
1291952150,26.896376,31.650856,-30.388462,0.941478,0.0,1.5326389,2.0657456,-0.09346962,-0.1667238,0.2463979,-5.0299535,0.0,0.0,0.0
1292051719,27.05648,31.870977,-30.388462,0.9415441,0.0,1.5280528,2.0691447,-0.10043526,-0.24732588,0.24130337,-5.010645,0.0,0.0,0.0
1292155632,27.222776,32.09961,-30.388462,0.9417273,0.0,1.520823,2.0744648,-0.101371765,-0.14048313,0.29680547,-5.038349,0.0,0.0,0.0
1292256103,27.382181,32.318764,-30.388462,0.9419258,0.0,1.511975,2.080921,-0.09702492,-0.25892228,0.31467605,-4.8843064,0.0,0.0,0.0
1292360222,27.547419,32.545944,-30.388462,0.94203806,0.0,1.5015798,2.0884368,-0.09525299,-0.20662168,0.3381321,-4.9728837,0.0,0.0,0.0
1292464005,27.712278,32.7726,-30.388462,0.9423716,0.0,1.4909307,2.096051,-0.09015465,-0.287419,0.3531179,-4.925531,0.0,0.0,0.0
1292563658,27.870733,32.990448,-30.388462,0.94260067,0.0,1.4807981,2.103221,-0.086242676,-0.31807595,0.3205112,-4.925103,0.0,0.0,0.0
1292664201,28.02972,33.209034,-30.388462,0.9427289,0.0,1.4694244,2.111181,-0.07977104,-0.2978426,0.29841474,-4.9535146,0.0,0.0,0.0
1292768948,28.19589,33.437492,-30.388462,0.94313943,0.0,1.4569597,2.1198022,-0.0728817,-0.34981167,0.3583294,-4.95164,0.0,0.0,0.0
1292872028,28.362085,33.66599,-30.388462,0.94343567,0.0,1.4426305,2.1295834,-0.0680542,-0.35979345,0.3366966,-4.884708,0.0,0.0,0.0
1292976016,28.528147,33.894295,-30.388462,0.9438218,0.0,1.4280622,2.139379,-0.06572533,-0.38512993,0.37534073,-4.9823084,0.0,0.0,0.0
1293080193,28.697603,34.127277,-30.388462,0.9441576,0.0,1.4140846,2.1486473,-0.071035385,-0.39741454,0.34931976,-4.942427,0.0,0.0,0.0
1293184794,28.86735,34.36065,-30.388462,0.94432235,0.0,1.4012811,2.157015,-0.075948715,-0.36033285,0.36535951,-5.0174265,0.0,0.0,0.0
1293288635,29.035358,34.59164,-30.388462,0.94432235,0.0,1.3925184,2.1626866,-0.0824852,-0.35643795,0.34039953,-5.0040097,0.0,0.0,0.0
1293392336,29.202354,34.82123,-30.388462,0.94497836,0.0,1.3857924,2.166999,-0.09026718,-0.3203262,0.34832665,-5.0584793,0.0,0.0,0.0
