timestamp,timestamp_sample,control[0],control[1],control[2],control[3],control[4],control[5],control[6],control[7]
1244762054,1244761890,-0.029097581,-0.022870447,-0.0012824616,0.47615016,0.0,0.0,0.0,-1.0
1244930077,1244929889,-0.029873183,-0.0238023,-0.0014666513,0.5100735,0.0,0.0,0.0,-1.0
1244974022,1244973882,-0.03052626,-0.024247319,-0.0012056264,0.5191484,0.0,0.0,0.0,-1.0
1245018069,1245017882,-0.031814706,-0.025496822,-0.0013385538,0.52821356,0.0,0.0,0.0,-1.0
1245062015,1245061882,-0.03222893,-0.026146198,-0.00012570372,0.53754985,0.0,0.0,0.0,-1.0
1245102022,1245101882,-0.032852754,-0.026276324,-0.0026817955,0.54612726,0.0,0.0,0.0,-1.0
1245146060,1245145882,-0.032466125,-0.025570853,-0.0034390143,0.5545719,0.0,0.0,0.0,-1.0
1245186067,1245185882,-0.024057252,-0.025491785,-0.0021939608,0.56398046,0.0,0.0,0.0,-1.0
1245230027,1245229889,-0.025864096,-0.020839518,0.015709616,0.5733408,0.0,0.0,0.0,-1.0
1245274063,1245273882,-0.03201218,-0.030344134,-0.011833439,0.58122313,0.0,0.0,0.0,-1.0
1245314051,1245313882,-0.019179365,-0.03108786,-0.0011013164,0.5903354,0.0,0.0,0.0,-1.0
1245358015,1245357882,-0.034027632,-0.033280622,-0.006578722,0.59952384,0.0,0.0,0.0,-1.0
1245398027,1245397882,-0.052225996,-0.04057788,-0.003912753,0.607526,0.0,0.0,0.0,-1.0
1245438033,1245437882,-0.04571646,-0.030210787,0.0022577173,0.61646986,0.0,0.0,0.0,-1.0
1245482058,1245481882,-0.04047205,-0.03120377,-0.0037209084,0.6260898,0.0,0.0,0.0,-1.0
1245522051,1245521882,-0.031885944,-0.026163418,0.000993858,0.63487357,0.0,0.0,0.0,-1.0
1245566021,1245565882,-0.034926046,-0.0230922,-0.0015691696,0.6446505,0.0,0.0,0.0,-1.0
1245610057,1245609882,-0.029832846,-0.026036352,-0.004718828,0.6541926,0.0,0.0,0.0,-1.0
1245650050,1245649882,-0.025487928,-0.027503978,-0.00062050606,0.66345996,0.0,0.0,0.0,-1.0
1245694041,1245693912,-0.03797231,-0.03105142,-0.00060800347,0.6730502,0.0,0.0,0.0,-1.0
1245734011,1245733882,-0.038215313,-0.026186323,-0.0008097292,0.6823255,0.0,0.0,0.0,-1.0
1245778062,1245777903,-0.007191155,-0.0058092475,0.002114823,0.6894646,0.0,0.0,0.0,-1.0
1245818099,1245817897,0.053279806,0.038183764,0.01096553,0.6959276,0.0,0.0,0.0,-1.0
1245862067,1245861931,0.12752058,0.07412221,0.021147389,0.6976964,0.0,0.0,0.0,-1.0
1245902012,1245901882,0.16909224,0.088544026,0.01599182,0.6912359,0.0,0.0,0.0,-1.0
1245946105,1245945913,0.15275788,0.05479829,0.023219438,0.6532895,0.0,0.0,0.0,-1.0
1245986059,1245985882,0.11779633,0.0013061613,0.029595919,0.60998434,0.0,0.0,0.0,-1.0
1246030056,1246029903,0.08261979,-0.022311483,0.018495534,0.5830414,0.0,0.0,0.0,-1.0
1246070025,1246069882,0.07907212,0.049772654,0.0013321425,0.57145137,0.0,0.0,0.0,-1.0
1246114072,1246113889,0.055228706,0.016159998,-0.010586724,0.5405507,0.0,0.0,0.0,-1.0
1246154021,1246153889,0.016838156,-0.0038842605,-0.025074892,0.5156303,0.0,0.0,0.0,-1.0
1246194063,1246193898,0.0048593003,0.014324568,-0.028179869,0.5066516,0.0,0.0,0.0,-1.0
1246238020,1246237882,0.0029096156,-0.0028391469,-0.026297132,0.4961058,0.0,0.0,0.0,-1.0
1246278018,1246277882,0.01958148,0.009120486,-0.022544466,0.49065638,0.0,0.0,0.0,-1.0
1246322015,1246321882,0.050878346,0.012565555,-0.02903974,0.49097395,0.0,0.0,0.0,-1.0
1246362036,1246361895,0.05420485,0.0037223778,-0.024794219,0.49216232,0.0,0.0,0.0,-1.0
1246406023,1246405883,0.044160243,0.0024968148,-0.023733122,0.49173188,0.0,0.0,0.0,-1.0
1246446031,1246445886,0.04296516,0.00011577958,-0.023440268,0.49660042,0.0,0.0,0.0,-1.0
1246490025,1246489889,0.041514076,-0.008118458,-0.026020283,0.5001986,0.0,0.0,0.0,-1.0
1246530032,1246529889,0.03359683,-0.0028007743,-0.030774917,0.49684983,0.0,0.0,0.0,-1.0
1246574023,1246573882,0.02013249,-0.006602316,-0.030987892,0.4962237,0.0,0.0,0.0,-1.0
1246618027,1246617883,0.019668963,-0.0049478235,-0.033316176,0.49598363,0.0,0.0,0.0,-1.0
1246658024,1246657882,0.024255317,-0.00079024164,-0.03544204,0.49842185,0.0,0.0,0.0,-1.0
1246702062,1246701924,0.022319527,0.0016386248,-0.03602444,0.5003031,0.0,0.0,0.0,-1.0
1246742036,1246741885,0.02607046,-3.4188444e-05,-0.037433706,0.4979809,0.0,0.0,0.0,-1.0
1246786027,1246785883,0.025814498,-0.0075016217,-0.03738825,0.49857268,0.0,0.0,0.0,-1.0
1246826119,1246825883,0.028367627,-0.012076604,-0.040793076,0.5004292,0.0,0.0,0.0,-1.0
1246866034,1246865889,0.02677667,-0.013025909,-0.040056642,0.496127,0.0,0.0,0.0,-1.0
1246910051,1246909921,0.024218472,-0.015143816,-0.040348563,0.4970883,0.0,0.0,0.0,-1.0
1246954017,1246953882,0.031641,-0.0144774215,-0.04060863,0.49749735,0.0,0.0,0.0,-1.0
1246994025,1246993882,0.030500704,-0.01126063,-0.03902027,0.49985376,0.0,0.0,0.0,-1.0
1247038053,1247037912,0.03038913,-0.0092170695,-0.039176386,0.5001592,0.0,0.0,0.0,-1.0
1247078021,1247077889,0.029987985,-0.01138805,-0.036565986,0.5007745,0.0,0.0,0.0,-1.0
1247118045,1247117882,0.031354573,-0.011016679,-0.034163184,0.5037705,0.0,0.0,0.0,-1.0
1247162025,1247161882,0.035762753,-0.009707404,-0.034759596,0.50164706,0.0,0.0,0.0,-1.0
1247202037,1247201882,0.033578638,-0.009837825,-0.037105836,0.50176877,0.0,0.0,0.0,-1.0
1247246071,1247245920,0.037654515,-0.0036504345,-0.037985936,0.5011537,0.0,0.0,0.0,-1.0
1247290025,1247289883,0.039944824,-0.00428924,-0.03547828,0.5018428,0.0,0.0,0.0,-1.0
1247330018,1247329882,0.040145986,-0.0011075875,-0.03812489,0.49866965,0.0,0.0,0.0,-1.0
1247374055,1247373915,0.039469026,-0.009429676,-0.036689065,0.50101763,0.0,0.0,0.0,-1.0
1247414069,1247413902,0.043411173,-0.008588298,-0.040932827,0.5017856,0.0,0.0,0.0,-1.0
1247458015,1247457882,0.04314255,-0.0066697625,-0.03585448,0.50255394,0.0,0.0,0.0,-1.0
1247498015,1247497882,0.04474483,0.00085567124,-0.036536794,0.49946457,0.0,0.0,0.0,-1.0
1247542048,1247541882,0.0374027,-0.0024681701,-0.03559278,0.50305045,0.0,0.0,0.0,-1.0
1247582069,1247581882,0.031377878,-0.01474603,-0.032212153,0.5032646,0.0,0.0,0.0,-1.0
1247626029,1247625882,0.028715013,-0.02000882,-0.03044388,0.50465316,0.0,0.0,0.0,-1.0
1247666036,1247665883,0.02459246,-0.0132409185,-0.026639607,0.5094299,0.0,0.0,0.0,-1.0
1247710050,1247709882,0.02477188,-0.006281223,-0.025582986,0.5094818,0.0,0.0,0.0,-1.0
1247750052,1247749889,0.029576635,-0.006271456,-0.02286854,0.51048887,0.0,0.0,0.0,-1.0
1247794022,1247793882,0.034529552,0.0036845529,-0.02193752,0.51317704,0.0,0.0,0.0,-1.0
1247834019,1247833882,0.03613035,0.0047245645,-0.022295512,0.51780474,0.0,0.0,0.0,-1.0
1247878041,1247877882,0.04139545,0.009371934,-0.025467847,0.51739115,0.0,0.0,0.0,-1.0
1247918069,1247917882,0.04664146,0.010482553,-0.027484827,0.51827043,0.0,0.0,0.0,-1.0
1247958080,1247957882,0.042012956,0.008785153,-0.027807057,0.52047664,0.0,0.0,0.0,-1.0
1247998059,1247997893,0.04096912,0.006310597,-0.028291158,0.52126646,0.0,0.0,0.0,-1.0
1248042021,1248041882,0.041401356,0.003972265,-0.029742971,0.51941603,0.0,0.0,0.0,-1.0
1248086056,1248085889,0.040684637,0.0044443943,-0.031491842,0.5197257,0.0,0.0,0.0,-1.0
1248126053,1248125888,0.04070549,0.0039907247,-0.03197847,0.51585746,0.0,0.0,0.0,-1.0
1248170017,1248169883,0.03848644,0.002133221,-0.030702231,0.51793104,0.0,0.0,0.0,-1.0
1248210024,1248209883,0.0392499,0.00486156,-0.03578501,0.5192326,0.0,0.0,0.0,-1.0
1248254074,1248253882,0.040500004,0.005476784,-0.036471143,0.5196803,0.0,0.0,0.0,-1.0
1248298022,1248297889,0.045343686,0.011275999,-0.039168064,0.51765835,0.0,0.0,0.0,-1.0
1248338030,1248337888,0.04422064,0.010592612,-0.039925173,0.51592016,0.0,0.0,0.0,-1.0
1248382076,1248381882,0.040805023,0.008037569,-0.04116528,0.5177119,0.0,0.0,0.0,-1.0
1248422057,1248421882,0.042219788,0.008023495,-0.042992383,0.5161876,0.0,0.0,0.0,-1.0
1248466019,1248465882,0.042700946,0.0057667918,-0.04307882,0.5148024,0.0,0.0,0.0,-1.0
1248506015,1248505882,0.043047678,0.0039022742,-0.04048256,0.5152648,0.0,0.0,0.0,-1.0
1248550075,1248549906,0.043459117,0.0100401025,-0.040868297,0.51231897,0.0,0.0,0.0,-1.0
1248590029,1248589882,0.044023108,0.008480016,-0.039251424,0.5161412,0.0,0.0,0.0,-1.0
1248634072,1248633937,0.04737826,0.004881547,-0.037991006,0.515545,0.0,0.0,0.0,-1.0
1248674028,1248673889,0.049551025,0.005962311,-0.03771609,0.5140716,0.0,0.0,0.0,-1.0
1248718080,1248717897,0.049630042,0.009710687,-0.035813414,0.5148631,0.0,0.0,0.0,-1.0
1248758020,1248757882,0.047868844,0.009812907,-0.034285143,0.51594734,0.0,0.0,0.0,-1.0
1248802028,1248801888,0.04443268,0.005396514,-0.03430517,0.5189338,0.0,0.0,0.0,-1.0
1248842025,1248841883,0.045212764,0.0063076452,-0.03320852,0.51426107,0.0,0.0,0.0,-1.0
1248886085,1248885919,0.04653463,0.00904447,-0.032408472,0.51028,0.0,0.0,0.0,-1.0
1248926015,1248925882,0.04532522,0.011853018,-0.03390834,0.5094939,0.0,0.0,0.0,-1.0
1248970077,1248969929,0.04404634,0.009565199,-0.033294857,0.5120701,0.0,0.0,0.0,-1.0
1249010035,1249009889,0.045904774,0.009857155,-0.034042273,0.51325285,0.0,0.0,0.0,-1.0
1249054026,1249053884,0.04747192,0.012552928,-0.032332424,0.5119444,0.0,0.0,0.0,-1.0
1249094022,1249093882,0.05109408,0.0145557,-0.03212254,0.51151794,0.0,0.0,0.0,-1.0
1249138233,1249137893,0.051702145,0.015873142,-0.033152156,0.51244706,0.0,0.0,0.0,-1.0
1249178041,1249177901,0.05119639,0.017672041,-0.032671966,0.5085278,0.0,0.0,0.0,-1.0
1249218075,1249217928,0.049328495,0.013481308,-0.034541752,0.51014686,0.0,0.0,0.0,-1.0
1249262032,1249261883,0.054987952,0.016802706,-0.03693011,0.50505155,0.0,0.0,0.0,-1.0
1249306020,1249305882,0.051754683,0.016918156,-0.038782343,0.50467765,0.0,0.0,0.0,-1.0
1249346054,1249345918,0.047203496,0.00865806,-0.0362433,0.5095052,0.0,0.0,0.0,-1.0
1249390041,1249389900,0.049159937,0.010845703,-0.036988113,0.50769746,0.0,0.0,0.0,-1.0
1249430017,1249429882,0.049827512,0.008899978,-0.038772717,0.50545627,0.0,0.0,0.0,-1.0
1249470018,1249469882,0.049773827,0.00855082,-0.038137842,0.5033126,0.0,0.0,0.0,-1.0
1249514045,1249513900,0.055764902,0.009455048,-0.038514905,0.501053,0.0,0.0,0.0,-1.0
1249554046,1249553882,0.051749032,0.010041747,-0.03739497,0.5047176,0.0,0.0,0.0,-1.0
1249598028,1249597898,0.050186817,0.009352297,-0.03806828,0.5041038,0.0,0.0,0.0,-1.0
1249642059,1249641923,0.049296666,0.00904122,-0.037930384,0.5032668,0.0,0.0,0.0,-1.0
1249682044,1249681882,0.049619243,0.009256076,-0.03713338,0.50260097,0.0,0.0,0.0,-1.0
1249726028,1249725895,0.05117558,0.011691029,-0.038109377,0.5025895,0.0,0.0,0.0,-1.0
1249766022,1249765883,0.04874971,0.01003195,-0.03766507,0.5049272,0.0,0.0,0.0,-1.0
1251074102,1251073882,0.067021236,0.007457514,-0.038209148,0.4992722,0.0,0.0,0.0,-1.0
1251114069,1251113892,0.06649353,0.01596028,-0.041093573,0.49514884,0.0,0.0,0.0,-1.0
1252502064,1252501889,0.05060115,-0.0109851165,-0.026093684,0.49680477,0.0,0.0,0.0,-1.0
1252542105,1252541898,0.052121665,-0.011396522,-0.026807403,0.49767613,0.0,0.0,0.0,-1.0
1252586278,1252585901,0.050555814,-0.010777456,-0.023437936,0.49900725,0.0,0.0,0.0,-1.0
1252838115,1252837882,0.06296224,0.0050231437,-0.031599846,0.5009955,0.0,0.0,0.0,-1.0
1252878079,1252877898,0.058566023,-0.0006351463,-0.029412882,0.50532556,0.0,0.0,0.0,-1.0
1252922063,1252921889,0.05608698,-0.0022887276,-0.029244188,0.50524014,0.0,0.0,0.0,-1.0
1252962043,1252961900,0.06350849,-0.004767685,-0.034159962,0.50380814,0.0,0.0,0.0,-1.0
1253006106,1253005882,0.054316442,-0.0014675476,-0.03119619,0.50336236,0.0,0.0,0.0,-1.0
1253046066,1253045892,0.05867018,0.0013198276,-0.03394092,0.50647676,0.0,0.0,0.0,-1.0
1253090054,1253089883,0.05045506,-0.00885317,-0.031342495,0.5109933,0.0,0.0,0.0,-1.0
1253130031,1253129892,0.054838367,-0.0013371254,-0.03412014,0.50632197,0.0,0.0,0.0,-1.0
1253174136,1253173882,0.053808745,0.0010427157,-0.033968892,0.5088535,0.0,0.0,0.0,-1.0
1253214103,1253213909,0.05056352,-0.0012043098,-0.032965504,0.5092957,0.0,0.0,0.0,-1.0
1253258059,1253257882,0.053488735,-0.001431919,-0.0299899,0.51233715,0.0,0.0,0.0,-1.0
1253298033,1253297898,0.045855913,0.005257349,-0.025792494,0.51164067,0.0,0.0,0.0,-1.0
1253342112,1253341888,0.049613837,0.009373604,-0.027774764,0.51140606,0.0,0.0,0.0,-1.0
1253382094,1253381909,0.05019605,0.0061735525,-0.023542756,0.51819074,0.0,0.0,0.0,-1.0
1253426058,1253425882,0.05022619,0.00819013,-0.02570653,0.517808,0.0,0.0,0.0,-1.0
1253466056,1253465912,0.05267962,0.0072055636,-0.029032756,0.5179591,0.0,0.0,0.0,-1.0
1253510107,1253509889,0.053738564,0.003820304,-0.02596413,0.51965535,0.0,0.0,0.0,-1.0
1253550080,1253549892,0.05223114,0.0059466455,-0.030506011,0.5241578,0.0,0.0,0.0,-1.0
1253594079,1253593886,0.052205082,0.0043590814,-0.03261796,0.52426785,0.0,0.0,0.0,-1.0
1253634026,1253633882,0.053253256,0.003809931,-0.032359984,0.5214039,0.0,0.0,0.0,-1.0
1253678114,1253677882,0.049414046,0.004195042,-0.032816503,0.52374387,0.0,0.0,0.0,-1.0
1253718052,1253717883,0.04746994,0.0024309151,-0.031034008,0.52216065,0.0,0.0,0.0,-1.0
1253762068,1253761883,0.05043396,-0.001639256,-0.03112776,0.5248727,0.0,0.0,0.0,-1.0
1253802038,1253801897,0.053656567,0.0025250523,-0.032674015,0.52457213,0.0,0.0,0.0,-1.0
1253846107,1253845889,0.051199798,0.0055259177,-0.033944897,0.52556986,0.0,0.0,0.0,-1.0
1253886088,1253885902,0.051063977,0.009118382,-0.034647588,0.5280549,0.0,0.0,0.0,-1.0
1253930059,1253929882,0.047793496,0.0033212365,-0.034311503,0.5295513,0.0,0.0,0.0,-1.0
1253970074,1253969933,0.04703783,0.004361131,-0.037676513,0.52895004,0.0,0.0,0.0,-1.0
1254014074,1254013883,0.04551725,0.003891356,-0.03382478,0.5290245,0.0,0.0,0.0,-1.0
1254054039,1254053892,0.047469568,0.0008045777,-0.03206306,0.52995735,0.0,0.0,0.0,-1.0
1254098056,1254097882,0.049320254,0.004120088,-0.033905238,0.5304029,0.0,0.0,0.0,-1.0
1254138072,1254137927,0.051295735,0.00037838955,-0.03546943,0.5311409,0.0,0.0,0.0,-1.0
1254182114,1254181882,0.047995,1.5708967e-05,-0.03489887,0.53355485,0.0,0.0,0.0,-1.0
1254222043,1254221901,0.047918715,-0.00037497556,-0.03508117,0.5327063,0.0,0.0,0.0,-1.0
1254266100,1254265896,0.049100723,-0.0033331674,-0.03250505,0.53566265,0.0,0.0,0.0,-1.0
1254306073,1254305931,0.052804824,0.004695234,-0.035882156,0.5334248,0.0,0.0,0.0,-1.0
1254350062,1254349882,0.05863371,-0.0012175438,-0.039223354,0.53208745,0.0,0.0,0.0,-1.0
1254390064,1254389903,0.055492442,0.0007481151,-0.039406113,0.5346564,0.0,0.0,0.0,-1.0
1254434092,1254433898,0.052665576,0.0012203119,-0.03814172,0.5329547,0.0,0.0,0.0,-1.0
1254474033,1254473893,0.05376614,0.0008326425,-0.03910035,0.5338596,0.0,0.0,0.0,-1.0
1254518058,1254517882,0.056504484,0.005818424,-0.040796597,0.5296789,0.0,0.0,0.0,-1.0
1254558037,1254557895,0.053181704,0.004871702,-0.042876545,0.53395134,0.0,0.0,0.0,-1.0
1254602072,1254601891,0.048894018,0.005810825,-0.04173368,0.5304051,0.0,0.0,0.0,-1.0
1254642065,1254641917,0.04593671,0.0056757163,-0.040258866,0.5269822,0.0,0.0,0.0,-1.0
1254686056,1254685882,0.04500875,0.012181072,-0.04251037,0.5268478,0.0,0.0,0.0,-1.0
1254726029,1254725883,0.047525905,0.013702488,-0.045355313,0.5282412,0.0,0.0,0.0,-1.0
1254770118,1254769911,0.04741531,0.015253261,-0.045564353,0.52788186,0.0,0.0,0.0,-1.0
1254810059,1254809911,0.047569834,0.014135394,-0.045913246,0.5284711,0.0,0.0,0.0,-1.0
1254854061,1254853882,0.045692716,0.016558943,-0.046978164,0.5257643,0.0,0.0,0.0,-1.0
1254894035,1254893897,0.04504389,0.0147126485,-0.047692634,0.5265187,0.0,0.0,0.0,-1.0
1254938074,1254937894,0.048488487,0.012585673,-0.048281766,0.5222799,0.0,0.0,0.0,-1.0
1254978095,1254977892,0.047523115,0.01484255,-0.04969804,0.5227924,0.0,0.0,0.0,-1.0
1255022049,1255021882,0.046817075,0.011070934,-0.049127698,0.5207768,0.0,0.0,0.0,-1.0
1255062034,1255061892,0.048836906,0.008591716,-0.048407152,0.5187282,0.0,0.0,0.0,-1.0
1255106097,1255105903,0.04786897,0.0071819536,-0.04631893,0.51732886,0.0,0.0,0.0,-1.0
1255146066,1255145898,0.04652663,0.0039890623,-0.045736406,0.51826024,0.0,0.0,0.0,-1.0
1255190059,1255189882,0.0467053,0.0066463286,-0.04426009,0.5175895,0.0,0.0,0.0,-1.0
1255230035,1255229894,0.048752595,0.006457665,-0.043426387,0.51582277,0.0,0.0,0.0,-1.0
1255274115,1255273882,0.046120357,0.003771288,-0.04172409,0.51610297,0.0,0.0,0.0,-1.0
1255314076,1255313892,0.045997825,-0.002553125,-0.038260266,0.51831967,0.0,0.0,0.0,-1.0
1255358057,1255357882,0.050901882,0.0031555945,-0.03886403,0.51395637,0.0,0.0,0.0,-1.0
1255398049,1255397896,0.046992496,0.0018201533,-0.035976473,0.51237404,0.0,0.0,0.0,-1.0
1255442124,1255441883,0.046649925,0.0029925017,-0.03466489,0.5114566,0.0,0.0,0.0,-1.0
1255482079,1255481894,0.048584625,0.00062500464,-0.033523098,0.5112104,0.0,0.0,0.0,-1.0
1255526056,1255525882,0.050214574,0.002938605,-0.034849178,0.5106378,0.0,0.0,0.0,-1.0
1255566043,1255565895,0.053204518,0.0064875544,-0.032709952,0.50801915,0.0,0.0,0.0,-1.0
1255610113,1255609882,0.057551585,0.006290662,-0.031767156,0.50666344,0.0,0.0,0.0,-1.0
1255650083,1255649893,0.057338182,0.0076690856,-0.028041583,0.5059657,0.0,0.0,0.0,-1.0
1255694062,1255693889,0.059402946,0.013915764,-0.028089253,0.5013175,0.0,0.0,0.0,-1.0
1255734031,1255733889,0.059750192,0.009627799,-0.025079194,0.49839398,0.0,0.0,0.0,-1.0
1255778120,1255777882,0.056413237,0.0054648425,-0.028739795,0.4989505,0.0,0.0,0.0,-1.0
1255818050,1255817883,0.054523107,0.002143887,-0.02530383,0.5000359,0.0,0.0,0.0,-1.0
1255862058,1255861882,0.06672229,0.0076736477,-0.029739127,0.49590376,0.0,0.0,0.0,-1.0
1255902042,1255901908,0.0644269,0.012775833,-0.030863486,0.49533737,0.0,0.0,0.0,-1.0
1255946104,1255945882,0.06422151,0.025588205,-0.034603603,0.49411952,0.0,0.0,0.0,-1.0
1255986085,1255985896,0.067899555,0.026295424,-0.036542106,0.48886663,0.0,0.0,0.0,-1.0
1256030071,1256029889,0.06589112,0.023150235,-0.03886881,0.4949983,0.0,0.0,0.0,-1.0
1256070061,1256069899,0.06659332,0.020700863,-0.041978862,0.4942655,0.0,0.0,0.0,-1.0
1256114094,1256113882,0.05920884,0.01919155,-0.041553844,0.49155962,0.0,0.0,0.0,-1.0
1256154065,1256153892,0.06019094,0.015960697,-0.048962675,0.49341643,0.0,0.0,0.0,-1.0
1256198080,1256197882,0.055630025,0.015918417,-0.047237307,0.4945717,0.0,0.0,0.0,-1.0
1256238069,1256237921,0.052609324,0.028617522,-0.053730488,0.49525157,0.0,0.0,0.0,-1.0
1256282106,1256281899,0.054310165,0.025075523,-0.05222898,0.49484497,0.0,0.0,0.0,-1.0
1256322030,1256321892,0.0594844,0.031849336,-0.056176,0.49498206,0.0,0.0,0.0,-1.0
1256366091,1256365891,0.064037986,0.035601273,-0.057626046,0.49313536,0.0,0.0,0.0,-1.0
1256406027,1256405883,0.06417829,0.031730935,-0.059532985,0.49435094,0.0,0.0,0.0,-1.0
1256450106,1256449882,0.058244627,0.031958982,-0.05970857,0.49481323,0.0,0.0,0.0,-1.0
1256490032,1256489898,0.0563286,0.03180048,-0.060314752,0.49125946,0.0,0.0,0.0,-1.0
1256534061,1256533882,0.05573422,0.032049272,-0.062547974,0.49239618,0.0,0.0,0.0,-1.0
1256574073,1256573924,0.050959367,0.038271055,-0.06335695,0.49287418,0.0,0.0,0.0,-1.0
1256618099,1256617889,0.0488054,0.031493403,-0.06369584,0.4956692,0.0,0.0,0.0,-1.0
1256658040,1256657902,0.05445069,0.03166913,-0.06296825,0.49103138,0.0,0.0,0.0,-1.0
1256702053,1256701882,0.05834078,0.02159963,-0.059848674,0.4933909,0.0,0.0,0.0,-1.0
1256742033,1256741889,0.063617386,0.01997199,-0.05957876,0.49287832,0.0,0.0,0.0,-1.0
1256786074,1256785893,0.06776678,0.019770607,-0.056578808,0.49413565,0.0,0.0,0.0,-1.0
1256826039,1256825883,0.06645931,0.018819543,-0.05601298,0.4935378,0.0,0.0,0.0,-1.0
1256870056,1256869882,0.060569327,0.018795572,-0.0484772,0.49312544,0.0,0.0,0.0,-1.0
1256910043,1256909905,0.051042464,0.021413263,-0.046229348,0.49431303,0.0,0.0,0.0,-1.0
1256954069,1256953889,0.052936785,0.01856551,-0.043518256,0.49326885,0.0,0.0,0.0,-1.0
1256994052,1256993906,0.044748235,0.0212026,-0.03752839,0.49898547,0.0,0.0,0.0,-1.0
1257038063,1257037883,0.04173715,0.021023396,-0.0343397,0.50019383,0.0,0.0,0.0,-1.0
1257078081,1257077934,0.04039897,0.023168258,-0.032823857,0.50477195,0.0,0.0,0.0,-1.0
1257122041,1257121882,0.04164649,0.028800761,-0.029840441,0.50874716,0.0,0.0,0.0,-1.0
1257162034,1257161895,0.050790507,0.030348059,-0.03205621,0.50956124,0.0,0.0,0.0,-1.0
1257202029,1257201883,0.055578917,0.035415478,-0.02952062,0.5104376,0.0,0.0,0.0,-1.0
1257242025,1257241882,0.06128372,0.03570894,-0.02689873,0.50666285,0.0,0.0,0.0,-1.0
1257286116,1257285931,0.059710354,0.028451642,-0.025146816,0.5067212,0.0,0.0,0.0,-1.0
1257326063,1257325882,0.062058277,0.03162723,-0.030268349,0.5041222,0.0,0.0,0.0,-1.0
1257366093,1257365884,0.053364825,0.031006286,-0.03203426,0.5030702,0.0,0.0,0.0,-1.0
1257410042,1257409895,0.057961382,0.02749708,-0.03920351,0.49816677,0.0,0.0,0.0,-1.0
1257450034,1257449889,0.05396338,0.027057016,-0.04098348,0.49831915,0.0,0.0,0.0,-1.0
1257494062,1257493882,0.047423486,0.01947411,-0.041310668,0.49785802,0.0,0.0,0.0,-1.0
1257534067,1257533882,0.05075957,0.019899484,-0.03988758,0.49657527,0.0,0.0,0.0,-1.0
1257578021,1257577882,0.05343677,0.020003563,-0.037652966,0.499441,0.0,0.0,0.0,-1.0
1257618018,1257617883,0.05118046,0.01940585,-0.035189748,0.5047508,0.0,0.0,0.0,-1.0
1257662057,1257661882,0.05696371,0.02023537,-0.036927596,0.50496346,0.0,0.0,0.0,-1.0
1257702052,1257701882,0.054880045,0.02134375,-0.038650088,0.5055224,0.0,0.0,0.0,-1.0
1257746025,1257745889,0.052611183,0.020587234,-0.037021637,0.5072579,0.0,0.0,0.0,-1.0
1257786031,1257785888,0.048508257,0.021805583,-0.03742516,0.5090073,0.0,0.0,0.0,-1.0
1257830048,1257829882,0.057939794,0.025507452,-0.03577636,0.5049521,0.0,0.0,0.0,-1.0
1257870068,1257869882,0.05455762,0.022735208,-0.039077442,0.51452285,0.0,0.0,0.0,-1.0
1257914020,1257913882,0.06146905,0.027686987,-0.040851347,0.5093468,0.0,0.0,0.0,-1.0
1257954028,1257953883,0.07018334,0.030883156,-0.0439788,0.5089889,0.0,0.0,0.0,-1.0
1257998071,1257997883,0.060414545,0.017952729,-0.04516083,0.51002496,0.0,0.0,0.0,-1.0
1258042018,1258041882,0.06038651,0.017781228,-0.04337948,0.5095114,0.0,0.0,0.0,-1.0
1258082027,1258081882,0.0525407,0.019047726,-0.041636057,0.51754427,0.0,0.0,0.0,-1.0
1258122020,1258121882,0.06164058,0.025541212,-0.0447855,0.5047268,0.0,0.0,0.0,-1.0
1258166060,1258165882,0.062262814,0.017766865,-0.04652272,0.5100806,0.0,0.0,0.0,-1.0
1258210026,1258209883,0.054924294,0.019926947,-0.041720077,0.50835603,0.0,0.0,0.0,-1.0
1258250034,1258249882,0.05100096,0.01132568,-0.039786212,0.5111799,0.0,0.0,0.0,-1.0
1258290020,1258289882,0.04276134,0.013218477,-0.037766006,0.51309,0.0,0.0,0.0,-1.0
1258334025,1258333889,0.04773482,0.021199752,-0.037777673,0.5093494,0.0,0.0,0.0,-1.0
1258374034,1258373889,0.044736117,0.027442021,-0.0369423,0.5097856,0.0,0.0,0.0,-1.0
1258418023,1258417882,0.045787152,0.030892083,-0.035752073,0.51046336,0.0,0.0,0.0,-1.0
1258458024,1258457882,0.043763425,0.026579462,-0.034747638,0.51589435,0.0,0.0,0.0,-1.0
1258502020,1258501882,0.047286287,0.026124123,-0.03401333,0.5152198,0.0,0.0,0.0,-1.0
1258542028,1258541883,0.052245054,0.025312256,-0.032292694,0.5152461,0.0,0.0,0.0,-1.0
1258586023,1258585882,0.049194552,0.028808767,-0.034899704,0.5139239,0.0,0.0,0.0,-1.0
1258626058,1258625917,0.04834517,0.02427268,-0.033051763,0.51637584,0.0,0.0,0.0,-1.0
1258670033,1258669889,0.048533667,0.024328431,-0.034225043,0.51458615,0.0,0.0,0.0,-1.0
1258710020,1258709889,0.050683208,0.02949618,-0.03163236,0.5101921,0.0,0.0,0.0,-1.0
1258754037,1258753901,0.048743997,0.028432984,-0.032463998,0.51344997,0.0,0.0,0.0,-1.0
1258794072,1258793923,0.048212036,0.029528663,-0.032697286,0.51401097,0.0,0.0,0.0,-1.0
1258838018,1258837882,0.046941157,0.036899675,-0.033298142,0.5131624,0.0,0.0,0.0,-1.0
1258878028,1258877883,0.04357713,0.032494366,-0.032873824,0.5134907,0.0,0.0,0.0,-1.0
1258918018,1258917882,0.043040182,0.033111677,-0.033592276,0.51395,0.0,0.0,0.0,-1.0
1258962071,1258961914,0.03631085,0.032316312,-0.033270475,0.5137599,0.0,0.0,0.0,-1.0
1259006029,1259005882,0.02848842,0.024598062,-0.03402555,0.5172817,0.0,0.0,0.0,-1.0
1259050029,1259049893,0.030099139,0.023653364,-0.034726493,0.51846665,0.0,0.0,0.0,-1.0
1259090024,1259089895,0.03389368,0.026836317,-0.034581188,0.5236969,0.0,0.0,0.0,-1.0
1259134021,1259133883,0.03444691,0.028752876,-0.03531029,0.52429825,0.0,0.0,0.0,-1.0
1259174042,1259173892,0.037822902,0.027593441,-0.035664063,0.5241162,0.0,0.0,0.0,-1.0
1259218077,1259217937,0.047693677,0.022682358,-0.03408541,0.52592933,0.0,0.0,0.0,-1.0
1259258049,1259257914,0.056678385,0.026269423,-0.035250314,0.52636474,0.0,0.0,0.0,-1.0
1259298057,1259297882,0.062651165,0.022955293,-0.036588978,0.52644414,0.0,0.0,0.0,-1.0
1259342018,1259341882,0.06717958,0.020320242,-0.0336055,0.5260401,0.0,0.0,0.0,-1.0
1259382022,1259381882,0.067038916,0.016827414,-0.033755794,0.5263514,0.0,0.0,0.0,-1.0
1259426076,1259425884,0.066607,0.018334085,-0.035200853,0.52051646,0.0,0.0,0.0,-1.0
1259466049,1259465882,0.06020006,0.017345076,-0.035563894,0.52089137,0.0,0.0,0.0,-1.0
1259510019,1259509882,0.057163592,0.01374811,-0.03564186,0.51795995,0.0,0.0,0.0,-1.0
1259550021,1259549882,0.057372298,0.01441834,-0.035552382,0.5182707,0.0,0.0,0.0,-1.0
1259590019,1259589882,0.05862429,0.022573086,-0.03715511,0.51238775,0.0,0.0,0.0,-1.0
1259630025,1259629882,0.05520168,0.020928863,-0.035953067,0.5173647,0.0,0.0,0.0,-1.0
1259674092,1259673888,0.058294285,0.028750539,-0.040826358,0.5130641,0.0,0.0,0.0,-1.0
1259714052,1259713883,0.06141859,0.024072152,-0.04135015,0.51167744,0.0,0.0,0.0,-1.0
1259758026,1259757883,0.054697137,0.026496293,-0.03882991,0.5115741,0.0,0.0,0.0,-1.0
1259798023,1259797882,0.05486942,0.024709102,-0.03948183,0.51389873,0.0,0.0,0.0,-1.0
1259842048,1259841882,0.0544096,0.028062245,-0.03813091,0.5141325,0.0,0.0,0.0,-1.0
1259882019,1259881882,0.060784098,0.029568944,-0.03682757,0.50742453,0.0,0.0,0.0,-1.0
1259926024,1259925883,0.061988056,0.02985714,-0.035828624,0.50838846,0.0,0.0,0.0,-1.0
1259966025,1259965888,0.061959404,0.030719174,-0.038095176,0.5075837,0.0,0.0,0.0,-1.0
1260010089,1260009892,0.059392124,0.031545613,-0.03336921,0.5084371,0.0,0.0,0.0,-1.0
1260050034,1260049889,0.05789968,0.030902544,-0.035513327,0.5064521,0.0,0.0,0.0,-1.0
1260094018,1260093882,0.05698492,0.032015655,-0.035088003,0.50497496,0.0,0.0,0.0,-1.0
1260134018,1260133882,0.055397537,0.038992923,-0.035852134,0.50411403,0.0,0.0,0.0,-1.0
1260178076,1260177882,0.053529523,0.03386015,-0.036526624,0.504335,0.0,0.0,0.0,-1.0
1260218024,1260217891,0.054844677,0.035199076,-0.03738121,0.50550884,0.0,0.0,0.0,-1.0
1260262020,1260261882,0.055594977,0.031989433,-0.034470476,0.5054496,0.0,0.0,0.0,-1.0
1260302011,1260301882,0.063362435,0.039079465,-0.037722647,0.5023871,0.0,0.0,0.0,-1.0
1260346025,1260345889,0.06253696,0.03616259,-0.03816961,0.50059015,0.0,0.0,0.0,-1.0
1260386036,1260385899,0.0651083,0.038676202,-0.038891323,0.5023085,0.0,0.0,0.0,-1.0
1260430023,1260429882,0.062185455,0.0340721,-0.04133081,0.49947566,0.0,0.0,0.0,-1.0
1260470021,1260469884,0.06268687,0.028528353,-0.041532446,0.5029424,0.0,0.0,0.0,-1.0
1260514022,1260513883,0.07078905,0.032069035,-0.040325843,0.49945074,0.0,0.0,0.0,-1.0
1260554031,1260553882,0.07042207,0.028751839,-0.04030855,0.50015295,0.0,0.0,0.0,-1.0
1260598018,1260597882,0.07256266,0.032507546,-0.041707348,0.49723756,0.0,0.0,0.0,-1.0
1260638057,1260637925,0.07144429,0.030734489,-0.040502213,0.49397495,0.0,0.0,0.0,-1.0
1260682014,1260681882,0.072875105,0.02482254,-0.040004905,0.49518645,0.0,0.0,0.0,-1.0
1260722015,1260721882,0.07655208,0.030674787,-0.04204037,0.49244487,0.0,0.0,0.0,-1.0
1260766052,1260765907,0.0719042,0.030615116,-0.046400327,0.49108323,0.0,0.0,0.0,-1.0
1260806039,1260805890,0.06308622,0.031997297,-0.0435967,0.4944142,0.0,0.0,0.0,-1.0
1260850027,1260849882,0.056288976,0.033881392,-0.043065403,0.49220932,0.0,0.0,0.0,-1.0
1260890011,1260889882,0.042436954,0.029023543,-0.04255994,0.50119185,0.0,0.0,0.0,-1.0
1260934077,1260933938,0.047387302,0.035276037,-0.04336662,0.5006339,0.0,0.0,0.0,-1.0
1260974100,1260973930,0.04386873,0.0307956,-0.041060865,0.50074387,0.0,0.0,0.0,-1.0
1261018019,1261017882,0.050099198,0.039645724,-0.040401563,0.49854884,0.0,0.0,0.0,-1.0
1261058015,1261057882,0.04378997,0.036068596,-0.037948,0.49880898,0.0,0.0,0.0,-1.0
1261102037,1261101905,0.035298813,0.03508322,-0.034124225,0.5033452,0.0,0.0,0.0,-1.0
1261142048,1261141883,0.028801119,0.034713157,-0.030235115,0.5052713,0.0,0.0,0.0,-1.0
1261182076,1261181883,0.033966683,0.03700887,-0.030092178,0.5017191,0.0,0.0,0.0,-1.0
1261222073,1261221895,0.030854143,0.044708326,-0.03236386,0.5060723,0.0,0.0,0.0,-1.0
1261266027,1261265883,0.028290363,0.04549987,-0.032770578,0.5079687,0.0,0.0,0.0,-1.0
1261306017,1261305882,0.03172251,0.043802425,-0.033834245,0.50713706,0.0,0.0,0.0,-1.0
1261350066,1261349888,0.029758787,0.03633268,-0.031890552,0.5127259,0.0,0.0,0.0,-1.0
1261390060,1261389883,0.028040888,0.032130066,-0.03186684,0.5152521,0.0,0.0,0.0,-1.0
1261434020,1261433882,0.023488084,0.035681065,-0.033774626,0.51763177,0.0,0.0,0.0,-1.0
1261474022,1261473883,0.025830138,0.03999858,-0.033163708,0.52083915,0.0,0.0,0.0,-1.0
1261518062,1261517882,0.029657776,0.042780727,-0.0359587,0.5185903,0.0,0.0,0.0,-1.0
1261558061,1261557882,0.02721152,0.048389554,-0.03727202,0.51610833,0.0,0.0,0.0,-1.0
1261602039,1261601904,0.027566724,0.03920022,-0.036295068,0.52079433,0.0,0.0,0.0,-1.0
1261642024,1261641883,0.029921357,0.03442778,-0.038105413,0.521509,0.0,0.0,0.0,-1.0
1261686076,1261685889,0.03451404,0.03777375,-0.037588287,0.5257542,0.0,0.0,0.0,-1.0
1261726051,1261725889,0.035485134,0.042330682,-0.03657542,0.5267025,0.0,0.0,0.0,-1.0
1261770029,1261769883,0.04514323,0.058564838,-0.039895568,0.52147907,0.0,0.0,0.0,-1.0
1261810019,1261809887,0.052850198,0.059604667,-0.040986728,0.52309906,0.0,0.0,0.0,-1.0
1261854053,1261853882,0.05270163,0.060136743,-0.039507918,0.5202777,0.0,0.0,0.0,-1.0
1261894011,1261893882,0.0448687,0.032921705,-0.04000075,0.5199987,0.0,0.0,0.0,-1.0
1261938027,1261937883,0.033290677,0.006960164,-0.038467832,0.52311414,0.0,0.0,0.0,-1.0
1261978025,1261977883,0.01865421,7.919432e-05,-0.039262388,0.5248097,0.0,0.0,0.0,-1.0
1262022080,1262021898,0.011195409,-0.0020825998,-0.035907626,0.52966833,0.0,0.0,0.0,-1.0
1262062020,1262061888,0.0059520337,0.00043463544,-0.03218405,0.5347703,0.0,0.0,0.0,-1.0
1262106026,1262105882,0.009061709,0.009303343,-0.030929288,0.5375004,0.0,0.0,0.0,-1.0
1262146024,1262145882,0.015627695,0.018971903,-0.02971453,0.5413704,0.0,0.0,0.0,-1.0
1262186067,1262185883,0.017367782,0.0172982,-0.028435107,0.54249793,0.0,0.0,0.0,-1.0
1262226071,1262225885,0.015126634,0.0159978,-0.02542128,0.54338634,0.0,0.0,0.0,-1.0
1262270103,1262269929,0.016634172,0.014559431,-0.026189774,0.54815024,0.0,0.0,0.0,-1.0
1262310060,1262309883,0.017286487,0.014702634,-0.026730165,0.5476268,0.0,0.0,0.0,-1.0
1262350024,1262349885,0.017901331,0.015180014,-0.026169766,0.5499506,0.0,0.0,0.0,-1.0
1262390027,1262389882,0.022418171,0.017067054,-0.030251916,0.55132633,0.0,0.0,0.0,-1.0
1262430017,1262429882,0.02611934,0.013064518,-0.031725407,0.55204564,0.0,0.0,0.0,-1.0
1262474054,1262473883,0.027758788,0.013877419,-0.030453334,0.55232364,0.0,0.0,0.0,-1.0
1262514047,1262513883,0.027606642,0.013218377,-0.030045716,0.5549632,0.0,0.0,0.0,-1.0
1262558044,1262557899,0.03379552,0.019253515,-0.031127404,0.55355453,0.0,0.0,0.0,-1.0
1262598046,1262597899,0.03266693,0.017120693,-0.028456055,0.551965,0.0,0.0,0.0,-1.0
1262642047,1262641883,0.030035842,0.017774323,-0.029051716,0.55340594,0.0,0.0,0.0,-1.0
1262682073,1262681883,0.030300546,0.01963837,-0.027209384,0.5525301,0.0,0.0,0.0,-1.0
1262726018,1262725882,0.03046761,0.018262127,-0.025598992,0.55353147,0.0,0.0,0.0,-1.0
1262766042,1262765883,0.030494621,0.020376688,-0.025849774,0.55177283,0.0,0.0,0.0,-1.0
1262810076,1262809883,0.032596733,0.022675196,-0.025753772,0.5502665,0.0,0.0,0.0,-1.0
1262850061,1262849883,0.03234128,0.023849636,-0.027850885,0.5500621,0.0,0.0,0.0,-1.0
1262894033,1262893888,0.033415932,0.027212992,-0.02653439,0.5470657,0.0,0.0,0.0,-1.0
1262934025,1262933883,0.03253538,0.024006732,-0.027123991,0.5486211,0.0,0.0,0.0,-1.0
1262978053,1262977883,0.03468477,0.026996998,-0.028244374,0.54707795,0.0,0.0,0.0,-1.0
1263018069,1263017883,0.033416443,0.026782494,-0.027408922,0.54437333,0.0,0.0,0.0,-1.0
1263062019,1263061882,0.030702403,0.02533248,-0.02740803,0.5456812,0.0,0.0,0.0,-1.0
1263102018,1263101883,0.031088807,0.025166193,-0.028321542,0.5442001,0.0,0.0,0.0,-1.0
1263146062,1263145883,0.03119521,0.024697278,-0.02650069,0.54417765,0.0,0.0,0.0,-1.0
1263186033,1263185890,0.033218827,0.024536837,-0.0265087,0.5443283,0.0,0.0,0.0,-1.0
1263230037,1263229889,0.03593692,0.022480018,-0.02653586,0.5431835,0.0,0.0,0.0,-1.0
1263270033,1263269889,0.03535043,0.024195302,-0.02610027,0.5421886,0.0,0.0,0.0,-1.0
1263314022,1263313883,0.030868147,0.019240959,-0.02682928,0.54597664,0.0,0.0,0.0,-1.0
1263354027,1263353882,0.029439539,0.01809929,-0.027398232,0.5450026,0.0,0.0,0.0,-1.0
1263398036,1263397883,0.027479002,0.018336877,-0.02488916,0.54692477,0.0,0.0,0.0,-1.0
1263438024,1263437883,0.02355206,0.018180879,-0.025121137,0.54724663,0.0,0.0,0.0,-1.0
1263482016,1263481883,0.02152985,0.01973222,-0.02801397,0.54410434,0.0,0.0,0.0,-1.0
1263522018,1263521883,0.020696888,0.021650562,-0.029577792,0.54109263,0.0,0.0,0.0,-1.0
1263566024,1263565884,0.021419667,0.022583608,-0.030658524,0.5420669,0.0,0.0,0.0,-1.0
1263606025,1263605883,0.022675252,0.023895584,-0.03099035,0.5410952,0.0,0.0,0.0,-1.0
1263650018,1263649883,0.022603452,0.018743835,-0.031097034,0.5418959,0.0,0.0,0.0,-1.0
1263690017,1263689883,0.019054217,0.02249437,-0.02997887,0.5424568,0.0,0.0,0.0,-1.0
1263734019,1263733884,0.01825553,0.020667292,-0.0314751,0.5421528,0.0,0.0,0.0,-1.0
1263774058,1263773916,0.022713594,0.020671273,-0.030877817,0.5418879,0.0,0.0,0.0,-1.0
1263814068,1263813907,0.025352165,0.02086778,-0.031040644,0.5409678,0.0,0.0,0.0,-1.0
1263858023,1263857883,0.025924489,0.017075734,-0.03044293,0.5397502,0.0,0.0,0.0,-1.0
1263902059,1263901930,0.024099553,0.01294098,-0.028602406,0.539822,0.0,0.0,0.0,-1.0
1263942063,1263941924,0.021277346,0.016564896,-0.02948494,0.5375349,0.0,0.0,0.0,-1.0
1263986030,1263985883,0.020506876,0.015855875,-0.027880743,0.53861356,0.0,0.0,0.0,-1.0
1264026032,1264025883,0.017935432,0.0179392,-0.027436178,0.540137,0.0,0.0,0.0,-1.0
1264070049,1264069908,0.021486482,0.021437436,-0.02859828,0.539627,0.0,0.0,0.0,-1.0
1264110049,1264109910,0.020046001,0.021495309,-0.026089808,0.539931,0.0,0.0,0.0,-1.0
1264154025,1264153890,0.020679148,0.02560846,-0.026879244,0.53843075,0.0,0.0,0.0,-1.0
1264194032,1264193883,0.021803806,0.023684675,-0.025422608,0.5426698,0.0,0.0,0.0,-1.0
1264238038,1264237899,0.01924826,0.02827281,-0.02525081,0.5404968,0.0,0.0,0.0,-1.0
1264278054,1264277883,0.01715864,0.027564589,-0.024464872,0.5457297,0.0,0.0,0.0,-1.0
1264322016,1264321883,0.018126637,0.027795693,-0.023888905,0.5439473,0.0,0.0,0.0,-1.0
1264362032,1264361883,0.013847752,0.026336126,-0.022670753,0.54529846,0.0,0.0,0.0,-1.0
1264406053,1264405907,0.0141885,0.026272375,-0.026280664,0.54328597,0.0,0.0,0.0,-1.0
1264446065,1264445883,0.009061273,0.025038714,-0.025503192,0.5440566,0.0,0.0,0.0,-1.0
1264490029,1264489890,0.009372357,0.025961868,-0.02565483,0.54267675,0.0,0.0,0.0,-1.0
1264530028,1264529889,0.0059548216,0.022858573,-0.02523792,0.545002,0.0,0.0,0.0,-1.0
1264574075,1264573883,0.006176697,0.015947865,-0.026260432,0.54942596,0.0,0.0,0.0,-1.0
1264614051,1264613883,0.00832688,0.015076901,-0.025799336,0.55021656,0.0,0.0,0.0,-1.0
1264658029,1264657883,0.013429936,0.013190642,-0.026614053,0.5489877,0.0,0.0,0.0,-1.0
1264698020,1264697882,0.015451653,0.013812124,-0.026862802,0.55002606,0.0,0.0,0.0,-1.0
1264742056,1264741883,0.018511016,0.017029377,-0.028071282,0.54906595,0.0,0.0,0.0,-1.0
1264782066,1264781883,0.020729769,0.0155757805,-0.028771307,0.54802614,0.0,0.0,0.0,-1.0
1264826019,1264825886,0.021720553,0.009903985,-0.031926457,0.54763806,0.0,0.0,0.0,-1.0
1264866033,1264865889,0.02445905,0.0138453785,-0.033335052,0.54503536,0.0,0.0,0.0,-1.0
1264910050,1264909882,0.02198851,0.0056268782,-0.034504287,0.5480047,0.0,0.0,0.0,-1.0
1264950052,1264949883,0.02194752,0.005734959,-0.033459183,0.546209,0.0,0.0,0.0,-1.0
1264994021,1264993883,0.018606713,-0.0010262358,-0.032638602,0.54734164,0.0,0.0,0.0,-1.0
1265034028,1265033883,0.024613874,-0.006246417,-0.03289329,0.54810494,0.0,0.0,0.0,-1.0
1265078052,1265077883,0.030449081,-0.0050512897,-0.03253319,0.54809386,0.0,0.0,0.0,-1.0
1265118074,1265117883,0.031016396,0.0026171987,-0.029598137,0.5464149,0.0,0.0,0.0,-1.0
1265162037,1265161883,0.031686574,0.0010840611,-0.024444666,0.5485507,0.0,0.0,0.0,-1.0
1265202039,1265201884,0.036762927,0.0039448147,-0.021197129,0.546567,0.0,0.0,0.0,-1.0
1265246063,1265245883,0.042064086,0.0028776173,-0.013567066,0.5469955,0.0,0.0,0.0,-1.0
1265286047,1265285883,0.05099976,0.001874733,-0.0077539887,0.5448042,0.0,0.0,0.0,-1.0
1265330015,1265329882,0.06338936,0.0075887004,-0.0041626673,0.5407905,0.0,0.0,0.0,-1.0
1265370032,1265369883,0.066817,0.011687626,-0.00040399283,0.53709173,0.0,0.0,0.0,-1.0
1265414063,1265413900,0.06723183,0.016730955,-7.446855e-05,0.5343358,0.0,0.0,0.0,-1.0
1265458044,1265457897,0.069017835,0.019744067,-0.0016233996,0.53025323,0.0,0.0,0.0,-1.0
1265502095,1265501882,0.0689971,0.028247034,-0.003034221,0.5233526,0.0,0.0,0.0,-1.0
1265542063,1265541889,0.06436551,0.035258174,-0.007076964,0.5231692,0.0,0.0,0.0,-1.0
1265582068,1265581883,0.059376307,0.03563931,-0.009685416,0.51948917,0.0,0.0,0.0,-1.0
1265622019,1265621883,0.057884697,0.038135946,-0.011498307,0.51844144,0.0,0.0,0.0,-1.0
1265666015,1265665882,0.057098813,0.039330535,-0.013679063,0.51309395,0.0,0.0,0.0,-1.0
1265706029,1265705883,0.052554034,0.034327365,-0.013859605,0.5159788,0.0,0.0,0.0,-1.0
1265750026,1265749890,0.0468437,0.03364807,-0.01620612,0.51638937,0.0,0.0,0.0,-1.0
1265790037,1265789894,0.0429038,0.028201701,-0.016429748,0.51518065,0.0,0.0,0.0,-1.0
1265834021,1265833883,0.044637322,0.030512115,-0.015031798,0.51250637,0.0,0.0,0.0,-1.0
1265874025,1265873883,0.040306404,0.027660385,-0.01548504,0.5111736,0.0,0.0,0.0,-1.0
1265918015,1265917883,0.041283883,0.030979194,-0.019458376,0.5163465,0.0,0.0,0.0,-1.0
1265958046,1265957892,0.03828726,0.027286686,-0.021116357,0.5159862,0.0,0.0,0.0,-1.0
1266002026,1266001883,0.04787277,0.019274557,-0.02357815,0.51149815,0.0,0.0,0.0,-1.0
1266042021,1266041883,0.04315085,0.010538535,-0.023415422,0.51521957,0.0,0.0,0.0,-1.0
1266086032,1266085883,0.040569983,0.009755637,-0.026798667,0.51515025,0.0,0.0,0.0,-1.0
1266126033,1266125889,0.046144996,0.0034168223,-0.025445323,0.51538664,0.0,0.0,0.0,-1.0
1266170049,1266169916,0.043863013,0.0027548943,-0.0246122,0.51991946,0.0,0.0,0.0,-1.0
1266210062,1266209917,0.042968214,0.0064429073,-0.027032811,0.51759964,0.0,0.0,0.0,-1.0
1266254029,1266253885,0.040896814,0.0038481662,-0.02667841,0.5135243,0.0,0.0,0.0,-1.0
1266294014,1266293883,0.043532487,-0.0027303596,-0.025788885,0.5145922,0.0,0.0,0.0,-1.0
1266338059,1266337927,0.04508653,-0.0010122834,-0.02797806,0.5149958,0.0,0.0,0.0,-1.0
1266378074,1266377929,0.044366833,-0.0002943182,-0.027810777,0.51479656,0.0,0.0,0.0,-1.0
1266422027,1266421883,0.053058535,0.0027988858,-0.02765316,0.51468945,0.0,0.0,0.0,-1.0
1266466075,1266465925,0.056965988,0.0064342236,-0.027566643,0.5125148,0.0,0.0,0.0,-1.0
1266510059,1266509883,0.051241055,0.012338849,-0.027907476,0.513055,0.0,0.0,0.0,-1.0
1266554062,1266553883,0.048859786,0.014690667,-0.029109027,0.5159268,0.0,0.0,0.0,-1.0
1266594060,1266593883,0.046742313,0.02530099,-0.028886262,0.51031464,0.0,0.0,0.0,-1.0
1266638065,1266637884,0.049961973,0.022247363,-0.027961,0.50413483,0.0,0.0,0.0,-1.0
1266678056,1266677883,0.04387144,0.019331511,-0.030270468,0.5114725,0.0,0.0,0.0,-1.0
1266722063,1266721902,0.044343732,0.013542865,-0.030481737,0.5125689,0.0,0.0,0.0,-1.0
1266762104,1266761885,0.047987614,0.009515716,-0.032298993,0.51209366,0.0,0.0,0.0,-1.0
1266806100,1266805936,0.046885684,0.014060423,-0.033727314,0.5124871,0.0,0.0,0.0,-1.0
1266846064,1266845882,0.05015841,0.016246853,-0.0345652,0.51298106,0.0,0.0,0.0,-1.0
1266890058,1266889888,0.04568572,0.009694986,-0.03317031,0.5151531,0.0,0.0,0.0,-1.0
1266930115,1266929923,0.051143087,0.0126283225,-0.033240244,0.5110192,0.0,0.0,0.0,-1.0
1266970052,1266969911,0.048059944,0.01242041,-0.032460283,0.51579237,0.0,0.0,0.0,-1.0
1267014067,1267013883,0.04840074,0.013870354,-0.034160174,0.5130872,0.0,0.0,0.0,-1.0
1267058078,1267057900,0.044417545,0.013523729,-0.033595644,0.5091645,0.0,0.0,0.0,-1.0
1267098060,1267097883,0.03777702,0.0066877725,-0.029569605,0.5129478,0.0,0.0,0.0,-1.0
1267142145,1267141944,0.034966607,0.009262662,-0.027248416,0.5163056,0.0,0.0,0.0,-1.0
1267182079,1267181889,0.032455653,0.014816061,-0.025738297,0.5143631,0.0,0.0,0.0,-1.0
1267226079,1267225889,0.030503098,0.015582349,-0.019993082,0.5184696,0.0,0.0,0.0,-1.0
1267266113,1267265920,0.03223727,0.020341093,-0.017524354,0.520217,0.0,0.0,0.0,-1.0
1267310105,1267309928,0.035604503,0.0275422,-0.014635094,0.5181852,0.0,0.0,0.0,-1.0
1267350047,1267349883,0.039193712,0.028399985,-0.016401134,0.51826507,0.0,0.0,0.0,-1.0
1267390020,1267389885,0.04343989,0.026948754,-0.01745084,0.5187272,0.0,0.0,0.0,-1.0
1267434072,1267433882,0.04488616,0.033455852,-0.018206604,0.51642895,0.0,0.0,0.0,-1.0
1267474059,1267473885,0.04905147,0.036073264,-0.022691337,0.51398194,0.0,0.0,0.0,-1.0
1267518050,1267517889,0.048049208,0.033168506,-0.024662899,0.5093175,0.0,0.0,0.0,-1.0
1267558034,1267557891,0.04442117,0.03225638,-0.027547058,0.51375127,0.0,0.0,0.0,-1.0
1267602119,1267601883,0.04499931,0.027804805,-0.02913038,0.5118672,0.0,0.0,0.0,-1.0
1267642052,1267641885,0.04365376,0.02244769,-0.032184877,0.5087946,0.0,0.0,0.0,-1.0
1267686099,1267685883,0.03663797,0.02032665,-0.033477645,0.50594836,0.0,0.0,0.0,-1.0
1267730084,1267729885,0.03141645,0.019020315,-0.029957617,0.5093348,0.0,0.0,0.0,-1.0
1267770109,1267769882,0.034864165,0.017731326,-0.029692134,0.5086014,0.0,0.0,0.0,-1.0
1267818057,1267817907,0.03478903,0.02248472,-0.02704718,0.5082042,0.0,0.0,0.0,-1.0
1267858044,1267857882,0.037472468,0.024277516,-0.024950704,0.50890857,0.0,0.0,0.0,-1.0
1267902027,1267901883,0.03813629,0.027137028,-0.023091128,0.5081472,0.0,0.0,0.0,-1.0
1267942028,1267941889,0.037780583,0.030804966,-0.022087691,0.51086634,0.0,0.0,0.0,-1.0
1267986068,1267985893,0.03428611,0.031169314,-0.020292033,0.51248175,0.0,0.0,0.0,-1.0
1268026059,1268025885,0.037338194,0.029780535,-0.02119948,0.5140503,0.0,0.0,0.0,-1.0
1268070030,1268069883,0.041120417,0.03134224,-0.021842502,0.51166314,0.0,0.0,0.0,-1.0
1268110021,1268109883,0.041182138,0.028387861,-0.021690976,0.5153456,0.0,0.0,0.0,-1.0
1268154063,1268153883,0.035075046,0.025840292,-0.02120006,0.5163424,0.0,0.0,0.0,-1.0
1268194049,1268193883,0.04115075,0.020221611,-0.022040298,0.51113343,0.0,0.0,0.0,-1.0
1268238021,1268237883,0.036557715,0.02170123,-0.02452062,0.51254743,0.0,0.0,0.0,-1.0
1268278023,1268277883,0.036110725,0.028088307,-0.025064206,0.51107496,0.0,0.0,0.0,-1.0
1268322057,1268321886,0.040500194,0.025651954,-0.024770042,0.5114584,0.0,0.0,0.0,-1.0
1268362077,1268361886,0.040322974,0.025931811,-0.025378702,0.5079413,0.0,0.0,0.0,-1.0
1268406025,1268405883,0.03671058,0.025363125,-0.02554263,0.51231396,0.0,0.0,0.0,-1.0
1268446023,1268445883,0.03144175,0.026382376,-0.025653033,0.510809,0.0,0.0,0.0,-1.0
1268490059,1268489883,0.029344847,0.0247319,-0.024767015,0.5104646,0.0,0.0,0.0,-1.0
1268530047,1268529882,0.02454947,0.02636764,-0.023069872,0.5144049,0.0,0.0,0.0,-1.0
1268574031,1268573889,0.024359182,0.032649085,-0.022182379,0.5132106,0.0,0.0,0.0,-1.0
1268614018,1268613883,0.031698998,0.032678615,-0.019550499,0.5099372,0.0,0.0,0.0,-1.0
1268658054,1268657883,0.030533738,0.029384438,-0.018535499,0.5126705,0.0,0.0,0.0,-1.0
1268698065,1268697887,0.03757121,0.03177704,-0.01831439,0.5090298,0.0,0.0,0.0,-1.0
1268742021,1268741883,0.034903385,0.03709092,-0.018659879,0.51210034,0.0,0.0,0.0,-1.0
1268782022,1268781883,0.035294186,0.037277393,-0.020263417,0.51228905,0.0,0.0,0.0,-1.0
1268826080,1268825883,0.03376275,0.040686436,-0.021127403,0.5112199,0.0,0.0,0.0,-1.0
1268866056,1268865888,0.029983295,0.04042034,-0.02089212,0.5108979,0.0,0.0,0.0,-1.0
1268910019,1268909883,0.030570207,0.042225484,-0.022993729,0.5108322,0.0,0.0,0.0,-1.0
1268950038,1268949891,0.030025233,0.039121058,-0.023175841,0.5117407,0.0,0.0,0.0,-1.0
1268994067,1268993882,0.03293319,0.036751386,-0.024386229,0.5092918,0.0,0.0,0.0,-1.0
1269034079,1269033883,0.031297445,0.03620418,-0.026475638,0.5095966,0.0,0.0,0.0,-1.0
1269078027,1269077883,0.03146669,0.036404986,-0.028186636,0.5104027,0.0,0.0,0.0,-1.0
1269118026,1269117883,0.032113243,0.03141521,-0.028533114,0.5154165,0.0,0.0,0.0,-1.0
1269162081,1269161883,0.029808003,0.030731594,-0.026407046,0.51031864,0.0,0.0,0.0,-1.0
1269202024,1269201885,0.030172301,0.032033097,-0.02653156,0.5106813,0.0,0.0,0.0,-1.0
1269246021,1269245883,0.02502717,0.0268454,-0.024586082,0.5130834,0.0,0.0,0.0,-1.0
1269286028,1269285883,0.02758432,0.030252922,-0.025158627,0.5140363,0.0,0.0,0.0,-1.0
1269330072,1269329883,0.028315444,0.035966992,-0.025196474,0.5112319,0.0,0.0,0.0,-1.0
1269370028,1269369882,0.030283699,0.031537898,-0.025988968,0.51336336,0.0,0.0,0.0,-1.0
1269414022,1269413883,0.029668776,0.03273586,-0.026162647,0.5131423,0.0,0.0,0.0,-1.0
1269454037,1269453893,0.026659543,0.02635126,-0.025378523,0.5169238,0.0,0.0,0.0,-1.0
1269498018,1269497883,0.029151682,0.03118101,-0.02682241,0.51178825,0.0,0.0,0.0,-1.0
1269538019,1269537883,0.02747087,0.03104919,-0.02798105,0.5150867,0.0,0.0,0.0,-1.0
1269582028,1269581883,0.027293386,0.031736538,-0.027920194,0.5149588,0.0,0.0,0.0,-1.0
1269622028,1269621885,0.028497132,0.031219834,-0.025956897,0.51004595,0.0,0.0,0.0,-1.0
1269666024,1269665883,0.027105218,0.030882249,-0.028141648,0.513636,0.0,0.0,0.0,-1.0
1269706019,1269705883,0.028028212,0.028482113,-0.02856073,0.5117568,0.0,0.0,0.0,-1.0
1269750020,1269749883,0.026540337,0.029507698,-0.027122341,0.5122883,0.0,0.0,0.0,-1.0
1269790055,1269789926,0.027198434,0.029673498,-0.027408242,0.51472473,0.0,0.0,0.0,-1.0
1269834029,1269833889,0.025349408,0.028359145,-0.026222207,0.5188535,0.0,0.0,0.0,-1.0
1269874036,1269873890,0.026251286,0.026448132,-0.025630724,0.5156258,0.0,0.0,0.0,-1.0
1269918044,1269917907,0.026075564,0.02428605,-0.023589568,0.51587164,0.0,0.0,0.0,-1.0
1269958039,1269957883,0.021312421,0.019674921,-0.02165825,0.5186554,0.0,0.0,0.0,-1.0
1270002029,1270001883,0.02107324,0.021915272,-0.021149868,0.5214984,0.0,0.0,0.0,-1.0
1270042022,1270041883,0.021365248,0.027960321,-0.02070964,0.52102613,0.0,0.0,0.0,-1.0
1270086055,1270085919,0.02173152,0.024544908,-0.020037279,0.5250126,0.0,0.0,0.0,-1.0
1270126067,1270125924,0.018030122,0.029183924,-0.020638838,0.52172244,0.0,0.0,0.0,-1.0
1270170107,1270169883,0.02037277,0.029030219,-0.021027947,0.51951873,0.0,0.0,0.0,-1.0
1270210022,1270209889,0.018145116,0.028883481,-0.02206748,0.5250311,0.0,0.0,0.0,-1.0
1270254049,1270253905,0.019880824,0.028295627,-0.022986043,0.5239294,0.0,0.0,0.0,-1.0
1270294042,1270293883,0.019004289,0.028351324,-0.020984009,0.52229065,0.0,0.0,0.0,-1.0
1270338025,1270337883,0.020636166,0.026253285,-0.022123365,0.5265885,0.0,0.0,0.0,-1.0
1270378035,1270377883,0.02194191,0.03197816,-0.02463546,0.5266083,0.0,0.0,0.0,-1.0
1270422055,1270421883,0.022807278,0.03261556,-0.02420059,0.5306668,0.0,0.0,0.0,-1.0
1270462065,1270461883,0.020599673,0.031717204,-0.021960493,0.53079575,0.0,0.0,0.0,-1.0
1270506033,1270505883,0.019953204,0.032775704,-0.021467797,0.531324,0.0,0.0,0.0,-1.0
1270546022,1270545883,0.018317578,0.032387853,-0.024101319,0.5322056,0.0,0.0,0.0,-1.0
1270590065,1270589883,0.0177732,0.03525234,-0.0243173,0.52990013,0.0,0.0,0.0,-1.0
1270630055,1270629885,0.015351967,0.03406008,-0.024019457,0.5291243,0.0,0.0,0.0,-1.0
1270674024,1270673883,0.011792612,0.03762627,-0.025449362,0.52711004,0.0,0.0,0.0,-1.0
1270714022,1270713883,0.012096315,0.03897386,-0.025538385,0.5302969,0.0,0.0,0.0,-1.0
1270758054,1270757889,0.01328087,0.037614502,-0.027882205,0.526997,0.0,0.0,0.0,-1.0
1270798076,1270797883,0.010053186,0.0360416,-0.029663343,0.52743876,0.0,0.0,0.0,-1.0
1270842020,1270841883,0.013513357,0.038923174,-0.030129679,0.52734184,0.0,0.0,0.0,-1.0
1270882039,1270881883,0.015814755,0.036345072,-0.030389722,0.52370447,0.0,0.0,0.0,-1.0
1270926060,1270925883,0.012991162,0.031665035,-0.03229696,0.5285983,0.0,0.0,0.0,-1.0
1270966051,1270965885,0.015518853,0.034825098,-0.034368627,0.5282554,0.0,0.0,0.0,-1.0
1271010031,1271009883,0.016727028,0.030648908,-0.031984486,0.5270894,0.0,0.0,0.0,-1.0
1271050028,1271049885,0.016438866,0.028502323,-0.03406541,0.5310163,0.0,0.0,0.0,-1.0
1271094054,1271093885,0.018811373,0.030547382,-0.033480696,0.53167033,0.0,0.0,0.0,-1.0
1271134086,1271133896,0.020430857,0.02575328,-0.034489878,0.52736473,0.0,0.0,0.0,-1.0
1271178033,1271177882,0.017989893,0.029867962,-0.036938112,0.5207786,0.0,0.0,0.0,-1.0
1271218029,1271217883,0.02025618,0.03013456,-0.036077444,0.51279616,0.0,0.0,0.0,-1.0
1271262101,1271261890,0.023055207,0.030847916,-0.034509927,0.5009941,0.0,0.0,0.0,-1.0
1271302054,1271301883,0.01602,0.028702378,-0.031843826,0.5011947,0.0,0.0,0.0,-1.0
1271346030,1271345883,0.012694917,0.032843865,-0.031746525,0.5002807,0.0,0.0,0.0,-1.0
1271386018,1271385883,0.017328123,0.042525418,-0.029673388,0.49746108,0.0,0.0,0.0,-1.0
1271430064,1271429883,0.022385713,0.048118643,-0.029299648,0.4936793,0.0,0.0,0.0,-1.0
1271470018,1271469883,0.023428123,0.046680354,-0.024378007,0.49362034,0.0,0.0,0.0,-1.0
1271514021,1271513882,0.026408065,0.054627817,-0.023507122,0.49075976,0.0,0.0,0.0,-1.0
1271554028,1271553883,0.02144278,0.05400958,-0.022557326,0.49354634,0.0,0.0,0.0,-1.0
1271598075,1271597883,0.0196004,0.053210642,-0.02242617,0.49192685,0.0,0.0,0.0,-1.0
1271638047,1271637897,0.08434886,0.14792848,-0.03876424,0.4744184,0.0,0.0,0.0,1.0
1271682040,1271681889,0.050169677,0.10357855,-0.03672263,0.48906612,0.0,0.0,0.0,1.0
1271722031,1271721890,0.029098406,0.07439681,-0.034773476,0.49815378,0.0,0.0,0.0,1.0
1271766086,1271765897,0.016471779,0.060384206,-0.035700448,0.50977075,0.0,0.0,0.0,1.0
1271806025,1271805883,0.00076132896,0.04381672,-0.032380626,0.5260561,0.0,0.0,0.0,1.0
1271850029,1271849883,-0.0073001846,0.039840408,-0.032532886,0.5257296,0.0,0.0,0.0,1.0
1271890025,1271889883,0.061178017,0.005115323,0.3008557,0.5342805,0.0,0.0,0.0,1.0
1271934019,1271933883,0.060879253,-0.0058359066,0.23745085,0.53547275,0.0,0.0,0.0,1.0
1271974036,1271973883,0.03407864,-0.0025357218,0.17509787,0.5394269,0.0,0.0,0.0,1.0
1272014071,1272013883,0.0071276603,0.0149854375,0.13903692,0.53914374,0.0,0.0,0.0,1.0
1272054062,1272053883,0.0068005207,0.022800207,0.112449706,0.53137076,0.0,0.0,0.0,1.0
1272098128,1272097922,-0.00026862952,0.024621937,0.09440031,0.53286135,0.0,0.0,0.0,1.0
1272138133,1272137883,-0.00073312107,0.027905805,0.079342395,0.5312032,0.0,0.0,0.0,1.0
1272182112,1272181928,-0.00028324174,0.020969322,0.06418204,0.5324818,0.0,0.0,0.0,1.0
1272226048,1272225914,0.009546774,0.020757345,0.05560651,0.5311681,0.0,0.0,0.0,1.0
1272270028,1272269883,0.006342547,0.015972305,0.046200257,0.53412306,0.0,0.0,0.0,1.0
1272314014,1272313883,0.007489779,0.020291956,0.03580098,0.5381122,0.0,0.0,0.0,1.0
1272358025,1272357883,0.012494453,0.024821356,0.03133186,0.535731,0.0,0.0,0.0,1.0
1272398022,1272397883,0.021577612,0.022510266,0.025753733,0.5403586,0.0,0.0,0.0,1.0
1272442059,1272441915,0.02497217,0.020792399,0.022001896,0.54323244,0.0,0.0,0.0,1.0
1272482048,1272481897,0.03126041,0.022247784,0.019810112,0.54366237,0.0,0.0,0.0,1.0
1272526077,1272525882,0.038297962,0.020909319,0.01704309,0.54377943,0.0,0.0,0.0,1.0
1272566038,1272565894,0.04458671,0.018736307,0.015978761,0.5446961,0.0,0.0,0.0,1.0
1272606035,1272605896,0.049326792,0.023783462,0.013548838,0.54037607,0.0,0.0,0.0,1.0
1272646016,1272645883,0.050583422,0.02671014,0.011357855,0.54042816,0.0,0.0,0.0,1.0
1272690059,1272689911,0.056607943,0.028703837,0.008721879,0.5329602,0.0,0.0,0.0,1.0
1272730066,1272729884,0.050613407,0.025783138,0.007335454,0.5327548,0.0,0.0,0.0,1.0
1272774025,1272773883,0.05647054,0.023822878,0.0023885765,0.52811635,0.0,0.0,0.0,1.0
1272814022,1272813883,0.05728529,0.023856075,0.0016261684,0.52193075,0.0,0.0,0.0,1.0
1272858056,1272857883,0.05799544,0.01862326,-0.0004325295,0.5179572,0.0,0.0,0.0,1.0
1272898050,1272897884,0.059421405,0.021009598,0.0004884023,0.5178903,0.0,0.0,0.0,1.0
1272938103,1272937883,0.0663845,0.023363275,-0.017230093,0.5102541,0.0,0.0,0.0,1.0
1272978107,1272977882,0.07432368,0.020293532,-0.035177734,0.50571644,0.0,0.0,0.0,1.0
1273022083,1273021883,0.07201645,0.021802554,-0.04479872,0.49883464,0.0,0.0,0.0,1.0
1273062060,1273061883,0.06471292,0.023190308,-0.062470924,0.49542135,0.0,0.0,0.0,1.0
1273106085,1273105882,0.06020738,0.014708957,-0.07269865,0.48854947,0.0,0.0,0.0,1.0
1273146114,1273145884,0.05313448,0.0066509657,-0.08597575,0.4897931,0.0,0.0,0.0,1.0
1273190070,1273189883,0.049135536,-0.0007568799,-0.09233325,0.48426908,0.0,0.0,0.0,1.0
1273234048,1273233883,0.057536524,-0.0048245476,-0.09901365,0.4829129,0.0,0.0,0.0,1.0
1273274109,1273273883,0.0631538,-0.008143231,-0.10088495,0.48151416,0.0,0.0,0.0,1.0
1273314096,1273313883,0.06054089,-0.01293424,-0.099217735,0.48487186,0.0,0.0,0.0,1.0
1273358226,1273357946,0.065978654,-0.012870724,-0.102461524,0.4801228,0.0,0.0,0.0,1.0
1273398070,1273397889,0.0644066,-0.01746065,-0.099637896,0.48224258,0.0,0.0,0.0,1.0
1273442125,1273441912,0.0629877,-0.011119704,-0.0997334,0.48002183,0.0,0.0,0.0,1.0
1273482102,1273481883,0.060138196,-0.007470418,-0.09800437,0.48185402,0.0,0.0,0.0,1.0
1273526086,1273525911,0.058374748,-0.013165299,-0.09877828,0.4807828,0.0,0.0,0.0,1.0
1273566073,1273565883,0.0539475,-0.017197067,-0.097845644,0.48152965,0.0,0.0,0.0,1.0
1273610128,1273609897,0.047028787,-0.01383856,-0.0929033,0.48376593,0.0,0.0,0.0,1.0
1273650128,1273649885,0.057517797,-0.017674942,-0.090042606,0.48037478,0.0,0.0,0.0,1.0
1273690030,1273689887,0.059740014,-0.016915997,-0.08766131,0.48213392,0.0,0.0,0.0,1.0
1273734104,1273733890,0.063054666,-0.017239356,-0.08350746,0.4831049,0.0,0.0,0.0,1.0
1273778070,1273777885,0.063762106,-0.016259693,-0.07849777,0.481291,0.0,0.0,0.0,1.0
1273818049,1273817883,0.06636196,-0.014084344,-0.077791244,0.48233923,0.0,0.0,0.0,1.0
1273862043,1273861883,0.05572048,-0.015505728,-0.0727236,0.4869155,0.0,0.0,0.0,1.0
1273902057,1273901888,0.06317783,-0.019266725,-0.074069895,0.48596233,0.0,0.0,0.0,1.0
1273942066,1273941917,0.060999975,-0.018046968,-0.068428144,0.48541144,0.0,0.0,0.0,1.0
1273986129,1273985927,0.06723261,-0.021845944,-0.06347457,0.4876336,0.0,0.0,0.0,1.0
1274026024,1274025889,0.069326624,-0.02004853,-0.05928056,0.48230395,0.0,0.0,0.0,1.0
1274070102,1274069912,0.06631044,-0.019084051,-0.060639642,0.48087785,0.0,0.0,0.0,1.0
1274114060,1274113883,0.06547202,-0.022550486,-0.054552004,0.48370925,0.0,0.0,0.0,1.0
1274154056,1274153883,0.060214937,-0.02227773,-0.05155144,0.4816474,0.0,0.0,0.0,1.0
1274198126,1274197914,0.058148406,-0.018697703,-0.049313735,0.4817911,0.0,0.0,0.0,1.0
1274238116,1274237925,0.06471707,-0.02641053,-0.05075776,0.48326975,0.0,0.0,0.0,1.0
1274282071,1274281889,0.06754423,-0.022228088,-0.044069387,0.47894895,0.0,0.0,0.0,1.0
1274322060,1274321883,0.06495107,-0.026149949,-0.03943148,0.48234773,0.0,0.0,0.0,1.0
1274362022,1274361889,0.05676604,-0.028746035,-0.040331088,0.4862949,0.0,0.0,0.0,1.0
1274406139,1274405924,0.051270183,-0.039133605,-0.0393633,0.48774713,0.0,0.0,0.0,1.0
1274450104,1274449921,0.049164742,-0.04506365,-0.038881317,0.4834144,0.0,0.0,0.0,1.0
1274490068,1274489882,0.05880549,-0.045963336,-0.037043963,0.48313662,0.0,0.0,0.0,1.0
1274534063,1274533883,0.0585213,-0.050047025,-0.036460083,0.4842615,0.0,0.0,0.0,1.0
1274574075,1274573882,0.0677086,-0.051448736,-0.035912033,0.48039752,0.0,0.0,0.0,1.0
1274618065,1274617883,0.07277011,-0.051433824,-0.037238084,0.4857118,0.0,0.0,0.0,1.0
1274658065,1274657889,0.073844045,-0.04312193,-0.02970127,0.47844627,0.0,0.0,0.0,1.0
1274698025,1274697891,0.06847974,-0.0453721,-0.034122676,0.48230204,0.0,0.0,0.0,1.0
1274742144,1274741883,0.07726344,-0.03636551,-0.037620112,0.48316756,0.0,0.0,0.0,1.0
1274782054,1274781885,0.07318771,-0.03275311,-0.03533686,0.4851335,0.0,0.0,0.0,1.0
1274826072,1274825898,0.0711475,-0.034081735,-0.028587183,0.48351923,0.0,0.0,0.0,1.0
1274866020,1274865885,0.07187891,-0.030563848,-0.032010306,0.48404214,0.0,0.0,0.0,1.0
1274910089,1274909883,0.06206057,-0.028961897,-0.030361539,0.4874776,0.0,0.0,0.0,1.0
1274950079,1274949885,0.065985315,-0.021749398,-0.027458694,0.48683563,0.0,0.0,0.0,1.0
1274990058,1274989883,0.07139159,-0.03012654,-0.028625345,0.49257797,0.0,0.0,0.0,1.0
1275030066,1275029883,0.072456084,-0.021549787,-0.022925243,0.48946056,0.0,0.0,0.0,1.0
1275074053,1275073913,0.071399905,-0.025999002,-0.026877632,0.4989189,0.0,0.0,0.0,1.0
1275114024,1275113883,0.08851768,-0.025865288,-0.024814159,0.4958078,0.0,0.0,0.0,1.0
1275158064,1275157883,0.08157072,-0.029858366,-0.022660337,0.49914014,0.0,0.0,0.0,1.0
1275202026,1275201889,0.08916249,-0.023512634,-0.021159617,0.49395972,0.0,0.0,0.0,1.0
1275250021,1275249888,0.08419563,-0.030159635,-0.018723782,0.49001992,0.0,0.0,0.0,1.0
1275298021,1275297889,0.076779015,-0.03456317,-0.018361494,0.48912865,0.0,0.0,0.0,1.0
1275338025,1275337889,0.0677634,-0.022568103,-0.016266432,0.48597825,0.0,0.0,0.0,1.0
1275382030,1275381890,0.06688354,-0.028244779,-0.019307323,0.48704207,0.0,0.0,0.0,1.0
1275426007,1275425883,0.071768455,-0.03479608,-0.011923954,0.48453593,0.0,0.0,0.0,1.0
1275470032,1275469883,0.06854194,-0.022573961,-0.015437945,0.48401135,0.0,0.0,0.0,1.0
1275510061,1275509922,0.07039248,-0.02698842,-0.0131411515,0.4858521,0.0,0.0,0.0,1.0
1275554035,1275553887,0.06594399,-0.023616742,-0.016488034,0.48944223,0.0,0.0,0.0,1.0
1275594021,1275593883,0.0648685,-0.028582864,-0.016278632,0.4921419,0.0,0.0,0.0,1.0
1275638032,1275637895,0.058514945,-0.037017383,-0.012432678,0.49842477,0.0,0.0,0.0,1.0
1275682025,1275681883,0.058805577,-0.032075588,-0.013618277,0.4952391,0.0,0.0,0.0,1.0
1275722018,1275721883,0.06750682,-0.032915898,-0.015330345,0.49604613,0.0,0.0,0.0,1.0
1275762023,1275761883,0.064024605,-0.043083336,-0.015295948,0.5077816,0.0,0.0,0.0,1.0
1275810027,1275809883,0.063474156,-0.033413667,-0.017999705,0.5040348,0.0,0.0,0.0,1.0
1275858062,1275857883,0.06571206,-0.035918668,-0.018106233,0.5022607,0.0,0.0,0.0,1.0
1275898072,1275897890,0.05969141,-0.040155392,-0.016632196,0.5112284,0.0,0.0,0.0,1.0
1275942018,1275941883,0.06166085,-0.041864943,-0.017854122,0.51103526,0.0,0.0,0.0,1.0
1275982073,1275981883,0.059880424,-0.034977324,-0.015818138,0.5085609,0.0,0.0,0.0,1.0
1276022068,1276021883,0.058383197,-0.041438866,-0.0169161,0.514044,0.0,0.0,0.0,1.0
1276062072,1276061930,0.0649177,-0.0457392,-0.021032106,0.5149957,0.0,0.0,0.0,1.0
1276106104,1276105923,0.06816393,-0.04651658,-0.028135533,0.51172185,0.0,0.0,0.0,1.0
1276146035,1276145894,0.06265591,-0.036219507,-0.033129778,0.5078754,0.0,0.0,0.0,1.0
1276190048,1276189887,0.059673935,-0.047931835,-0.036515355,0.5100406,0.0,0.0,0.0,1.0
1276230074,1276229920,0.061148707,-0.055826556,-0.030626526,0.5060494,0.0,0.0,0.0,1.0
1276274065,1276273899,0.057195522,-0.060039695,-0.02896989,0.50804454,0.0,0.0,0.0,1.0
1276314040,1276313902,0.05928217,-0.067373276,-0.026516326,0.51004666,0.0,0.0,0.0,1.0
1276358096,1276357902,0.061182946,-0.058388107,-0.028086748,0.5058497,0.0,0.0,0.0,1.0
1276398075,1276397934,0.066768095,-0.048352808,-0.026499068,0.49926955,0.0,0.0,0.0,1.0
1276442056,1276441883,0.049202193,-0.051654875,-0.030308282,0.51289433,0.0,0.0,0.0,1.0
1276482021,1276481887,0.04787432,-0.04148373,-0.03138362,0.50521857,0.0,0.0,0.0,1.0
1276526060,1276525886,0.042936876,-0.05122517,-0.03074507,0.5117672,0.0,0.0,0.0,1.0
1276570247,1276569904,0.04800451,-0.05446908,-0.033472683,0.50850546,0.0,0.0,0.0,1.0
1276614030,1276613887,0.03868434,-0.057403732,-0.03485842,0.516461,0.0,0.0,0.0,1.0
1276658067,1276657926,0.049213544,-0.05523399,-0.033021916,0.5140177,0.0,0.0,0.0,1.0
1276702011,1276701883,0.04810157,-0.058070704,-0.030540634,0.51825017,0.0,0.0,0.0,1.0
1276742025,1276741883,0.043374103,-0.06098218,-0.03272845,0.51503634,0.0,0.0,0.0,1.0
1276786024,1276785884,0.044337034,-0.05735529,-0.036791362,0.50914115,0.0,0.0,0.0,1.0
1276826028,1276825883,0.043311443,-0.0679893,-0.040360797,0.51222175,0.0,0.0,0.0,1.0
1276866028,1276865883,0.036514573,-0.06999935,-0.039405674,0.515604,0.0,0.0,0.0,1.0
1276906063,1276905883,0.03776331,-0.06709826,-0.04217303,0.51267004,0.0,0.0,0.0,1.0
1276950130,1276949932,0.02929168,-0.07712578,-0.03837701,0.5183311,0.0,0.0,0.0,1.0
1276994018,1276993886,0.03317399,-0.07679327,-0.046619855,0.5150628,0.0,0.0,0.0,1.0
