timestamp,roll_body,pitch_body,yaw_body,yaw_sp_move_rate,q_d[0],q_d[1],q_d[2],q_d[3],thrust,landing_gear,q_d_valid,roll_reset_integral,pitch_reset_integral,yaw_reset_integral,fw_control_yaw,disable_mc_yaw_control,apply_flaps
1244763564,-0.060063377,-0.031441875,-0.11049406,0.0,0.9978746,-0.030845325,-0.014031363,-0.055658527,0.4768103,-1.0,1,0,0,0,0,0,0
1244968098,-0.062273387,-0.03368405,-0.11049406,0.0,0.9978198,-0.03200926,-0.015088568,-0.05570784,0.5184324,-1.0,1,0,0,0,0,0,0
1245067417,-0.06536831,-0.034331422,-0.11049406,0.0,0.99776304,-0.03357099,-0.015325329,-0.055741366,0.5385645,-1.0,1,0,0,0,0,0,0
1245172073,-0.062194757,-0.03391865,-0.11049406,0.0,0.9978189,-0.03197644,-0.015207809,-0.05571076,0.5589495,-1.0,1,0,0,0,0,0,0
1245275564,-0.08649648,-0.03986235,-0.11049406,0.0,0.9972949,-0.044259697,-0.017493939,-0.056016687,0.583189,-1.0,1,0,0,0,0,0,0
1245376526,-0.05887665,-0.04214439,-0.11049406,0.0,0.99778587,-0.030545633,-0.019404415,-0.055802,0.6047777,-1.0,1,0,0,0,0,0,0
1245479852,-0.062448267,-0.0402928,-0.11049406,0.0,0.99775034,-0.03227695,-0.018380964,-0.05580876,0.6260898,-1.0,1,0,0,0,0,0,0
1245579632,-0.067084104,-0.03550013,-0.11049406,0.0,0.99772257,-0.034458857,-0.015860569,-0.0557735,0.6480517,-1.0,1,0,0,0,0,0,0
1245679935,-0.07146869,-0.04125385,-0.11049406,0.0,0.99758387,-0.03680283,-0.018608473,-0.05590769,0.67030805,-1.0,1,0,0,0,0,0,0
1245784151,-0.068745516,-0.04597976,-0.11049406,0.0,0.9975772,-0.0355731,-0.021042071,-0.05596052,0.6910725,-1.0,1,0,0,0,0,0,0
1245883420,-0.057172403,-0.038144216,-0.11049406,0.0,0.9978547,-0.029586157,-0.017456079,-0.055730596,0.6964806,-1.0,1,0,0,0,0,0,0
1245987582,0.05147774,0.018904625,-0.11049406,0.0,0.9980855,0.026217382,0.008013572,-0.05544107,0.6080123,-1.0,1,0,0,0,0,0,0
1246088185,0.023767887,-0.011437395,-0.11049406,0.0,0.99839115,0.011549583,-0.0063657304,-0.055146277,0.5499188,-1.0,1,0,0,0,0,0,0
1246187524,0.06506675,0.03090279,-0.11049406,0.0,0.99779904,0.03332685,0.013623116,-0.05568494,0.5066828,-1.0,1,0,0,0,0,0,0
1246291406,0.088208504,0.01980295,-0.11049406,0.0,0.9974303,0.044566736,0.007442112,-0.055598415,0.4922949,-1.0,1,0,0,0,0,0,0
1246392390,0.12432652,0.042979993,-0.11049406,0.0,0.9962419,0.063198395,0.017984528,-0.056432437,0.49502292,-1.0,1,0,0,0,0,0,0
1246491546,0.12647934,0.050495096,-0.11049406,0.0,0.99607265,0.0644722,0.021667374,-0.05668396,0.4976159,-1.0,1,0,0,0,0,0,0
1246595521,0.15598911,0.061229188,-0.11049406,0.0,0.99484074,0.079445265,0.026169801,-0.057406593,0.4982456,-1.0,1,0,0,0,0,0,0
1246696382,0.15977387,0.06560457,-0.11049406,0.0,0.99460995,0.08144257,0.028237715,-0.057626437,0.49863157,-1.0,1,0,0,0,0,0,0
1246799736,0.166491,0.06634238,-0.11049406,0.0,0.994317,0.08480187,0.028410943,-0.057750892,0.49725392,-1.0,1,0,0,0,0,0,0
1246903838,0.17572294,0.0663983,-0.11049406,0.0,0.9939139,0.08939214,0.028171865,-0.057883818,0.49954385,-1.0,1,0,0,0,0,0,0
1247003411,0.1691468,0.067387104,-0.11049406,0.0,0.9941837,0.086149395,0.02885372,-0.057831645,0.50132644,-1.0,1,0,0,0,0,0,0
1247107369,0.1662338,0.058516387,-0.11049406,0.0,0.9944673,0.084468886,0.024526166,-0.05742975,0.50153846,-1.0,1,0,0,0,0,0,0
1247207904,0.16236405,0.053143095,-0.11049406,0.0,0.9947156,0.08240282,0.021964232,-0.057168864,0.50241345,-1.0,1,0,0,0,0,0,0
1247307286,0.16278899,0.050835982,-0.11049406,0.0,0.9947331,0.082553126,0.020804357,-0.05708156,0.50091094,-1.0,1,0,0,0,0,0,0
1247411388,0.1554913,0.041006014,-0.11049406,0.0,0.99516106,0.07866122,0.016120648,-0.05663043,0.5017856,-1.0,1,0,0,0,0,0,0
1247511902,0.15812989,0.040646408,-0.11049406,0.0,0.99506086,0.079964444,0.015866978,-0.056637675,0.49826288,-1.0,1,0,0,0,0,0,0
1247611566,0.1460418,0.031793308,-0.11049406,0.0,0.99562365,0.073710926,0.011801392,-0.056222755,0.50527334,-1.0,1,0,0,0,0,0,0
1247715567,0.1364787,0.025423387,-0.11049406,0.0,0.99602205,0.06877715,0.008897542,-0.055951383,0.5106361,-1.0,1,0,0,0,0,0,0
1247816084,0.13720575,0.0208536,-0.11049406,0.0,0.996032,0.06901516,0.0066012144,-0.05579969,0.51571023,-1.0,1,0,0,0,0,0,0
1247919882,0.12363535,0.019826464,-0.11049406,0.0,0.9964843,0.062227372,0.006467874,-0.055722225,0.5187495,-1.0,1,0,0,0,0,0,0
1248024814,0.11761938,0.021212319,-0.11049406,0.0,0.9966576,0.05926746,0.007326118,-0.055742785,0.5184971,-1.0,1,0,0,0,0,0,0
1248127839,0.107341796,0.013308417,-0.11049406,0.0,0.99699473,0.053929016,0.0036722787,-0.055494614,0.52096575,-1.0,1,0,0,0,0,0,0
1248227540,0.103122145,0.020966167,-0.11049406,0.0,0.9970627,0.05203485,0.007607258,-0.055681963,0.5162281,-1.0,1,0,0,0,0,0,0
1248331600,0.09330407,0.014970923,-0.11049406,0.0,0.99734074,0.04697554,0.00489077,-0.055505857,0.5201175,-1.0,1,0,0,0,0,0,0
1248431864,0.09282833,0.016453499,-0.11049406,0.0,0.99734414,0.04677892,0.005643324,-0.05553871,0.5155342,-1.0,1,0,0,0,0,0,0
1248535959,0.090464,0.022991117,-0.11049406,0.0,0.9973584,0.045778714,0.008969381,-0.05567779,0.51477206,-1.0,1,0,0,0,0,0,0
1248639873,0.080593646,0.021402672,-0.11049406,0.0,0.99758273,0.040812574,0.008451714,-0.055601396,0.5146354,-1.0,1,0,0,0,0,0,0
1248739424,0.073796146,0.024591248,-0.11049406,0.0,0.9976942,0.037509106,0.010231343,-0.05563005,0.5143983,-1.0,1,0,0,0,0,0,0
1248843520,0.071020745,0.029288335,-0.11049406,0.0,0.99770904,0.03625304,0.012651863,-0.055697296,0.5140606,-1.0,1,0,0,0,0,0,0
1248943993,0.06766943,0.026560916,-0.11049406,0.0,0.99779,0.034506563,0.011384421,-0.055631015,0.51432955,-1.0,1,0,0,0,0,0,0
1249043832,0.06891893,0.0343105,-0.11049406,0.0,0.997702,0.035341706,0.015215909,-0.055768136,0.5107539,-1.0,1,0,0,0,0,0,0
1249147527,0.06397341,0.03590992,-0.11049406,0.0,0.99777097,0.0329182,0.016151747,-0.055755105,0.51015353,-1.0,1,0,0,0,0,0,0
1249247915,0.062212303,0.039812908,-0.11049406,0.0,0.99775934,0.032146137,0.018148122,-0.055799406,0.5062088,-1.0,1,0,0,0,0,0,0
1249351833,0.057718012,0.040703565,-0.11049406,0.0,0.99781936,0.029928269,0.018717857,-0.05577082,0.505367,-1.0,1,0,0,0,0,0,0
1249456109,0.060699556,0.03816694,-0.11049406,0.0,0.99780077,0.03134652,0.017369103,-0.055761624,0.5047349,-1.0,1,0,0,0,0,0,0
1249555857,0.066801146,0.04335274,-0.11049406,0.0,0.99764293,0.034531765,0.019785967,-0.055897873,0.5033025,-1.0,1,0,0,0,0,0,0
1249659625,0.06269534,0.04182427,-0.11049406,0.0,0.9977293,0.03244197,0.019138126,-0.05583412,0.505332,-1.0,1,0,0,0,0,0,0
1249760196,0.058381896,0.040123235,-0.11049406,0.0,0.9978157,0.030243644,0.018409794,-0.055768903,0.5038996,-1.0,1,0,0,0,0,0,0
1251083530,0.07502326,0.043399263,-0.11049406,0.0,0.997492,0.038634088,0.019579202,-0.055979583,0.49597496,-1.0,1,0,0,0,0,0,0
1252512020,0.1084675,-0.008620748,-0.11049406,0.0,0.9970099,0.053886287,-0.0072906897,-0.054903932,0.4941716,-1.0,1,0,0,0,0,0,0
1252615953,0.104364835,-0.015867988,-0.11049406,0.0,0.9971066,0.05164002,-0.010791081,-0.054728843,0.5041589,-1.0,1,0,0,0,0,0,0
1252919738,0.08827517,-0.013137634,-0.11049406,0.0,0.9974963,0.043692622,-0.0089887455,-0.05487456,0.50524014,-1.0,1,0,0,0,0,0,0
1253019740,0.09043452,-0.007493563,-0.11049406,0.0,0.9974561,0.044925883,-0.0062332125,-0.054993,0.50500286,-1.0,1,0,0,0,0,0,0
1253123338,0.08882754,-0.007092385,-0.11049406,0.0,0.9974921,0.04413553,-0.005988942,-0.05500692,0.50739944,-1.0,1,0,0,0,0,0,0
1253227548,0.085439615,0.0033198465,-0.11049406,0.0,0.99755806,0.042733178,-0.0007023437,-0.05523926,0.5092255,-1.0,1,0,0,0,0,0,0
1253328028,0.07135491,-0.0049897367,-0.11049406,0.0,0.99784064,0.03547768,-0.0044591217,-0.05509476,0.5147872,-1.0,1,0,0,0,0,0,0
1253431867,0.07039269,0.0017607269,-0.11049406,0.0,0.99785376,0.03518396,-0.0010646267,-0.05521565,0.5189254,-1.0,1,0,0,0,0,0,0
1253531382,0.05881388,-0.0035779285,-0.11049406,0.0,0.9980439,0.029259054,-0.0034090444,-0.055142444,0.5254223,-1.0,1,0,0,0,0,0,0
1253632061,0.061284184,0.006899531,-0.11049406,0.0,0.99799377,0.03078077,0.0017511295,-0.05529821,0.5214039,-1.0,1,0,0,0,0,0,0
1253735942,0.05344619,0.012915544,-0.11049406,0.0,0.99808747,0.02703505,0.004970158,-0.055370346,0.5245343,-1.0,1,0,0,0,0,0,0
1253835659,0.042855408,0.015569837,-0.11049406,0.0,0.9982056,0.021822497,0.0065880897,-0.055371135,0.52548075,-1.0,1,0,0,0,0,0,0
1253939616,0.042063866,0.018733773,-0.11049406,0.0,0.9981988,0.021514481,0.008189166,-0.055400986,0.5271523,-1.0,1,0,0,0,0,0,0
1254039855,0.038081836,0.022728832,-0.11049406,0.0,0.99821687,0.019636896,0.010293488,-0.055421393,0.53080034,-1.0,1,0,0,0,0,0,0
1254139624,0.034220275,0.024867235,-0.11049406,0.0,0.99823916,0.017768329,0.011467827,-0.05541898,0.53204125,-1.0,1,0,0,0,0,0,0
1254243606,0.031723186,0.021389483,-0.11049406,0.0,0.9982822,0.01642629,0.009801104,-0.05537819,0.5353364,-1.0,1,0,0,0,0,0,0
1254343868,0.03020669,0.02537143,-0.11049406,0.0,0.99826944,0.015778907,0.011830685,-0.055399474,0.53583425,-1.0,1,0,0,0,0,0,0
1254443540,0.028595278,0.02534419,-0.11049406,0.0,0.9982821,0.014973841,0.011861718,-0.055389743,0.5323612,-1.0,1,0,0,0,0,0,0
1254547630,0.023795221,0.021766437,-0.11049406,0.0,0.9983373,0.01247938,0.010208711,-0.055341028,0.53244776,-1.0,1,0,0,0,0,0,0
1254648415,0.024383107,0.028498229,-0.11049406,0.0,0.9982891,0.012958152,0.013552717,-0.055382665,0.526361,-1.0,1,0,0,0,0,0,0
1254751739,0.021170814,0.028248006,-0.11049406,0.0,0.9983105,0.011347846,0.013516748,-0.055359595,0.52748543,-1.0,1,0,0,0,0,0,0
1254856011,0.017473932,0.035659168,-0.11049406,0.0,0.9982689,0.00970658,0.017318398,-0.055363577,0.52599216,-1.0,1,0,0,0,0,0,0
1254955401,0.0081102885,0.035780873,-0.11049406,0.0,0.9983023,0.005036128,0.01763816,-0.05528207,0.5230114,-1.0,1,0,0,0,0,0,0
1255059583,0.008170273,0.044641253,-0.11049406,0.0,0.9982122,0.0053102844,0.022059014,-0.055295754,0.5187282,-1.0,1,0,0,0,0,0,0
1255160021,0.0069295787,0.038566068,-0.11049406,0.0,0.998279,0.0045235693,0.019061018,-0.055275034,0.518467,-1.0,1,0,0,0,0,0,0
1255259421,0.0034325996,0.041336957,-0.11049406,0.0,0.9982576,0.0028545226,0.020540692,-0.05524247,0.51785654,-1.0,1,0,0,0,0,0,0
1255363698,0.0044396943,0.039022226,-0.11049406,0.0,0.9982794,0.003293348,0.019357504,-0.055251524,0.51230985,-1.0,1,0,0,0,0,0,0
1255463730,0.006837903,0.03976969,-0.11049406,0.0,0.9982673,0.0045109945,0.019664327,-0.05527557,0.50936824,-1.0,1,0,0,0,0,0,0
1255568337,0.0058445428,0.033137742,-0.11049406,0.0,0.9983303,0.0038322776,0.016381422,-0.055259462,0.51228315,-1.0,1,0,0,0,0,0,0
1255672002,0.0049059233,0.03308762,-0.11049406,0.0,0.99833244,0.0033623683,0.016382331,-0.05525173,0.5063508,-1.0,1,0,0,0,0,0,0
1255771392,0.0134712495,0.033374883,-0.11049406,0.0,0.9983064,0.00764576,0.016288953,-0.05532222,0.5016511,-1.0,1,0,0,0,0,0,0
1255872461,0.01795936,0.039482467,-0.11049406,0.0,0.9982297,0.010054087,0.019213295,-0.055382933,0.49289048,-1.0,1,0,0,0,0,0,0
1255976125,0.04161168,0.05043311,-0.11049406,0.0,0.9979118,0.022157978,0.02402154,-0.055713184,0.4871564,-1.0,1,0,0,0,0,0,0
1256075693,0.04237165,0.044230413,-0.11049406,0.0,0.9979802,0.022367552,0.020905226,-0.05566078,0.49247462,-1.0,1,0,0,0,0,0,0
1256179573,0.05697678,0.054800723,-0.11049406,0.0,0.9976514,0.029942617,0.025771737,-0.055955004,0.49337396,-1.0,1,0,0,0,0,0,0
1256279980,0.059917938,0.057791177,-0.11049406,0.0,0.9975618,0.031490948,0.027181176,-0.05603522,0.49484497,-1.0,1,0,0,0,0,0,0
1256379600,0.06983358,0.060898524,-0.11049406,0.0,0.99734443,0.03652037,0.028452797,-0.056220878,0.4956261,-1.0,1,0,0,0,0,0,0
1256483350,0.06740333,0.076460004,-0.11049406,0.0,0.997107,0.035728596,0.036281448,-0.05643314,0.49326807,-1.0,1,0,0,0,0,0,0
1256584085,0.07545596,0.07944833,-0.11049406,0.0,0.99689394,0.039823163,0.037543748,-0.056631785,0.49472338,-1.0,1,0,0,0,0,0,0
1256687741,0.07794158,0.083120815,-0.11049406,0.0,0.99676526,0.041160405,0.03930403,-0.056745652,0.4963414,-1.0,1,0,0,0,0,0,0
1256792376,0.07822036,0.09608507,-0.11049406,0.0,0.99645585,0.04164532,0.045757532,-0.05698793,0.49310496,-1.0,1,0,0,0,0,0,0
1256895954,0.08353531,0.09216104,-0.11049406,0.0,0.9964383,0.044188943,0.043650568,-0.057032704,0.49448398,-1.0,1,0,0,0,0,0,0
1256995628,0.08199476,0.08969339,-0.11049406,0.0,0.9965308,0.043355692,0.042464722,-0.05695172,0.49680752,-1.0,1,0,0,0,0,0,0
1257099543,0.07435277,0.09680178,-0.11049406,0.0,0.9965165,0.03973741,0.046224836,-0.056911662,0.5072645,-1.0,1,0,0,0,0,0,0
1257200467,0.07170805,0.09350821,-0.11049406,0.0,0.9966496,0.03833165,0.044658534,-0.056795932,0.5104376,-1.0,1,0,0,0,0,0,0
1257299689,0.07288951,0.102573566,-0.11049406,0.0,0.9963961,0.039162133,0.049142744,-0.056974754,0.5043531,-1.0,1,0,0,0,0,0,0
1257403685,0.07209053,0.104637384,-0.11049406,0.0,0.9963563,0.038819022,0.05019389,-0.056989253,0.5041784,-1.0,1,0,0,0,0,0,0
1257504116,0.069319434,0.09841087,-0.11049406,0.0,0.99657273,0.037272375,0.047169868,-0.056820787,0.504089,-1.0,1,0,0,0,0,0,0
1257607863,0.08150064,0.10287068,-0.11049406,0.0,0.99621034,0.043459684,0.04904501,-0.057191424,0.5011589,-1.0,1,0,0,0,0,0,0
1257712151,0.08475726,0.09780274,-0.11049406,0.0,0.9962709,0.044947516,0.046426877,-0.05717117,0.5073526,-1.0,1,0,0,0,0,0,0
1257811369,0.082251266,0.097853564,-0.11049406,0.0,0.99632514,0.04370051,0.046523795,-0.05711392,0.5051191,-1.0,1,0,0,0,0,0,0
1257915543,0.08733251,0.09183231,-0.11049406,0.0,0.99636054,0.046071973,0.04337841,-0.057108745,0.5089097,-1.0,1,0,0,0,0,0,0
1258015873,0.0897136,0.08859724,-0.11049406,0.0,0.9963817,0.04717229,0.041698407,-0.057092022,0.5073949,-1.0,1,0,0,0,0,0,0
1258115797,0.091871075,0.082862176,-0.11049406,0.0,0.9964601,0.04809469,0.038778972,-0.05701239,0.5087023,-1.0,1,0,0,0,0,0,0
1258217253,0.09059721,0.077172525,-0.11049406,0.0,0.9966111,0.04730835,0.035979696,-0.056865435,0.50759965,-1.0,1,0,0,0,0,0,0
1258319705,0.09195812,0.0717576,-0.11049406,0.0,0.9966861,0.047841866,0.033242133,-0.05677129,0.51360184,-1.0,1,0,0,0,0,0,0
1258419418,0.08249168,0.06358561,-0.11049406,0.0,0.99704856,0.042904206,0.029436199,-0.05645281,0.51651293,-1.0,1,0,0,0,0,0,0
1258523544,0.0772025,0.06608841,-0.11049406,0.0,0.9971154,0.040334724,0.03083338,-0.05642073,0.51585615,-1.0,1,0,0,0,0,0,0
1258624931,0.07349236,0.07025962,-0.11049406,0.0,0.99711335,0.03859735,0.03301795,-0.056435965,0.51637584,-1.0,1,0,0,0,0,0,0
1258727978,0.0742392,0.06470761,-0.11049406,0.0,0.997198,0.03882006,0.030228395,-0.05635066,0.51706284,-1.0,1,0,0,0,0,0,0
1258832711,0.06832053,0.0642481,-0.11049406,0.0,0.99731636,0.03585643,0.030165857,-0.056253534,0.5126216,-1.0,1,0,0,0,0,0,0
1258935964,0.059616067,0.06821508,-0.11049406,0.0,0.99739414,0.031623024,0.032389008,-0.05617708,0.5118506,-1.0,1,0,0,0,0,0,0
1259039726,0.05979951,0.06610991,-0.11049406,0.0,0.99742824,0.031657495,0.031333875,-0.056150593,0.515572,-1.0,1,0,0,0,0,0,0
1259144046,0.047223177,0.0629346,-0.11049406,0.0,0.99766076,0.025298525,0.03010231,-0.055917878,0.52662116,-1.0,1,0,0,0,0,0,0
1259247972,0.04178756,0.055035323,-0.11049406,0.0,0.99784666,0.02237146,0.026313001,-0.05575993,0.53192425,-1.0,1,0,0,0,0,0,0
1259347383,0.042376217,0.06267445,-0.11049406,0.0,0.9977234,0.02287355,0.030107947,-0.055842232,0.52539855,-1.0,1,0,0,0,0,0,0
1259451544,0.046621215,0.054899104,-0.11049406,0.0,0.99779165,0.024779297,0.026110198,-0.055821884,0.5196583,-1.0,1,0,0,0,0,0,0
1259551770,0.04778063,0.053884625,-0.11049406,0.0,0.9977915,0.025330061,0.025571683,-0.055825677,0.51572186,-1.0,1,0,0,0,0,0,0
1259651656,0.039136272,0.049935073,-0.11049406,0.0,0.997945,0.020909216,0.023841955,-0.05567889,0.5125305,-1.0,1,0,0,0,0,0,0
1259755839,0.04646304,0.043305654,-0.11049406,0.0,0.9979431,0.024383783,0.020329867,-0.055693265,0.5115741,-1.0,1,0,0,0,0,0,0
1259855854,0.044428997,0.044825226,-0.11049406,0.0,0.9979497,0.0234104,0.02114477,-0.055688486,0.51068705,-1.0,1,0,0,0,0,0,0
1259960118,0.053478513,0.04618366,-0.11049406,0.0,0.99781716,0.027962696,0.021570362,-0.055800866,0.5061469,-1.0,1,0,0,0,0,0,0
1260063901,0.055278815,0.03970308,-0.11049406,0.0,0.997866,0.028683975,0.018286655,-0.05573471,0.5062336,-1.0,1,0,0,0,0,0,0
1260163515,0.05019278,0.04169044,-0.11049406,0.0,0.99791414,0.02620063,0.019420004,-0.05571179,0.5073127,-1.0,1,0,0,0,0,0,0
1260267878,0.048770253,0.046478324,-0.11049406,0.0,0.9978766,0.025621677,0.021848693,-0.055753328,0.5036101,-1.0,1,0,0,0,0,0,0
1260371658,0.055845886,0.045046497,-0.11049406,0.0,0.99779713,0.02911277,0.020936934,-0.055811226,0.4990016,-1.0,1,0,0,0,0,0,0
1260472052,0.061250467,0.04911113,-0.11049406,0.0,0.9976637,0.03191967,0.022813821,-0.05592707,0.49664453,-1.0,1,0,0,0,0,0,0
1260576202,0.052161474,0.046406113,-0.11049406,0.0,0.99783266,0.02731168,0.021718096,-0.0557894,0.5002408,-1.0,1,0,0,0,0,0,0
1260679913,0.06283226,0.041349974,-0.11049406,0.0,0.9977324,0.03249734,0.018897679,-0.05582827,0.49518645,-1.0,1,0,0,0,0,0,0
1260779846,0.07125084,0.052123282,-0.11049406,0.0,0.9974506,0.036989488,0.02403631,-0.056091897,0.49241257,-1.0,1,0,0,0,0,0,0
1260883521,0.07795405,0.055880196,-0.11049406,0.0,0.9972664,0.040433966,0.025721772,-0.0562424,0.49142736,-1.0,1,0,0,0,0,0,0
1260983752,0.071805,0.0593184,-0.11049406,0.0,0.99733317,0.03746071,0.027609328,-0.056221906,0.4986708,-1.0,1,0,0,0,0,0,0
1261083367,0.06807593,0.06346968,-0.11049406,0.0,0.9973338,0.03571342,0.029784521,-0.05623731,0.49949118,-1.0,1,0,0,0,0,0,0
1261187353,0.053052306,0.073777996,-0.11049406,0.0,0.99739,0.028500348,0.035347827,-0.056138642,0.5047744,-1.0,1,0,0,0,0,0,0
1261288044,0.04536326,0.08108397,-0.11049406,0.0,0.9973464,0.024863971,0.039207313,-0.056077182,0.50558287,-1.0,1,0,0,0,0,0,0
1261391946,0.037400816,0.08322539,-0.11049406,0.0,0.9973925,0.020951368,0.04049829,-0.055938203,0.5145764,-1.0,1,0,0,0,0,0,0
1261495875,0.017236508,0.08901392,-0.11049406,0.0,0.9974273,0.011053202,0.04394732,-0.055545054,0.5175339,-1.0,1,0,0,0,0,0,0
1261595558,0.007697478,0.09237816,-0.11049406,0.0,0.9973922,0.006388345,0.045889575,-0.055337068,0.52151036,-1.0,1,0,0,0,0,0,0
1261695892,0.0009410628,0.08605772,-0.11049406,0.0,0.9975489,0.0028446524,0.04292399,-0.055188023,0.5233965,-1.0,1,0,0,0,0,0,0
1261799942,-0.012056833,0.0951861,-0.11049406,0.0,0.9973414,-0.0033853687,0.047834136,-0.05486903,0.5221473,-1.0,1,0,0,0,0,0,0
1261899520,-0.0059443032,0.09118406,-0.11049406,0.0,0.9974398,-0.0004478687,0.045670442,-0.05502605,0.5219884,-1.0,1,0,0,0,0,0,0
1262003804,-0.018336771,0.085575506,-0.11049406,0.0,0.9975401,-0.006784017,0.04321344,-0.054774497,0.5296949,-1.0,1,0,0,0,0,0,0
1262103907,-0.02952162,0.0723429,-0.11049406,0.0,0.99774194,-0.012731419,0.036918968,-0.054643832,0.5375004,-1.0,1,0,0,0,0,0,0
1262203534,-0.03307075,0.066073544,-0.11049406,0.0,0.9978232,-0.014676711,0.03388838,-0.05463594,0.5445071,-1.0,1,0,0,0,0,0,0
1262307612,-0.046555348,0.05430568,-0.11049406,0.0,0.9978707,-0.021732733,0.028385514,-0.054552663,0.5476268,-1.0,1,0,0,0,0,0,0
1262407734,-0.05539611,0.043453164,-0.11049406,0.0,0.997889,-0.026446572,0.02321231,-0.054583978,0.55445737,-1.0,1,0,0,0,0,0,0
1262507432,-0.056477744,0.03478195,-0.11049406,0.0,0.99795234,-0.027227897,0.018915523,-0.054698303,0.55495995,-1.0,1,0,0,0,0,0,0
1262611386,-0.055708908,0.028135821,-0.11049406,0.0,0.99800986,-0.02702912,0.015578277,-0.054800853,0.55278796,-1.0,1,0,0,0,0,0,0
1262711697,-0.05479669,0.022992525,-0.11049406,0.0,0.9980509,-0.026716754,0.01298678,-0.0548801,0.5527918,-1.0,1,0,0,0,0,0,0
1262816131,-0.05554389,0.013049763,-0.11049406,0.0,0.998078,-0.027365262,0.008045675,-0.055015545,0.55072665,-1.0,1,0,0,0,0,0,0
1262919888,-0.045266323,0.013703416,-0.11049406,0.0,0.9982037,-0.022217924,0.008089092,-0.055048674,0.5478023,-1.0,1,0,0,0,0,0,0
1263019654,-0.047036972,0.009852901,-0.11049406,0.0,0.9981924,-0.023208193,0.0062160837,-0.05508731,0.5459965,-1.0,1,0,0,0,0,0,0
1263123414,-0.042445015,0.009360739,-0.11049406,0.0,0.998244,-0.02092992,0.0058439425,-0.05510671,0.5429598,-1.0,1,0,0,0,0,0,0
1263224504,-0.038688768,0.0058055716,-0.11049406,0.0,0.9982863,-0.019153321,0.0039659156,-0.0551523,0.5429475,-1.0,1,0,0,0,0,0,0
1263323527,-0.030256718,0.0060013733,-0.11049406,0.0,0.9983581,-0.014938957,0.0038310972,-0.055167038,0.5436705,-1.0,1,0,0,0,0,0,0
1263427598,-0.026944589,0.011595402,-0.11049406,0.0,0.9983712,-0.0131309945,0.006532188,-0.05513501,0.5426541,-1.0,1,0,0,0,0,0,0
1263528042,-0.027536826,0.004169538,-0.11049406,0.0,0.99837905,-0.0136318365,0.0028416412,-0.05518492,0.5400212,-1.0,1,0,0,0,0,0,0
1263627553,-0.017757753,0.0098256795,-0.11049406,0.0,0.9984253,-0.008593836,0.0053954,-0.055172537,0.54013026,-1.0,1,0,0,0,0,0,0
1263731728,-0.023830311,0.012343346,-0.11049406,0.0,0.9983884,-0.011555702,0.0068196943,-0.05514054,0.5421528,-1.0,1,0,0,0,0,0,0
1263832059,-0.021844326,0.0067333938,-0.11049406,0.0,0.99841106,-0.010719327,0.0039644483,-0.0551786,0.5422011,-1.0,1,0,0,0,0,0,0
1263936101,-0.014892526,0.018791411,-0.11049406,0.0,0.9984064,-0.0069157053,0.009792124,-0.055145107,0.53807056,-1.0,1,0,0,0,0,0,0
1264040121,-0.014654025,0.0189333,-0.11049406,0.0,0.9984065,-0.006792723,0.009856379,-0.05514572,0.5393856,-1.0,1,0,0,0,0,0,0
1264139409,-0.015086337,0.021905323,-0.11049406,0.0,0.99839056,-0.0069263717,0.011351919,-0.05513156,0.53893435,-1.0,1,0,0,0,0,0,0
1264243712,-0.0075939973,0.016637184,-0.11049406,0.0,0.9984343,-0.00333173,0.008515403,-0.055185087,0.5399981,-1.0,1,0,0,0,0,0,0
1264347654,-0.012314168,0.028001936,-0.11049406,0.0,0.9983623,-0.0053739697,0.014318836,-0.055126403,0.5444145,-1.0,1,0,0,0,0,0,0
1264448344,-0.008649223,0.030410968,-0.11049406,0.0,0.9983532,-0.0034779103,0.015420329,-0.055146374,0.54361534,-1.0,1,0,0,0,0,0,0
1264551867,-0.015748996,0.0357764,-0.11049406,0.0,0.9982914,-0.00687346,0.018294148,-0.055067748,0.5482329,-1.0,1,0,0,0,0,0,0
1264656190,-0.018031804,0.038231313,-0.11049406,0.0,0.9982608,-0.007944941,0.019582303,-0.055034533,0.5489877,-1.0,1,0,0,0,0,0,0
1264755607,-0.015335736,0.041574467,-0.11049406,0.0,0.998238,-0.006506708,0.021176727,-0.055046245,0.5493889,-1.0,1,0,0,0,0,0,0
1264859710,-0.0142200235,0.039758995,-0.11049406,0.0,0.99825954,-0.006000077,0.020239882,-0.055065505,0.5493942,-1.0,1,0,0,0,0,0,0
1264959924,-0.014224327,0.035537664,-0.11049406,0.0,0.9982984,-0.0061190315,0.018133,-0.055082638,0.5479284,-1.0,1,0,0,0,0,0,0
1265059533,-0.007827474,0.028523399,-0.11049406,0.0,0.9983682,-0.0031198752,0.014455438,-0.05515716,0.54694057,-1.0,1,0,0,0,0,0,0
1265163700,-0.00958573,0.027531832,-0.11049406,0.0,0.9983719,-0.004024974,0.01400895,-0.055147193,0.54656214,-1.0,1,0,0,0,0,0,0
1265264103,0.0031641442,0.019427605,-0.11049406,0.0,0.99842507,0.0021159595,0.00961146,-0.0552316,0.54208136,-1.0,1,0,0,0,0,0,0
1265363841,0.006349221,0.0153122805,-0.11049406,0.0,0.99843866,0.0035924257,0.0074690524,-0.0552413,0.5380266,-1.0,1,0,0,0,0,0,0
1265467717,0.01939342,0.005708448,-0.11049406,0.0,0.9984217,0.009839324,0.0023142998,-0.055243745,0.531047,-1.0,1,0,0,0,0,0,0
1265568019,0.04575297,0.017930686,-0.11049406,0.0,0.9981616,0.02333359,0.0076861475,-0.05540702,0.5187311,-1.0,1,0,0,0,0,0,0
1265671948,0.053068295,0.017094783,-0.11049406,0.0,0.9980738,0.026961392,0.00706628,-0.055423897,0.51374966,-1.0,1,0,0,0,0,0,0
1265776234,0.07612121,0.021593522,-0.11049406,0.0,0.9976703,0.038586892,0.008671237,-0.05558593,0.5111112,-1.0,1,0,0,0,0,0,0
1265875516,0.07754513,0.02699343,-0.11049406,0.0,0.99760413,0.039444875,0.011325337,-0.05569476,0.5114446,-1.0,1,0,0,0,0,0,0
1265979601,0.08029771,0.034498725,-0.11049406,0.0,0.99748296,0.041022547,0.01499226,-0.055857487,0.5170805,-1.0,1,0,0,0,0,0,0
1266079995,0.09062903,0.033968862,-0.11049406,0.0,0.99726295,0.046160225,0.014439291,-0.055922452,0.5138011,-1.0,1,0,0,0,0,0,0
1266179566,0.09520333,0.036062244,-0.11049406,0.0,0.9971338,0.048497852,0.01535515,-0.056004055,0.5137854,-1.0,1,0,0,0,0,0,0
1266283395,0.092719994,0.028005032,-0.11049406,0.0,0.99726784,0.0470405,0.011406893,-0.05580211,0.5115469,-1.0,1,0,0,0,0,0,0
1266383747,0.09400851,0.026710074,-0.11049406,0.0,0.9972479,0.047647696,0.010725198,-0.05577956,0.51208556,-1.0,1,0,0,0,0,0,0
1266483734,0.100807086,0.025241934,-0.11049406,0.0,0.9970917,0.050997343,0.009803543,-0.055779297,0.5113685,-1.0,1,0,0,0,0,0,0
1266587539,0.09201672,0.021333342,-0.11049406,0.0,0.9973338,0.046507716,0.008099433,-0.055647183,0.5115246,-1.0,1,0,0,0,0,0,0
1266688054,0.098992646,0.021318818,-0.11049406,0.0,0.9971657,0.04998569,0.007898047,-0.055674747,0.5105852,-1.0,1,0,0,0,0,0,0
1266792011,0.09008027,0.016621657,-0.11049406,0.0,0.9974066,0.045413103,0.005803496,-0.055534646,0.5134866,-1.0,1,0,0,0,0,0,0
1266895854,0.084541164,0.014863593,-0.11049406,0.0,0.9975375,0.042602357,0.0050803837,-0.055481654,0.51493496,-1.0,1,0,0,0,0,0,0
1266995726,0.0952709,0.019901158,-0.11049406,0.0,0.99726605,0.048091263,0.00729471,-0.055626657,0.51436496,-1.0,1,0,0,0,0,0,0
1267099386,0.08260748,0.019173276,-0.11049406,0.0,0.997555,0.041756004,0.0072837058,-0.055564538,0.5091556,-1.0,1,0,0,0,0,0,0
1267199996,0.07347215,0.023467854,-0.11049406,0.0,0.99770814,0.037316736,0.00967992,-0.055608176,0.5181208,-1.0,1,0,0,0,0,0,0
1267299432,0.06453752,0.024791997,-0.11049406,0.0,0.9978557,0.032895584,0.010588925,-0.055585258,0.5186452,-1.0,1,0,0,0,0,0,0
1267403366,0.060462493,0.025597017,-0.11049406,0.0,0.99791497,0.03088443,0.011103847,-0.055575434,0.5202391,-1.0,1,0,0,0,0,0,0
1267504065,0.060566418,0.03576903,-0.11049406,0.0,0.997827,0.031214608,0.016176406,-0.055725444,0.5108142,-1.0,1,0,0,0,0,0,0
1267603561,0.05410016,0.0405608,-0.11049406,0.0,0.9978734,0.02811934,0.018747477,-0.05573502,0.5095079,-1.0,1,0,0,0,0,0,0
1267707562,0.041099407,0.03877715,-0.11049406,0.0,0.9980538,0.021583375,0.018219257,-0.055594664,0.5094358,-1.0,1,0,0,0,0,0,0
1267808010,0.04156776,0.045291528,-0.11049406,0.0,0.9979767,0.021995451,0.021457111,-0.055662725,0.5101019,-1.0,1,0,0,0,0,0,0
1267912138,0.032631427,0.05257877,-0.11049406,0.0,0.9979727,0.01773578,0.025342176,-0.05562071,0.5082401,-1.0,1,0,0,0,0,0,0
1268017206,0.022023732,0.058173146,-0.11049406,0.0,0.99797374,0.012595997,0.028428547,-0.05551198,0.5124553,-1.0,1,0,0,0,0,0,0
1268120747,0.021520881,0.05510447,-0.11049406,0.0,0.9980212,0.012260861,0.02691118,-0.055490747,0.51042306,-1.0,1,0,0,0,0,0,0
1268219539,0.010295608,0.054867167,-0.11049406,0.0,0.9980775,0.006652637,0.027103778,-0.055338413,0.511301,-1.0,1,0,0,0,0,0,0
1268323562,0.0037551392,0.062114697,-0.11049406,0.0,0.99798775,0.0035884748,0.030901296,-0.05525042,0.5125719,-1.0,1,0,0,0,0,0,0
1268423730,0.0013064122,0.060938034,-0.11049406,0.0,0.9980095,0.0023341125,0.030381765,-0.055213165,0.51144433,-1.0,1,0,0,0,0,0,0
1268528132,-0.010908851,0.057993073,-0.11049406,0.0,0.9980485,-0.0038428784,0.029248867,-0.055037003,0.5144049,-1.0,1,0,0,0,0,0,0
1268632160,-0.0024219954,0.06526699,-0.11049406,0.0,0.9979441,0.0005931594,0.03264473,-0.055150043,0.50926787,-1.0,1,0,0,0,0,0,0
1268731382,-0.011442611,0.06298685,-0.11049406,0.0,0.9979728,-0.0039709946,0.031755425,-0.055010766,0.513636,-1.0,1,0,0,0,0,0,0
1268832870,-0.015620572,0.06707735,-0.11049406,0.0,0.99789685,-0.0059423386,0.033911232,-0.054924704,0.5149537,-1.0,1,0,0,0,0,0,0
1268935997,-0.01655713,0.077205315,-0.11049406,0.0,0.99771386,-0.0061286855,0.038989656,-0.054856896,0.51030135,-1.0,1,0,0,0,0,0,0
1269035584,-0.021813754,0.073748566,-0.11049406,0.0,0.9977584,-0.008847043,0.03740934,-0.05477663,0.51332647,-1.0,1,0,0,0,0,0,0
1269139593,-0.024485892,0.08024102,-0.11049406,0.0,0.99762315,-0.009999474,0.040721033,-0.054680064,0.5113671,-1.0,1,0,0,0,0,0,0
1269240238,-0.021393709,0.08279861,-0.11049406,0.0,0.99758613,-0.008385937,0.041912124,-0.054726426,0.5113128,-1.0,1,0,0,0,0,0,0
1269339596,-0.025846211,0.079401046,-0.11049406,0.0,0.9976325,-0.010701402,0.04033925,-0.05465869,0.51695037,-1.0,1,0,0,0,0,0,0
1269443526,-0.026826484,0.087333344,-0.11049406,0.0,0.99746513,-0.010969366,0.044322208,-0.054576714,0.5130105,-1.0,1,0,0,0,0,0,0
1269543945,-0.027693521,0.085079685,-0.11049406,0.0,0.99750787,-0.011464615,0.043221947,-0.05457575,0.51268655,-1.0,1,0,0,0,0,0,0
1269648462,-0.025006654,0.081199765,-0.11049406,0.0,0.9976015,-0.010232546,0.041213468,-0.054662403,0.5118814,-1.0,1,0,0,0,0,0,0
1269752798,-0.028825032,0.08333516,-0.11049406,0.0,0.99753714,-0.012077603,0.042382777,-0.054565843,0.51660335,-1.0,1,0,0,0,0,0,0
1269856011,-0.024884855,0.075838156,-0.11049406,0.0,0.99770534,-0.010321005,0.038535766,-0.054704,0.51580477,-1.0,1,0,0,0,0,0,0
1269955552,-0.023011958,0.07093184,-0.11049406,0.0,0.99780285,-0.0095230965,0.03603698,-0.054773204,0.5186554,-1.0,1,0,0,0,0,0,0
1270059650,-0.019003995,0.074954465,-0.11049406,0.0,0.9977478,-0.0074118203,0.03793392,-0.05482219,0.5190973,-1.0,1,0,0,0,0,0,0
1270159912,-0.020859117,0.072352216,-0.11049406,0.0,0.99778754,-0.008409581,0.036686596,-0.054803167,0.52043873,-1.0,1,0,0,0,0,0,0
1270264425,-0.01906406,0.06432589,-0.11049406,0.0,0.9979295,-0.007736803,0.032632947,-0.05488182,0.52369195,-1.0,1,0,0,0,0,0,0
1270368370,-0.025268592,0.0678053,-0.11049406,0.0,0.9978445,-0.010735877,0.034538973,-0.054755215,0.52660006,-1.0,1,0,0,0,0,0,0
1270467587,-0.026231974,0.063651904,-0.11049406,0.0,0.99790585,-0.011332021,0.03249316,-0.054769512,0.52966166,-1.0,1,0,0,0,0,0,0
1270571690,-0.025252631,0.05812402,-0.11049406,0.0,0.99799335,-0.010996974,0.029708171,-0.054824885,0.53206575,-1.0,1,0,0,0,0,0,0
1270672399,-0.020585613,0.06416861,-0.11049406,0.0,0.99792576,-0.008500369,0.032596212,-0.054857913,0.52711004,-1.0,1,0,0,0,0,0,0
1270771651,-0.01576398,0.060150374,-0.11049406,0.0,0.9980048,-0.006205905,0.030458871,-0.05495559,0.5250889,-1.0,1,0,0,0,0,0,0
1270875561,-0.024745788,0.0656673,-0.11049406,0.0,0.9978821,-0.010534468,0.033457994,-0.0547794,0.52994275,-1.0,1,0,0,0,0,0,0
1270975899,-0.01814813,0.063094564,-0.11049406,0.0,0.99795216,-0.007313941,0.03199343,-0.054903414,0.52656823,-1.0,1,0,0,0,0,0,0
1271075654,-0.017736973,0.060626764,-0.11049406,0.0,0.99799114,-0.0071772216,0.030750781,-0.05492301,0.52907205,-1.0,1,0,0,0,0,0,0
1271179701,-0.013566364,0.06991765,-0.11049406,0.0,0.99785435,-0.004838691,0.0352719,-0.054947205,0.51345384,-1.0,1,0,0,0,0,0,0
1271279837,-0.01751144,0.066100575,-0.11049406,0.0,0.9979067,-0.0069128755,0.033475805,-0.05489777,0.5045179,-1.0,1,0,0,0,0,0,0
1271383742,-0.0099551575,0.07420543,-0.11049406,0.0,0.9977849,-0.0029182665,0.037311815,-0.054995887,0.49746108,-1.0,1,0,0,0,0,0,0
1271488159,-0.0096667735,0.074374385,-0.11049406,0.0,0.99778223,-0.002769717,0.037388172,-0.055000685,0.49314806,-1.0,1,0,0,0,0,0,0
1271587631,-0.009755433,0.08472039,-0.11049406,0.0,0.99757814,-0.0025275284,0.042551506,-0.05496249,0.49197388,-1.0,1,0,0,0,0,0,0
1271691731,0.13006638,0.4176903,-0.11049406,0.0,0.9739696,0.0749026,0.20306578,-0.06735817,0.48705813,1.0,1,0,0,0,0,0,0
1271792341,0.1271717,0.4185329,-0.11049406,0.0,0.9739884,0.07351001,0.20357403,-0.06708553,0.5185133,1.0,1,0,0,0,0,0,0
1271891582,0.4349019,-0.036486425,1.0174923,0.0,0.85073,0.1970638,0.08950959,0.47897008,0.53048074,1.0,1,0,0,0,0,0,0
1271995691,0.42697465,-0.030258002,1.0174295,0.0,0.85188514,0.19222052,0.09026747,0.47874296,0.53886014,1.0,1,0,0,0,0,0,0
1272096085,0.3901749,-0.02643879,1.0174295,0.0,0.855481,0.1756065,0.08308242,0.48001236,0.53286135,1.0,1,0,0,0,0,0,0
1272195944,0.35017186,-0.026880838,1.0165309,0.0,0.85901713,0.15860006,0.0732039,0.4812243,0.5289429,1.0,1,0,0,0,0,0,0
1272299646,0.29956,-0.019994238,1.0156975,0.0,0.863241,0.13518842,0.06392468,0.48213342,0.5354276,1.0,1,0,0,0,0,0,0
1272403543,0.25332016,-0.006928851,1.0151668,0.0,0.8667031,0.11206505,0.05839702,0.4825525,0.54316175,1.0,1,0,0,0,0,0,0
1272504057,0.21849641,-0.00883718,1.0151668,0.0,0.86846906,0.09741856,0.04915737,0.4835852,0.5426623,1.0,1,0,0,0,0,0,0
1272608536,0.18884183,-0.009668249,1.0119991,0.0,0.8705632,0.084798016,0.0414861,0.4829161,0.54078054,1.0,1,0,0,0,0,0,0
1272712044,0.17683232,-0.011946334,1.0102118,0.0,0.87143415,0.080152,0.0375213,0.4824629,0.5321135,1.0,1,0,0,0,0,0,0
1272811733,0.15829827,-0.014887132,1.0102118,0.0,0.87207454,0.07278166,0.03176566,0.48288685,0.52193075,1.0,1,0,0,0,0,0,0
1272916052,0.1667872,-0.023955971,1.0059763,0.0,0.8725577,0.07872881,0.02969233,0.48121023,0.50862646,1.0,1,0,0,0,0,0,0
1273016143,0.14762504,-0.022815945,1.0036981,0.0,0.8738458,0.070120804,0.025498927,0.4804439,0.502792,1.0,1,0,0,0,0,0,0
1273120423,0.15617095,-0.026176788,1.0003055,0.0,0.87427086,0.074702606,0.025955522,0.4789533,0.4906759,1.0,1,0,0,0,0,0,0
1273224953,0.15312345,-0.03247884,0.99781185,0.0,0.87482446,0.07490173,0.02237397,0.47809127,0.48137313,1.0,1,0,0,0,0,0,0
1273328437,0.14444453,-0.04263215,0.9966349,0.0,0.87516403,0.07353028,0.015807107,0.47794503,0.48285696,1.0,1,0,0,0,0,0,0
1273428119,0.15125957,-0.04808178,0.9966349,0.0,0.87475586,0.07780616,0.015047406,0.4780397,0.48130408,1.0,1,0,0,0,0,0,0
1273531938,0.13966702,-0.055007186,0.9911654,0.0,0.8763032,0.074404486,0.009036724,0.47589383,0.4804665,1.0,1,0,0,0,0,0,0
1273632235,0.14344095,-0.061202142,0.9886255,0.0,0.8765806,0.077529915,0.007116513,0.47491565,0.47639677,1.0,1,0,0,0,0,0,0
1273736378,0.13181978,-0.07037374,0.9846861,0.0,0.8776749,0.07459666,0.00017931734,0.47341537,0.4849571,1.0,1,0,0,0,0,0,0
1273841600,0.12542063,-0.07619842,0.98209375,0.0,0.87834203,0.07315011,-0.00399306,0.4723859,0.48425752,1.0,1,0,0,0,0,0,0
1273947704,0.12397618,-0.09046338,0.9807259,0.0,0.878248,0.07584616,-0.010666944,0.47203183,0.48431337,1.0,1,0,0,0,0,0,0
1274048089,0.13434258,-0.09027186,0.9807259,0.0,0.87784994,0.080352545,-0.008135841,0.47207716,0.48375046,1.0,1,0,0,0,0,0,0
1274148164,0.13968986,-0.08604971,0.9749175,0.0,0.8791502,0.08169933,-0.005251925,0.4694598,0.4806722,1.0,1,0,0,0,0,0,0
1274251818,0.1323919,-0.09812637,0.972372,0.0,0.8796076,0.08127789,-0.0123946825,0.46854103,0.484386,1.0,1,0,0,0,0,0,0
1274355727,0.12584938,-0.09948715,0.9698179,0.0,0.8804168,0.078696445,-0.014628461,0.46739608,0.48109323,1.0,1,0,0,0,0,0,0
1274456111,0.081958264,-0.15969962,0.9671943,0.0,0.8802469,0.0732112,-0.051570985,0.4659893,0.48478574,1.0,1,0,0,0,0,0,0
1274555695,0.04741896,-0.21596429,0.9660866,0.0,0.8789933,0.070916206,-0.08446754,0.463904,0.48309603,1.0,1,0,0,0,0,0,0
1274659963,0.013214412,-0.27271923,0.9660866,0.0,0.8769286,0.06893524,-0.1173412,0.46095031,0.4792472,1.0,1,0,0,0,0,0,0
1274763721,-0.0052808505,-0.31338477,0.95951307,0.0,0.8764264,0.06971396,-0.13963816,0.45554146,0.48566866,1.0,1,0,0,0,0,0,0
1274863942,-0.024056626,-0.3438695,0.95724654,0.0,0.8754268,0.06827156,-0.15731052,0.4519075,0.48404214,1.0,1,0,0,0,0,0,0
1274968224,-0.054247368,-0.38186073,0.95724654,0.0,0.8735497,0.0637336,-0.18064924,0.44745368,0.49371397,1.0,1,0,0,0,0,0,0
1275072049,-0.05696415,-0.39219353,0.9530363,0.0,0.8737587,0.06451494,-0.1858785,0.44478396,0.4989189,1.0,1,0,0,0,0,0,0
1275171677,-0.064092495,-0.40759492,0.95110905,0.0,0.8731623,0.06471681,-0.19420558,0.4423613,0.49924925,1.0,1,0,0,0,0,0,0
1275276177,-0.058896177,-0.366057,0.95110905,0.0,0.87626386,0.057553522,-0.1749975,0.4452248,0.48635793,1.0,1,0,0,0,0,0,0
1275376976,-0.0472999,-0.33795527,0.94722867,0.0,0.87881917,0.055938978,-0.16025332,0.44594467,0.48251027,1.0,1,0,0,0,0,0,0
1275475673,-0.035893403,-0.29483518,0.9458804,0.0,0.88163596,0.051093232,-0.13882583,0.448146,0.48102233,1.0,1,0,0,0,0,0,0
1275579697,-0.038158026,-0.26622903,0.9458804,0.0,0.88335,0.04361103,-0.12674496,0.44913974,0.4961779,1.0,1,0,0,0,0,0,0
1275680074,-0.03168014,-0.22635499,0.9458804,0.0,0.8852412,0.037426002,-0.107695535,0.4509422,0.4952391,1.0,1,0,0,0,0,0,0
1275779853,-0.028515885,-0.20823392,0.94300336,0.0,0.88664573,0.034569286,-0.099020585,0.4503988,0.5057651,1.0,1,0,0,0,0,0,0
1275883641,-0.018297767,-0.1762517,0.94225466,0.0,0.88792765,0.03182568,-0.08255671,0.45139337,0.5056425,1.0,1,0,0,0,0,0,0
1275984026,-0.015658105,-0.16593458,0.9415484,0.0,0.88841885,0.030634375,-0.07739364,0.45142415,0.5130431,1.0,1,0,0,0,0,0,0
1276091601,-0.008440102,-0.15319467,0.94069517,0.0,0.88893557,0.030928614,-0.070119224,0.45157543,0.51220423,1.0,1,0,0,0,0,0,0
1276192062,-0.007163969,-0.1368181,0.94069517,0.0,0.88943106,0.027792796,-0.062552154,0.45191497,0.5124316,1.0,1,0,0,0,0,0,0
1276291696,0.019550476,-0.1389435,0.94069517,0.0,0.88891053,0.040150095,-0.057455763,0.45268616,0.50900763,1.0,1,0,0,0,0,0,0
1276395612,0.026994627,-0.123479396,0.9395654,0.0,0.88950974,0.039940618,-0.04891295,0.4525314,0.49926955,1.0,1,0,0,0,0,0,0
1276495982,0.009577711,-0.12832811,0.9393433,0.0,0.88973284,0.03328148,-0.055013325,0.4519308,0.5088633,1.0,1,0,0,0,0,0,0
1276595964,0.018291319,-0.1381186,0.9393433,0.0,0.8892686,0.039365437,-0.0574005,0.45205855,0.51540273,1.0,1,0,0,0,0,0,0
1276699616,0.018393397,-0.1252199,0.9391143,0.0,0.8897234,0.036495905,-0.05164155,0.45209888,0.51825017,1.0,1,0,0,0,0,0,0
1276800668,0.018343741,-0.123105064,0.93910444,0.0,0.88978946,0.035996567,-0.05071156,0.4521142,0.5100154,1.0,1,0,0,0,0,0,0
1276899574,0.02427406,-0.13312407,0.93910444,0.0,0.88936543,0.04089322,-0.053830348,0.45217156,0.5160308,1.0,1,0,0,0,0,0,0
1277003674,0.030911254,-0.13630667,0.93910754,0.0,0.88911754,0.044561367,-0.053745847,0.45232254,0.5119518,1.0,1,0,0,0,0,0,0
1277104043,0.023119329,-0.14567493,0.9391152,0.0,0.888964,0.043208007,-0.059675742,0.45201203,0.5095307,1.0,1,0,0,0,0,0,0
1277208039,0.018587502,-0.16116732,0.9391152,0.0,0.8884978,0.044683285,-0.067589484,0.4516711,0.516249,1.0,1,0,0,0,0,0,0
1277313590,0.016873738,-0.14056313,0.9391493,0.0,0.8892596,0.0392806,-0.058812264,0.45190215,0.51659936,1.0,1,0,0,0,0,0,0
1277416123,0.021608325,-0.13989201,0.93917084,0.0,0.88918185,0.041235015,-0.05744327,0.45205712,0.524814,1.0,1,0,0,0,0,0,0
1277515843,0.0043921885,-0.13478144,0.9391762,0.0,0.88966155,0.032426357,-0.059058852,0.4516226,0.54096645,1.0,1,0,0,0,0,0,0
1277619711,0.000109027445,-0.13651681,0.9391762,0.0,0.88967645,0.030912746,-0.06079789,0.45146856,0.54212505,1.0,1,0,0,0,0,0,0
1277720038,0.0018664009,-0.11634038,0.9391431,0.0,0.890229,0.027138188,-0.051423144,0.45178708,0.53742373,1.0,1,0,0,0,0,0,0
1277824811,-0.0036412613,-0.11884611,0.93909544,0.0,0.8902465,0.025251327,-0.053782955,0.45158717,0.53633684,1.0,1,0,0,0,0,0,0
1277928191,-0.0011750616,-0.11294015,0.939079,0.0,0.8903701,0.025014643,-0.050597355,0.45172483,0.52782327,1.0,1,0,0,0,0,0,0
1278035871,-0.0019374383,-0.11794466,0.939079,0.0,0.89025193,0.025805684,-0.052997205,0.45163798,0.52638733,1.0,1,0,0,0,0,0,0
1278136484,0.0010241948,-0.10546378,0.93900174,0.0,0.8905423,0.024303071,-0.046772823,0.45183635,0.52586675,1.0,1,0,0,0,0,0,0
1278240317,-0.005639466,-0.098505884,0.93895537,0.0,0.89078254,0.01976235,-0.045180228,0.4517463,0.52965593,1.0,1,0,0,0,0,0,0
1278347803,0.0060252836,-0.08729895,0.9389525,0.0,0.8908924,0.022425625,-0.03755262,0.45210356,0.52601653,1.0,1,0,0,0,0,0,0
1278448003,-0.0034824414,-0.08265362,0.9389525,0.0,0.89107513,0.017140187,-0.03763201,0.45196816,0.5346365,1.0,1,0,0,0,0,0,0
1278556336,-0.003053825,-0.08727406,0.9390165,0.0,0.89097106,0.018376803,-0.039592903,0.45195723,0.54157287,1.0,1,0,0,0,0,0,0
1278659710,-0.0118642,-0.0780018,0.9390574,0.0,0.8911925,0.012355712,-0.037452865,0.45190778,0.54029566,1.0,1,0,0,0,0,0,0
1278760018,0.009864143,-0.073066056,0.9390574,0.0,0.89109427,0.020921452,-0.030341743,0.4523193,0.5311288,1.0,1,0,0,0,0,0,0
1278859715,-0.0019121038,-0.072688475,0.9391702,0.0,0.8911826,0.015590733,-0.03283539,0.45218632,0.5295121,1.0,1,0,0,0,0,0,0
1278964334,6.900569e-05,-0.06914134,0.9391731,0.0,0.8912221,0.015671473,-0.030806841,0.45224828,0.52623844,1.0,1,0,0,0,0,0,0
1279063915,0.005720653,-0.0650379,0.9391731,0.0,0.8912383,0.017262101,-0.027700057,0.45235944,0.517983,1.0,1,0,0,0,0,0,0
1279167900,0.013372533,-0.07284978,0.93929285,0.0,0.89100677,0.022439169,-0.029449219,0.45247778,0.51263887,1.0,1,0,0,0,0,0,0
1279272298,0.028762216,-0.07919467,0.9394275,0.0,0.8906491,0.030729558,-0.028791977,0.4527371,0.5124061,1.0,1,0,0,0,0,0,0
1279371895,0.0355949,-0.066687256,0.93964607,0.0,0.89074314,0.030949835,-0.021668065,0.4529342,0.5023478,1.0,1,0,0,0,0,0,0
1279475832,0.052178755,-0.07185759,0.9399017,0.0,0.8902876,0.03950444,-0.020210568,0.45323172,0.49591202,1.0,1,0,0,0,0,0,0
1279576451,0.057172418,-0.08197017,0.94005555,0.0,0.88991266,0.044011146,-0.023580953,0.45338994,0.4958575,1.0,1,0,0,0,0,0,0
1279675585,0.07557677,-0.07925733,0.94005555,0.0,0.88954186,0.051586736,-0.01819943,0.45356688,0.48778474,1.0,1,0,0,0,0,0,0
1279779588,0.07569785,-0.091639996,0.94100505,0.0,0.88898164,0.05444247,-0.023661576,0.45407903,0.49344876,1.0,1,0,0,0,0,0,0
1279880477,0.08437036,-0.09286111,0.9414389,0.0,0.88860196,0.058576796,-0.022223344,0.4543803,0.48691943,1.0,1,0,0,0,0,0,0
1279979659,0.1063352,-0.08762542,0.9414389,0.0,0.8880732,0.06715328,-0.014901598,0.4545266,0.47533548,1.0,1,0,0,0,0,0,0
1280083568,0.11279338,-0.09801633,0.9424504,0.0,0.8872745,0.072367616,-0.018021444,0.45517272,0.47738224,1.0,1,0,0,0,0,0,0
1280183981,0.1018123,-0.10610004,0.9426744,0.0,0.8873307,0.069318436,-0.024109297,0.45525584,0.4730312,1.0,1,0,0,0,0,0,0
1280288204,0.102963984,-0.11016842,0.9432669,0.0,0.8870105,0.07075305,-0.025636084,0.4555757,0.47202143,1.0,1,0,0,0,0,0,0
1280392455,0.109268785,-0.10197013,0.94365096,0.0,0.88699037,0.07170641,-0.02053959,0.45572403,0.47320932,1.0,1,0,0,0,0,0,0
1280491606,0.1181004,-0.11029762,0.9438372,0.0,0.8863147,0.07749945,-0.022222852,0.4560112,0.47442207,1.0,1,0,0,0,0,0,0
1280595833,0.11628827,-0.09506739,0.94428355,0.0,0.8868312,0.073268734,-0.01584698,0.45597255,0.47125575,1.0,1,0,0,0,0,0,0
1280699836,0.10116429,-0.09746331,0.94454825,0.0,0.8872208,0.067104094,-0.020351298,0.4559848,0.477316,1.0,1,0,0,0,0,0,0
1280800015,0.109900326,-0.09127138,0.94454825,0.0,0.8871263,0.069581285,-0.015605871,0.4559844,0.47394916,1.0,1,0,0,0,0,0,0
1280904051,0.097632155,-0.086413406,0.9449311,0.0,0.887599,0.06304353,-0.016229752,0.4559936,0.47825918,1.0,1,0,0,0,0,0,0
1281008716,0.09330287,-0.08661431,0.9450648,0.0,0.8876969,0.061168633,-0.017302047,0.45601884,0.47551316,1.0,1,0,0,0,0,0,0
1281112151,0.100521,-0.08633181,0.94518834,0.0,0.8874509,0.064309075,-0.015526526,0.45612967,0.47358647,1.0,1,0,0,0,0,0,0
1281211822,0.098505475,-0.08875045,0.94524413,0.0,0.88742834,0.06396214,-0.017060025,0.4561674,0.4723174,1.0,1,0,0,0,0,0,0
1281315868,0.09142189,-0.0785041,0.945313,0.0,0.8879306,0.058500145,-0.014116284,0.45602387,0.4748516,1.0,1,0,0,0,0,0,0
1281417529,0.08405732,-0.07854268,0.94533616,0.0,0.88813365,0.05523907,-0.015811915,0.45597947,0.48623547,1.0,1,0,0,0,0,0,0
1281520499,0.06488207,-0.070118986,0.94535977,0.0,0.8888185,0.044811115,-0.016434558,0.45576707,0.5014319,1.0,1,0,0,0,0,0,0
1281624915,0.0703158,-0.0555637,0.9453091,0.0,0.88902485,0.043923046,-0.008721252,0.45566386,0.497779,1.0,1,0,0,0,0,0,0
1281728132,0.06317663,-0.061283108,0.94525915,0.0,0.88907194,0.04204733,-0.012893792,0.45564997,0.49722362,1.0,1,0,0,0,0,0,0
1281827615,0.046605896,-0.07161992,0.9452061,0.0,0.8891942,0.037026435,-0.021269362,0.45553303,0.5020093,1.0,1,0,0,0,0,0,0
1281931802,0.07277173,-0.045929395,0.9450341,0.0,0.8892214,0.04282727,-0.0038807797,0.45545152,0.46876842,1.0,1,0,0,0,0,0,0
1282032364,0.07623071,-0.07059732,0.94492567,0.0,0.8886372,0.04995921,-0.014071788,0.4556643,0.456152,1.0,1,0,0,0,0,0,0
1282136171,0.08544769,-0.08012218,0.9448553,0.0,0.8881614,0.056210324,-0.016211014,0.45579255,0.441816,1.0,1,0,0,0,0,0,0
1282235992,0.09154302,-0.080400884,0.94478875,0.0,0.88799334,0.058979444,-0.01494777,0.4558135,0.43286058,1.0,1,0,0,0,0,0,0
1282336472,0.08044274,-0.09234282,0.9447743,0.0,0.88797176,0.05675285,-0.022790255,0.4558135,0.43358472,1.0,1,0,0,0,0,0,0
1282440349,0.08601858,-0.1134942,0.9447005,0.0,0.88713634,0.0640075,-0.030928688,0.45599955,0.4344059,1.0,1,0,0,0,0,0,0
1282539701,0.0786279,-0.1231476,0.9446893,0.0,0.8870293,0.06290912,-0.036906343,0.45591602,0.4334537,1.0,1,0,0,0,0,0,0
1282639959,0.058026027,-0.11527321,0.9446893,0.0,0.8878909,0.051987376,-0.038099185,0.4555169,0.44040585,1.0,1,0,0,0,0,0,0
1282744496,0.058679346,-0.11092293,0.9445609,0.0,0.8880415,0.051290687,-0.036018994,0.4554714,0.44048357,1.0,1,0,0,0,0,0,0
1282843998,0.049998194,-0.12082968,0.94442403,0.0,0.88797534,0.049675208,-0.04240468,0.4552297,0.44748342,1.0,1,0,0,0,0,0,0
1282947857,0.048435878,-0.1056903,0.94442403,0.0,0.8884786,0.045554183,-0.036027055,0.45522827,0.4463771,1.0,1,0,0,0,0,0,0
1283048665,0.043332987,-0.10971779,0.9441251,0.0,0.88854355,0.044193648,-0.03898645,0.45499158,0.44688275,1.0,1,0,0,0,0,0,0
1283147677,0.047493838,-0.09664473,0.9439902,0.0,0.888851,0.043079533,-0.032226805,0.4550269,0.44973394,1.0,1,0,0,0,0,0,0
1283252011,0.04884341,-0.09940312,0.9439902,0.0,0.88874626,0.044303965,-0.03314706,0.45504782,0.44928154,1.0,1,0,0,0,0,0,0
1283352360,0.018644916,-0.09094189,0.9436125,0.0,0.8895968,0.028953606,-0.036254894,0.45438388,0.44307035,1.0,1,0,0,0,0,0,0
1283451969,0.024300195,-0.09970437,0.9433647,0.0,0.8893576,0.03345071,-0.038873073,0.45432687,0.4467316,1.0,1,0,0,0,0,0,0
1283555636,0.022934267,-0.09572897,0.94312054,0.0,0.88953257,0.03193769,-0.03741833,0.4542154,0.45244655,1.0,1,0,0,0,0,0,0
1283656826,-0.0002594779,-0.09962166,0.9428483,0.0,0.8898203,0.022497067,-0.044418085,0.45358658,0.46968183,1.0,1,0,0,0,0,0,0
1283760398,-0.005243253,-0.081317775,0.942733,0.0,0.8902576,0.016124416,-0.037404373,0.45363244,0.47405946,1.0,1,0,0,0,0,0,0
1283864431,-0.0034779147,-0.08214474,0.942733,0.0,0.89022833,0.017097848,-0.037372027,0.45365694,0.4729122,1.0,1,0,0,0,0,0,0
1283963648,-0.002397299,-0.08568676,0.9418558,0.0,0.89035255,0.018365461,-0.038711417,0.45325094,0.46180332,1.0,1,0,0,0,0,0,0
1284067608,-0.022479177,-0.08641657,0.94152457,0.0,0.89055496,0.009583048,-0.043586824,0.45268115,0.46443936,1.0,1,0,0,0,0,0,0
1284168852,-0.008712413,-0.09456495,0.94117314,0.0,0.8903913,0.01755177,-0.04409982,0.45271462,0.45450315,1.0,1,0,0,0,0,0,0
1284267602,-0.011596864,-0.10157924,0.94081074,0.0,0.8903536,0.017848054,-0.047877587,0.4523932,0.45246807,1.0,1,0,0,0,0,0,0
1284371834,-0.0028317694,-0.09985988,0.9406596,0.0,0.89033914,0.021357266,-0.0451308,0.45255208,0.44205877,1.0,1,0,0,0,0,0,0
1284472212,-0.03503512,-0.10775556,0.9402136,0.0,0.890517,0.008796294,-0.05592572,0.45141375,0.4428559,1.0,1,0,0,0,0,0,0
1284571747,-0.01694557,-0.10315685,0.9399297,0.0,0.8905644,0.015802288,-0.049796265,0.45184705,0.43434095,1.0,1,0,0,0,0,0,0
1284675858,-0.02604343,-0.091449685,0.9397998,0.0,0.89087564,0.00909723,-0.0466411,0.45175475,0.4342276,1.0,1,0,0,0,0,0,0
1284776339,-0.006747459,-0.103367686,0.939517,0.0,0.8905608,0.02038097,-0.047589697,0.45190856,0.43544444,1.0,1,0,0,0,0,0,0
1284880167,-0.016157642,-0.11170087,0.9393918,0.0,0.89049065,0.018072166,-0.05342551,0.45149252,0.445878,1.0,1,0,0,0,0,0,0
1284984062,-0.01735312,-0.09670551,0.9393373,0.0,0.89083236,0.014146757,-0.047020905,0.45167089,0.45233038,1.0,1,0,0,0,0,0,0
1285083674,-0.006133693,-0.095768,0.9392591,0.0,0.89077616,0.018930128,-0.044069692,0.45190433,0.45912132,1.0,1,0,0,0,0,0,0
1285187921,-0.013897454,-0.07564317,0.9392197,0.0,0.8912046,0.010919211,-0.036860637,0.45196953,0.45817488,1.0,1,0,0,0,0,0,0
1285288026,-0.019708186,-0.0862914,0.9390766,0.0,0.8910964,0.010735994,-0.042917054,0.45165256,0.46182817,1.0,1,0,0,0,0,0,0
1285387692,0.002020698,-0.08638772,0.93898344,0.0,0.8909463,0.020436432,-0.03805153,0.4520498,0.45307228,1.0,1,0,0,0,0,0,0
1285491596,-0.026177036,-0.09553466,0.93893933,0.0,0.8909975,0.009941713,-0.04849396,0.45130134,0.44977206,1.0,1,0,0,0,0,0,0
1285592490,-0.028415993,-0.09692482,0.9388753,0.0,0.89099723,0.0092571555,-0.04961833,0.45119426,0.44112638,1.0,1,0,0,0,0,0,0
1285691600,-0.023370398,-0.10169571,0.93886745,0.0,0.89087975,0.012583698,-0.05060395,0.45123622,0.43812004,1.0,1,0,0,0,0,0,0
1285795693,-0.016404863,-0.102457374,0.93886745,0.0,0.89081466,0.015858533,-0.049371205,0.45139813,0.43639138,1.0,1,0,0,0,0,0,0
1285896293,-0.0007409865,-0.11105496,0.93893707,0.0,0.8904436,0.024778504,-0.0496618,0.45169672,0.43995494,1.0,1,0,0,0,0,0,0
1286000234,0.006376554,-0.097341694,0.9390099,0.0,0.89066166,0.024851974,-0.04194612,0.4520451,0.43307918,1.0,1,0,0,0,0,0,0
1286103931,-0.0021348416,-0.0865932,0.9390853,0.0,0.89096,0.018633645,-0.03908129,0.45201305,0.43614784,1.0,1,0,0,0,0,0,0
1286203859,0.0065249144,-0.099491455,0.939144,0.0,0.8905807,0.025406502,-0.042868372,0.4520872,0.4439991,1.0,1,0,0,0,0,0,0
1286307575,-0.004423199,-0.07121565,0.9392146,0.0,0.89121425,0.01413945,-0.032746546,0.4521779,0.4408236,1.0,1,0,0,0,0,0,0
1286408407,0.019112553,-0.074498266,0.93928045,0.0,0.89091086,0.025368595,-0.028885242,0.45254824,0.4442743,1.0,1,0,0,0,0,0,0
1286507579,0.019427376,-0.084258586,0.9393559,0.0,0.8906957,0.02771515,-0.03316196,0.45254102,0.44551593,1.0,1,0,0,0,0,0,0
1286611629,0.007569224,-0.08435331,0.93944824,0.0,0.8908216,0.022456761,-0.03588568,0.45237687,0.44261923,1.0,1,0,0,0,0,0,0
1286711887,0.021209467,-0.086215034,0.9395506,0.0,0.8905847,0.028953992,-0.033627555,0.45264742,0.43516627,1.0,1,0,0,0,0,0,0
1286811872,0.024669757,-0.08045481,0.93961644,0.0,0.8906414,0.02919455,-0.030277042,0.45275697,0.42767924,1.0,1,0,0,0,0,0,0
1286915658,0.043928638,-0.08410082,0.93992805,0.0,0.8901635,0.03859666,-0.027534364,0.4531679,0.42896438,1.0,1,0,0,0,0,0,0
1287017218,0.046110466,-0.092169926,0.9401192,0.0,0.889877,0.041391812,-0.030630577,0.4532851,0.42779475,1.0,1,0,0,0,0,0,0
1287119894,0.039757892,-0.09195905,0.9403015,0.0,0.889968,0.0385204,-0.031972747,0.45326695,0.4312329,1.0,1,0,0,0,0,0,0
1287219896,0.03789849,-0.08407322,0.94048804,0.0,0.89014953,0.035914443,-0.028878223,0.45333216,0.42672578,1.0,1,0,0,0,0,0,0
1287320145,0.03426177,-0.074681014,0.94057477,0.0,0.8903962,0.032173887,-0.025517188,0.45333025,0.4239196,1.0,1,0,0,0,0,0,0
1287424958,0.0131747145,-0.07694708,0.9408104,0.0,0.89059085,0.02330084,-0.03130205,0.45312816,0.43147635,1.0,1,0,0,0,0,0,0
1287528541,0.028775863,-0.07924776,0.94095516,0.0,0.8903017,0.030769622,-0.028789045,0.4534173,0.43618062,1.0,1,0,0,0,0,0,0
1287627637,0.010644999,-0.082726605,0.94101375,0.0,0.8904638,0.023486022,-0.03444686,0.45314017,0.44114935,1.0,1,0,0,0,0,0,0
1287731614,0.03355121,-0.058386754,0.9411846,0.0,0.8905728,0.028177971,-0.018409997,0.45359364,0.43678483,1.0,1,0,0,0,0,0,0
1287832175,0.03755621,-0.067779064,0.94128555,0.0,0.89031965,0.03208777,-0.02168414,0.45368603,0.4560521,1.0,1,0,0,0,0,0,0
1287935961,0.03486685,-0.05833427,0.9414147,0.0,0.89050275,0.028754007,-0.018084917,0.45370814,0.463377,1.0,1,0,0,0,0,0,0
1288035860,0.05809981,-0.04364878,0.94154924,0.0,0.8903416,0.03577404,-0.00626915,0.45384228,0.46101168,1.0,1,0,0,0,0,0,0
1288136097,0.062317044,-0.044184774,0.94164824,0.0,0.8902326,0.037772927,-0.005549039,0.45390338,0.468443,1.0,1,0,0,0,0,0,0
1288240753,0.06590615,-0.038367193,0.94164824,0.0,0.89026034,0.03805371,-0.002143243,0.4538544,0.46566868,1.0,1,0,0,0,0,0,0
1288344002,0.0800503,-0.03128153,0.942217,0.0,0.8899591,0.042744126,0.0042340956,0.45401296,0.46754003,1.0,1,0,0,0,0,0,0
1288443821,0.098130375,-0.022630662,0.9425674,0.0,0.889605,0.048827276,0.012197267,0.45394942,0.46410897,1.0,1,0,0,0,0,0,0
1288547931,0.10717648,-0.026803873,0.9430266,0.0,0.8891971,0.053792372,0.012405773,0.45418164,0.46484256,1.0,1,0,0,0,0,0,0
1288648233,0.12236966,-0.01824103,0.943513,0.0,0.8888142,0.05860245,0.019678062,0.45407915,0.46653262,1.0,1,0,0,0,0,0,0
1288747676,0.13199082,-0.017760526,0.9437727,0.0,0.88847214,0.06276579,0.02208396,0.4540815,0.4656975,1.0,1,0,0,0,0,0,0
1288851607,0.1184521,-0.023686158,0.944554,0.0,0.8885921,0.058086358,0.016397256,0.45471,0.47337744,1.0,1,0,0,0,0,0,0
1288952188,0.11572373,-0.021287156,0.9450715,0.0,0.88859636,0.056325708,0.016858207,0.45490626,0.4711784,1.0,1,0,0,0,0,0,0
1289051837,0.121659726,-0.02352942,0.9453171,0.0,0.8883273,0.059469324,0.017218884,0.45501825,0.47593948,1.0,1,0,0,0,0,0,0
1289155689,0.11559844,-0.024958286,0.9459901,0.0,0.8883237,0.057095956,0.015223794,0.45540014,0.48377728,1.0,1,0,0,0,0,0,0
1289256632,0.11706678,-0.01111545,0.94635195,0.0,0.8884391,0.054599896,0.021720361,0.45521754,0.47855413,1.0,1,0,0,0,0,0,0
1289360410,0.11839965,-0.02302234,0.9466658,0.0,0.88812536,0.057894893,0.016741619,0.45563278,0.48124415,1.0,1,0,0,0,0,0,0
1289464043,0.11731863,-0.012781263,0.9469892,0.0,0.8882605,0.055083714,0.021055,0.455539,0.4800228,1.0,1,0,0,0,0,0,0
1289563945,0.10767135,-0.017906154,0.9469892,0.0,0.88843554,0.051964257,0.016579775,0.45574906,0.48621297,1.0,1,0,0,0,0,0,0
1289664324,0.09685947,-0.021116778,0.9471484,0.0,0.88861775,0.04789013,0.012692306,0.4559647,0.4979828,1.0,1,0,0,0,0,0,0
1289768025,0.09075472,-0.011910927,0.9471527,0.0,0.8888878,0.043081988,0.015393333,0.45583484,0.49761346,1.0,1,0,0,0,0,0,0
1289867611,0.08044961,-0.014197617,0.947135,0.0,0.88907444,0.039022252,0.012027279,0.45593774,0.50582856,1.0,1,0,0,0,0,0,0
1289971829,0.07231124,-0.0072370353,0.9469121,0.0,0.8893506,0.033820037,0.0132636335,0.45578036,0.4993996,1.0,1,0,0,0,0,0,0
1290072548,0.07602177,-0.008820391,0.94670534,0.0,0.8893169,0.03583195,0.013401366,0.4556884,0.501062,1.0,1,0,0,0,0,0,0
1290176961,0.069603,-0.017721435,0.94645387,0.0,0.8893878,0.035005294,0.007975277,0.45574152,0.5094067,1.0,1,0,0,0,0,0,0
1290280042,0.06277284,-0.0127046015,0.9461631,0.0,0.8896213,0.030826913,0.008646211,0.45557538,0.50649744,1.0,1,0,0,0,0,0,0
1290379797,0.052198946,-0.011300044,0.94600946,0.0,0.8898189,0.02580388,0.006860488,0.45553198,0.5044364,1.0,1,0,0,0,0,0,0
1290480006,0.055737056,-0.016692577,0.9455783,0.0,0.8898191,0.028606461,0.0052606976,0.45538563,0.49648538,1.0,1,0,0,0,0,0,0
1290584009,0.054765753,-0.014533761,0.94521004,0.0,0.8899376,0.027684292,0.005995156,0.45520177,0.49546808,1.0,1,0,0,0,0,0,0
1290683649,0.057882257,-0.021959886,0.9450517,0.0,0.8898504,0.030759834,0.0033970533,0.45520172,0.49244437,1.0,1,0,0,0,0,0,0
1290787672,0.058037702,-0.023052812,0.9444733,0.0,0.8899669,0.031078286,0.0029370172,0.4549554,0.49198738,1.0,1,0,0,0,0,0,0
1290891626,0.047644757,-0.01303079,0.944123,0.0,0.8902906,0.024176374,0.005030199,0.45472285,0.49329257,1.0,1,0,0,0,0,0,0
1290992470,0.035699338,-0.013882982,0.944123,0.0,0.8904131,0.019052202,0.0019347499,0.45475015,0.503737,1.0,1,0,0,0,0,0,0
1291096227,0.04187804,-0.01581842,0.94329137,0.0,0.8905234,0.022243738,0.002468634,0.45438665,0.50583214,1.0,1,0,0,0,0,0,0
1291200000,0.037121035,-0.02504523,0.94293606,0.0,0.8905736,0.022219943,-0.0027252713,0.45428783,0.5072061,1.0,1,0,0,0,0,0,0
1291299730,0.03147339,-0.023213468,0.9425188,0.0,0.890744,0.019288616,-0.0031962339,0.45408466,0.5125383,1.0,1,0,0,0,0,0,0
1291403649,0.039222106,-0.01677219,0.94217014,0.0,0.89079905,0.02127849,0.0014285325,0.45389676,0.50148964,1.0,1,0,0,0,0,0,0
1291504385,0.031813473,-0.030687727,0.9420187,0.0,0.89078236,0.021134073,-0.0064537153,0.4538926,0.51376796,1.0,1,0,0,0,0,0,0
1291603572,0.039404448,-0.01269067,0.9417009,0.0,0.8909352,0.020434743,0.003283327,0.45365864,0.50473875,1.0,1,0,0,0,0,0,0
1291707586,0.05089939,-0.016706023,0.9415548,0.0,0.8907999,0.026465414,0.0040999637,0.453606,0.5044224,1.0,1,0,0,0,0,0,0
1291807994,0.052913535,-0.021799821,0.9415107,0.0,0.8907304,0.028516738,0.0022869182,0.4536309,0.5118937,1.0,1,0,0,0,0,0,0
1291907710,0.050379414,-0.020238698,0.941478,0.0,0.8907894,0.027034428,0.0024071871,0.45360512,0.5190095,1.0,1,0,0,0,0,0,0
1292011881,0.07112443,-0.01848328,0.9415441,0.0,0.8904678,0.035874728,0.007895029,0.45356116,0.51037365,1.0,1,0,0,0,0,0,0
1292112315,0.060172047,-0.021217449,0.9415441,0.0,0.8906202,0.031617243,0.004193193,0.45362812,0.5100276,1.0,1,0,0,0,0,0,0
1292217177,0.07944616,-0.029707696,0.94182694,0.0,0.89008534,0.042119812,0.004789514,0.4538183,0.50390923,1.0,1,0,0,0,0,0,0
1292320375,0.078972355,-0.035424836,0.94203806,0.0,0.88995475,0.043202832,0.0021406272,0.4539928,0.5066534,1.0,1,0,0,0,0,0,0
1292419583,0.08463201,-0.02441116,0.94203806,0.0,0.89000803,0.04322773,0.008329153,0.45381466,0.5037315,1.0,1,0,0,0,0,0,0
1292520879,0.0892142,-0.020885218,0.94248796,0.0,0.889858,0.044465855,0.010948597,0.4539336,0.50360894,1.0,1,0,0,0,0,0,0
1292625028,0.0901436,-0.02596495,0.9427289,0.0,0.88970405,0.046028946,0.0089039,0.4541241,0.51375294,1.0,1,0,0,0,0,0,0
1292723887,0.084608905,-0.016211178,0.94313943,0.0,0.8898743,0.041353624,0.011997548,0.4541692,0.5097163,1.0,1,0,0,0,0,0,0
1292827514,0.09079167,-0.017824104,0.94343567,0.0,0.8896522,0.044468183,0.012690271,0.45429125,0.5137007,1.0,1,0,0,0,0,0,0
1292928027,0.09856763,-0.016953869,0.94343567,0.0,0.88948566,0.04772947,0.01484364,0.4542211,0.5088925,1.0,1,0,0,0,0,0,0
1293027611,0.10136055,-0.01499642,0.9439984,0.0,0.88931984,0.048523143,0.016362451,0.45440957,0.5087636,1.0,1,0,0,0,0,0,0
1293131646,0.096749656,-0.019315084,0.94432235,0.0,0.8892917,0.047450364,0.013401159,0.4546747,0.51468307,1.0,1,0,0,0,0,0,0
1293232390,0.10333634,-0.008377337,0.94432235,0.0,0.8892927,0.04789666,0.019763263,0.4543938,0.5116833,1.0,1,0,0,0,0,0,0
1293336332,0.09434781,-0.019124491,0.94488984,0.0,0.88922185,0.046335433,0.012953059,0.45493922,0.51808655,1.0,1,0,0,0,0,0,0
1293440756,0.0908154,-0.012713879,0.9450514,0.0,0.88935447,0.04330756,0.015004707,0.45491531,0.5180794,1.0,1,0,0,0,0,0,0
1293544118,0.094884194,-0.027841449,0.9451725,0.0,0.8890055,0.04855147,0.009204421,0.45522213,0.52126473,1.0,1,0,0,0,0,0,0
1293643667,0.08667382,-0.020617982,0.94543755,0.0,0.8892472,0.043259464,0.010554777,0.45525452,0.5169452,1.0,1,0,0,0,0,0,0
1293747830,0.091568306,-0.020259533,0.94552934,0.0,0.88912314,0.04535356,0.011830381,0.45526174,0.5109609,1.0,1,0,0,0,0,0,0
1293848515,0.088155635,-0.025104798,0.94555026,0.0,0.88912135,0.044937186,0.008898788,0.4553731,0.5102683,1.0,1,0,0,0,0,0,0
1293952193,0.083036646,-0.020861655,0.945555,0.0,0.8892942,0.041697033,0.009620892,0.45532912,0.5023341,1.0,1,0,0,0,0,0,0
1294056033,0.07615342,-0.020007517,0.9454902,0.0,0.8894585,0.03844229,0.008432529,0.45531827,0.50954807,1.0,1,0,0,0,0,0,0
1294155827,0.08763386,-0.021620234,0.9454902,0.0,0.8891996,0.04391377,0.010328642,0.45529,0.5104642,1.0,1,0,0,0,0,0,0
1294256627,0.081113026,-0.026682772,0.9454356,0.0,0.88927656,0.042164996,0.0065908157,0.45537442,0.50433415,1.0,1,0,0,0,0,0,0
1294360037,0.08503483,-0.0347843,0.9451333,0.0,0.88912725,0.045749396,0.0038727848,0.45535117,0.505403,1.0,1,0,0,0,0,0,0
1294459710,0.07008463,-0.032938156,0.94506544,0.0,0.88948846,0.03868255,0.0012891305,0.4553156,0.51094437,1.0,1,0,0,0,0,0,0
1294564197,0.06213598,-0.047154196,0.94488674,0.0,0.88944876,0.03837554,-0.0068506645,0.45536944,0.52023554,1.0,1,0,0,0,0,0,0
1294667627,0.07700781,-0.046845116,0.9446388,0.0,0.88920116,0.04491774,-0.0033324505,0.4552939,0.50659287,1.0,1,0,0,0,0,0,0
1294768075,0.06851824,-0.0452637,0.9446388,0.0,0.88941234,0.04078401,-0.004561217,0.45525986,0.50982267,1.0,1,0,0,0,0,0,0
1294872885,0.08079173,-0.038258925,0.9443634,0.0,0.88933736,0.044652343,0.0013435635,0.45506415,0.5065393,1.0,1,0,0,0,0,0,0
1294976182,0.085773654,-0.04575581,0.94424087,0.0,0.8891082,0.0485674,-0.00086188177,0.45511216,0.5061784,1.0,1,0,0,0,0,0,0
1295075642,0.08177819,-0.03506088,0.94419116,0.0,0.88941026,0.044365752,0.0029873655,0.45494193,0.5068411,1.0,1,0,0,0,0,0,0
1295179728,0.07546694,-0.039718382,0.94404733,0.0,0.88949984,0.042615462,-0.0005242745,0.45494354,0.5131655,1.0,1,0,0,0,0,0,0
1295280245,0.0851682,-0.037736356,0.9440067,0.0,0.8893282,0.04648024,0.0025635923,0.4548938,0.50926226,1.0,1,0,0,0,0,0,0
1295384148,0.093339644,-0.034890406,0.9440249,0.0,0.8891799,0.04946824,0.0056889337,0.45484027,0.4999621,1.0,1,0,0,0,0,0,0
1295488518,0.090908766,-0.03649809,0.9440623,0.0,0.88920146,0.048751857,0.0044216216,0.45488948,0.49940994,1.0,1,0,0,0,0,0,0
1295591928,0.085823834,-0.052085526,0.9441008,0.0,0.8890082,0.05002404,-0.003670678,0.45513564,0.5048792,1.0,1,0,0,0,0,0,0
1295691598,0.09012356,-0.03781983,0.94424874,0.0,0.88915366,0.048702054,0.003659416,0.454995,0.4976656,1.0,1,0,0,0,0,0,0
1295795602,0.09556923,-0.044444855,0.944345,0.0,0.8888633,0.052624322,0.001953185,0.45513606,0.49854076,1.0,1,0,0,0,0,0,0
1295896878,0.08327854,-0.043396268,0.94438106,0.0,0.8891819,0.046923224,-0.00037633025,0.45514134,0.5033328,1.0,1,0,0,0,0,0,0
1295999931,0.07856407,-0.0445966,0.9444966,0.0,0.8892413,0.04509944,-0.0019807846,0.4552055,0.509061,1.0,1,0,0,0,0,0,0
1296104222,0.07990237,-0.03925328,0.9445678,0.0,0.889293,0.044482358,0.0007032373,0.45516884,0.5026857,1.0,1,0,0,0,0,0,0
1296208205,0.085906774,-0.039346904,0.9445678,0.0,0.8891538,0.047173236,0.0020280825,0.45516607,0.5073347,1.0,1,0,0,0,0,0,0
1296307642,0.076560795,-0.04086391,0.94471824,0.0,0.8893035,0.043362003,-0.0007707588,0.45525643,0.5130045,1.0,1,0,0,0,0,0,0
