timestamp,noutputs,output[0],output[1],output[2],output[3],output[4],output[5],output[6],output[7],output[8],output[9],output[10],output[11],output[12],output[13],output[14],output[15]
1244756346,8,1166.0,1181.0,1193.0,1189.0,1177.0,1159.0,1150.0,1151.0,0.0,0.0,0.0,0.0,0.0,0.0,0.0,0.0
1244932392,8,1450.0,1466.0,1478.0,1475.0,1463.0,1444.0,1434.0,1435.0,0.0,0.0,0.0,0.0,0.0,0.0,0.0,0.0
1244976222,8,1455.0,1472.0,1484.0,1481.0,1468.0,1449.0,1439.0,1440.0,0.0,0.0,0.0,0.0,0.0,0.0,0.0,0.0
1245016760,8,1460.0,1477.0,1490.0,1487.0,1473.0,1453.0,1443.0,1444.0,0.0,0.0,0.0,0.0,0.0,0.0,0.0,0.0
1245060423,8,1465.0,1482.0,1495.0,1492.0,1478.0,1458.0,1448.0,1449.0,0.0,0.0,0.0,0.0,0.0,0.0,0.0,0.0
1245104373,8,1470.0,1486.0,1501.0,1496.0,1485.0,1463.0,1454.0,1453.0,0.0,0.0,0.0,0.0,0.0,0.0,0.0,0.0
1245128363,8,1473.0,1493.0,1503.0,1502.0,1486.0,1469.0,1456.0,1459.0,0.0,0.0,0.0,0.0,0.0,0.0,0.0,0.0
1245172345,8,1479.0,1495.0,1510.0,1505.0,1493.0,1470.0,1461.0,1461.0,0.0,0.0,0.0,0.0,0.0,0.0,0.0,0.0
1245220497,8,1480.0,1504.0,1511.0,1515.0,1497.0,1483.0,1466.0,1472.0,0.0,0.0,0.0,0.0,0.0,0.0,0.0,0.0
1245268819,8,1497.0,1490.0,1528.0,1507.0,1521.0,1480.0,1490.0,1463.0,0.0,0.0,0.0,0.0,0.0,0.0,0.0,0.0
1245312328,8,1486.0,1515.0,1518.0,1532.0,1510.0,1504.0,1477.0,1487.0,0.0,0.0,0.0,0.0,0.0,0.0,0.0,0.0
1245352335,8,1502.0,1517.0,1540.0,1531.0,1521.0,1491.0,1483.0,1477.0,0.0,0.0,0.0,0.0,0.0,0.0,0.0,0.0
1245392372,8,1504.0,1526.0,1551.0,1543.0,1529.0,1494.0,1482.0,1477.0,0.0,0.0,0.0,0.0,0.0,0.0,0.0,0.0
1245440356,8,1510.0,1540.0,1550.0,1549.0,1524.0,1503.0,1484.0,1493.0,0.0,0.0,0.0,0.0,0.0,0.0,0.0,0.0
1245464339,8,1517.0,1538.0,1556.0,1548.0,1531.0,1502.0,1492.0,1492.0,0.0,0.0,0.0,0.0,0.0,0.0,0.0,0.0
1245512387,8,1517.0,1542.0,1554.0,1556.0,1537.0,1517.0,1500.0,1503.0,0.0,0.0,0.0,0.0,0.0,0.0,0.0,0.0
1245552438,8,1527.0,1543.0,1560.0,1555.0,1544.0,1520.0,1511.0,1509.0,0.0,0.0,0.0,0.0,0.0,0.0,0.0,0.0
1245600340,8,1532.0,1547.0,1558.0,1559.0,1548.0,1533.0,1522.0,1521.0,0.0,0.0,0.0,0.0,0.0,0.0,0.0,0.0
1245640385,8,1537.0,1554.0,1567.0,1567.0,1555.0,1537.0,1525.0,1525.0,0.0,0.0,0.0,0.0,0.0,0.0,0.0,0.0
1245684379,8,1544.0,1560.0,1581.0,1575.0,1565.0,1538.0,1528.0,1523.0,0.0,0.0,0.0,0.0,0.0,0.0,0.0,0.0
1245728376,8,1549.0,1565.0,1584.0,1579.0,1569.0,1544.0,1534.0,1530.0,0.0,0.0,0.0,0.0,0.0,0.0,0.0,0.0
1245768348,8,1556.0,1568.0,1575.0,1574.0,1566.0,1556.0,1548.0,1549.0,0.0,0.0,0.0,0.0,0.0,0.0,0.0,0.0
1245812422,8,1568.0,1561.0,1538.0,1551.0,1554.0,1583.0,1583.0,1593.0,0.0,0.0,0.0,0.0,0.0,0.0,0.0,0.0
1245852436,8,1567.0,1534.0,1487.0,1521.0,1549.0,1622.0,1629.0,1635.0,0.0,0.0,0.0,0.0,0.0,0.0,0.0,0.0
1245896376,8,1571.0,1505.0,1445.0,1487.0,1545.0,1647.0,1671.0,1666.0,0.0,0.0,0.0,0.0,0.0,0.0,0.0,0.0
1245936375,8,1538.0,1486.0,1433.0,1487.0,1540.0,1636.0,1644.0,1635.0,0.0,0.0,0.0,0.0,0.0,0.0,0.0,0.0
1245980406,8,1483.0,1474.0,1434.0,1507.0,1529.0,1609.0,1578.0,1576.0,0.0,0.0,0.0,0.0,0.0,0.0,0.0,0.0
1246020470,8,1455.0,1464.0,1445.0,1509.0,1522.0,1573.0,1536.0,1526.0,0.0,0.0,0.0,0.0,0.0,0.0,0.0,0.0
1246068390,8,1495.0,1469.0,1449.0,1471.0,1499.0,1539.0,1545.0,1537.0,0.0,0.0,0.0,0.0,0.0,0.0,0.0,0.0
1246112368,8,1472.0,1433.0,1439.0,1445.0,1489.0,1504.0,1522.0,1492.0,0.0,0.0,0.0,0.0,0.0,0.0,0.0,0.0
1246132722,8,1489.0,1446.0,1455.0,1435.0,1473.0,1472.0,1508.0,1484.0,0.0,0.0,0.0,0.0,0.0,0.0,0.0,0.0
1246176456,8,1462.0,1430.0,1464.0,1442.0,1479.0,1451.0,1477.0,1439.0,0.0,0.0,0.0,0.0,0.0,0.0,0.0,0.0
1246220335,8,1463.0,1429.0,1458.0,1427.0,1460.0,1431.0,1465.0,1433.0,0.0,0.0,0.0,0.0,0.0,0.0,0.0,0.0
1246264363,8,1462.0,1429.0,1454.0,1426.0,1458.0,1435.0,1466.0,1438.0,0.0,0.0,0.0,0.0,0.0,0.0,0.0,0.0
1246312496,8,1457.0,1406.0,1431.0,1410.0,1463.0,1451.0,1490.0,1447.0,0.0,0.0,0.0,0.0,0.0,0.0,0.0,0.0
1246352424,8,1450.0,1398.0,1429.0,1414.0,1473.0,1460.0,1494.0,1444.0,0.0,0.0,0.0,0.0,0.0,0.0,0.0,0.0
1246396707,8,1449.0,1411.0,1438.0,1426.0,1470.0,1456.0,1481.0,1441.0,0.0,0.0,0.0,0.0,0.0,0.0,0.0,0.0
1246440466,8,1452.0,1412.0,1441.0,1426.0,1472.0,1456.0,1483.0,1442.0,0.0,0.0,0.0,0.0,0.0,0.0,0.0,0.0
1246480365,8,1450.0,1408.0,1442.0,1429.0,1480.0,1461.0,1488.0,1440.0,0.0,0.0,0.0,0.0,0.0,0.0,0.0,0.0
1246524460,8,1451.0,1410.0,1447.0,1429.0,1478.0,1454.0,1483.0,1435.0,0.0,0.0,0.0,0.0,0.0,0.0,0.0,0.0
1246568448,8,1457.0,1416.0,1456.0,1428.0,1475.0,1443.0,1477.0,1431.0,0.0,0.0,0.0,0.0,0.0,0.0,0.0,0.0
1246612336,8,1459.0,1415.0,1458.0,1427.0,1475.0,1440.0,1477.0,1429.0,0.0,0.0,0.0,0.0,0.0,0.0,0.0,0.0
1246656414,8,1465.0,1416.0,1457.0,1422.0,1474.0,1440.0,1482.0,1433.0,0.0,0.0,0.0,0.0,0.0,0.0,0.0,0.0
1246700394,8,1464.0,1413.0,1456.0,1421.0,1475.0,1440.0,1483.0,1432.0,0.0,0.0,0.0,0.0,0.0,0.0,0.0,0.0
1246740408,8,1466.0,1410.0,1455.0,1417.0,1476.0,1439.0,1487.0,1432.0,0.0,0.0,0.0,0.0,0.0,0.0,0.0,0.0
1246784396,8,1460.0,1408.0,1457.0,1424.0,1482.0,1444.0,1485.0,1428.0,0.0,0.0,0.0,0.0,0.0,0.0,0.0,0.0
1246808434,8,1465.0,1408.0,1459.0,1419.0,1481.0,1439.0,1486.0,1427.0,0.0,0.0,0.0,0.0,0.0,0.0,0.0,0.0
1246852895,8,1458.0,1404.0,1457.0,1422.0,1484.0,1441.0,1484.0,1423.0,0.0,0.0,0.0,0.0,0.0,0.0,0.0,0.0
1246912355,8,1458.0,1407.0,1462.0,1426.0,1486.0,1440.0,1482.0,1421.0,0.0,0.0,0.0,0.0,0.0,0.0,0.0,0.0
1246936401,8,1458.0,1409.0,1464.0,1430.0,1488.0,1443.0,1482.0,1421.0,0.0,0.0,0.0,0.0,0.0,0.0,0.0,0.0
1247000348,8,1458.0,1407.0,1461.0,1429.0,1489.0,1446.0,1485.0,1424.0,0.0,0.0,0.0,0.0,0.0,0.0,0.0,0.0
1247020337,8,1458.0,1408.0,1463.0,1431.0,1491.0,1448.0,1486.0,1425.0,0.0,0.0,0.0,0.0,0.0,0.0,0.0,0.0
1247068659,8,1459.0,1408.0,1457.0,1427.0,1486.0,1448.0,1487.0,1429.0,0.0,0.0,0.0,0.0,0.0,0.0,0.0,0.0
1247112352,8,1460.0,1406.0,1457.0,1424.0,1486.0,1447.0,1489.0,1429.0,0.0,0.0,0.0,0.0,0.0,0.0,0.0,0.0
1247156405,8,1459.0,1407.0,1455.0,1425.0,1486.0,1451.0,1490.0,1432.0,0.0,0.0,0.0,0.0,0.0,0.0,0.0,0.0
1247200350,8,1460.0,1408.0,1455.0,1426.0,1485.0,1450.0,1489.0,1432.0,0.0,0.0,0.0,0.0,0.0,0.0,0.0,0.0
1247244380,8,1463.0,1411.0,1454.0,1424.0,1481.0,1449.0,1490.0,1436.0,0.0,0.0,0.0,0.0,0.0,0.0,0.0,0.0
1247288364,8,1461.0,1406.0,1447.0,1419.0,1479.0,1450.0,1492.0,1438.0,0.0,0.0,0.0,0.0,0.0,0.0,0.0,0.0
1247332403,8,1461.0,1403.0,1452.0,1421.0,1485.0,1450.0,1494.0,1433.0,0.0,0.0,0.0,0.0,0.0,0.0,0.0,0.0
1247376338,8,1458.0,1404.0,1451.0,1422.0,1484.0,1450.0,1491.0,1431.0,0.0,0.0,0.0,0.0,0.0,0.0,0.0,0.0
1247420373,8,1460.0,1401.0,1449.0,1419.0,1484.0,1451.0,1495.0,1434.0,0.0,0.0,0.0,0.0,0.0,0.0,0.0,0.0
1247444420,8,1460.0,1401.0,1451.0,1422.0,1490.0,1455.0,1498.0,1434.0,0.0,0.0,0.0,0.0,0.0,0.0,0.0,0.0
1247488358,8,1461.0,1403.0,1446.0,1419.0,1483.0,1456.0,1498.0,1440.0,0.0,0.0,0.0,0.0,0.0,0.0,0.0,0.0
1247528417,8,1462.0,1408.0,1453.0,1423.0,1484.0,1452.0,1494.0,1436.0,0.0,0.0,0.0,0.0,0.0,0.0,0.0,0.0
1247572701,8,1458.0,1409.0,1454.0,1426.0,1483.0,1449.0,1487.0,1432.0,0.0,0.0,0.0,0.0,0.0,0.0,0.0,0.0
1247620337,8,1453.0,1409.0,1456.0,1433.0,1486.0,1453.0,1483.0,1429.0,0.0,0.0,0.0,0.0,0.0,0.0,0.0,0.0
1247664224,8,1455.0,1418.0,1456.0,1436.0,1481.0,1452.0,1479.0,1433.0,0.0,0.0,0.0,0.0,0.0,0.0,0.0,0.0
1247712334,8,1461.0,1425.0,1458.0,1438.0,1480.0,1455.0,1483.0,1442.0,0.0,0.0,0.0,0.0,0.0,0.0,0.0,0.0
1247756333,8,1459.0,1424.0,1455.0,1439.0,1480.0,1460.0,1485.0,1445.0,0.0,0.0,0.0,0.0,0.0,0.0,0.0,0.0
1247780347,8,1461.0,1427.0,1453.0,1439.0,1479.0,1463.0,1487.0,1451.0,0.0,0.0,0.0,0.0,0.0,0.0,0.0,0.0
1247824746,8,1469.0,1428.0,1451.0,1432.0,1476.0,1463.0,1494.0,1458.0,0.0,0.0,0.0,0.0,0.0,0.0,0.0,0.0
1247868341,8,1470.0,1424.0,1449.0,1430.0,1478.0,1466.0,1499.0,1460.0,0.0,0.0,0.0,0.0,0.0,0.0,0.0,0.0
1247916322,8,1474.0,1425.0,1453.0,1432.0,1482.0,1467.0,1503.0,1461.0,0.0,0.0,0.0,0.0,0.0,0.0,0.0,0.0
1247956337,8,1473.0,1424.0,1452.0,1431.0,1482.0,1467.0,1503.0,1460.0,0.0,0.0,0.0,0.0,0.0,0.0,0.0,0.0
1248000374,8,1474.0,1423.0,1453.0,1429.0,1482.0,1464.0,1503.0,1458.0,0.0,0.0,0.0,0.0,0.0,0.0,0.0,0.0
1248044340,8,1473.0,1421.0,1454.0,1429.0,1484.0,1463.0,1503.0,1455.0,0.0,0.0,0.0,0.0,0.0,0.0,0.0,0.0
1248088230,8,1473.0,1421.0,1452.0,1425.0,1484.0,1462.0,1504.0,1453.0,0.0,0.0,0.0,0.0,0.0,0.0,0.0,0.0
1248132332,8,1471.0,1418.0,1455.0,1428.0,1485.0,1461.0,1502.0,1451.0,0.0,0.0,0.0,0.0,0.0,0.0,0.0,0.0
1248172321,8,1471.0,1421.0,1457.0,1432.0,1486.0,1463.0,1500.0,1452.0,0.0,0.0,0.0,0.0,0.0,0.0,0.0,0.0
1248216345,8,1476.0,1419.0,1460.0,1428.0,1489.0,1460.0,1505.0,1451.0,0.0,0.0,0.0,0.0,0.0,0.0,0.0,0.0
1248260346,8,1477.0,1418.0,1460.0,1427.0,1489.0,1461.0,1507.0,1452.0,0.0,0.0,0.0,0.0,0.0,0.0,0.0,0.0
1248284344,8,1477.0,1421.0,1462.0,1431.0,1491.0,1463.0,1506.0,1452.0,0.0,0.0,0.0,0.0,0.0,0.0,0.0,0.0
1248328628,8,1481.0,1415.0,1459.0,1421.0,1489.0,1458.0,1511.0,1452.0,0.0,0.0,0.0,0.0,0.0,0.0,0.0,0.0
1248368516,8,1479.0,1413.0,1457.0,1419.0,1489.0,1457.0,1511.0,1450.0,0.0,0.0,0.0,0.0,0.0,0.0,0.0,0.0
1248412408,8,1478.0,1413.0,1460.0,1422.0,1490.0,1456.0,1508.0,1447.0,0.0,0.0,0.0,0.0,0.0,0.0,0.0,0.0
1248456433,8,1478.0,1410.0,1461.0,1420.0,1492.0,1454.0,1510.0,1444.0,0.0,0.0,0.0,0.0,0.0,0.0,0.0,0.0
1248496490,8,1476.0,1411.0,1459.0,1423.0,1493.0,1458.0,1509.0,1446.0,0.0,0.0,0.0,0.0,0.0,0.0,0.0,0.0
1248540423,8,1478.0,1413.0,1458.0,1419.0,1487.0,1455.0,1508.0,1449.0,0.0,0.0,0.0,0.0,0.0,0.0,0.0,0.0
1248588349,8,1474.0,1412.0,1455.0,1421.0,1487.0,1457.0,1506.0,1448.0,0.0,0.0,0.0,0.0,0.0,0.0,0.0,0.0
1248628332,8,1475.0,1410.0,1454.0,1418.0,1486.0,1456.0,1507.0,1448.0,0.0,0.0,0.0,0.0,0.0,0.0,0.0,0.0
1248672376,8,1475.0,1411.0,1453.0,1419.0,1487.0,1460.0,1510.0,1452.0,0.0,0.0,0.0,0.0,0.0,0.0,0.0,0.0
1248716361,8,1476.0,1414.0,1451.0,1420.0,1485.0,1462.0,1510.0,1456.0,0.0,0.0,0.0,0.0,0.0,0.0,0.0,0.0
1248736339,8,1475.0,1413.0,1449.0,1420.0,1484.0,1465.0,1511.0,1453.0,0.0,0.0,0.0,0.0,0.0,0.0,0.0,0.0
1248784340,8,1478.0,1412.0,1448.0,1414.0,1481.0,1459.0,1511.0,1457.0,0.0,0.0,0.0,0.0,0.0,0.0,0.0,0.0
1248828364,8,1473.0,1415.0,1449.0,1420.0,1480.0,1458.0,1503.0,1453.0,0.0,0.0,0.0,0.0,0.0,0.0,0.0,0.0
1248876348,8,1472.0,1415.0,1453.0,1425.0,1486.0,1462.0,1505.0,1452.0,0.0,0.0,0.0,0.0,0.0,0.0,0.0,0.0
1248916334,8,1473.0,1415.0,1451.0,1421.0,1481.0,1458.0,1503.0,1452.0,0.0,0.0,0.0,0.0,0.0,0.0,0.0,0.0
1248956690,8,1471.0,1415.0,1450.0,1423.0,1482.0,1460.0,1503.0,1452.0,0.0,0.0,0.0,0.0,0.0,0.0,0.0,0.0
1249004384,8,1473.0,1414.0,1448.0,1418.0,1479.0,1458.0,1504.0,1454.0,0.0,0.0,0.0,0.0,0.0,0.0,0.0,0.0
1249044351,8,1473.0,1414.0,1449.0,1420.0,1481.0,1460.0,1505.0,1453.0,0.0,0.0,0.0,0.0,0.0,0.0,0.0,0.0
1249092368,8,1473.0,1409.0,1444.0,1415.0,1481.0,1461.0,1509.0,1455.0,0.0,0.0,0.0,0.0,0.0,0.0,0.0,0.0
1249136401,8,1471.0,1410.0,1441.0,1414.0,1477.0,1461.0,1507.0,1456.0,0.0,0.0,0.0,0.0,0.0,0.0,0.0,0.0
1249160335,8,1471.0,1410.0,1445.0,1413.0,1479.0,1460.0,1510.0,1456.0,0.0,0.0,0.0,0.0,0.0,0.0,0.0,0.0
1249200361,8,1473.0,1406.0,1441.0,1410.0,1478.0,1459.0,1511.0,1456.0,0.0,0.0,0.0,0.0,0.0,0.0,0.0,0.0
1249244384,8,1472.0,1407.0,1441.0,1409.0,1474.0,1455.0,1506.0,1453.0,0.0,0.0,0.0,0.0,0.0,0.0,0.0,0.0
1249292361,8,1471.0,1405.0,1443.0,1411.0,1480.0,1457.0,1508.0,1451.0,0.0,0.0,0.0,0.0,0.0,0.0,0.0,0.0
1249340376,8,1473.0,1404.0,1444.0,1410.0,1481.0,1456.0,1510.0,1451.0,0.0,0.0,0.0,0.0,0.0,0.0,0.0,0.0
1249380488,8,1470.0,1406.0,1445.0,1413.0,1481.0,1456.0,1506.0,1449.0,0.0,0.0,0.0,0.0,0.0,0.0,0.0,0.0
1249424378,8,1471.0,1408.0,1446.0,1414.0,1479.0,1455.0,1504.0,1449.0,0.0,0.0,0.0,0.0,0.0,0.0,0.0,0.0
1249468225,8,1469.0,1403.0,1444.0,1411.0,1480.0,1454.0,1505.0,1446.0,0.0,0.0,0.0,0.0,0.0,0.0,0.0,0.0
1249512335,8,1469.0,1408.0,1449.0,1418.0,1482.0,1455.0,1502.0,1446.0,0.0,0.0,0.0,0.0,0.0,0.0,0.0,0.0
1249532332,8,1469.0,1405.0,1447.0,1415.0,1483.0,1456.0,1505.0,1446.0,0.0,0.0,0.0,0.0,0.0,0.0,0.0,0.0
1249600335,8,1469.0,1399.0,1444.0,1409.0,1482.0,1454.0,1507.0,1444.0,0.0,0.0,0.0,0.0,0.0,0.0,0.0,0.0
1249620509,8,1469.0,1405.0,1448.0,1414.0,1482.0,1454.0,1504.0,1444.0,0.0,0.0,0.0,0.0,0.0,0.0,0.0,0.0
1249668405,8,1468.0,1402.0,1445.0,1413.0,1484.0,1457.0,1507.0,1446.0,0.0,0.0,0.0,0.0,0.0,0.0,0.0,0.0
1249712334,8,1467.0,1399.0,1442.0,1408.0,1484.0,1455.0,1507.0,1446.0,0.0,0.0,0.0,0.0,0.0,0.0,0.0,0.0
1249752389,8,1470.0,1403.0,1444.0,1410.0,1479.0,1454.0,1505.0,1447.0,0.0,0.0,0.0,0.0,0.0,0.0,0.0,0.0
1251052341,8,1463.0,1393.0,1437.0,1406.0,1483.0,1457.0,1509.0,1444.0,0.0,0.0,0.0,0.0,0.0,0.0,0.0,0.0
1251100814,8,1463.0,1394.0,1434.0,1405.0,1479.0,1456.0,1507.0,1445.0,0.0,0.0,0.0,0.0,0.0,0.0,0.0,0.0
1252496353,8,1444.0,1400.0,1438.0,1428.0,1485.0,1465.0,1491.0,1437.0,0.0,0.0,0.0,0.0,0.0,0.0,0.0,0.0
1252540735,8,1446.0,1401.0,1436.0,1424.0,1478.0,1461.0,1488.0,1438.0,0.0,0.0,0.0,0.0,0.0,0.0,0.0,0.0
1252584338,8,1447.0,1401.0,1435.0,1428.0,1479.0,1465.0,1488.0,1440.0,0.0,0.0,0.0,0.0,0.0,0.0,0.0,0.0
1252832347,8,1458.0,1399.0,1433.0,1416.0,1482.0,1468.0,1506.0,1451.0,0.0,0.0,0.0,0.0,0.0,0.0,0.0,0.0
1252880380,8,1454.0,1402.0,1435.0,1420.0,1480.0,1465.0,1499.0,1446.0,0.0,0.0,0.0,0.0,0.0,0.0,0.0,0.0
1252904463,8,1456.0,1403.0,1440.0,1422.0,1483.0,1464.0,1499.0,1445.0,0.0,0.0,0.0,0.0,0.0,0.0,0.0,0.0
1252952450,8,1457.0,1399.0,1439.0,1420.0,1486.0,1466.0,1504.0,1445.0,0.0,0.0,0.0,0.0,0.0,0.0,0.0,0.0
1252996218,8,1457.0,1400.0,1437.0,1418.0,1482.0,1464.0,1502.0,1446.0,0.0,0.0,0.0,0.0,0.0,0.0,0.0,0.0
1253044549,8,1459.0,1402.0,1440.0,1420.0,1485.0,1465.0,1503.0,1446.0,0.0,0.0,0.0,0.0,0.0,0.0,0.0,0.0
1253088357,8,1456.0,1396.0,1437.0,1416.0,1485.0,1464.0,1504.0,1444.0,0.0,0.0,0.0,0.0,0.0,0.0,0.0,0.0
1253112249,8,1455.0,1397.0,1438.0,1419.0,1487.0,1466.0,1504.0,1444.0,0.0,0.0,0.0,0.0,0.0,0.0,0.0,0.0
1253172342,8,1457.0,1404.0,1445.0,1426.0,1489.0,1466.0,1502.0,1444.0,0.0,0.0,0.0,0.0,0.0,0.0,0.0,0.0
1253196364,8,1462.0,1408.0,1449.0,1427.0,1489.0,1465.0,1502.0,1446.0,0.0,0.0,0.0,0.0,0.0,0.0,0.0,0.0
1253240514,8,1460.0,1414.0,1445.0,1429.0,1482.0,1465.0,1497.0,1450.0,0.0,0.0,0.0,0.0,0.0,0.0,0.0,0.0
1253284411,8,1465.0,1414.0,1446.0,1425.0,1481.0,1463.0,1499.0,1451.0,0.0,0.0,0.0,0.0,0.0,0.0,0.0,0.0
1253328353,8,1467.0,1417.0,1447.0,1427.0,1481.0,1465.0,1501.0,1455.0,0.0,0.0,0.0,0.0,0.0,0.0,0.0,0.0
1253372379,8,1468.0,1414.0,1442.0,1423.0,1481.0,1469.0,1507.0,1460.0,0.0,0.0,0.0,0.0,0.0,0.0,0.0,0.0
1253416361,8,1468.0,1416.0,1443.0,1426.0,1482.0,1470.0,1506.0,1461.0,0.0,0.0,0.0,0.0,0.0,0.0,0.0,0.0
1253456406,8,1468.0,1418.0,1447.0,1431.0,1486.0,1473.0,1507.0,1460.0,0.0,0.0,0.0,0.0,0.0,0.0,0.0,0.0
1253500346,8,1468.0,1417.0,1446.0,1429.0,1486.0,1473.0,1508.0,1461.0,0.0,0.0,0.0,0.0,0.0,0.0,0.0,0.0
1253544370,8,1470.0,1414.0,1448.0,1427.0,1488.0,1472.0,1511.0,1459.0,0.0,0.0,0.0,0.0,0.0,0.0,0.0,0.0
1253588357,8,1475.0,1418.0,1455.0,1430.0,1492.0,1470.0,1512.0,1458.0,0.0,0.0,0.0,0.0,0.0,0.0,0.0,0.0
1253628346,8,1475.0,1419.0,1453.0,1430.0,1490.0,1471.0,1512.0,1461.0,0.0,0.0,0.0,0.0,0.0,0.0,0.0,0.0
1253652445,8,1475.0,1416.0,1451.0,1426.0,1489.0,1470.0,1513.0,1459.0,0.0,0.0,0.0,0.0,0.0,0.0,0.0,0.0
1253700371,8,1472.0,1420.0,1455.0,1434.0,1491.0,1471.0,1509.0,1458.0,0.0,0.0,0.0,0.0,0.0,0.0,0.0,0.0
1253740361,8,1470.0,1419.0,1456.0,1436.0,1494.0,1473.0,1508.0,1456.0,0.0,0.0,0.0,0.0,0.0,0.0,0.0,0.0
1253784352,8,1470.0,1417.0,1452.0,1433.0,1496.0,1475.0,1514.0,1458.0,0.0,0.0,0.0,0.0,0.0,0.0,0.0,0.0
1253828436,8,1473.0,1415.0,1453.0,1429.0,1493.0,1472.0,1513.0,1457.0,0.0,0.0,0.0,0.0,0.0,0.0,0.0,0.0
1253872728,8,1477.0,1420.0,1456.0,1432.0,1494.0,1474.0,1515.0,1463.0,0.0,0.0,0.0,0.0,0.0,0.0,0.0,0.0
1253916348,8,1479.0,1419.0,1457.0,1429.0,1492.0,1469.0,1514.0,1460.0,0.0,0.0,0.0,0.0,0.0,0.0,0.0,0.0
1253956623,8,1480.0,1417.0,1458.0,1427.0,1495.0,1468.0,1516.0,1458.0,0.0,0.0,0.0,0.0,0.0,0.0,0.0,0.0
1254000492,8,1480.0,1418.0,1460.0,1431.0,1499.0,1472.0,1519.0,1459.0,0.0,0.0,0.0,0.0,0.0,0.0,0.0,0.0
1254044364,8,1480.0,1422.0,1461.0,1434.0,1497.0,1472.0,1515.0,1459.0,0.0,0.0,0.0,0.0,0.0,0.0,0.0,0.0
1254088488,8,1478.0,1421.0,1461.0,1436.0,1499.0,1474.0,1516.0,1459.0,0.0,0.0,0.0,0.0,0.0,0.0,0.0,0.0
1254128364,8,1479.0,1422.0,1463.0,1438.0,1501.0,1476.0,1517.0,1460.0,0.0,0.0,0.0,0.0,0.0,0.0,0.0,0.0
1254172397,8,1479.0,1422.0,1462.0,1437.0,1501.0,1477.0,1518.0,1461.0,0.0,0.0,0.0,0.0,0.0,0.0,0.0,0.0
1254216342,8,1479.0,1421.0,1462.0,1437.0,1501.0,1476.0,1517.0,1460.0,0.0,0.0,0.0,0.0,0.0,0.0,0.0,0.0
1254240456,8,1479.0,1420.0,1463.0,1438.0,1504.0,1479.0,1520.0,1461.0,0.0,0.0,0.0,0.0,0.0,0.0,0.0,0.0
1254284382,8,1478.0,1422.0,1462.0,1439.0,1502.0,1478.0,1517.0,1461.0,0.0,0.0,0.0,0.0,0.0,0.0,0.0,0.0
1254328342,8,1483.0,1419.0,1466.0,1437.0,1508.0,1479.0,1525.0,1461.0,0.0,0.0,0.0,0.0,0.0,0.0,0.0,0.0
1254368398,8,1480.0,1416.0,1464.0,1436.0,1508.0,1478.0,1524.0,1458.0,0.0,0.0,0.0,0.0,0.0,0.0,0.0,0.0
1254416340,8,1482.0,1422.0,1465.0,1437.0,1504.0,1477.0,1521.0,1461.0,0.0,0.0,0.0,0.0,0.0,0.0,0.0,0.0
1254460372,8,1482.0,1416.0,1465.0,1434.0,1508.0,1477.0,1525.0,1459.0,0.0,0.0,0.0,0.0,0.0,0.0,0.0,0.0
1254500459,8,1481.0,1418.0,1463.0,1432.0,1501.0,1471.0,1519.0,1457.0,0.0,0.0,0.0,0.0,0.0,0.0,0.0,0.0
1254544353,8,1484.0,1419.0,1465.0,1433.0,1504.0,1473.0,1523.0,1459.0,0.0,0.0,0.0,0.0,0.0,0.0,0.0,0.0
1254584350,8,1480.0,1417.0,1460.0,1429.0,1498.0,1471.0,1518.0,1458.0,0.0,0.0,0.0,0.0,0.0,0.0,0.0,0.0
1254632383,8,1485.0,1418.0,1466.0,1429.0,1501.0,1466.0,1521.0,1457.0,0.0,0.0,0.0,0.0,0.0,0.0,0.0,0.0
1254676336,8,1485.0,1418.0,1464.0,1427.0,1498.0,1465.0,1519.0,1457.0,0.0,0.0,0.0,0.0,0.0,0.0,0.0,0.0
1254720202,8,1490.0,1416.0,1462.0,1419.0,1493.0,1461.0,1521.0,1458.0,0.0,0.0,0.0,0.0,0.0,0.0,0.0,0.0
1254760316,8,1488.0,1416.0,1465.0,1423.0,1498.0,1462.0,1521.0,1456.0,0.0,0.0,0.0,0.0,0.0,0.0,0.0,0.0
1254800378,8,1490.0,1415.0,1462.0,1419.0,1496.0,1462.0,1523.0,1458.0,0.0,0.0,0.0,0.0,0.0,0.0,0.0,0.0
1254844657,8,1493.0,1416.0,1465.0,1418.0,1495.0,1460.0,1524.0,1458.0,0.0,0.0,0.0,0.0,0.0,0.0,0.0,0.0
1254884423,8,1490.0,1416.0,1464.0,1420.0,1496.0,1460.0,1521.0,1456.0,0.0,0.0,0.0,0.0,0.0,0.0,0.0,0.0
1254928331,8,1490.0,1413.0,1465.0,1418.0,1498.0,1459.0,1523.0,1454.0,0.0,0.0,0.0,0.0,0.0,0.0,0.0,0.0
1254968387,8,1488.0,1408.0,1460.0,1412.0,1494.0,1457.0,1523.0,1452.0,0.0,0.0,0.0,0.0,0.0,0.0,0.0,0.0
1254988747,8,1489.0,1410.0,1462.0,1414.0,1494.0,1456.0,1521.0,1452.0,0.0,0.0,0.0,0.0,0.0,0.0,0.0,0.0
1255032417,8,1485.0,1411.0,1462.0,1418.0,1495.0,1457.0,1518.0,1451.0,0.0,0.0,0.0,0.0,0.0,0.0,0.0,0.0
1255076340,8,1485.0,1406.0,1460.0,1415.0,1496.0,1456.0,1518.0,1446.0,0.0,0.0,0.0,0.0,0.0,0.0,0.0,0.0
1255136365,8,1483.0,1409.0,1460.0,1416.0,1493.0,1455.0,1516.0,1448.0,0.0,0.0,0.0,0.0,0.0,0.0,0.0,0.0
1255160367,8,1479.0,1408.0,1461.0,1421.0,1496.0,1458.0,1514.0,1445.0,0.0,0.0,0.0,0.0,0.0,0.0,0.0,0.0
1255200464,8,1479.0,1408.0,1459.0,1420.0,1496.0,1460.0,1516.0,1448.0,0.0,0.0,0.0,0.0,0.0,0.0,0.0,0.0
1255248366,8,1475.0,1408.0,1457.0,1423.0,1496.0,1463.0,1514.0,1448.0,0.0,0.0,0.0,0.0,0.0,0.0,0.0,0.0
1255292337,8,1474.0,1408.0,1455.0,1421.0,1492.0,1460.0,1511.0,1447.0,0.0,0.0,0.0,0.0,0.0,0.0,0.0,0.0
1255340476,8,1470.0,1409.0,1454.0,1423.0,1489.0,1459.0,1505.0,1446.0,0.0,0.0,0.0,0.0,0.0,0.0,0.0,0.0
1255364392,8,1471.0,1407.0,1452.0,1421.0,1491.0,1462.0,1510.0,1448.0,0.0,0.0,0.0,0.0,0.0,0.0,0.0,0.0
1255412337,8,1467.0,1408.0,1451.0,1423.0,1488.0,1460.0,1504.0,1446.0,0.0,0.0,0.0,0.0,0.0,0.0,0.0,0.0
1255456739,8,1469.0,1411.0,1451.0,1423.0,1486.0,1459.0,1503.0,1447.0,0.0,0.0,0.0,0.0,0.0,0.0,0.0,0.0
1255500335,8,1467.0,1406.0,1446.0,1419.0,1485.0,1461.0,1505.0,1448.0,0.0,0.0,0.0,0.0,0.0,0.0,0.0,0.0
1255544342,8,1467.0,1409.0,1447.0,1422.0,1484.0,1462.0,1504.0,1449.0,0.0,0.0,0.0,0.0,0.0,0.0,0.0,0.0
1255588344,8,1463.0,1406.0,1442.0,1420.0,1483.0,1464.0,1504.0,1450.0,0.0,0.0,0.0,0.0,0.0,0.0,0.0,0.0
1255632366,8,1462.0,1404.0,1439.0,1419.0,1483.0,1466.0,1506.0,1452.0,0.0,0.0,0.0,0.0,0.0,0.0,0.0,0.0
1255676454,8,1460.0,1406.0,1438.0,1421.0,1481.0,1466.0,1502.0,1451.0,0.0,0.0,0.0,0.0,0.0,0.0,0.0,0.0
1255720351,8,1458.0,1405.0,1438.0,1421.0,1481.0,1466.0,1501.0,1450.0,0.0,0.0,0.0,0.0,0.0,0.0,0.0,0.0
1255764412,8,1457.0,1404.0,1435.0,1418.0,1478.0,1465.0,1495.0,1450.0,0.0,0.0,0.0,0.0,0.0,0.0,0.0,0.0
1255804346,8,1459.0,1404.0,1435.0,1415.0,1475.0,1460.0,1498.0,1449.0,0.0,0.0,0.0,0.0,0.0,0.0,0.0,0.0
1255848410,8,1454.0,1391.0,1423.0,1405.0,1474.0,1463.0,1505.0,1449.0,0.0,0.0,0.0,0.0,0.0,0.0,0.0,0.0
1255872211,8,1453.0,1400.0,1430.0,1415.0,1475.0,1463.0,1498.0,1448.0,0.0,0.0,0.0,0.0,0.0,0.0,0.0,0.0
1255932380,8,1463.0,1396.0,1426.0,1400.0,1468.0,1456.0,1505.0,1452.0,0.0,0.0,0.0,0.0,0.0,0.0,0.0,0.0
1255952467,8,1465.0,1397.0,1426.0,1398.0,1466.0,1454.0,1505.0,1453.0,0.0,0.0,0.0,0.0,0.0,0.0,0.0,0.0
1256000365,8,1462.0,1386.0,1418.0,1388.0,1466.0,1454.0,1511.0,1452.0,0.0,0.0,0.0,0.0,0.0,0.0,0.0,0.0
1256048340,8,1467.0,1393.0,1429.0,1397.0,1472.0,1455.0,1510.0,1451.0,0.0,0.0,0.0,0.0,0.0,0.0,0.0,0.0
1256088443,8,1468.0,1387.0,1430.0,1392.0,1475.0,1451.0,1513.0,1446.0,0.0,0.0,0.0,0.0,0.0,0.0,0.0,0.0
1256132333,8,1469.0,1389.0,1434.0,1394.0,1477.0,1449.0,1512.0,1444.0,0.0,0.0,0.0,0.0,0.0,0.0,0.0,0.0
1256172339,8,1471.0,1388.0,1438.0,1395.0,1481.0,1448.0,1513.0,1439.0,0.0,0.0,0.0,0.0,0.0,0.0,0.0,0.0
1256216352,8,1475.0,1392.0,1440.0,1393.0,1476.0,1443.0,1512.0,1443.0,0.0,0.0,0.0,0.0,0.0,0.0,0.0,0.0
1256260336,8,1480.0,1392.0,1441.0,1387.0,1474.0,1438.0,1513.0,1443.0,0.0,0.0,0.0,0.0,0.0,0.0,0.0,0.0
1256308352,8,1482.0,1388.0,1439.0,1383.0,1475.0,1439.0,1518.0,1443.0,0.0,0.0,0.0,0.0,0.0,0.0,0.0,0.0
1256348336,8,1483.0,1390.0,1439.0,1385.0,1475.0,1441.0,1518.0,1446.0,0.0,0.0,0.0,0.0,0.0,0.0,0.0,0.0
1256392647,8,1487.0,1385.0,1440.0,1378.0,1478.0,1438.0,1525.0,1444.0,0.0,0.0,0.0,0.0,0.0,0.0,0.0,0.0
1256432437,8,1485.0,1388.0,1439.0,1382.0,1476.0,1440.0,1522.0,1446.0,0.0,0.0,0.0,0.0,0.0,0.0,0.0,0.0
1256480374,8,1487.0,1384.0,1441.0,1376.0,1476.0,1433.0,1522.0,1441.0,0.0,0.0,0.0,0.0,0.0,0.0,0.0,0.0
1256520376,8,1487.0,1385.0,1443.0,1377.0,1476.0,1432.0,1520.0,1440.0,0.0,0.0,0.0,0.0,0.0,0.0,0.0,0.0
1256540377,8,1487.0,1384.0,1444.0,1377.0,1477.0,1431.0,1521.0,1438.0,0.0,0.0,0.0,0.0,0.0,0.0,0.0,0.0
1256584393,8,1492.0,1393.0,1448.0,1379.0,1471.0,1426.0,1515.0,1440.0,0.0,0.0,0.0,0.0,0.0,0.0,0.0,0.0
1256648383,8,1488.0,1385.0,1444.0,1376.0,1476.0,1430.0,1519.0,1438.0,0.0,0.0,0.0,0.0,0.0,0.0,0.0,0.0
1256672338,8,1485.0,1380.0,1441.0,1376.0,1479.0,1433.0,1523.0,1437.0,0.0,0.0,0.0,0.0,0.0,0.0,0.0,0.0
1256736342,8,1483.0,1378.0,1448.0,1383.0,1491.0,1439.0,1526.0,1433.0,0.0,0.0,0.0,0.0,0.0,0.0,0.0,0.0
1256760341,8,1475.0,1376.0,1442.0,1387.0,1491.0,1445.0,1524.0,1434.0,0.0,0.0,0.0,0.0,0.0,0.0,0.0,0.0
1256804363,8,1477.0,1378.0,1441.0,1386.0,1487.0,1444.0,1523.0,1436.0,0.0,0.0,0.0,0.0,0.0,0.0,0.0,0.0
1256844441,8,1474.0,1381.0,1439.0,1388.0,1485.0,1446.0,1520.0,1438.0,0.0,0.0,0.0,0.0,0.0,0.0,0.0,0.0
1256892370,8,1479.0,1390.0,1438.0,1387.0,1474.0,1441.0,1514.0,1444.0,0.0,0.0,0.0,0.0,0.0,0.0,0.0,0.0
1256932729,8,1472.0,1394.0,1437.0,1396.0,1475.0,1447.0,1509.0,1445.0,0.0,0.0,0.0,0.0,0.0,0.0,0.0,0.0
1256980344,8,1474.0,1405.0,1442.0,1402.0,1470.0,1445.0,1502.0,1448.0,0.0,0.0,0.0,0.0,0.0,0.0,0.0,0.0
1257024349,8,1471.0,1407.0,1441.0,1406.0,1470.0,1449.0,1501.0,1450.0,0.0,0.0,0.0,0.0,0.0,0.0,0.0,0.0
1257064361,8,1472.0,1410.0,1443.0,1408.0,1470.0,1449.0,1500.0,1450.0,0.0,0.0,0.0,0.0,0.0,0.0,0.0,0.0
1257104361,8,1476.0,1419.0,1443.0,1412.0,1466.0,1452.0,1500.0,1459.0,0.0,0.0,0.0,0.0,0.0,0.0,0.0,0.0
1257148702,8,1482.0,1417.0,1443.0,1408.0,1469.0,1455.0,1509.0,1465.0,0.0,0.0,0.0,0.0,0.0,0.0,0.0,0.0
1257188438,8,1482.0,1413.0,1437.0,1402.0,1467.0,1455.0,1511.0,1466.0,0.0,0.0,0.0,0.0,0.0,0.0,0.0,0.0
1257232365,8,1479.0,1410.0,1427.0,1399.0,1463.0,1460.0,1514.0,1472.0,0.0,0.0,0.0,0.0,0.0,0.0,0.0,0.0
1257276357,8,1474.0,1411.0,1430.0,1407.0,1468.0,1464.0,1512.0,1469.0,0.0,0.0,0.0,0.0,0.0,0.0,0.0,0.0
1257320401,8,1473.0,1407.0,1428.0,1402.0,1466.0,1461.0,1511.0,1466.0,0.0,0.0,0.0,0.0,0.0,0.0,0.0,0.0
1257340394,8,1474.0,1407.0,1431.0,1404.0,1470.0,1461.0,1513.0,1464.0,0.0,0.0,0.0,0.0,0.0,0.0,0.0,0.0
1257384402,8,1476.0,1406.0,1435.0,1401.0,1469.0,1455.0,1511.0,1460.0,0.0,0.0,0.0,0.0,0.0,0.0,0.0,0.0
1257428348,8,1479.0,1402.0,1437.0,1396.0,1471.0,1450.0,1514.0,1456.0,0.0,0.0,0.0,0.0,0.0,0.0,0.0,0.0
1257468433,8,1475.0,1403.0,1441.0,1402.0,1474.0,1450.0,1509.0,1451.0,0.0,0.0,0.0,0.0,0.0,0.0,0.0,0.0
1257512341,8,1476.0,1407.0,1449.0,1408.0,1477.0,1447.0,1505.0,1447.0,0.0,0.0,0.0,0.0,0.0,0.0,0.0,0.0
1257560332,8,1472.0,1399.0,1440.0,1403.0,1478.0,1452.0,1510.0,1449.0,0.0,0.0,0.0,0.0,0.0,0.0,0.0,0.0
1257604342,8,1472.0,1398.0,1440.0,1403.0,1478.0,1453.0,1511.0,1449.0,0.0,0.0,0.0,0.0,0.0,0.0,0.0,0.0
1257644356,8,1472.0,1398.0,1435.0,1400.0,1474.0,1454.0,1511.0,1452.0,0.0,0.0,0.0,0.0,0.0,0.0,0.0,0.0
1257692464,8,1472.0,1395.0,1432.0,1396.0,1475.0,1455.0,1515.0,1454.0,0.0,0.0,0.0,0.0,0.0,0.0,0.0,0.0
1257736338,8,1476.0,1404.0,1439.0,1404.0,1476.0,1457.0,1513.0,1457.0,0.0,0.0,0.0,0.0,0.0,0.0,0.0,0.0
1257776675,8,1478.0,1408.0,1441.0,1405.0,1474.0,1454.0,1511.0,1457.0,0.0,0.0,0.0,0.0,0.0,0.0,0.0,0.0
1257824418,8,1478.0,1413.0,1445.0,1413.0,1479.0,1460.0,1512.0,1459.0,0.0,0.0,0.0,0.0,0.0,0.0,0.0,0.0
1257868485,8,1478.0,1403.0,1439.0,1402.0,1476.0,1455.0,1514.0,1456.0,0.0,0.0,0.0,0.0,0.0,0.0,0.0,0.0
1257908373,8,1481.0,1399.0,1437.0,1396.0,1478.0,1457.0,1522.0,1459.0,0.0,0.0,0.0,0.0,0.0,0.0,0.0,0.0
1257948404,8,1478.0,1399.0,1437.0,1402.0,1482.0,1463.0,1524.0,1461.0,0.0,0.0,0.0,0.0,0.0,0.0,0.0,0.0
1257988421,8,1480.0,1393.0,1439.0,1396.0,1484.0,1458.0,1526.0,1455.0,0.0,0.0,0.0,0.0,0.0,0.0,0.0,0.0
1258032465,8,1480.0,1401.0,1443.0,1404.0,1484.0,1458.0,1520.0,1455.0,0.0,0.0,0.0,0.0,0.0,0.0,0.0,0.0
1258076382,8,1480.0,1395.0,1436.0,1393.0,1478.0,1454.0,1522.0,1456.0,0.0,0.0,0.0,0.0,0.0,0.0,0.0,0.0
1258116398,8,1481.0,1399.0,1443.0,1400.0,1481.0,1453.0,1519.0,1453.0,0.0,0.0,0.0,0.0,0.0,0.0,0.0,0.0
1258140455,8,1480.0,1401.0,1445.0,1403.0,1484.0,1456.0,1519.0,1454.0,0.0,0.0,0.0,0.0,0.0,0.0,0.0,0.0
1258188384,8,1475.0,1402.0,1444.0,1409.0,1485.0,1459.0,1516.0,1452.0,0.0,0.0,0.0,0.0,0.0,0.0,0.0,0.0
1258232337,8,1475.0,1408.0,1446.0,1413.0,1481.0,1458.0,1510.0,1454.0,0.0,0.0,0.0,0.0,0.0,0.0,0.0,0.0
1258276348,8,1477.0,1407.0,1445.0,1407.0,1477.0,1452.0,1509.0,1452.0,0.0,0.0,0.0,0.0,0.0,0.0,0.0,0.0
1258324344,8,1478.0,1413.0,1452.0,1417.0,1483.0,1457.0,1509.0,1456.0,0.0,0.0,0.0,0.0,0.0,0.0,0.0,0.0
1258364440,8,1482.0,1415.0,1448.0,1411.0,1475.0,1454.0,1509.0,1458.0,0.0,0.0,0.0,0.0,0.0,0.0,0.0,0.0
1258412383,8,1483.0,1417.0,1448.0,1413.0,1477.0,1458.0,1512.0,1462.0,0.0,0.0,0.0,0.0,0.0,0.0,0.0,0.0
1258456379,8,1481.0,1424.0,1450.0,1420.0,1476.0,1461.0,1507.0,1465.0,0.0,0.0,0.0,0.0,0.0,0.0,0.0,0.0
1258476343,8,1484.0,1416.0,1446.0,1408.0,1474.0,1455.0,1511.0,1462.0,0.0,0.0,0.0,0.0,0.0,0.0,0.0,0.0
1258524387,8,1482.0,1415.0,1445.0,1412.0,1478.0,1461.0,1514.0,1464.0,0.0,0.0,0.0,0.0,0.0,0.0,0.0,0.0
1258568341,8,1480.0,1416.0,1443.0,1411.0,1474.0,1460.0,1511.0,1464.0,0.0,0.0,0.0,0.0,0.0,0.0,0.0,0.0
1258616339,8,1479.0,1418.0,1446.0,1415.0,1475.0,1460.0,1509.0,1463.0,0.0,0.0,0.0,0.0,0.0,0.0,0.0,0.0
1258656354,8,1480.0,1416.0,1448.0,1415.0,1479.0,1460.0,1511.0,1461.0,0.0,0.0,0.0,0.0,0.0,0.0,0.0,0.0
1258700334,8,1478.0,1410.0,1437.0,1404.0,1470.0,1456.0,1511.0,1462.0,0.0,0.0,0.0,0.0,0.0,0.0,0.0,0.0
1258740357,8,1482.0,1415.0,1443.0,1408.0,1473.0,1457.0,1512.0,1464.0,0.0,0.0,0.0,0.0,0.0,0.0,0.0,0.0
1258784337,8,1482.0,1415.0,1440.0,1407.0,1471.0,1459.0,1513.0,1467.0,0.0,0.0,0.0,0.0,0.0,0.0,0.0,0.0
1258832380,8,1483.0,1418.0,1443.0,1410.0,1472.0,1459.0,1512.0,1467.0,0.0,0.0,0.0,0.0,0.0,0.0,0.0,0.0
1258856335,8,1486.0,1422.0,1446.0,1411.0,1471.0,1456.0,1510.0,1467.0,0.0,0.0,0.0,0.0,0.0,0.0,0.0,0.0
1258896429,8,1485.0,1422.0,1445.0,1410.0,1467.0,1453.0,1506.0,1466.0,0.0,0.0,0.0,0.0,0.0,0.0,0.0,0.0
1258944402,8,1483.0,1427.0,1450.0,1418.0,1470.0,1455.0,1503.0,1465.0,0.0,0.0,0.0,0.0,0.0,0.0,0.0,0.0
1258988383,8,1489.0,1428.0,1454.0,1414.0,1469.0,1449.0,1504.0,1463.0,0.0,0.0,0.0,0.0,0.0,0.0,0.0,0.0
1259032338,8,1488.0,1426.0,1454.0,1413.0,1469.0,1449.0,1504.0,1462.0,0.0,0.0,0.0,0.0,0.0,0.0,0.0,0.0
1259080335,8,1489.0,1428.0,1459.0,1419.0,1476.0,1452.0,1506.0,1461.0,0.0,0.0,0.0,0.0,0.0,0.0,0.0,0.0
1259124347,8,1493.0,1437.0,1464.0,1427.0,1479.0,1459.0,1508.0,1468.0,0.0,0.0,0.0,0.0,0.0,0.0,0.0,0.0
1259168389,8,1495.0,1429.0,1459.0,1417.0,1478.0,1456.0,1515.0,1468.0,0.0,0.0,0.0,0.0,0.0,0.0,0.0,0.0
1259192346,8,1490.0,1425.0,1452.0,1416.0,1478.0,1462.0,1516.0,1470.0,0.0,0.0,0.0,0.0,0.0,0.0,0.0,0.0
1259236708,8,1486.0,1419.0,1449.0,1417.0,1483.0,1467.0,1520.0,1469.0,0.0,0.0,0.0,0.0,0.0,0.0,0.0,0.0
1259284380,8,1485.0,1420.0,1453.0,1427.0,1493.0,1477.0,1525.0,1471.0,0.0,0.0,0.0,0.0,0.0,0.0,0.0,0.0
1259328367,8,1484.0,1412.0,1445.0,1417.0,1490.0,1477.0,1529.0,1472.0,0.0,0.0,0.0,0.0,0.0,0.0,0.0,0.0
1259372488,8,1482.0,1410.0,1442.0,1416.0,1490.0,1478.0,1529.0,1472.0,0.0,0.0,0.0,0.0,0.0,0.0,0.0,0.0
1259416699,8,1477.0,1408.0,1442.0,1416.0,1489.0,1475.0,1525.0,1467.0,0.0,0.0,0.0,0.0,0.0,0.0,0.0,0.0
1259460342,8,1478.0,1408.0,1442.0,1415.0,1488.0,1472.0,1523.0,1465.0,0.0,0.0,0.0,0.0,0.0,0.0,0.0,0.0
1259504367,8,1478.0,1410.0,1445.0,1416.0,1487.0,1469.0,1519.0,1462.0,0.0,0.0,0.0,0.0,0.0,0.0,0.0,0.0
1259528338,8,1477.0,1410.0,1447.0,1418.0,1488.0,1468.0,1518.0,1461.0,0.0,0.0,0.0,0.0,0.0,0.0,0.0,0.0
1259568401,8,1475.0,1410.0,1444.0,1416.0,1483.0,1466.0,1514.0,1460.0,0.0,0.0,0.0,0.0,0.0,0.0,0.0,0.0
1259612341,8,1480.0,1408.0,1442.0,1407.0,1479.0,1460.0,1517.0,1461.0,0.0,0.0,0.0,0.0,0.0,0.0,0.0,0.0
1259652343,8,1480.0,1407.0,1443.0,1407.0,1480.0,1460.0,1518.0,1460.0,0.0,0.0,0.0,0.0,0.0,0.0,0.0,0.0
1259692404,8,1480.0,1404.0,1440.0,1403.0,1479.0,1459.0,1519.0,1460.0,0.0,0.0,0.0,0.0,0.0,0.0,0.0,0.0
1259736334,8,1483.0,1405.0,1438.0,1398.0,1473.0,1455.0,1519.0,1462.0,0.0,0.0,0.0,0.0,0.0,0.0,0.0,0.0
1259780341,8,1483.0,1404.0,1436.0,1396.0,1472.0,1455.0,1519.0,1463.0,0.0,0.0,0.0,0.0,0.0,0.0,0.0,0.0
1259828323,8,1481.0,1404.0,1436.0,1396.0,1471.0,1454.0,1518.0,1462.0,0.0,0.0,0.0,0.0,0.0,0.0,0.0,0.0
1259872334,8,1479.0,1407.0,1438.0,1404.0,1474.0,1459.0,1515.0,1462.0,0.0,0.0,0.0,0.0,0.0,0.0,0.0,0.0
1259920708,8,1478.0,1406.0,1435.0,1402.0,1473.0,1459.0,1516.0,1463.0,0.0,0.0,0.0,0.0,0.0,0.0,0.0,0.0
1259964382,8,1478.0,1406.0,1433.0,1401.0,1470.0,1459.0,1515.0,1464.0,0.0,0.0,0.0,0.0,0.0,0.0,0.0,0.0
1260004362,8,1477.0,1410.0,1436.0,1406.0,1472.0,1461.0,1514.0,1465.0,0.0,0.0,0.0,0.0,0.0,0.0,0.0,0.0
1260048353,8,1479.0,1405.0,1433.0,1398.0,1470.0,1457.0,1516.0,1464.0,0.0,0.0,0.0,0.0,0.0,0.0,0.0,0.0
1260068356,8,1478.0,1406.0,1435.0,1401.0,1471.0,1458.0,1514.0,1462.0,0.0,0.0,0.0,0.0,0.0,0.0,0.0,0.0
1260116345,8,1480.0,1410.0,1435.0,1401.0,1467.0,1456.0,1512.0,1465.0,0.0,0.0,0.0,0.0,0.0,0.0,0.0,0.0
1260160381,8,1483.0,1410.0,1435.0,1397.0,1464.0,1452.0,1513.0,1466.0,0.0,0.0,0.0,0.0,0.0,0.0,0.0,0.0
1260204334,8,1483.0,1408.0,1435.0,1397.0,1468.0,1454.0,1516.0,1465.0,0.0,0.0,0.0,0.0,0.0,0.0,0.0,0.0
1260244714,8,1482.0,1403.0,1432.0,1392.0,1468.0,1452.0,1517.0,1463.0,0.0,0.0,0.0,0.0,0.0,0.0,0.0,0.0
1260292333,8,1482.0,1404.0,1431.0,1393.0,1466.0,1453.0,1516.0,1464.0,0.0,0.0,0.0,0.0,0.0,0.0,0.0,0.0
1260332337,8,1478.0,1401.0,1429.0,1393.0,1467.0,1454.0,1516.0,1463.0,0.0,0.0,0.0,0.0,0.0,0.0,0.0,0.0
1260372339,8,1479.0,1402.0,1431.0,1396.0,1470.0,1458.0,1516.0,1461.0,0.0,0.0,0.0,0.0,0.0,0.0,0.0,0.0
1260420362,8,1481.0,1402.0,1431.0,1393.0,1469.0,1455.0,1518.0,1463.0,0.0,0.0,0.0,0.0,0.0,0.0,0.0,0.0
1260464335,8,1476.0,1396.0,1428.0,1391.0,1469.0,1454.0,1517.0,1459.0,0.0,0.0,0.0,0.0,0.0,0.0,0.0,0.0
1260488445,8,1476.0,1398.0,1433.0,1396.0,1474.0,1455.0,1517.0,1457.0,0.0,0.0,0.0,0.0,0.0,0.0,0.0,0.0
1260536378,8,1474.0,1391.0,1424.0,1390.0,1472.0,1458.0,1521.0,1459.0,0.0,0.0,0.0,0.0,0.0,0.0,0.0,0.0
1260576450,8,1472.0,1387.0,1421.0,1385.0,1469.0,1455.0,1520.0,1457.0,0.0,0.0,0.0,0.0,0.0,0.0,0.0,0.0
1260620224,8,1474.0,1392.0,1427.0,1391.0,1472.0,1456.0,1519.0,1457.0,0.0,0.0,0.0,0.0,0.0,0.0,0.0,0.0
1260664386,8,1472.0,1388.0,1423.0,1388.0,1472.0,1458.0,1521.0,1458.0,0.0,0.0,0.0,0.0,0.0,0.0,0.0,0.0
1260712709,8,1467.0,1387.0,1419.0,1387.0,1467.0,1455.0,1515.0,1455.0,0.0,0.0,0.0,0.0,0.0,0.0,0.0,0.0
1260752374,8,1473.0,1388.0,1426.0,1388.0,1472.0,1453.0,1519.0,1454.0,0.0,0.0,0.0,0.0,0.0,0.0,0.0,0.0
1260796337,8,1475.0,1393.0,1432.0,1391.0,1472.0,1449.0,1515.0,1452.0,0.0,0.0,0.0,0.0,0.0,0.0,0.0,0.0
1260844338,8,1480.0,1398.0,1434.0,1388.0,1466.0,1443.0,1511.0,1452.0,0.0,0.0,0.0,0.0,0.0,0.0,0.0,0.0
1260868436,8,1481.0,1400.0,1439.0,1391.0,1469.0,1443.0,1511.0,1452.0,0.0,0.0,0.0,0.0,0.0,0.0,0.0,0.0
1260912337,8,1480.0,1397.0,1435.0,1386.0,1464.0,1439.0,1510.0,1450.0,0.0,0.0,0.0,0.0,0.0,0.0,0.0,0.0
1260956353,8,1484.0,1405.0,1440.0,1392.0,1465.0,1440.0,1508.0,1453.0,0.0,0.0,0.0,0.0,0.0,0.0,0.0,0.0
1261000510,8,1484.0,1410.0,1445.0,1397.0,1466.0,1440.0,1506.0,1453.0,0.0,0.0,0.0,0.0,0.0,0.0,0.0,0.0
1261044343,8,1483.0,1413.0,1441.0,1397.0,1460.0,1441.0,1502.0,1457.0,0.0,0.0,0.0,0.0,0.0,0.0,0.0,0.0
1261092355,8,1484.0,1418.0,1445.0,1402.0,1461.0,1441.0,1501.0,1458.0,0.0,0.0,0.0,0.0,0.0,0.0,0.0,0.0
1261136618,8,1484.0,1422.0,1444.0,1404.0,1459.0,1443.0,1499.0,1461.0,0.0,0.0,0.0,0.0,0.0,0.0,0.0,0.0
1261184458,8,1481.0,1422.0,1441.0,1404.0,1456.0,1443.0,1496.0,1461.0,0.0,0.0,0.0,0.0,0.0,0.0,0.0,0.0
1261208337,8,1485.0,1423.0,1442.0,1403.0,1457.0,1444.0,1500.0,1465.0,0.0,0.0,0.0,0.0,0.0,0.0,0.0,0.0
1261252760,8,1491.0,1424.0,1442.0,1397.0,1453.0,1439.0,1502.0,1466.0,0.0,0.0,0.0,0.0,0.0,0.0,0.0,0.0
1261300337,8,1490.0,1427.0,1445.0,1403.0,1455.0,1442.0,1500.0,1466.0,0.0,0.0,0.0,0.0,0.0,0.0,0.0,0.0
1261340363,8,1490.0,1428.0,1448.0,1406.0,1459.0,1444.0,1501.0,1466.0,0.0,0.0,0.0,0.0,0.0,0.0,0.0,0.0
1261384367,8,1488.0,1428.0,1451.0,1411.0,1465.0,1448.0,1503.0,1464.0,0.0,0.0,0.0,0.0,0.0,0.0,0.0,0.0
1261428380,8,1489.0,1428.0,1454.0,1412.0,1467.0,1446.0,1501.0,1462.0,0.0,0.0,0.0,0.0,0.0,0.0,0.0,0.0
1261476388,8,1498.0,1437.0,1458.0,1414.0,1466.0,1447.0,1505.0,1470.0,0.0,0.0,0.0,0.0,0.0,0.0,0.0,0.0
1261520376,8,1499.0,1432.0,1456.0,1409.0,1465.0,1446.0,1509.0,1470.0,0.0,0.0,0.0,0.0,0.0,0.0,0.0,0.0
1261540746,8,1501.0,1438.0,1463.0,1415.0,1468.0,1446.0,1507.0,1469.0,0.0,0.0,0.0,0.0,0.0,0.0,0.0,0.0
1261584340,8,1504.0,1435.0,1462.0,1410.0,1468.0,1444.0,1510.0,1469.0,0.0,0.0,0.0,0.0,0.0,0.0,0.0,0.0
1261628350,8,1499.0,1432.0,1460.0,1412.0,1470.0,1446.0,1509.0,1467.0,0.0,0.0,0.0,0.0,0.0,0.0,0.0,0.0
1261668414,8,1498.0,1433.0,1465.0,1418.0,1477.0,1451.0,1512.0,1467.0,0.0,0.0,0.0,0.0,0.0,0.0,0.0,0.0
1261712338,8,1502.0,1432.0,1460.0,1413.0,1475.0,1453.0,1517.0,1472.0,0.0,0.0,0.0,0.0,0.0,0.0,0.0,0.0
1261752335,8,1507.0,1429.0,1452.0,1400.0,1466.0,1448.0,1520.0,1477.0,0.0,0.0,0.0,0.0,0.0,0.0,0.0,0.0
1261796337,8,1505.0,1427.0,1448.0,1401.0,1468.0,1455.0,1524.0,1481.0,0.0,0.0,0.0,0.0,0.0,0.0,0.0,0.0
1261840222,8,1507.0,1420.0,1441.0,1390.0,1465.0,1454.0,1531.0,1483.0,0.0,0.0,0.0,0.0,0.0,0.0,0.0,0.0
1261888335,8,1496.0,1425.0,1452.0,1406.0,1472.0,1454.0,1519.0,1473.0,0.0,0.0,0.0,0.0,0.0,0.0,0.0,0.0
1261936700,8,1482.0,1424.0,1468.0,1430.0,1491.0,1456.0,1505.0,1450.0,0.0,0.0,0.0,0.0,0.0,0.0,0.0,0.0
1261980339,8,1483.0,1433.0,1481.0,1443.0,1496.0,1455.0,1498.0,1445.0,0.0,0.0,0.0,0.0,0.0,0.0,0.0,0.0
1262004414,8,1484.0,1437.0,1482.0,1443.0,1492.0,1451.0,1494.0,1446.0,0.0,0.0,0.0,0.0,0.0,0.0,0.0,0.0
1262048340,8,1487.0,1445.0,1485.0,1447.0,1491.0,1453.0,1493.0,1450.0,0.0,0.0,0.0,0.0,0.0,0.0,0.0,0.0
1262092206,8,1492.0,1449.0,1485.0,1447.0,1489.0,1455.0,1497.0,1457.0,0.0,0.0,0.0,0.0,0.0,0.0,0.0,0.0
1262132354,8,1496.0,1451.0,1478.0,1444.0,1485.0,1461.0,1503.0,1468.0,0.0,0.0,0.0,0.0,0.0,0.0,0.0,0.0
1262172430,8,1498.0,1451.0,1478.0,1443.0,1485.0,1462.0,1505.0,1471.0,0.0,0.0,0.0,0.0,0.0,0.0,0.0,0.0
1262216341,8,1498.0,1457.0,1481.0,1449.0,1487.0,1466.0,1504.0,1473.0,0.0,0.0,0.0,0.0,0.0,0.0,0.0,0.0
1262260500,8,1497.0,1455.0,1480.0,1448.0,1488.0,1466.0,1505.0,1472.0,0.0,0.0,0.0,0.0,0.0,0.0,0.0,0.0
1262308309,8,1500.0,1455.0,1479.0,1447.0,1489.0,1469.0,1510.0,1477.0,0.0,0.0,0.0,0.0,0.0,0.0,0.0,0.0
1262348311,8,1499.0,1455.0,1481.0,1451.0,1492.0,1471.0,1510.0,1475.0,0.0,0.0,0.0,0.0,0.0,0.0,0.0,0.0
1262392314,8,1503.0,1454.0,1482.0,1447.0,1494.0,1471.0,1515.0,1477.0,0.0,0.0,0.0,0.0,0.0,0.0,0.0,0.0
1262416310,8,1501.0,1456.0,1485.0,1453.0,1497.0,1474.0,1514.0,1477.0,0.0,0.0,0.0,0.0,0.0,0.0,0.0,0.0
1262464391,8,1500.0,1453.0,1480.0,1450.0,1496.0,1476.0,1516.0,1478.0,0.0,0.0,0.0,0.0,0.0,0.0,0.0,0.0
1262504381,8,1500.0,1451.0,1484.0,1451.0,1500.0,1475.0,1517.0,1475.0,0.0,0.0,0.0,0.0,0.0,0.0,0.0,0.0
1262548652,8,1502.0,1447.0,1475.0,1442.0,1496.0,1476.0,1523.0,1481.0,0.0,0.0,0.0,0.0,0.0,0.0,0.0,0.0
1262592344,8,1498.0,1449.0,1476.0,1448.0,1496.0,1478.0,1519.0,1480.0,0.0,0.0,0.0,0.0,0.0,0.0,0.0,0.0
1262636351,8,1500.0,1452.0,1476.0,1449.0,1496.0,1479.0,1520.0,1482.0,0.0,0.0,0.0,0.0,0.0,0.0,0.0,0.0
1262676417,8,1501.0,1452.0,1473.0,1446.0,1492.0,1478.0,1519.0,1485.0,0.0,0.0,0.0,0.0,0.0,0.0,0.0,0.0
1262720317,8,1502.0,1452.0,1474.0,1445.0,1492.0,1478.0,1521.0,1485.0,0.0,0.0,0.0,0.0,0.0,0.0,0.0,0.0
1262760330,8,1503.0,1450.0,1471.0,1440.0,1488.0,1474.0,1520.0,1484.0,0.0,0.0,0.0,0.0,0.0,0.0,0.0,0.0
1262804225,8,1503.0,1451.0,1472.0,1441.0,1489.0,1475.0,1520.0,1486.0,0.0,0.0,0.0,0.0,0.0,0.0,0.0,0.0
1262848334,8,1501.0,1451.0,1473.0,1443.0,1489.0,1474.0,1517.0,1482.0,0.0,0.0,0.0,0.0,0.0,0.0,0.0,0.0
1262892373,8,1500.0,1451.0,1472.0,1443.0,1490.0,1475.0,1517.0,1482.0,0.0,0.0,0.0,0.0,0.0,0.0,0.0,0.0
1262932373,8,1500.0,1449.0,1470.0,1442.0,1490.0,1476.0,1519.0,1484.0,0.0,0.0,0.0,0.0,0.0,0.0,0.0,0.0
1262956314,8,1501.0,1449.0,1468.0,1439.0,1487.0,1475.0,1519.0,1485.0,0.0,0.0,0.0,0.0,0.0,0.0,0.0,0.0
1263020389,8,1500.0,1452.0,1474.0,1445.0,1491.0,1476.0,1517.0,1483.0,0.0,0.0,0.0,0.0,0.0,0.0,0.0,0.0
1263040365,8,1497.0,1449.0,1469.0,1441.0,1487.0,1474.0,1515.0,1481.0,0.0,0.0,0.0,0.0,0.0,0.0,0.0,0.0
1263084343,8,1497.0,1450.0,1471.0,1444.0,1488.0,1474.0,1514.0,1480.0,0.0,0.0,0.0,0.0,0.0,0.0,0.0,0.0
1263128357,8,1496.0,1450.0,1469.0,1442.0,1485.0,1473.0,1513.0,1481.0,0.0,0.0,0.0,0.0,0.0,0.0,0.0,0.0
1263176482,8,1499.0,1447.0,1469.0,1438.0,1486.0,1472.0,1516.0,1481.0,0.0,0.0,0.0,0.0,0.0,0.0,0.0,0.0
1263224341,8,1497.0,1448.0,1469.0,1440.0,1486.0,1471.0,1513.0,1479.0,0.0,0.0,0.0,0.0,0.0,0.0,0.0,0.0
1263264415,8,1495.0,1445.0,1465.0,1437.0,1484.0,1472.0,1515.0,1481.0,0.0,0.0,0.0,0.0,0.0,0.0,0.0,0.0
1263312315,8,1496.0,1449.0,1468.0,1442.0,1485.0,1473.0,1513.0,1480.0,0.0,0.0,0.0,0.0,0.0,0.0,0.0,0.0
1263352346,8,1498.0,1448.0,1469.0,1439.0,1484.0,1470.0,1513.0,1479.0,0.0,0.0,0.0,0.0,0.0,0.0,0.0,0.0
1263396342,8,1497.0,1448.0,1469.0,1439.0,1485.0,1469.0,1512.0,1478.0,0.0,0.0,0.0,0.0,0.0,0.0,0.0,0.0
1263440341,8,1498.0,1454.0,1476.0,1447.0,1488.0,1472.0,1510.0,1478.0,0.0,0.0,0.0,0.0,0.0,0.0,0.0,0.0
1263460319,8,1500.0,1452.0,1473.0,1440.0,1483.0,1466.0,1510.0,1479.0,0.0,0.0,0.0,0.0,0.0,0.0,0.0,0.0
1263508347,8,1499.0,1454.0,1477.0,1444.0,1485.0,1465.0,1507.0,1475.0,0.0,0.0,0.0,0.0,0.0,0.0,0.0,0.0
1263548339,8,1499.0,1452.0,1475.0,1442.0,1481.0,1461.0,1507.0,1475.0,0.0,0.0,0.0,0.0,0.0,0.0,0.0,0.0
1263596317,8,1500.0,1450.0,1475.0,1439.0,1486.0,1465.0,1511.0,1475.0,0.0,0.0,0.0,0.0,0.0,0.0,0.0,0.0
1263640393,8,1499.0,1448.0,1476.0,1440.0,1488.0,1465.0,1511.0,1473.0,0.0,0.0,0.0,0.0,0.0,0.0,0.0,0.0
1263684229,8,1500.0,1449.0,1476.0,1440.0,1486.0,1464.0,1510.0,1473.0,0.0,0.0,0.0,0.0,0.0,0.0,0.0,0.0
1263724389,8,1501.0,1448.0,1477.0,1438.0,1487.0,1461.0,1511.0,1471.0,0.0,0.0,0.0,0.0,0.0,0.0,0.0,0.0
1263768398,8,1498.0,1447.0,1475.0,1439.0,1486.0,1462.0,1508.0,1471.0,0.0,0.0,0.0,0.0,0.0,0.0,0.0,0.0
1263812315,8,1497.0,1447.0,1476.0,1442.0,1489.0,1465.0,1510.0,1470.0,0.0,0.0,0.0,0.0,0.0,0.0,0.0,0.0
1263852228,8,1495.0,1444.0,1475.0,1440.0,1489.0,1465.0,1509.0,1468.0,0.0,0.0,0.0,0.0,0.0,0.0,0.0,0.0
1263892389,8,1494.0,1448.0,1477.0,1446.0,1490.0,1467.0,1507.0,1469.0,0.0,0.0,0.0,0.0,0.0,0.0,0.0,0.0
1263936324,8,1492.0,1447.0,1473.0,1443.0,1486.0,1466.0,1505.0,1470.0,0.0,0.0,0.0,0.0,0.0,0.0,0.0,0.0
1263980314,8,1495.0,1447.0,1474.0,1440.0,1485.0,1462.0,1505.0,1469.0,0.0,0.0,0.0,0.0,0.0,0.0,0.0,0.0
1264024457,8,1494.0,1448.0,1473.0,1439.0,1482.0,1460.0,1503.0,1469.0,0.0,0.0,0.0,0.0,0.0,0.0,0.0,0.0
1264068218,8,1497.0,1452.0,1477.0,1442.0,1484.0,1462.0,1504.0,1471.0,0.0,0.0,0.0,0.0,0.0,0.0,0.0,0.0
1264112355,8,1498.0,1453.0,1475.0,1441.0,1482.0,1462.0,1505.0,1474.0,0.0,0.0,0.0,0.0,0.0,0.0,0.0,0.0
1264132645,8,1500.0,1452.0,1473.0,1438.0,1480.0,1462.0,1507.0,1476.0,0.0,0.0,0.0,0.0,0.0,0.0,0.0,0.0
1264176425,8,1498.0,1451.0,1472.0,1438.0,1479.0,1462.0,1506.0,1475.0,0.0,0.0,0.0,0.0,0.0,0.0,0.0,0.0
1264220378,8,1497.0,1452.0,1471.0,1441.0,1481.0,1465.0,1506.0,1477.0,0.0,0.0,0.0,0.0,0.0,0.0,0.0,0.0
1264268390,8,1503.0,1457.0,1473.0,1439.0,1477.0,1463.0,1507.0,1481.0,0.0,0.0,0.0,0.0,0.0,0.0,0.0,0.0
1264312653,8,1501.0,1458.0,1474.0,1442.0,1479.0,1464.0,1506.0,1480.0,0.0,0.0,0.0,0.0,0.0,0.0,0.0,0.0
1264356309,8,1502.0,1459.0,1474.0,1442.0,1478.0,1465.0,1507.0,1482.0,0.0,0.0,0.0,0.0,0.0,0.0,0.0,0.0
1264396415,8,1502.0,1460.0,1477.0,1444.0,1479.0,1462.0,1504.0,1478.0,0.0,0.0,0.0,0.0,0.0,0.0,0.0,0.0
1264440378,8,1504.0,1460.0,1479.0,1443.0,1480.0,1461.0,1504.0,1477.0,0.0,0.0,0.0,0.0,0.0,0.0,0.0,0.0
1264488312,8,1504.0,1463.0,1478.0,1443.0,1476.0,1459.0,1501.0,1479.0,0.0,0.0,0.0,0.0,0.0,0.0,0.0,0.0
1264532365,8,1503.0,1463.0,1483.0,1447.0,1480.0,1459.0,1500.0,1475.0,0.0,0.0,0.0,0.0,0.0,0.0,0.0,0.0
1264576374,8,1505.0,1462.0,1484.0,1447.0,1483.0,1461.0,1504.0,1476.0,0.0,0.0,0.0,0.0,0.0,0.0,0.0,0.0
1264600658,8,1503.0,1462.0,1485.0,1451.0,1486.0,1463.0,1503.0,1475.0,0.0,0.0,0.0,0.0,0.0,0.0,0.0,0.0
1264644347,8,1503.0,1457.0,1482.0,1445.0,1485.0,1462.0,1506.0,1475.0,0.0,0.0,0.0,0.0,0.0,0.0,0.0,0.0
1264688404,8,1499.0,1456.0,1482.0,1451.0,1492.0,1470.0,1508.0,1475.0,0.0,0.0,0.0,0.0,0.0,0.0,0.0,0.0
1264732396,8,1502.0,1454.0,1481.0,1451.0,1491.0,1469.0,1508.0,1474.0,0.0,0.0,0.0,0.0,0.0,0.0,0.0,0.0
1264772381,8,1499.0,1456.0,1482.0,1451.0,1492.0,1470.0,1510.0,1475.0,0.0,0.0,0.0,0.0,0.0,0.0,0.0,0.0
1264816755,8,1499.0,1450.0,1482.0,1447.0,1494.0,1468.0,1511.0,1471.0,0.0,0.0,0.0,0.0,0.0,0.0,0.0,0.0
1264860397,8,1498.0,1449.0,1484.0,1449.0,1498.0,1469.0,1512.0,1469.0,0.0,0.0,0.0,0.0,0.0,0.0,0.0,0.0
1264900406,8,1498.0,1448.0,1488.0,1444.0,1497.0,1467.0,1514.0,1468.0,0.0,0.0,0.0,0.0,0.0,0.0,0.0,0.0
1264940363,8,1499.0,1444.0,1482.0,1445.0,1500.0,1469.0,1517.0,1468.0,0.0,0.0,0.0,0.0,0.0,0.0,0.0,0.0
1264984411,8,1494.0,1448.0,1485.0,1451.0,1499.0,1468.0,1509.0,1465.0,0.0,0.0,0.0,0.0,0.0,0.0,0.0,0.0
1265032678,8,1489.0,1444.0,1486.0,1457.0,1508.0,1475.0,1511.0,1462.0,0.0,0.0,0.0,0.0,0.0,0.0,0.0,0.0
1265080311,8,1490.0,1443.0,1483.0,1454.0,1506.0,1476.0,1513.0,1465.0,0.0,0.0,0.0,0.0,0.0,0.0,0.0,0.0
1265104513,8,1490.0,1446.0,1481.0,1454.0,1502.0,1475.0,1511.0,1467.0,0.0,0.0,0.0,0.0,0.0,0.0,0.0,0.0
1265148539,8,1488.0,1446.0,1476.0,1454.0,1499.0,1478.0,1511.0,1470.0,0.0,0.0,0.0,0.0,0.0,0.0,0.0,0.0
1265196422,8,1482.0,1445.0,1470.0,1457.0,1499.0,1486.0,1511.0,1473.0,0.0,0.0,0.0,0.0,0.0,0.0,0.0,0.0
1265240389,8,1482.0,1443.0,1458.0,1448.0,1489.0,1487.0,1513.0,1482.0,0.0,0.0,0.0,0.0,0.0,0.0,0.0,0.0
1265288365,8,1473.0,1444.0,1453.0,1455.0,1489.0,1495.0,1509.0,1484.0,0.0,0.0,0.0,0.0,0.0,0.0,0.0,0.0
1265308370,8,1471.0,1440.0,1448.0,1453.0,1489.0,1499.0,1512.0,1486.0,0.0,0.0,0.0,0.0,0.0,0.0,0.0,0.0
1265372317,8,1463.0,1437.0,1432.0,1450.0,1481.0,1506.0,1512.0,1493.0,0.0,0.0,0.0,0.0,0.0,0.0,0.0,0.0
1265396384,8,1461.0,1438.0,1428.0,1450.0,1479.0,1509.0,1512.0,1497.0,0.0,0.0,0.0,0.0,0.0,0.0,0.0,0.0
1265444443,8,1463.0,1434.0,1427.0,1442.0,1475.0,1502.0,1512.0,1494.0,0.0,0.0,0.0,0.0,0.0,0.0,0.0,0.0
1265492388,8,1467.0,1434.0,1426.0,1436.0,1469.0,1496.0,1510.0,1494.0,0.0,0.0,0.0,0.0,0.0,0.0,0.0,0.0
1265536709,8,1469.0,1427.0,1417.0,1421.0,1461.0,1488.0,1512.0,1494.0,0.0,0.0,0.0,0.0,0.0,0.0,0.0,0.0
1265584376,8,1473.0,1431.0,1426.0,1422.0,1461.0,1480.0,1508.0,1489.0,0.0,0.0,0.0,0.0,0.0,0.0,0.0,0.0
1265604361,8,1475.0,1432.0,1425.0,1418.0,1455.0,1474.0,1505.0,1488.0,0.0,0.0,0.0,0.0,0.0,0.0,0.0,0.0
1265648315,8,1476.0,1433.0,1429.0,1420.0,1458.0,1474.0,1505.0,1487.0,0.0,0.0,0.0,0.0,0.0,0.0,0.0,0.0
1265696315,8,1476.0,1431.0,1428.0,1417.0,1456.0,1471.0,1504.0,1485.0,0.0,0.0,0.0,0.0,0.0,0.0,0.0,0.0
1265740442,8,1473.0,1429.0,1432.0,1421.0,1462.0,1470.0,1502.0,1478.0,0.0,0.0,0.0,0.0,0.0,0.0,0.0,0.0
1265780375,8,1472.0,1426.0,1430.0,1417.0,1459.0,1467.0,1501.0,1476.0,0.0,0.0,0.0,0.0,0.0,0.0,0.0,0.0
1265828308,8,1473.0,1429.0,1433.0,1418.0,1459.0,1465.0,1499.0,1475.0,0.0,0.0,0.0,0.0,0.0,0.0,0.0,0.0
1265868316,8,1477.0,1433.0,1441.0,1423.0,1464.0,1465.0,1500.0,1475.0,0.0,0.0,0.0,0.0,0.0,0.0,0.0,0.0
1265912312,8,1478.0,1433.0,1441.0,1422.0,1462.0,1462.0,1498.0,1473.0,0.0,0.0,0.0,0.0,0.0,0.0,0.0,0.0
1265956383,8,1478.0,1429.0,1442.0,1420.0,1464.0,1461.0,1500.0,1471.0,0.0,0.0,0.0,0.0,0.0,0.0,0.0,0.0
1265996407,8,1471.0,1423.0,1442.0,1426.0,1473.0,1467.0,1502.0,1467.0,0.0,0.0,0.0,0.0,0.0,0.0,0.0,0.0
1266044398,8,1471.0,1425.0,1447.0,1428.0,1477.0,1466.0,1501.0,1462.0,0.0,0.0,0.0,0.0,0.0,0.0,0.0,0.0
1266084443,8,1468.0,1421.0,1449.0,1428.0,1479.0,1463.0,1498.0,1456.0,0.0,0.0,0.0,0.0,0.0,0.0,0.0,0.0
1266124387,8,1466.0,1420.0,1447.0,1430.0,1480.0,1467.0,1499.0,1457.0,0.0,0.0,0.0,0.0,0.0,0.0,0.0,0.0
1266164332,8,1467.0,1418.0,1448.0,1431.0,1484.0,1470.0,1503.0,1458.0,0.0,0.0,0.0,0.0,0.0,0.0,0.0,0.0
1266208410,8,1466.0,1418.0,1447.0,1430.0,1483.0,1468.0,1503.0,1459.0,0.0,0.0,0.0,0.0,0.0,0.0,0.0,0.0
1266232356,8,1468.0,1422.0,1450.0,1430.0,1480.0,1464.0,1498.0,1455.0,0.0,0.0,0.0,0.0,0.0,0.0,0.0,0.0
1266280322,8,1468.0,1422.0,1452.0,1431.0,1482.0,1464.0,1498.0,1454.0,0.0,0.0,0.0,0.0,0.0,0.0,0.0,0.0
1266328541,8,1463.0,1416.0,1451.0,1432.0,1486.0,1466.0,1499.0,1450.0,0.0,0.0,0.0,0.0,0.0,0.0,0.0,0.0
1266372482,8,1465.0,1412.0,1446.0,1425.0,1488.0,1469.0,1503.0,1453.0,0.0,0.0,0.0,0.0,0.0,0.0,0.0,0.0
1266420330,8,1466.0,1414.0,1447.0,1428.0,1485.0,1469.0,1504.0,1455.0,0.0,0.0,0.0,0.0,0.0,0.0,0.0,0.0
1266460352,8,1464.0,1409.0,1440.0,1422.0,1483.0,1469.0,1507.0,1456.0,0.0,0.0,0.0,0.0,0.0,0.0,0.0,0.0
1266508651,8,1472.0,1414.0,1443.0,1419.0,1479.0,1464.0,1507.0,1459.0,0.0,0.0,0.0,0.0,0.0,0.0,0.0,0.0
1266532393,8,1472.0,1412.0,1445.0,1423.0,1479.0,1466.0,1505.0,1461.0,0.0,0.0,0.0,0.0,0.0,0.0,0.0,0.0
1266576313,8,1475.0,1414.0,1440.0,1412.0,1472.0,1459.0,1507.0,1461.0,0.0,0.0,0.0,0.0,0.0,0.0,0.0,0.0
1266624226,8,1477.0,1421.0,1447.0,1418.0,1473.0,1458.0,1503.0,1461.0,0.0,0.0,0.0,0.0,0.0,0.0,0.0,0.0
1266668305,8,1476.0,1415.0,1445.0,1414.0,1472.0,1458.0,1501.0,1459.0,0.0,0.0,0.0,0.0,0.0,0.0,0.0,0.0
1266712341,8,1474.0,1415.0,1445.0,1417.0,1476.0,1459.0,1505.0,1457.0,0.0,0.0,0.0,0.0,0.0,0.0,0.0,0.0
1266752356,8,1474.0,1414.0,1447.0,1419.0,1480.0,1461.0,1505.0,1453.0,0.0,0.0,0.0,0.0,0.0,0.0,0.0,0.0
1266800359,8,1471.0,1414.0,1447.0,1421.0,1481.0,1461.0,1504.0,1454.0,0.0,0.0,0.0,0.0,0.0,0.0,0.0,0.0
1266844309,8,1475.0,1413.0,1446.0,1417.0,1481.0,1462.0,1509.0,1457.0,0.0,0.0,0.0,0.0,0.0,0.0,0.0,0.0
1266868655,8,1474.0,1412.0,1445.0,1417.0,1481.0,1463.0,1510.0,1458.0,0.0,0.0,0.0,0.0,0.0,0.0,0.0,0.0
1266912346,8,1474.0,1415.0,1450.0,1421.0,1483.0,1461.0,1507.0,1455.0,0.0,0.0,0.0,0.0,0.0,0.0,0.0,0.0
1266952314,8,1477.0,1411.0,1446.0,1414.0,1481.0,1461.0,1512.0,1458.0,0.0,0.0,0.0,0.0,0.0,0.0,0.0,0.0
1267016438,8,1473.0,1415.0,1451.0,1421.0,1483.0,1460.0,1505.0,1453.0,0.0,0.0,0.0,0.0,0.0,0.0,0.0,0.0
1267040331,8,1474.0,1414.0,1448.0,1417.0,1477.0,1456.0,1503.0,1453.0,0.0,0.0,0.0,0.0,0.0,0.0,0.0,0.0
1267088309,8,1474.0,1416.0,1451.0,1421.0,1481.0,1458.0,1504.0,1454.0,0.0,0.0,0.0,0.0,0.0,0.0,0.0,0.0
1267132364,8,1472.0,1422.0,1452.0,1427.0,1478.0,1459.0,1498.0,1455.0,0.0,0.0,0.0,0.0,0.0,0.0,0.0,0.0
1267172369,8,1476.0,1426.0,1452.0,1424.0,1473.0,1455.0,1497.0,1457.0,0.0,0.0,0.0,0.0,0.0,0.0,0.0,0.0
1267216365,8,1475.0,1432.0,1452.0,1429.0,1470.0,1458.0,1493.0,1461.0,0.0,0.0,0.0,0.0,0.0,0.0,0.0,0.0
1267260376,8,1474.0,1436.0,1447.0,1431.0,1467.0,1463.0,1493.0,1468.0,0.0,0.0,0.0,0.0,0.0,0.0,0.0,0.0
1267304359,8,1475.0,1438.0,1445.0,1431.0,1465.0,1466.0,1495.0,1473.0,0.0,0.0,0.0,0.0,0.0,0.0,0.0,0.0
1267328331,8,1477.0,1441.0,1447.0,1433.0,1466.0,1467.0,1496.0,1475.0,0.0,0.0,0.0,0.0,0.0,0.0,0.0,0.0
1267372672,8,1477.0,1433.0,1440.0,1425.0,1465.0,1469.0,1503.0,1478.0,0.0,0.0,0.0,0.0,0.0,0.0,0.0,0.0
1267416418,8,1479.0,1431.0,1441.0,1421.0,1466.0,1466.0,1504.0,1476.0,0.0,0.0,0.0,0.0,0.0,0.0,0.0,0.0
1267464317,8,1477.0,1425.0,1433.0,1414.0,1461.0,1465.0,1504.0,1475.0,0.0,0.0,0.0,0.0,0.0,0.0,0.0,0.0
1267508345,8,1479.0,1420.0,1433.0,1409.0,1463.0,1462.0,1509.0,1473.0,0.0,0.0,0.0,0.0,0.0,0.0,0.0,0.0
1267552724,8,1483.0,1425.0,1443.0,1413.0,1467.0,1459.0,1507.0,1470.0,0.0,0.0,0.0,0.0,0.0,0.0,0.0,0.0
1267596380,8,1481.0,1420.0,1442.0,1411.0,1469.0,1458.0,1507.0,1466.0,0.0,0.0,0.0,0.0,0.0,0.0,0.0,0.0
1267640314,8,1478.0,1418.0,1447.0,1414.0,1473.0,1454.0,1504.0,1458.0,0.0,0.0,0.0,0.0,0.0,0.0,0.0,0.0
1267684351,8,1478.0,1417.0,1448.0,1414.0,1473.0,1452.0,1503.0,1456.0,0.0,0.0,0.0,0.0,0.0,0.0,0.0,0.0
1267708415,8,1477.0,1416.0,1448.0,1411.0,1469.0,1447.0,1498.0,1452.0,0.0,0.0,0.0,0.0,0.0,0.0,0.0,0.0
1267772334,8,1474.0,1420.0,1448.0,1418.0,1472.0,1453.0,1498.0,1455.0,0.0,0.0,0.0,0.0,0.0,0.0,0.0,0.0
1267816448,8,1472.0,1425.0,1447.0,1423.0,1469.0,1456.0,1494.0,1459.0,0.0,0.0,0.0,0.0,0.0,0.0,0.0,0.0
1267860364,8,1475.0,1422.0,1442.0,1415.0,1465.0,1455.0,1498.0,1462.0,0.0,0.0,0.0,0.0,0.0,0.0,0.0,0.0
1267904323,8,1474.0,1426.0,1441.0,1417.0,1462.0,1455.0,1496.0,1464.0,0.0,0.0,0.0,0.0,0.0,0.0,0.0,0.0
1267944317,8,1478.0,1429.0,1441.0,1417.0,1461.0,1457.0,1497.0,1469.0,0.0,0.0,0.0,0.0,0.0,0.0,0.0,0.0
1267968316,8,1479.0,1432.0,1442.0,1419.0,1460.0,1457.0,1497.0,1471.0,0.0,0.0,0.0,0.0,0.0,0.0,0.0,0.0
1268008367,8,1480.0,1435.0,1443.0,1421.0,1460.0,1459.0,1497.0,1473.0,0.0,0.0,0.0,0.0,0.0,0.0,0.0,0.0
1268052311,8,1473.0,1424.0,1435.0,1415.0,1460.0,1459.0,1500.0,1472.0,0.0,0.0,0.0,0.0,0.0,0.0,0.0,0.0
1268096358,8,1476.0,1426.0,1439.0,1417.0,1463.0,1460.0,1500.0,1469.0,0.0,0.0,0.0,0.0,0.0,0.0,0.0,0.0
1268140351,8,1475.0,1434.0,1444.0,1426.0,1465.0,1462.0,1496.0,1470.0,0.0,0.0,0.0,0.0,0.0,0.0,0.0,0.0
1268180322,8,1473.0,1426.0,1443.0,1420.0,1465.0,1458.0,1496.0,1464.0,0.0,0.0,0.0,0.0,0.0,0.0,0.0,0.0
1268224381,8,1474.0,1426.0,1444.0,1421.0,1467.0,1458.0,1497.0,1463.0,0.0,0.0,0.0,0.0,0.0,0.0,0.0,0.0
1268272704,8,1479.0,1429.0,1449.0,1421.0,1467.0,1454.0,1497.0,1463.0,0.0,0.0,0.0,0.0,0.0,0.0,0.0,0.0
1268316378,8,1477.0,1427.0,1445.0,1419.0,1465.0,1456.0,1497.0,1464.0,0.0,0.0,0.0,0.0,0.0,0.0,0.0,0.0
1268360311,8,1474.0,1425.0,1443.0,1419.0,1465.0,1457.0,1496.0,1463.0,0.0,0.0,0.0,0.0,0.0,0.0,0.0,0.0
1268404351,8,1476.0,1428.0,1447.0,1420.0,1466.0,1455.0,1497.0,1464.0,0.0,0.0,0.0,0.0,0.0,0.0,0.0,0.0
1268448348,8,1479.0,1429.0,1448.0,1419.0,1464.0,1452.0,1495.0,1462.0,0.0,0.0,0.0,0.0,0.0,0.0,0.0,0.0
1268468327,8,1480.0,1433.0,1449.0,1421.0,1464.0,1454.0,1495.0,1466.0,0.0,0.0,0.0,0.0,0.0,0.0,0.0,0.0
1268516327,8,1479.0,1435.0,1449.0,1422.0,1462.0,1452.0,1492.0,1465.0,0.0,0.0,0.0,0.0,0.0,0.0,0.0,0.0
1268560695,8,1480.0,1437.0,1448.0,1421.0,1458.0,1451.0,1491.0,1467.0,0.0,0.0,0.0,0.0,0.0,0.0,0.0,0.0
1268608325,8,1478.0,1432.0,1443.0,1418.0,1458.0,1454.0,1494.0,1468.0,0.0,0.0,0.0,0.0,0.0,0.0,0.0,0.0
1268656331,8,1476.0,1431.0,1443.0,1420.0,1461.0,1457.0,1495.0,1468.0,0.0,0.0,0.0,0.0,0.0,0.0,0.0,0.0
1268680356,8,1477.0,1435.0,1444.0,1423.0,1460.0,1457.0,1493.0,1469.0,0.0,0.0,0.0,0.0,0.0,0.0,0.0,0.0
1268744319,8,1477.0,1432.0,1441.0,1418.0,1458.0,1456.0,1494.0,1470.0,0.0,0.0,0.0,0.0,0.0,0.0,0.0,0.0
1268764376,8,1476.0,1434.0,1443.0,1423.0,1460.0,1459.0,1493.0,1470.0,0.0,0.0,0.0,0.0,0.0,0.0,0.0,0.0
1268808384,8,1480.0,1434.0,1442.0,1419.0,1457.0,1456.0,1495.0,1472.0,0.0,0.0,0.0,0.0,0.0,0.0,0.0,0.0
1268856436,8,1484.0,1435.0,1441.0,1412.0,1452.0,1450.0,1495.0,1473.0,0.0,0.0,0.0,0.0,0.0,0.0,0.0,0.0
1268896346,8,1481.0,1439.0,1448.0,1422.0,1457.0,1453.0,1490.0,1469.0,0.0,0.0,0.0,0.0,0.0,0.0,0.0,0.0
1268940433,8,1484.0,1437.0,1447.0,1418.0,1458.0,1453.0,1496.0,1472.0,0.0,0.0,0.0,0.0,0.0,0.0,0.0,0.0
1268988380,8,1486.0,1435.0,1446.0,1414.0,1456.0,1449.0,1496.0,1470.0,0.0,0.0,0.0,0.0,0.0,0.0,0.0,0.0
1269032314,8,1486.0,1433.0,1447.0,1412.0,1457.0,1447.0,1497.0,1468.0,0.0,0.0,0.0,0.0,0.0,0.0,0.0,0.0
1269080312,8,1486.0,1430.0,1447.0,1411.0,1460.0,1448.0,1498.0,1466.0,0.0,0.0,0.0,0.0,0.0,0.0,0.0,0.0
1269104365,8,1483.0,1429.0,1447.0,1415.0,1463.0,1452.0,1499.0,1465.0,0.0,0.0,0.0,0.0,0.0,0.0,0.0,0.0
1269148320,8,1481.0,1430.0,1447.0,1416.0,1462.0,1451.0,1496.0,1465.0,0.0,0.0,0.0,0.0,0.0,0.0,0.0,0.0
1269192498,8,1480.0,1428.0,1446.0,1415.0,1462.0,1451.0,1497.0,1464.0,0.0,0.0,0.0,0.0,0.0,0.0,0.0,0.0
1269240384,8,1485.0,1434.0,1451.0,1418.0,1461.0,1450.0,1496.0,1466.0,0.0,0.0,0.0,0.0,0.0,0.0,0.0,0.0
1269284460,8,1485.0,1435.0,1452.0,1419.0,1462.0,1449.0,1495.0,1466.0,0.0,0.0,0.0,0.0,0.0,0.0,0.0,0.0
1269328333,8,1486.0,1434.0,1450.0,1416.0,1461.0,1449.0,1497.0,1467.0,0.0,0.0,0.0,0.0,0.0,0.0,0.0,0.0
1269368459,8,1486.0,1435.0,1454.0,1420.0,1465.0,1451.0,1498.0,1466.0,0.0,0.0,0.0,0.0,0.0,0.0,0.0,0.0
1269416311,8,1484.0,1433.0,1449.0,1417.0,1462.0,1451.0,1497.0,1467.0,0.0,0.0,0.0,0.0,0.0,0.0,0.0,0.0
1269440336,8,1482.0,1436.0,1453.0,1424.0,1465.0,1449.0,1497.0,1466.0,0.0,0.0,0.0,0.0,0.0,0.0,0.0,0.0
1269484311,8,1483.0,1432.0,1451.0,1419.0,1464.0,1450.0,1496.0,1464.0,0.0,0.0,0.0,0.0,0.0,0.0,0.0,0.0
1269532504,8,1487.0,1433.0,1451.0,1415.0,1461.0,1448.0,1497.0,1466.0,0.0,0.0,0.0,0.0,0.0,0.0,0.0,0.0
1269576415,8,1486.0,1436.0,1453.0,1418.0,1462.0,1448.0,1495.0,1465.0,0.0,0.0,0.0,0.0,0.0,0.0,0.0,0.0
1269620490,8,1486.0,1434.0,1451.0,1417.0,1463.0,1450.0,1498.0,1466.0,0.0,0.0,0.0,0.0,0.0,0.0,0.0,0.0
1269644352,8,1487.0,1433.0,1452.0,1416.0,1463.0,1448.0,1498.0,1465.0,0.0,0.0,0.0,0.0,0.0,0.0,0.0,0.0
1269688402,8,1485.0,1435.0,1454.0,1420.0,1463.0,1449.0,1494.0,1464.0,0.0,0.0,0.0,0.0,0.0,0.0,0.0,0.0
1269752402,8,1486.0,1433.0,1452.0,1417.0,1463.0,1449.0,1497.0,1465.0,0.0,0.0,0.0,0.0,0.0,0.0,0.0,0.0
1269772373,8,1485.0,1435.0,1455.0,1422.0,1466.0,1452.0,1496.0,1465.0,0.0,0.0,0.0,0.0,0.0,0.0,0.0,0.0
1269816448,8,1485.0,1436.0,1452.0,1419.0,1461.0,1448.0,1494.0,1465.0,0.0,0.0,0.0,0.0,0.0,0.0,0.0,0.0
1269864352,8,1486.0,1436.0,1455.0,1422.0,1466.0,1452.0,1497.0,1466.0,0.0,0.0,0.0,0.0,0.0,0.0,0.0,0.0
1269908308,8,1481.0,1437.0,1455.0,1427.0,1466.0,1453.0,1492.0,1463.0,0.0,0.0,0.0,0.0,0.0,0.0,0.0,0.0
1269948318,8,1481.0,1438.0,1456.0,1428.0,1466.0,1452.0,1490.0,1462.0,0.0,0.0,0.0,0.0,0.0,0.0,0.0,0.0
1269992328,8,1481.0,1443.0,1458.0,1433.0,1467.0,1456.0,1490.0,1465.0,0.0,0.0,0.0,0.0,0.0,0.0,0.0,0.0
1270032432,8,1483.0,1445.0,1459.0,1433.0,1466.0,1455.0,1490.0,1467.0,0.0,0.0,0.0,0.0,0.0,0.0,0.0,0.0
1270080353,8,1486.0,1443.0,1455.0,1426.0,1463.0,1454.0,1494.0,1470.0,0.0,0.0,0.0,0.0,0.0,0.0,0.0,0.0
1270124311,8,1487.0,1446.0,1458.0,1430.0,1464.0,1454.0,1493.0,1470.0,0.0,0.0,0.0,0.0,0.0,0.0,0.0,0.0
1270168626,8,1487.0,1445.0,1458.0,1428.0,1463.0,1452.0,1492.0,1469.0,0.0,0.0,0.0,0.0,0.0,0.0,0.0,0.0
1270192437,8,1486.0,1446.0,1459.0,1431.0,1465.0,1455.0,1492.0,1470.0,0.0,0.0,0.0,0.0,0.0,0.0,0.0,0.0
1270240385,8,1490.0,1447.0,1462.0,1431.0,1467.0,1454.0,1495.0,1470.0,0.0,0.0,0.0,0.0,0.0,0.0,0.0,0.0
1270288643,8,1489.0,1448.0,1461.0,1431.0,1465.0,1453.0,1493.0,1470.0,0.0,0.0,0.0,0.0,0.0,0.0,0.0,0.0
1270336630,8,1489.0,1449.0,1463.0,1434.0,1468.0,1456.0,1494.0,1471.0,0.0,0.0,0.0,0.0,0.0,0.0,0.0,0.0
1270376425,8,1494.0,1449.0,1462.0,1429.0,1465.0,1453.0,1497.0,1474.0,0.0,0.0,0.0,0.0,0.0,0.0,0.0,0.0
1270420447,8,1495.0,1449.0,1460.0,1427.0,1464.0,1456.0,1498.0,1477.0,0.0,0.0,0.0,0.0,0.0,0.0,0.0,0.0
1270464381,8,1494.0,1451.0,1462.0,1432.0,1468.0,1459.0,1500.0,1477.0,0.0,0.0,0.0,0.0,0.0,0.0,0.0,0.0
1270504778,8,1497.0,1450.0,1462.0,1428.0,1466.0,1456.0,1501.0,1478.0,0.0,0.0,0.0,0.0,0.0,0.0,0.0,0.0
1270528373,8,1496.0,1452.0,1461.0,1430.0,1466.0,1458.0,1501.0,1480.0,0.0,0.0,0.0,0.0,0.0,0.0,0.0,0.0
1270572424,8,1495.0,1449.0,1460.0,1427.0,1464.0,1455.0,1499.0,1477.0,0.0,0.0,0.0,0.0,0.0,0.0,0.0,0.0
1270616319,8,1496.0,1451.0,1464.0,1430.0,1466.0,1454.0,1498.0,1475.0,0.0,0.0,0.0,0.0,0.0,0.0,0.0,0.0
1270664352,8,1500.0,1455.0,1468.0,1431.0,1466.0,1452.0,1498.0,1476.0,0.0,0.0,0.0,0.0,0.0,0.0,0.0,0.0
1270708285,8,1502.0,1452.0,1467.0,1425.0,1464.0,1448.0,1500.0,1476.0,0.0,0.0,0.0,0.0,0.0,0.0,0.0,0.0
1270748345,8,1500.0,1448.0,1464.0,1422.0,1463.0,1447.0,1499.0,1473.0,0.0,0.0,0.0,0.0,0.0,0.0,0.0,0.0
1270796328,8,1499.0,1449.0,1470.0,1427.0,1468.0,1447.0,1498.0,1469.0,0.0,0.0,0.0,0.0,0.0,0.0,0.0,0.0
1270820335,8,1502.0,1450.0,1470.0,1426.0,1468.0,1447.0,1499.0,1471.0,0.0,0.0,0.0,0.0,0.0,0.0,0.0,0.0
1270868346,8,1500.0,1446.0,1463.0,1420.0,1463.0,1446.0,1500.0,1472.0,0.0,0.0,0.0,0.0,0.0,0.0,0.0,0.0
1270908363,8,1500.0,1444.0,1468.0,1423.0,1469.0,1446.0,1501.0,1468.0,0.0,0.0,0.0,0.0,0.0,0.0,0.0,0.0
1270956385,8,1503.0,1444.0,1469.0,1421.0,1471.0,1446.0,1505.0,1469.0,0.0,0.0,0.0,0.0,0.0,0.0,0.0,0.0
1271000357,8,1499.0,1447.0,1471.0,1429.0,1474.0,1451.0,1501.0,1469.0,0.0,0.0,0.0,0.0,0.0,0.0,0.0,0.0
1271044688,8,1501.0,1447.0,1472.0,1429.0,1475.0,1451.0,1504.0,1470.0,0.0,0.0,0.0,0.0,0.0,0.0,0.0,0.0
1271092311,8,1499.0,1443.0,1471.0,1425.0,1475.0,1450.0,1506.0,1468.0,0.0,0.0,0.0,0.0,0.0,0.0,0.0,0.0
1271136461,8,1496.0,1440.0,1469.0,1426.0,1477.0,1451.0,1504.0,1464.0,0.0,0.0,0.0,0.0,0.0,0.0,0.0,0.0
1271160682,8,1496.0,1437.0,1464.0,1418.0,1469.0,1445.0,1502.0,1464.0,0.0,0.0,0.0,0.0,0.0,0.0,0.0,0.0
1271204336,8,1492.0,1435.0,1465.0,1420.0,1471.0,1443.0,1498.0,1459.0,0.0,0.0,0.0,0.0,0.0,0.0,0.0,0.0
1271252425,8,1489.0,1429.0,1457.0,1412.0,1465.0,1440.0,1496.0,1457.0,0.0,0.0,0.0,0.0,0.0,0.0,0.0,0.0
1271296683,8,1484.0,1427.0,1455.0,1410.0,1460.0,1434.0,1489.0,1452.0,0.0,0.0,0.0,0.0,0.0,0.0,0.0,0.0
1271340390,8,1485.0,1431.0,1454.0,1409.0,1454.0,1431.0,1485.0,1453.0,0.0,0.0,0.0,0.0,0.0,0.0,0.0,0.0
1271388314,8,1485.0,1430.0,1446.0,1403.0,1446.0,1430.0,1485.0,1458.0,0.0,0.0,0.0,0.0,0.0,0.0,0.0,0.0
1271408312,8,1485.0,1433.0,1447.0,1404.0,1444.0,1430.0,1483.0,1459.0,0.0,0.0,0.0,0.0,0.0,0.0,0.0,0.0
1271456315,8,1480.0,1428.0,1438.0,1401.0,1442.0,1433.0,1484.0,1461.0,0.0,0.0,0.0,0.0,0.0,0.0,0.0,0.0
1271500346,8,1481.0,1428.0,1433.0,1396.0,1437.0,1434.0,1486.0,1465.0,0.0,0.0,0.0,0.0,0.0,0.0,0.0,0.0
1271544318,8,1482.0,1433.0,1434.0,1398.0,1433.0,1433.0,1482.0,1467.0,0.0,0.0,0.0,0.0,0.0,0.0,0.0,0.0
1271588310,8,1479.0,1433.0,1434.0,1402.0,1436.0,1435.0,1481.0,1465.0,0.0,0.0,0.0,0.0,0.0,0.0,0.0,0.0
1271632319,8,1525.0,1401.0,1380.0,1311.0,1398.0,1427.0,1543.0,1517.0,0.0,0.0,0.0,0.0,0.0,0.0,0.0,0.0
1271680360,8,1506.0,1413.0,1405.0,1347.0,1413.0,1424.0,1513.0,1490.0,0.0,0.0,0.0,0.0,0.0,0.0,0.0,0.0
1271724323,8,1501.0,1424.0,1432.0,1375.0,1433.0,1425.0,1502.0,1473.0,0.0,0.0,0.0,0.0,0.0,0.0,0.0,0.0
1271764504,8,1509.0,1437.0,1453.0,1395.0,1449.0,1431.0,1505.0,1474.0,0.0,0.0,0.0,0.0,0.0,0.0,0.0,0.0
1271788443,8,1509.0,1443.0,1463.0,1406.0,1456.0,1432.0,1501.0,1470.0,0.0,0.0,0.0,0.0,0.0,0.0,0.0,0.0
1271832313,8,1508.0,1456.0,1480.0,1425.0,1464.0,1435.0,1493.0,1466.0,0.0,0.0,0.0,0.0,0.0,0.0,0.0,0.0
1271880302,8,1274.0,1619.0,1251.0,1636.0,1297.0,1685.0,1320.0,1668.0,0.0,0.0,0.0,0.0,0.0,0.0,0.0,0.0
1271924311,8,1299.0,1588.0,1281.0,1612.0,1333.0,1662.0,1351.0,1638.0,0.0,0.0,0.0,0.0,0.0,0.0,0.0,0.0
1271964362,8,1345.0,1558.0,1337.0,1582.0,1379.0,1617.0,1387.0,1593.0,0.0,0.0,0.0,0.0,0.0,0.0,0.0,0.0
1272012353,8,1391.0,1554.0,1378.0,1549.0,1383.0,1562.0,1396.0,1567.0,0.0,0.0,0.0,0.0,0.0,0.0,0.0,0.0
1272056314,8,1412.0,1537.0,1392.0,1522.0,1390.0,1534.0,1410.0,1550.0,0.0,0.0,0.0,0.0,0.0,0.0,0.0,0.0
1272100399,8,1430.0,1534.0,1409.0,1512.0,1399.0,1519.0,1420.0,1541.0,0.0,0.0,0.0,0.0,0.0,0.0,0.0,0.0
1272124801,8,1434.0,1527.0,1415.0,1507.0,1405.0,1513.0,1424.0,1534.0,0.0,0.0,0.0,0.0,0.0,0.0,0.0,0.0
1272168220,8,1439.0,1519.0,1419.0,1498.0,1411.0,1507.0,1431.0,1527.0,0.0,0.0,0.0,0.0,0.0,0.0,0.0,0.0
1272208365,8,1440.0,1503.0,1425.0,1491.0,1424.0,1501.0,1439.0,1513.0,0.0,0.0,0.0,0.0,0.0,0.0,0.0,0.0
1272252436,8,1443.0,1496.0,1430.0,1489.0,1434.0,1502.0,1448.0,1509.0,0.0,0.0,0.0,0.0,0.0,0.0,0.0,0.0
1272296321,8,1455.0,1494.0,1436.0,1483.0,1439.0,1498.0,1458.0,1510.0,0.0,0.0,0.0,0.0,0.0,0.0,0.0,0.0
1272344309,8,1463.0,1491.0,1440.0,1475.0,1440.0,1492.0,1463.0,1508.0,0.0,0.0,0.0,0.0,0.0,0.0,0.0,0.0
1272384311,8,1464.0,1484.0,1441.0,1473.0,1449.0,1496.0,1472.0,1506.0,0.0,0.0,0.0,0.0,0.0,0.0,0.0,0.0
1272432337,8,1467.0,1479.0,1443.0,1471.0,1454.0,1500.0,1480.0,1508.0,0.0,0.0,0.0,0.0,0.0,0.0,0.0,0.0
1272476518,8,1468.0,1477.0,1441.0,1470.0,1458.0,1501.0,1485.0,1508.0,0.0,0.0,0.0,0.0,0.0,0.0,0.0,0.0
1272520684,8,1468.0,1471.0,1435.0,1463.0,1456.0,1501.0,1489.0,1509.0,0.0,0.0,0.0,0.0,0.0,0.0,0.0,0.0
