timestamp,noutputs,output[0],output[1],output[2],output[3],output[4],output[5],output[6],output[7],output[8],output[9],output[10],output[11],output[12],output[13],output[14],output[15]
2467862030,8,1448.0,1461.0,1470.0,1465.0,1453.0,1437.0,1432.0,1434.0,0.0,0.0,0.0,0.0,0.0,0.0,0.0,0.0
2468042037,8,1470.0,1486.0,1492.0,1489.0,1473.0,1459.0,1451.0,1456.0,0.0,0.0,0.0,0.0,0.0,0.0,0.0,0.0
2468065968,8,1473.0,1487.0,1497.0,1491.0,1478.0,1461.0,1454.0,1457.0,0.0,0.0,0.0,0.0,0.0,0.0,0.0,0.0
2468113999,8,1477.0,1495.0,1503.0,1500.0,1483.0,1468.0,1458.0,1464.0,0.0,0.0,0.0,0.0,0.0,0.0,0.0,0.0
2468162030,8,1485.0,1497.0,1503.0,1499.0,1488.0,1475.0,1470.0,1473.0,0.0,0.0,0.0,0.0,0.0,0.0,0.0,0.0
2468205978,8,1495.0,1509.0,1517.0,1507.0,1493.0,1474.0,1470.0,1476.0,0.0,0.0,0.0,0.0,0.0,0.0,0.0,0.0
2468253975,8,1492.0,1497.0,1516.0,1512.0,1513.0,1493.0,1489.0,1478.0,0.0,0.0,0.0,0.0,0.0,0.0,0.0,0.0
2468298020,8,1521.0,1511.0,1541.0,1505.0,1512.0,1470.0,1492.0,1477.0,0.0,0.0,0.0,0.0,0.0,0.0,0.0,0.0
2468318018,8,1501.0,1513.0,1536.0,1528.0,1522.0,1489.0,1489.0,1475.0,0.0,0.0,0.0,0.0,0.0,0.0,0.0,0.0
2468361999,8,1513.0,1530.0,1538.0,1530.0,1513.0,1494.0,1487.0,1494.0,0.0,0.0,0.0,0.0,0.0,0.0,0.0,0.0
2468425997,8,1516.0,1542.0,1543.0,1542.0,1517.0,1504.0,1490.0,1504.0,0.0,0.0,0.0,0.0,0.0,0.0,0.0,0.0
2468449958,8,1524.0,1542.0,1547.0,1539.0,1520.0,1504.0,1497.0,1507.0,0.0,0.0,0.0,0.0,0.0,0.0,0.0,0.0
2468493995,8,1530.0,1545.0,1549.0,1542.0,1526.0,1513.0,1507.0,1516.0,0.0,0.0,0.0,0.0,0.0,0.0,0.0,0.0
2468534079,8,1528.0,1550.0,1554.0,1555.0,1535.0,1522.0,1509.0,1518.0,0.0,0.0,0.0,0.0,0.0,0.0,0.0,0.0
2468577997,8,1538.0,1555.0,1557.0,1555.0,1537.0,1527.0,1518.0,1527.0,0.0,0.0,0.0,0.0,0.0,0.0,0.0,0.0
2468621997,8,1544.0,1561.0,1564.0,1560.0,1544.0,1532.0,1523.0,1532.0,0.0,0.0,0.0,0.0,0.0,0.0,0.0,0.0
2468662044,8,1548.0,1567.0,1575.0,1570.0,1553.0,1536.0,1526.0,1532.0,0.0,0.0,0.0,0.0,0.0,0.0,0.0,0.0
2468705944,8,1554.0,1572.0,1580.0,1574.0,1557.0,1540.0,1532.0,1538.0,0.0,0.0,0.0,0.0,0.0,0.0,0.0,0.0
2468749993,8,1561.0,1578.0,1568.0,1572.0,1553.0,1556.0,1546.0,1562.0,0.0,0.0,0.0,0.0,0.0,0.0,0.0,0.0
2468793912,8,1577.0,1573.0,1538.0,1546.0,1539.0,1575.0,1579.0,1602.0,0.0,0.0,0.0,0.0,0.0,0.0,0.0,0.0
2468833965,8,1589.0,1546.0,1507.0,1505.0,1532.0,1581.0,1614.0,1622.0,0.0,0.0,0.0,0.0,0.0,0.0,0.0,0.0
2468877965,8,1620.0,1529.0,1490.0,1468.0,1534.0,1590.0,1663.0,1651.0,0.0,0.0,0.0,0.0,0.0,0.0,0.0,0.0
2468922019,8,1604.0,1518.0,1500.0,1473.0,1540.0,1576.0,1645.0,1621.0,0.0,0.0,0.0,0.0,0.0,0.0,0.0,0.0
2468961984,8,1569.0,1490.0,1512.0,1474.0,1546.0,1538.0,1608.0,1563.0,0.0,0.0,0.0,0.0,0.0,0.0,0.0,0.0
2469006258,8,1536.0,1459.0,1513.0,1473.0,1556.0,1519.0,1578.0,1505.0,0.0,0.0,0.0,0.0,0.0,0.0,0.0,0.0
2469054019,8,1533.0,1455.0,1482.0,1457.0,1536.0,1531.0,1587.0,1529.0,0.0,0.0,0.0,0.0,0.0,0.0,0.0,0.0
2469098078,8,1517.0,1437.0,1455.0,1433.0,1512.0,1518.0,1574.0,1522.0,0.0,0.0,0.0,0.0,0.0,0.0,0.0,0.0
2469145960,8,1493.0,1422.0,1476.0,1446.0,1526.0,1494.0,1543.0,1470.0,0.0,0.0,0.0,0.0,0.0,0.0,0.0,0.0
2469186136,8,1485.0,1422.0,1487.0,1449.0,1523.0,1472.0,1520.0,1445.0,0.0,0.0,0.0,0.0,0.0,0.0,0.0,0.0
2469229761,8,1475.0,1435.0,1481.0,1452.0,1499.0,1460.0,1494.0,1443.0,0.0,0.0,0.0,0.0,0.0,0.0,0.0,0.0
2469269982,8,1475.0,1435.0,1474.0,1448.0,1493.0,1462.0,1494.0,1449.0,0.0,0.0,0.0,0.0,0.0,0.0,0.0,0.0
2469313970,8,1474.0,1434.0,1480.0,1451.0,1498.0,1459.0,1492.0,1442.0,0.0,0.0,0.0,0.0,0.0,0.0,0.0,0.0
2469354001,8,1480.0,1448.0,1485.0,1451.0,1484.0,1446.0,1478.0,1443.0,0.0,0.0,0.0,0.0,0.0,0.0,0.0,0.0
2469377952,8,1481.0,1451.0,1490.0,1451.0,1482.0,1438.0,1472.0,1438.0,0.0,0.0,0.0,0.0,0.0,0.0,0.0,0.0
2469422004,8,1469.0,1445.0,1492.0,1459.0,1489.0,1441.0,1466.0,1427.0,0.0,0.0,0.0,0.0,0.0,0.0,0.0,0.0
2469465783,8,1468.0,1441.0,1490.0,1455.0,1487.0,1437.0,1464.0,1423.0,0.0,0.0,0.0,0.0,0.0,0.0,0.0,0.0
2469525948,8,1466.0,1449.0,1505.0,1468.0,1493.0,1431.0,1454.0,1412.0,0.0,0.0,0.0,0.0,0.0,0.0,0.0,0.0
2469546134,8,1461.0,1448.0,1504.0,1470.0,1493.0,1432.0,1450.0,1409.0,0.0,0.0,0.0,0.0,0.0,0.0,0.0,0.0
2469589990,8,1460.0,1456.0,1516.0,1480.0,1495.0,1427.0,1440.0,1402.0,0.0,0.0,0.0,0.0,0.0,0.0,0.0,0.0
2469637987,8,1459.0,1451.0,1512.0,1478.0,1496.0,1428.0,1443.0,1402.0,0.0,0.0,0.0,0.0,0.0,0.0,0.0,0.0
2469681952,8,1459.0,1445.0,1503.0,1472.0,1497.0,1436.0,1453.0,1409.0,0.0,0.0,0.0,0.0,0.0,0.0,0.0,0.0
2469726116,8,1460.0,1444.0,1497.0,1467.0,1492.0,1437.0,1454.0,1414.0,0.0,0.0,0.0,0.0,0.0,0.0,0.0,0.0
2469770022,8,1464.0,1446.0,1495.0,1463.0,1487.0,1436.0,1457.0,1420.0,0.0,0.0,0.0,0.0,0.0,0.0,0.0,0.0
2469814010,8,1464.0,1442.0,1487.0,1458.0,1488.0,1443.0,1465.0,1426.0,0.0,0.0,0.0,0.0,0.0,0.0,0.0,0.0
2469853963,8,1466.0,1449.0,1489.0,1462.0,1484.0,1441.0,1460.0,1428.0,0.0,0.0,0.0,0.0,0.0,0.0,0.0,0.0
2469898029,8,1463.0,1451.0,1490.0,1466.0,1484.0,1442.0,1457.0,1428.0,0.0,0.0,0.0,0.0,0.0,0.0,0.0,0.0
2469942398,8,1464.0,1449.0,1491.0,1464.0,1485.0,1441.0,1458.0,1426.0,0.0,0.0,0.0,0.0,0.0,0.0,0.0,0.0
2469966003,8,1463.0,1448.0,1491.0,1465.0,1488.0,1443.0,1460.0,1425.0,0.0,0.0,0.0,0.0,0.0,0.0,0.0,0.0
2470029963,8,1463.0,1446.0,1489.0,1463.0,1487.0,1444.0,1461.0,1427.0,0.0,0.0,0.0,0.0,0.0,0.0,0.0,0.0
2470054001,8,1465.0,1450.0,1491.0,1465.0,1486.0,1443.0,1460.0,1428.0,0.0,0.0,0.0,0.0,0.0,0.0,0.0,0.0
2470101999,8,1466.0,1450.0,1493.0,1465.0,1488.0,1442.0,1460.0,1427.0,0.0,0.0,0.0,0.0,0.0,0.0,0.0,0.0
2470145971,8,1469.0,1451.0,1496.0,1465.0,1489.0,1441.0,1462.0,1427.0,0.0,0.0,0.0,0.0,0.0,0.0,0.0,0.0
2470194060,8,1473.0,1454.0,1499.0,1465.0,1489.0,1439.0,1463.0,1428.0,0.0,0.0,0.0,0.0,0.0,0.0,0.0,0.0
2470233735,8,1476.0,1453.0,1502.0,1465.0,1492.0,1439.0,1466.0,1428.0,0.0,0.0,0.0,0.0,0.0,0.0,0.0,0.0
2470278017,8,1476.0,1449.0,1497.0,1459.0,1490.0,1439.0,1469.0,1429.0,0.0,0.0,0.0,0.0,0.0,0.0,0.0,0.0
2470321773,8,1479.0,1451.0,1503.0,1462.0,1494.0,1439.0,1470.0,1428.0,0.0,0.0,0.0,0.0,0.0,0.0,0.0,0.0
2470365746,8,1479.0,1451.0,1501.0,1461.0,1494.0,1440.0,1472.0,1430.0,0.0,0.0,0.0,0.0,0.0,0.0,0.0,0.0
2470385980,8,1480.0,1451.0,1500.0,1460.0,1492.0,1441.0,1472.0,1431.0,0.0,0.0,0.0,0.0,0.0,0.0,0.0,0.0
2470433961,8,1484.0,1449.0,1500.0,1454.0,1492.0,1441.0,1476.0,1432.0,0.0,0.0,0.0,0.0,0.0,0.0,0.0,0.0
2470478003,8,1485.0,1448.0,1499.0,1453.0,1492.0,1439.0,1478.0,1434.0,0.0,0.0,0.0,0.0,0.0,0.0,0.0,0.0
2470518391,8,1484.0,1450.0,1500.0,1456.0,1493.0,1440.0,1478.0,1434.0,0.0,0.0,0.0,0.0,0.0,0.0,0.0,0.0
2470557989,8,1485.0,1449.0,1506.0,1460.0,1499.0,1442.0,1480.0,1433.0,0.0,0.0,0.0,0.0,0.0,0.0,0.0,0.0
2470606007,8,1489.0,1449.0,1500.0,1453.0,1494.0,1441.0,1483.0,1437.0,0.0,0.0,0.0,0.0,0.0,0.0,0.0,0.0
2470649968,8,1491.0,1451.0,1504.0,1453.0,1495.0,1437.0,1482.0,1435.0,0.0,0.0,0.0,0.0,0.0,0.0,0.0,0.0
2470694017,8,1487.0,1452.0,1503.0,1458.0,1495.0,1441.0,1479.0,1435.0,0.0,0.0,0.0,0.0,0.0,0.0,0.0,0.0
2470738009,8,1485.0,1452.0,1504.0,1462.0,1499.0,1446.0,1480.0,1436.0,0.0,0.0,0.0,0.0,0.0,0.0,0.0,0.0
2470782110,8,1488.0,1453.0,1504.0,1460.0,1498.0,1444.0,1481.0,1437.0,0.0,0.0,0.0,0.0,0.0,0.0,0.0,0.0
2470825765,8,1485.0,1453.0,1503.0,1462.0,1498.0,1447.0,1481.0,1438.0,0.0,0.0,0.0,0.0,0.0,0.0,0.0,0.0
2470849974,8,1485.0,1453.0,1502.0,1462.0,1498.0,1447.0,1480.0,1437.0,0.0,0.0,0.0,0.0,0.0,0.0,0.0,0.0
2470893969,8,1485.0,1452.0,1499.0,1459.0,1495.0,1447.0,1481.0,1439.0,0.0,0.0,0.0,0.0,0.0,0.0,0.0,0.0
2470937995,8,1486.0,1455.0,1503.0,1464.0,1499.0,1448.0,1481.0,1439.0,0.0,0.0,0.0,0.0,0.0,0.0,0.0,0.0
2470982064,8,1486.0,1453.0,1501.0,1461.0,1497.0,1448.0,1482.0,1440.0,0.0,0.0,0.0,0.0,0.0,0.0,0.0,0.0
2471030070,8,1483.0,1454.0,1503.0,1467.0,1501.0,1452.0,1482.0,1440.0,0.0,0.0,0.0,0.0,0.0,0.0,0.0,0.0
2471073981,8,1483.0,1453.0,1500.0,1464.0,1498.0,1451.0,1482.0,1440.0,0.0,0.0,0.0,0.0,0.0,0.0,0.0,0.0
2471118035,8,1481.0,1456.0,1504.0,1471.0,1501.0,1453.0,1479.0,1439.0,0.0,0.0,0.0,0.0,0.0,0.0,0.0,0.0
2471161777,8,1483.0,1459.0,1503.0,1470.0,1498.0,1451.0,1477.0,1440.0,0.0,0.0,0.0,0.0,0.0,0.0,0.0,0.0
2471206001,8,1483.0,1455.0,1500.0,1465.0,1497.0,1451.0,1480.0,1441.0,0.0,0.0,0.0,0.0,0.0,0.0,0.0,0.0
2471229930,8,1483.0,1459.0,1501.0,1468.0,1495.0,1451.0,1478.0,1443.0,0.0,0.0,0.0,0.0,0.0,0.0,0.0,0.0
2471274130,8,1482.0,1456.0,1503.0,1468.0,1497.0,1450.0,1477.0,1440.0,0.0,0.0,0.0,0.0,0.0,0.0,0.0,0.0
2471314043,8,1481.0,1458.0,1505.0,1472.0,1500.0,1452.0,1476.0,1438.0,0.0,0.0,0.0,0.0,0.0,0.0,0.0,0.0
2471362022,8,1479.0,1455.0,1500.0,1468.0,1497.0,1451.0,1476.0,1438.0,0.0,0.0,0.0,0.0,0.0,0.0,0.0,0.0
2471406009,8,1479.0,1456.0,1501.0,1469.0,1497.0,1451.0,1476.0,1438.0,0.0,0.0,0.0,0.0,0.0,0.0,0.0,0.0
2471449967,8,1478.0,1457.0,1501.0,1471.0,1499.0,1454.0,1477.0,1439.0,0.0,0.0,0.0,0.0,0.0,0.0,0.0,0.0
2471494000,8,1478.0,1457.0,1499.0,1471.0,1498.0,1455.0,1477.0,1441.0,0.0,0.0,0.0,0.0,0.0,0.0,0.0,0.0
2471533974,8,1476.0,1456.0,1497.0,1472.0,1497.0,1456.0,1476.0,1441.0,0.0,0.0,0.0,0.0,0.0,0.0,0.0,0.0
2471577979,8,1477.0,1455.0,1496.0,1468.0,1494.0,1453.0,1475.0,1441.0,0.0,0.0,0.0,0.0,0.0,0.0,0.0,0.0
2471622062,8,1477.0,1457.0,1497.0,1470.0,1495.0,1454.0,1475.0,1442.0,0.0,0.0,0.0,0.0,0.0,0.0,0.0,0.0
2471665771,8,1477.0,1461.0,1498.0,1473.0,1495.0,1455.0,1473.0,1443.0,0.0,0.0,0.0,0.0,0.0,0.0,0.0,0.0
2471689991,8,1476.0,1462.0,1498.0,1475.0,1494.0,1456.0,1472.0,1444.0,0.0,0.0,0.0,0.0,0.0,0.0,0.0,0.0
2471733761,8,1475.0,1462.0,1497.0,1474.0,1493.0,1456.0,1471.0,1443.0,0.0,0.0,0.0,0.0,0.0,0.0,0.0,0.0
2471781991,8,1478.0,1461.0,1497.0,1471.0,1492.0,1454.0,1473.0,1445.0,0.0,0.0,0.0,0.0,0.0,0.0,0.0,0.0
2471825980,8,1476.0,1464.0,1497.0,1475.0,1492.0,1456.0,1470.0,1444.0,0.0,0.0,0.0,0.0,0.0,0.0,0.0,0.0
2471869983,8,1474.0,1459.0,1494.0,1472.0,1492.0,1456.0,1472.0,1443.0,0.0,0.0,0.0,0.0,0.0,0.0,0.0,0.0
2471910050,8,1475.0,1462.0,1494.0,1472.0,1489.0,1455.0,1470.0,1445.0,0.0,0.0,0.0,0.0,0.0,0.0,0.0,0.0
2471954005,8,1475.0,1460.0,1490.0,1469.0,1487.0,1456.0,1472.0,1447.0,0.0,0.0,0.0,0.0,0.0,0.0,0.0,0.0
2471998027,8,1478.0,1463.0,1494.0,1471.0,1489.0,1456.0,1473.0,1449.0,0.0,0.0,0.0,0.0,0.0,0.0,0.0,0.0
2472042023,8,1478.0,1464.0,1493.0,1471.0,1488.0,1456.0,1472.0,1449.0,0.0,0.0,0.0,0.0,0.0,0.0,0.0,0.0
2472066083,8,1475.0,1463.0,1494.0,1473.0,1489.0,1457.0,1470.0,1447.0,0.0,0.0,0.0,0.0,0.0,0.0,0.0,0.0
2472109973,8,1474.0,1464.0,1492.0,1474.0,1488.0,1459.0,1470.0,1449.0,0.0,0.0,0.0,0.0,0.0,0.0,0.0,0.0
2472157958,8,1475.0,1463.0,1493.0,1473.0,1490.0,1458.0,1472.0,1448.0,0.0,0.0,0.0,0.0,0.0,0.0,0.0,0.0
2472202018,8,1474.0,1464.0,1493.0,1475.0,1490.0,1459.0,1471.0,1448.0,0.0,0.0,0.0,0.0,0.0,0.0,0.0,0.0
2472246078,8,1471.0,1464.0,1491.0,1476.0,1489.0,1460.0,1469.0,1448.0,0.0,0.0,0.0,0.0,0.0,0.0,0.0,0.0
2472287593,8,1470.0,1463.0,1488.0,1474.0,1486.0,1460.0,1468.0,1448.0,0.0,0.0,0.0,0.0,0.0,0.0,0.0,0.0
2472331592,8,1471.0,1464.0,1493.0,1478.0,1490.0,1459.0,1468.0,1446.0,0.0,0.0,0.0,0.0,0.0,0.0,0.0,0.0
2472379549,8,1470.0,1466.0,1495.0,1482.0,1492.0,1463.0,1468.0,1448.0,0.0,0.0,0.0,0.0,0.0,0.0,0.0,0.0
2472419553,8,1470.0,1465.0,1493.0,1479.0,1490.0,1461.0,1467.0,1447.0,0.0,0.0,0.0,0.0,0.0,0.0,0.0,0.0
2472463582,8,1471.0,1463.0,1492.0,1475.0,1489.0,1459.0,1468.0,1446.0,0.0,0.0,0.0,0.0,0.0,0.0,0.0,0.0
2472503583,8,1469.0,1461.0,1490.0,1474.0,1488.0,1458.0,1467.0,1444.0,0.0,0.0,0.0,0.0,0.0,0.0,0.0,0.0
2472547551,8,1469.0,1462.0,1493.0,1476.0,1489.0,1457.0,1465.0,1442.0,0.0,0.0,0.0,0.0,0.0,0.0,0.0,0.0
2472571592,8,1471.0,1465.0,1493.0,1477.0,1487.0,1456.0,1465.0,1445.0,0.0,0.0,0.0,0.0,0.0,0.0,0.0,0.0
2472615576,8,1470.0,1463.0,1494.0,1474.0,1488.0,1456.0,1468.0,1446.0,0.0,0.0,0.0,0.0,0.0,0.0,0.0,0.0
2472663577,8,1472.0,1464.0,1495.0,1476.0,1490.0,1457.0,1468.0,1444.0,0.0,0.0,0.0,0.0,0.0,0.0,0.0,0.0
2472707655,8,1470.0,1466.0,1494.0,1480.0,1491.0,1461.0,1466.0,1446.0,0.0,0.0,0.0,0.0,0.0,0.0,0.0,0.0
2472747927,8,1470.0,1460.0,1490.0,1473.0,1489.0,1458.0,1468.0,1444.0,0.0,0.0,0.0,0.0,0.0,0.0,0.0,0.0
2472795577,8,1471.0,1462.0,1492.0,1475.0,1489.0,1458.0,1468.0,1445.0,0.0,0.0,0.0,0.0,0.0,0.0,0.0,0.0
2472835621,8,1472.0,1463.0,1494.0,1477.0,1492.0,1460.0,1470.0,1446.0,0.0,0.0,0.0,0.0,0.0,0.0,0.0,0.0
2472883546,8,1470.0,1461.0,1491.0,1474.0,1489.0,1459.0,1469.0,1446.0,0.0,0.0,0.0,0.0,0.0,0.0,0.0,0.0
2472927947,8,1471.0,1461.0,1491.0,1474.0,1490.0,1459.0,1470.0,1446.0,0.0,0.0,0.0,0.0,0.0,0.0,0.0,0.0
2472951614,8,1472.0,1462.0,1494.0,1476.0,1493.0,1460.0,1471.0,1446.0,0.0,0.0,0.0,0.0,0.0,0.0,0.0,0.0
2472999931,8,1468.0,1460.0,1486.0,1473.0,1486.0,1460.0,1468.0,1447.0,0.0,0.0,0.0,0.0,0.0,0.0,0.0,0.0
2473047612,8,1471.0,1463.0,1491.0,1478.0,1493.0,1465.0,1473.0,1450.0,0.0,0.0,0.0,0.0,0.0,0.0,0.0,0.0
2473091571,8,1468.0,1461.0,1490.0,1478.0,1492.0,1464.0,1470.0,1447.0,0.0,0.0,0.0,0.0,0.0,0.0,0.0,0.0
2473135541,8,1469.0,1463.0,1491.0,1480.0,1492.0,1465.0,1470.0,1449.0,0.0,0.0,0.0,0.0,0.0,0.0,0.0,0.0
2473159543,8,1471.0,1467.0,1493.0,1479.0,1488.0,1461.0,1467.0,1449.0,0.0,0.0,0.0,0.0,0.0,0.0,0.0,0.0
2473203629,8,1471.0,1468.0,1493.0,1483.0,1492.0,1461.0,1468.0,1449.0,0.0,0.0,0.0,0.0,0.0,0.0,0.0,0.0
2473247541,8,1470.0,1467.0,1491.0,1481.0,1490.0,1466.0,1470.0,1452.0,0.0,0.0,0.0,0.0,0.0,0.0,0.0,0.0
2473287929,8,1472.0,1466.0,1489.0,1476.0,1486.0,1462.0,1469.0,1452.0,0.0,0.0,0.0,0.0,0.0,0.0,0.0,0.0
2473331573,8,1472.0,1466.0,1488.0,1475.0,1485.0,1462.0,1469.0,1453.0,0.0,0.0,0.0,0.0,0.0,0.0,0.0,0.0
2473375570,8,1471.0,1464.0,1483.0,1472.0,1482.0,1462.0,1469.0,1454.0,0.0,0.0,0.0,0.0,0.0,0.0,0.0,0.0
2473423544,8,1471.0,1467.0,1487.0,1477.0,1485.0,1464.0,1469.0,1454.0,0.0,0.0,0.0,0.0,0.0,0.0,0.0,0.0
2473467926,8,1472.0,1469.0,1487.0,1478.0,1484.0,1465.0,1469.0,1457.0,0.0,0.0,0.0,0.0,0.0,0.0,0.0,0.0
2473507566,8,1473.0,1469.0,1486.0,1476.0,1482.0,1465.0,1470.0,1458.0,0.0,0.0,0.0,0.0,0.0,0.0,0.0,0.0
2473551556,8,1473.0,1466.0,1484.0,1473.0,1482.0,1464.0,1470.0,1457.0,0.0,0.0,0.0,0.0,0.0,0.0,0.0,0.0
2473575723,8,1470.0,1468.0,1485.0,1477.0,1484.0,1466.0,1469.0,1456.0,0.0,0.0,0.0,0.0,0.0,0.0,0.0,0.0
2473619616,8,1472.0,1468.0,1485.0,1477.0,1485.0,1467.0,1471.0,1458.0,0.0,0.0,0.0,0.0,0.0,0.0,0.0,0.0
2473663579,8,1471.0,1469.0,1487.0,1478.0,1484.0,1465.0,1468.0,1456.0,0.0,0.0,0.0,0.0,0.0,0.0,0.0,0.0
2473727604,8,1475.0,1473.0,1487.0,1477.0,1480.0,1464.0,1468.0,1460.0,0.0,0.0,0.0,0.0,0.0,0.0,0.0,0.0
2473751604,8,1471.0,1471.0,1485.0,1478.0,1482.0,1466.0,1468.0,1459.0,0.0,0.0,0.0,0.0,0.0,0.0,0.0,0.0
2473795600,8,1473.0,1473.0,1486.0,1479.0,1481.0,1466.0,1468.0,1460.0,0.0,0.0,0.0,0.0,0.0,0.0,0.0,0.0
2473843599,8,1475.0,1472.0,1486.0,1474.0,1479.0,1462.0,1468.0,1459.0,0.0,0.0,0.0,0.0,0.0,0.0,0.0,0.0
2473883638,8,1476.0,1473.0,1486.0,1474.0,1477.0,1460.0,1467.0,1459.0,0.0,0.0,0.0,0.0,0.0,0.0,0.0,0.0
2473927570,8,1475.0,1472.0,1488.0,1476.0,1480.0,1461.0,1467.0,1458.0,0.0,0.0,0.0,0.0,0.0,0.0,0.0,0.0
2473971916,8,1474.0,1472.0,1486.0,1476.0,1479.0,1461.0,1466.0,1458.0,0.0,0.0,0.0,0.0,0.0,0.0,0.0,0.0
2474015566,8,1470.0,1469.0,1485.0,1476.0,1481.0,1464.0,1467.0,1456.0,0.0,0.0,0.0,0.0,0.0,0.0,0.0,0.0
2474039566,8,1470.0,1468.0,1484.0,1476.0,1481.0,1464.0,1466.0,1456.0,0.0,0.0,0.0,0.0,0.0,0.0,0.0,0.0
2474099592,8,1470.0,1469.0,1488.0,1480.0,1485.0,1465.0,1467.0,1454.0,0.0,0.0,0.0,0.0,0.0,0.0,0.0,0.0
2474123567,8,1469.0,1468.0,1484.0,1477.0,1482.0,1465.0,1466.0,1456.0,0.0,0.0,0.0,0.0,0.0,0.0,0.0,0.0
2474167586,8,1469.0,1467.0,1484.0,1477.0,1482.0,1465.0,1467.0,1455.0,0.0,0.0,0.0,0.0,0.0,0.0,0.0,0.0
2474211563,8,1470.0,1467.0,1484.0,1477.0,1484.0,1467.0,1469.0,1456.0,0.0,0.0,0.0,0.0,0.0,0.0,0.0,0.0
2474255606,8,1469.0,1466.0,1485.0,1477.0,1484.0,1466.0,1469.0,1455.0,0.0,0.0,0.0,0.0,0.0,0.0,0.0,0.0
2474295980,8,1470.0,1465.0,1486.0,1476.0,1486.0,1466.0,1471.0,1455.0,0.0,0.0,0.0,0.0,0.0,0.0,0.0,0.0
2474343645,8,1470.0,1465.0,1484.0,1477.0,1487.0,1469.0,1472.0,1456.0,0.0,0.0,0.0,0.0,0.0,0.0,0.0,0.0
2474383605,8,1471.0,1465.0,1486.0,1476.0,1487.0,1467.0,1472.0,1455.0,0.0,0.0,0.0,0.0,0.0,0.0,0.0,0.0
2474431319,8,1472.0,1464.0,1486.0,1475.0,1487.0,1466.0,1473.0,1455.0,0.0,0.0,0.0,0.0,0.0,0.0,0.0,0.0
2474471565,8,1472.0,1466.0,1487.0,1476.0,1485.0,1465.0,1471.0,1455.0,0.0,0.0,0.0,0.0,0.0,0.0,0.0,0.0
2474519572,8,1472.0,1467.0,1486.0,1477.0,1486.0,1466.0,1471.0,1457.0,0.0,0.0,0.0,0.0,0.0,0.0,0.0,0.0
2474563617,8,1474.0,1467.0,1487.0,1476.0,1487.0,1466.0,1474.0,1457.0,0.0,0.0,0.0,0.0,0.0,0.0,0.0,0.0
2474607589,8,1473.0,1467.0,1486.0,1477.0,1487.0,1468.0,1474.0,1458.0,0.0,0.0,0.0,0.0,0.0,0.0,0.0,0.0
2474631582,8,1472.0,1466.0,1487.0,1478.0,1489.0,1469.0,1474.0,1457.0,0.0,0.0,0.0,0.0,0.0,0.0,0.0,0.0
2474679598,8,1473.0,1468.0,1489.0,1479.0,1490.0,1469.0,1475.0,1458.0,0.0,0.0,0.0,0.0,0.0,0.0,0.0,0.0
2474719577,8,1471.0,1467.0,1488.0,1479.0,1489.0,1468.0,1472.0,1456.0,0.0,0.0,0.0,0.0,0.0,0.0,0.0,0.0
2474763737,8,1474.0,1469.0,1489.0,1480.0,1489.0,1468.0,1473.0,1458.0,0.0,0.0,0.0,0.0,0.0,0.0,0.0,0.0
2474807579,8,1475.0,1470.0,1490.0,1480.0,1489.0,1468.0,1473.0,1458.0,0.0,0.0,0.0,0.0,0.0,0.0,0.0,0.0
2474847610,8,1474.0,1466.0,1487.0,1476.0,1488.0,1468.0,1476.0,1458.0,0.0,0.0,0.0,0.0,0.0,0.0,0.0,0.0
2474891358,8,1475.0,1467.0,1486.0,1476.0,1487.0,1468.0,1476.0,1460.0,0.0,0.0,0.0,0.0,0.0,0.0,0.0,0.0
2474935581,8,1476.0,1469.0,1488.0,1476.0,1487.0,1468.0,1475.0,1460.0,0.0,0.0,0.0,0.0,0.0,0.0,0.0,0.0
2474979956,8,1475.0,1470.0,1490.0,1480.0,1488.0,1467.0,1473.0,1458.0,0.0,0.0,0.0,0.0,0.0,0.0,0.0,0.0
2475023561,8,1476.0,1470.0,1490.0,1479.0,1489.0,1469.0,1475.0,1460.0,0.0,0.0,0.0,0.0,0.0,0.0,0.0,0.0
2475067597,8,1478.0,1471.0,1489.0,1476.0,1486.0,1467.0,1476.0,1461.0,0.0,0.0,0.0,0.0,0.0,0.0,0.0,0.0
2475107594,8,1482.0,1470.0,1490.0,1474.0,1488.0,1467.0,1479.0,1462.0,0.0,0.0,0.0,0.0,0.0,0.0,0.0,0.0
2475131572,8,1483.0,1471.0,1491.0,1475.0,1488.0,1467.0,1480.0,1463.0,0.0,0.0,0.0,0.0,0.0,0.0,0.0,0.0
2475179573,8,1484.0,1471.0,1490.0,1473.0,1487.0,1466.0,1481.0,1464.0,0.0,0.0,0.0,0.0,0.0,0.0,0.0,0.0
2475219580,8,1481.0,1469.0,1487.0,1472.0,1486.0,1467.0,1480.0,1464.0,0.0,0.0,0.0,0.0,0.0,0.0,0.0,0.0
2475263575,8,1484.0,1472.0,1492.0,1477.0,1491.0,1470.0,1483.0,1466.0,0.0,0.0,0.0,0.0,0.0,0.0,0.0,0.0
2475303972,8,1484.0,1470.0,1490.0,1475.0,1490.0,1470.0,1483.0,1465.0,0.0,0.0,0.0,0.0,0.0,0.0,0.0,0.0
2475347604,8,1483.0,1469.0,1489.0,1473.0,1489.0,1469.0,1483.0,1465.0,0.0,0.0,0.0,0.0,0.0,0.0,0.0,0.0
2475391625,8,1483.0,1472.0,1491.0,1476.0,1489.0,1469.0,1482.0,1465.0,0.0,0.0,0.0,0.0,0.0,0.0,0.0,0.0
2475435610,8,1482.0,1470.0,1489.0,1475.0,1489.0,1470.0,1482.0,1465.0,0.0,0.0,0.0,0.0,0.0,0.0,0.0,0.0
2475483644,8,1484.0,1469.0,1488.0,1472.0,1488.0,1468.0,1484.0,1465.0,0.0,0.0,0.0,0.0,0.0,0.0,0.0,0.0
2475523614,8,1482.0,1469.0,1490.0,1475.0,1492.0,1471.0,1484.0,1464.0,0.0,0.0,0.0,0.0,0.0,0.0,0.0,0.0
2475547579,8,1482.0,1472.0,1489.0,1476.0,1487.0,1470.0,1480.0,1466.0,0.0,0.0,0.0,0.0,0.0,0.0,0.0,0.0
2475615548,8,1481.0,1470.0,1489.0,1476.0,1489.0,1470.0,1481.0,1465.0,0.0,0.0,0.0,0.0,0.0,0.0,0.0,0.0
2475639600,8,1484.0,1472.0,1491.0,1473.0,1487.0,1466.0,1481.0,1465.0,0.0,0.0,0.0,0.0,0.0,0.0,0.0,0.0
2475683536,8,1483.0,1471.0,1489.0,1473.0,1486.0,1467.0,1481.0,1465.0,0.0,0.0,0.0,0.0,0.0,0.0,0.0,0.0
2475743585,8,1487.0,1472.0,1492.0,1473.0,1488.0,1465.0,1482.0,1464.0,0.0,0.0,0.0,0.0,0.0,0.0,0.0,0.0
2475763571,8,1485.0,1470.0,1493.0,1475.0,1491.0,1467.0,1482.0,1462.0,0.0,0.0,0.0,0.0,0.0,0.0,0.0,0.0
2475807957,8,1485.0,1470.0,1492.0,1473.0,1489.0,1467.0,1483.0,1464.0,0.0,0.0,0.0,0.0,0.0,0.0,0.0,0.0
2475855585,8,1486.0,1467.0,1491.0,1470.0,1490.0,1466.0,1485.0,1463.0,0.0,0.0,0.0,0.0,0.0,0.0,0.0,0.0
2475895642,8,1487.0,1467.0,1494.0,1473.0,1491.0,1465.0,1484.0,1462.0,0.0,0.0,0.0,0.0,0.0,0.0,0.0,0.0
2475939593,8,1488.0,1470.0,1495.0,1472.0,1491.0,1464.0,1484.0,1462.0,0.0,0.0,0.0,0.0,0.0,0.0,0.0,0.0
2475979926,8,1489.0,1470.0,1495.0,1471.0,1490.0,1463.0,1484.0,1462.0,0.0,0.0,0.0,0.0,0.0,0.0,0.0,0.0
2476027350,8,1490.0,1467.0,1500.0,1472.0,1496.0,1461.0,1485.0,1457.0,0.0,0.0,0.0,0.0,0.0,0.0,0.0,0.0
2476067585,8,1489.0,1465.0,1499.0,1470.0,1497.0,1460.0,1485.0,1459.0,0.0,0.0,0.0,0.0,0.0,0.0,0.0,0.0
2476107611,8,1491.0,1467.0,1496.0,1467.0,1491.0,1460.0,1486.0,1460.0,0.0,0.0,0.0,0.0,0.0,0.0,0.0,0.0
2476152395,8,1489.0,1464.0,1495.0,1466.0,1493.0,1460.0,1486.0,1457.0,0.0,0.0,0.0,0.0,0.0,0.0,0.0,0.0
2476197238,8,1490.0,1462.0,1496.0,1466.0,1495.0,1460.0,1489.0,1457.0,0.0,0.0,0.0,0.0,0.0,0.0,0.0,0.0
2476221145,8,1491.0,1461.0,1498.0,1466.0,1497.0,1460.0,1490.0,1456.0,0.0,0.0,0.0,0.0,0.0,0.0,0.0,0.0
2476269128,8,1490.0,1464.0,1499.0,1465.0,1496.0,1460.0,1490.0,1456.0,0.0,0.0,0.0,0.0,0.0,0.0,0.0,0.0
2476329190,8,1489.0,1460.0,1497.0,1465.0,1497.0,1460.0,1489.0,1454.0,0.0,0.0,0.0,0.0,0.0,0.0,0.0,0.0
2476353221,8,1492.0,1461.0,1498.0,1464.0,1496.0,1458.0,1489.0,1455.0,0.0,0.0,0.0,0.0,0.0,0.0,0.0,0.0
2476393232,8,1491.0,1463.0,1502.0,1469.0,1500.0,1459.0,1489.0,1453.0,0.0,0.0,0.0,0.0,0.0,0.0,0.0,0.0
2476436950,8,1490.0,1459.0,1499.0,1465.0,1498.0,1458.0,1489.0,1452.0,0.0,0.0,0.0,0.0,0.0,0.0,0.0,0.0
2476481188,8,1491.0,1459.0,1499.0,1464.0,1498.0,1458.0,1491.0,1453.0,0.0,0.0,0.0,0.0,0.0,0.0,0.0,0.0
2476521254,8,1492.0,1459.0,1499.0,1463.0,1497.0,1457.0,1490.0,1453.0,0.0,0.0,0.0,0.0,0.0,0.0,0.0,0.0
2476561323,8,1494.0,1460.0,1500.0,1462.0,1497.0,1455.0,1491.0,1453.0,0.0,0.0,0.0,0.0,0.0,0.0,0.0,0.0
2476604961,8,1493.0,1462.0,1504.0,1467.0,1500.0,1456.0,1489.0,1451.0,0.0,0.0,0.0,0.0,0.0,0.0,0.0,0.0
2476645205,8,1493.0,1462.0,1503.0,1466.0,1499.0,1456.0,1489.0,1452.0,0.0,0.0,0.0,0.0,0.0,0.0,0.0,0.0
2476689267,8,1495.0,1464.0,1505.0,1467.0,1499.0,1455.0,1488.0,1452.0,0.0,0.0,0.0,0.0,0.0,0.0,0.0,0.0
2476732951,8,1493.0,1461.0,1504.0,1464.0,1498.0,1455.0,1489.0,1452.0,0.0,0.0,0.0,0.0,0.0,0.0,0.0,0.0
2476777289,8,1494.0,1462.0,1504.0,1465.0,1499.0,1455.0,1489.0,1451.0,0.0,0.0,0.0,0.0,0.0,0.0,0.0,0.0
2476825162,8,1494.0,1462.0,1504.0,1466.0,1500.0,1456.0,1489.0,1451.0,0.0,0.0,0.0,0.0,0.0,0.0,0.0,0.0
2476869145,8,1493.0,1460.0,1504.0,1464.0,1498.0,1454.0,1489.0,1452.0,0.0,0.0,0.0,0.0,0.0,0.0,0.0,0.0
2476913167,8,1493.0,1460.0,1506.0,1467.0,1504.0,1458.0,1492.0,1450.0,0.0,0.0,0.0,0.0,0.0,0.0,0.0,0.0
2476953164,8,1494.0,1459.0,1502.0,1463.0,1500.0,1456.0,1492.0,1452.0,0.0,0.0,0.0,0.0,0.0,0.0,0.0,0.0
2476977182,8,1494.0,1460.0,1505.0,1466.0,1503.0,1457.0,1492.0,1451.0,0.0,0.0,0.0,0.0,0.0,0.0,0.0,0.0
2477025235,8,1491.0,1456.0,1498.0,1461.0,1499.0,1458.0,1493.0,1452.0,0.0,0.0,0.0,0.0,0.0,0.0,0.0,0.0
2477069160,8,1493.0,1458.0,1500.0,1461.0,1498.0,1455.0,1491.0,1452.0,0.0,0.0,0.0,0.0,0.0,0.0,0.0,0.0
2477113208,8,1491.0,1455.0,1497.0,1461.0,1499.0,1458.0,1493.0,1452.0,0.0,0.0,0.0,0.0,0.0,0.0,0.0,0.0
2477161155,8,1491.0,1457.0,1497.0,1463.0,1498.0,1459.0,1492.0,1454.0,0.0,0.0,0.0,0.0,0.0,0.0,0.0,0.0
2477205141,8,1491.0,1453.0,1494.0,1457.0,1497.0,1457.0,1494.0,1453.0,0.0,0.0,0.0,0.0,0.0,0.0,0.0,0.0
2477229305,8,1492.0,1457.0,1498.0,1462.0,1499.0,1459.0,1494.0,1454.0,0.0,0.0,0.0,0.0,0.0,0.0,0.0,0.0
2477277153,8,1491.0,1454.0,1495.0,1458.0,1496.0,1457.0,1493.0,1454.0,0.0,0.0,0.0,0.0,0.0,0.0,0.0,0.0
2477325129,8,1491.0,1457.0,1494.0,1459.0,1494.0,1457.0,1491.0,1455.0,0.0,0.0,0.0,0.0,0.0,0.0,0.0,0.0
2477365171,8,1491.0,1455.0,1491.0,1456.0,1493.0,1457.0,1492.0,1455.0,0.0,0.0,0.0,0.0,0.0,0.0,0.0,0.0
2477409272,8,1490.0,1455.0,1492.0,1458.0,1493.0,1456.0,1491.0,1454.0,0.0,0.0,0.0,0.0,0.0,0.0,0.0,0.0
2477453143,8,1490.0,1458.0,1495.0,1462.0,1495.0,1458.0,1490.0,1455.0,0.0,0.0,0.0,0.0,0.0,0.0,0.0,0.0
2477497588,8,1492.0,1459.0,1496.0,1461.0,1494.0,1457.0,1490.0,1455.0,0.0,0.0,0.0,0.0,0.0,0.0,0.0,0.0
2477541171,8,1492.0,1458.0,1493.0,1458.0,1492.0,1457.0,1491.0,1457.0,0.0,0.0,0.0,0.0,0.0,0.0,0.0,0.0
2477581309,8,1493.0,1459.0,1497.0,1461.0,1497.0,1459.0,1493.0,1456.0,0.0,0.0,0.0,0.0,0.0,0.0,0.0,0.0
2477625225,8,1490.0,1460.0,1497.0,1467.0,1498.0,1462.0,1491.0,1456.0,0.0,0.0,0.0,0.0,0.0,0.0,0.0,0.0
2477673151,8,1490.0,1456.0,1493.0,1459.0,1494.0,1458.0,1491.0,1455.0,0.0,0.0,0.0,0.0,0.0,0.0,0.0,0.0
2477697160,8,1490.0,1461.0,1496.0,1464.0,1496.0,1461.0,1490.0,1457.0,0.0,0.0,0.0,0.0,0.0,0.0,0.0,0.0
2477745220,8,1489.0,1456.0,1493.0,1461.0,1496.0,1460.0,1492.0,1455.0,0.0,0.0,0.0,0.0,0.0,0.0,0.0,0.0
2477785288,8,1488.0,1459.0,1496.0,1467.0,1499.0,1463.0,1491.0,1455.0,0.0,0.0,0.0,0.0,0.0,0.0,0.0,0.0
2477829170,8,1489.0,1459.0,1495.0,1463.0,1495.0,1460.0,1490.0,1455.0,0.0,0.0,0.0,0.0,0.0,0.0,0.0,0.0
2477873192,8,1491.0,1460.0,1497.0,1467.0,1497.0,1462.0,1489.0,1456.0,0.0,0.0,0.0,0.0,0.0,0.0,0.0,0.0
2477917211,8,1491.0,1460.0,1495.0,1463.0,1496.0,1461.0,1492.0,1458.0,0.0,0.0,0.0,0.0,0.0,0.0,0.0,0.0
2477957189,8,1489.0,1462.0,1493.0,1464.0,1493.0,1460.0,1488.0,1458.0,0.0,0.0,0.0,0.0,0.0,0.0,0.0,0.0
2478001535,8,1493.0,1462.0,1495.0,1463.0,1493.0,1459.0,1491.0,1459.0,0.0,0.0,0.0,0.0,0.0,0.0,0.0,0.0
2478045173,8,1492.0,1461.0,1493.0,1461.0,1491.0,1459.0,1490.0,1459.0,0.0,0.0,0.0,0.0,0.0,0.0,0.0,0.0
2478089261,8,1490.0,1464.0,1497.0,1468.0,1495.0,1462.0,1488.0,1458.0,0.0,0.0,0.0,0.0,0.0,0.0,0.0,0.0
2478133222,8,1491.0,1459.0,1493.0,1461.0,1492.0,1458.0,1490.0,1457.0,0.0,0.0,0.0,0.0,0.0,0.0,0.0,0.0
2478177238,8,1489.0,1461.0,1494.0,1465.0,1495.0,1462.0,1490.0,1458.0,0.0,0.0,0.0,0.0,0.0,0.0,0.0,0.0
2478200966,8,1489.0,1459.0,1494.0,1463.0,1495.0,1462.0,1491.0,1457.0,0.0,0.0,0.0,0.0,0.0,0.0,0.0,0.0
2478241218,8,1490.0,1459.0,1495.0,1464.0,1499.0,1463.0,1493.0,1457.0,0.0,0.0,0.0,0.0,0.0,0.0,0.0,0.0
2478305231,8,1489.0,1457.0,1490.0,1460.0,1494.0,1462.0,1492.0,1458.0,0.0,0.0,0.0,0.0,0.0,0.0,0.0,0.0
2478345232,8,1487.0,1462.0,1496.0,1470.0,1499.0,1466.0,1490.0,1458.0,0.0,0.0,0.0,0.0,0.0,0.0,0.0,0.0
2478369172,8,1487.0,1458.0,1491.0,1463.0,1495.0,1463.0,1491.0,1457.0,0.0,0.0,0.0,0.0,0.0,0.0,0.0,0.0
2478413217,8,1488.0,1461.0,1494.0,1467.0,1496.0,1465.0,1490.0,1459.0,0.0,0.0,0.0,0.0,0.0,0.0,0.0,0.0
2478456933,8,1489.0,1458.0,1492.0,1463.0,1496.0,1463.0,1492.0,1458.0,0.0,0.0,0.0,0.0,0.0,0.0,0.0,0.0
2478500985,8,1488.0,1458.0,1490.0,1461.0,1493.0,1462.0,1491.0,1459.0,0.0,0.0,0.0,0.0,0.0,0.0,0.0,0.0
2478541285,8,1490.0,1458.0,1493.0,1462.0,1495.0,1462.0,1492.0,1458.0,0.0,0.0,0.0,0.0,0.0,0.0,0.0,0.0
2478589251,8,1491.0,1460.0,1491.0,1460.0,1492.0,1461.0,1491.0,1460.0,0.0,0.0,0.0,0.0,0.0,0.0,0.0,0.0
2478637222,8,1492.0,1459.0,1494.0,1461.0,1496.0,1461.0,1494.0,1459.0,0.0,0.0,0.0,0.0,0.0,0.0,0.0,0.0
2478681261,8,1491.0,1461.0,1494.0,1464.0,1495.0,1462.0,1492.0,1459.0,0.0,0.0,0.0,0.0,0.0,0.0,0.0,0.0
2478705183,8,1489.0,1461.0,1493.0,1464.0,1493.0,1462.0,1490.0,1459.0,0.0,0.0,0.0,0.0,0.0,0.0,0.0,0.0
2478753176,8,1492.0,1462.0,1496.0,1464.0,1495.0,1461.0,1491.0,1459.0,0.0,0.0,0.0,0.0,0.0,0.0,0.0,0.0
2478801221,8,1492.0,1459.0,1493.0,1461.0,1495.0,1461.0,1493.0,1459.0,0.0,0.0,0.0,0.0,0.0,0.0,0.0,0.0
2478845214,8,1490.0,1463.0,1496.0,1467.0,1497.0,1464.0,1491.0,1459.0,0.0,0.0,0.0,0.0,0.0,0.0,0.0,0.0
2478889254,8,1494.0,1461.0,1497.0,1464.0,1499.0,1464.0,1496.0,1460.0,0.0,0.0,0.0,0.0,0.0,0.0,0.0,0.0
2478913214,8,1492.0,1461.0,1496.0,1466.0,1498.0,1465.0,1494.0,1460.0,0.0,0.0,0.0,0.0,0.0,0.0,0.0,0.0
2478957286,8,1492.0,1463.0,1496.0,1467.0,1497.0,1464.0,1493.0,1461.0,0.0,0.0,0.0,0.0,0.0,0.0,0.0,0.0
2479001231,8,1490.0,1462.0,1493.0,1464.0,1494.0,1464.0,1492.0,1461.0,0.0,0.0,0.0,0.0,0.0,0.0,0.0,0.0
2479045528,8,1490.0,1463.0,1497.0,1469.0,1498.0,1465.0,1491.0,1459.0,0.0,0.0,0.0,0.0,0.0,0.0,0.0,0.0
2479089196,8,1489.0,1461.0,1495.0,1468.0,1498.0,1466.0,1493.0,1460.0,0.0,0.0,0.0,0.0,0.0,0.0,0.0,0.0
2479133248,8,1487.0,1463.0,1494.0,1469.0,1496.0,1466.0,1489.0,1460.0,0.0,0.0,0.0,0.0,0.0,0.0,0.0,0.0
2479173219,8,1490.0,1464.0,1495.0,1468.0,1495.0,1464.0,1490.0,1461.0,0.0,0.0,0.0,0.0,0.0,0.0,0.0,0.0
2479217204,8,1489.0,1462.0,1493.0,1467.0,1496.0,1464.0,1490.0,1460.0,0.0,0.0,0.0,0.0,0.0,0.0,0.0,0.0
2479261342,8,1487.0,1460.0,1491.0,1467.0,1495.0,1467.0,1491.0,1461.0,0.0,0.0,0.0,0.0,0.0,0.0,0.0,0.0
2479305193,8,1488.0,1465.0,1495.0,1471.0,1496.0,1466.0,1488.0,1460.0,0.0,0.0,0.0,0.0,0.0,0.0,0.0,0.0
2479349300,8,1487.0,1463.0,1493.0,1468.0,1494.0,1464.0,1487.0,1459.0,0.0,0.0,0.0,0.0,0.0,0.0,0.0,0.0
2479393248,8,1488.0,1465.0,1493.0,1469.0,1494.0,1466.0,1489.0,1462.0,0.0,0.0,0.0,0.0,0.0,0.0,0.0,0.0
2479417247,8,1487.0,1463.0,1493.0,1468.0,1495.0,1466.0,1489.0,1460.0,0.0,0.0,0.0,0.0,0.0,0.0,0.0,0.0
2479461246,8,1489.0,1466.0,1493.0,1467.0,1492.0,1464.0,1488.0,1462.0,0.0,0.0,0.0,0.0,0.0,0.0,0.0,0.0
2479521252,8,1490.0,1465.0,1491.0,1466.0,1491.0,1465.0,1490.0,1465.0,0.0,0.0,0.0,0.0,0.0,0.0,0.0,0.0
2479545162,8,1488.0,1469.0,1494.0,1472.0,1492.0,1467.0,1487.0,1464.0,0.0,0.0,0.0,0.0,0.0,0.0,0.0,0.0
2479585322,8,1489.0,1469.0,1492.0,1470.0,1491.0,1468.0,1488.0,1466.0,0.0,0.0,0.0,0.0,0.0,0.0,0.0,0.0
2479629566,8,1488.0,1467.0,1489.0,1469.0,1490.0,1469.0,1489.0,1468.0,0.0,0.0,0.0,0.0,0.0,0.0,0.0,0.0
2479689255,8,1486.0,1466.0,1488.0,1470.0,1491.0,1471.0,1489.0,1467.0,0.0,0.0,0.0,0.0,0.0,0.0,0.0,0.0
2479709268,8,1486.0,1467.0,1489.0,1470.0,1491.0,1470.0,1488.0,1467.0,0.0,0.0,0.0,0.0,0.0,0.0,0.0,0.0
2479757263,8,1486.0,1470.0,1485.0,1470.0,1486.0,1471.0,1486.0,1470.0,0.0,0.0,0.0,0.0,0.0,0.0,0.0,0.0
2479801303,8,1484.0,1470.0,1488.0,1474.0,1490.0,1473.0,1486.0,1469.0,0.0,0.0,0.0,0.0,0.0,0.0,0.0,0.0
2479845198,8,1484.0,1470.0,1484.0,1471.0,1485.0,1472.0,1485.0,1470.0,0.0,0.0,0.0,0.0,0.0,0.0,0.0,0.0
2479889142,8,1485.0,1472.0,1486.0,1473.0,1486.0,1472.0,1485.0,1471.0,0.0,0.0,0.0,0.0,0.0,0.0,0.0,0.0
2479929267,8,1482.0,1473.0,1485.0,1475.0,1485.0,1474.0,1482.0,1471.0,0.0,0.0,0.0,0.0,0.0,0.0,0.0,0.0
2479973194,8,1481.0,1472.0,1483.0,1475.0,1485.0,1475.0,1483.0,1472.0,0.0,0.0,0.0,0.0,0.0,0.0,0.0,0.0
2480017515,8,1482.0,1475.0,1483.0,1474.0,1482.0,1472.0,1481.0,1473.0,0.0,0.0,0.0,0.0,0.0,0.0,0.0,0.0
2480062799,8,1480.0,1476.0,1483.0,1477.0,1481.0,1473.0,1478.0,1473.0,0.0,0.0,0.0,0.0,0.0,0.0,0.0,0.0
2480102814,8,1477.0,1475.0,1482.0,1478.0,1481.0,1474.0,1476.0,1471.0,0.0,0.0,0.0,0.0,0.0,0.0,0.0,0.0
2480146748,8,1479.0,1472.0,1478.0,1471.0,1477.0,1471.0,1478.0,1472.0,0.0,0.0,0.0,0.0,0.0,0.0,0.0,0.0
2480190800,8,1478.0,1471.0,1478.0,1470.0,1477.0,1469.0,1477.0,1470.0,0.0,0.0,0.0,0.0,0.0,0.0,0.0,0.0
2480214784,8,1478.0,1477.0,1482.0,1477.0,1478.0,1472.0,1474.0,1471.0,0.0,0.0,0.0,0.0,0.0,0.0,0.0,0.0
2480258747,8,1478.0,1477.0,1482.0,1477.0,1478.0,1472.0,1474.0,1472.0,0.0,0.0,0.0,0.0,0.0,0.0,0.0,0.0
2480298749,8,1479.0,1478.0,1482.0,1477.0,1478.0,1472.0,1475.0,1474.0,0.0,0.0,0.0,0.0,0.0,0.0,0.0,0.0
2480342798,8,1478.0,1477.0,1480.0,1476.0,1477.0,1472.0,1475.0,1473.0,0.0,0.0,0.0,0.0,0.0,0.0,0.0,0.0
2480390779,8,1481.0,1474.0,1479.0,1471.0,1477.0,1471.0,1478.0,1473.0,0.0,0.0,0.0,0.0,0.0,0.0,0.0,0.0
2480434786,8,1479.0,1471.0,1478.0,1470.0,1478.0,1471.0,1479.0,1472.0,0.0,0.0,0.0,0.0,0.0,0.0,0.0,0.0
2480478805,8,1480.0,1476.0,1481.0,1474.0,1478.0,1471.0,1477.0,1473.0,0.0,0.0,0.0,0.0,0.0,0.0,0.0,0.0
2480519116,8,1477.0,1475.0,1479.0,1475.0,1477.0,1472.0,1474.0,1472.0,0.0,0.0,0.0,0.0,0.0,0.0,0.0,0.0
2480562782,8,1479.0,1470.0,1478.0,1469.0,1477.0,1469.0,1479.0,1471.0,0.0,0.0,0.0,0.0,0.0,0.0,0.0,0.0
2480610769,8,1477.0,1470.0,1478.0,1471.0,1478.0,1470.0,1477.0,1469.0,0.0,0.0,0.0,0.0,0.0,0.0,0.0,0.0
2480634743,8,1479.0,1475.0,1483.0,1475.0,1479.0,1470.0,1476.0,1470.0,0.0,0.0,0.0,0.0,0.0,0.0,0.0,0.0
2480678775,8,1478.0,1472.0,1481.0,1473.0,1479.0,1469.0,1475.0,1468.0,0.0,0.0,0.0,0.0,0.0,0.0,0.0,0.0
2480722759,8,1478.0,1472.0,1483.0,1474.0,1481.0,1469.0,1475.0,1467.0,0.0,0.0,0.0,0.0,0.0,0.0,0.0,0.0
2480766773,8,1479.0,1472.0,1485.0,1473.0,1481.0,1467.0,1476.0,1466.0,0.0,0.0,0.0,0.0,0.0,0.0,0.0,0.0
2480814807,8,1479.0,1475.0,1486.0,1475.0,1479.0,1465.0,1471.0,1464.0,0.0,0.0,0.0,0.0,0.0,0.0,0.0,0.0
2480854812,8,1480.0,1475.0,1488.0,1475.0,1480.0,1464.0,1472.0,1464.0,0.0,0.0,0.0,0.0,0.0,0.0,0.0,0.0
2480898903,8,1478.0,1472.0,1485.0,1473.0,1480.0,1464.0,1473.0,1463.0,0.0,0.0,0.0,0.0,0.0,0.0,0.0,0.0
2480942804,8,1482.0,1473.0,1489.0,1473.0,1481.0,1463.0,1474.0,1463.0,0.0,0.0,0.0,0.0,0.0,0.0,0.0,0.0
2480966762,8,1481.0,1472.0,1490.0,1475.0,1485.0,1465.0,1476.0,1462.0,0.0,0.0,0.0,0.0,0.0,0.0,0.0,0.0
2481014748,8,1480.0,1470.0,1488.0,1472.0,1482.0,1462.0,1474.0,1461.0,0.0,0.0,0.0,0.0,0.0,0.0,0.0,0.0
2481059347,8,1480.0,1469.0,1487.0,1470.0,1482.0,1461.0,1475.0,1460.0,0.0,0.0,0.0,0.0,0.0,0.0,0.0,0.0
2481102781,8,1480.0,1468.0,1487.0,1469.0,1483.0,1461.0,1476.0,1460.0,0.0,0.0,0.0,0.0,0.0,0.0,0.0,0.0
2481150830,8,1483.0,1470.0,1493.0,1474.0,1488.0,1463.0,1478.0,1459.0,0.0,0.0,0.0,0.0,0.0,0.0,0.0,0.0
2481194543,8,1483.0,1469.0,1492.0,1472.0,1487.0,1462.0,1478.0,1459.0,0.0,0.0,0.0,0.0,0.0,0.0,0.0,0.0
2481234788,8,1484.0,1469.0,1492.0,1471.0,1486.0,1460.0,1477.0,1459.0,0.0,0.0,0.0,0.0,0.0,0.0,0.0,0.0
2481278858,8,1484.0,1467.0,1491.0,1469.0,1487.0,1460.0,1479.0,1458.0,0.0,0.0,0.0,0.0,0.0,0.0,0.0,0.0
2481302797,8,1482.0,1465.0,1491.0,1468.0,1487.0,1459.0,1478.0,1455.0,0.0,0.0,0.0,0.0,0.0,0.0,0.0,0.0
2481346900,8,1483.0,1465.0,1491.0,1468.0,1487.0,1459.0,1479.0,1456.0,0.0,0.0,0.0,0.0,0.0,0.0,0.0,0.0
2481390749,8,1483.0,1464.0,1490.0,1467.0,1486.0,1459.0,1479.0,1456.0,0.0,0.0,0.0,0.0,0.0,0.0,0.0,0.0
2481434788,8,1484.0,1466.0,1496.0,1470.0,1490.0,1458.0,1479.0,1454.0,0.0,0.0,0.0,0.0,0.0,0.0,0.0,0.0
2481478738,8,1484.0,1465.0,1490.0,1465.0,1485.0,1458.0,1479.0,1457.0,0.0,0.0,0.0,0.0,0.0,0.0,0.0,0.0
2481526906,8,1483.0,1463.0,1490.0,1465.0,1487.0,1458.0,1480.0,1456.0,0.0,0.0,0.0,0.0,0.0,0.0,0.0,0.0
2481570783,8,1484.0,1462.0,1492.0,1466.0,1490.0,1459.0,1482.0,1455.0,0.0,0.0,0.0,0.0,0.0,0.0,0.0,0.0
2481610777,8,1485.0,1465.0,1495.0,1468.0,1489.0,1457.0,1479.0,1454.0,0.0,0.0,0.0,0.0,0.0,0.0,0.0,0.0
2481658734,8,1487.0,1462.0,1493.0,1464.0,1488.0,1455.0,1482.0,1454.0,0.0,0.0,0.0,0.0,0.0,0.0,0.0,0.0
2481678740,8,1484.0,1463.0,1493.0,1466.0,1489.0,1457.0,1480.0,1454.0,0.0,0.0,0.0,0.0,0.0,0.0,0.0,0.0
2481722793,8,1483.0,1462.0,1494.0,1467.0,1491.0,1457.0,1480.0,1452.0,0.0,0.0,0.0,0.0,0.0,0.0,0.0,0.0
2481770760,8,1486.0,1462.0,1496.0,1466.0,1491.0,1456.0,1481.0,1452.0,0.0,0.0,0.0,0.0,0.0,0.0,0.0,0.0
2481818911,8,1482.0,1456.0,1488.0,1459.0,1487.0,1455.0,1482.0,1452.0,0.0,0.0,0.0,0.0,0.0,0.0,0.0,0.0
2481862821,8,1484.0,1456.0,1490.0,1460.0,1490.0,1455.0,1483.0,1451.0,0.0,0.0,0.0,0.0,0.0,0.0,0.0,0.0
2481887151,8,1485.0,1461.0,1494.0,1465.0,1490.0,1456.0,1481.0,1452.0,0.0,0.0,0.0,0.0,0.0,0.0,0.0,0.0
2481950855,8,1486.0,1461.0,1497.0,1466.0,1492.0,1455.0,1482.0,1451.0,0.0,0.0,0.0,0.0,0.0,0.0,0.0,0.0
2481994889,8,1489.0,1459.0,1496.0,1462.0,1492.0,1453.0,1484.0,1451.0,0.0,0.0,0.0,0.0,0.0,0.0,0.0,0.0
2482034814,8,1488.0,1461.0,1497.0,1464.0,1491.0,1453.0,1482.0,1451.0,0.0,0.0,0.0,0.0,0.0,0.0,0.0,0.0
2482078786,8,1490.0,1462.0,1499.0,1464.0,1492.0,1452.0,1483.0,1450.0,0.0,0.0,0.0,0.0,0.0,0.0,0.0,0.0
2482122789,8,1489.0,1462.0,1497.0,1462.0,1490.0,1452.0,1482.0,1451.0,0.0,0.0,0.0,0.0,0.0,0.0,0.0,0.0
2482142786,8,1490.0,1464.0,1499.0,1464.0,1490.0,1451.0,1481.0,1451.0,0.0,0.0,0.0,0.0,0.0,0.0,0.0,0.0
2482190763,8,1491.0,1459.0,1499.0,1461.0,1495.0,1452.0,1486.0,1450.0,0.0,0.0,0.0,0.0,0.0,0.0,0.0,0.0
2482250761,8,1493.0,1462.0,1499.0,1460.0,1492.0,1451.0,1486.0,1453.0,0.0,0.0,0.0,0.0,0.0,0.0,0.0,0.0
2482274810,8,1492.0,1459.0,1495.0,1458.0,1489.0,1451.0,1486.0,1453.0,0.0,0.0,0.0,0.0,0.0,0.0,0.0,0.0
2482322787,8,1491.0,1461.0,1497.0,1460.0,1490.0,1450.0,1483.0,1451.0,0.0,0.0,0.0,0.0,0.0,0.0,0.0,0.0
2482366781,8,1493.0,1461.0,1497.0,1460.0,1492.0,1453.0,1488.0,1454.0,0.0,0.0,0.0,0.0,0.0,0.0,0.0,0.0
2482410811,8,1496.0,1458.0,1498.0,1455.0,1491.0,1449.0,1489.0,1452.0,0.0,0.0,0.0,0.0,0.0,0.0,0.0,0.0
2482454558,8,1494.0,1458.0,1500.0,1459.0,1495.0,1451.0,1489.0,1450.0,0.0,0.0,0.0,0.0,0.0,0.0,0.0,0.0
2482494800,8,1496.0,1460.0,1502.0,1458.0,1494.0,1448.0,1488.0,1450.0,0.0,0.0,0.0,0.0,0.0,0.0,0.0,0.0
2482534957,8,1497.0,1459.0,1501.0,1456.0,1493.0,1447.0,1489.0,1450.0,0.0,0.0,0.0,0.0,0.0,0.0,0.0,0.0
2482578908,8,1498.0,1460.0,1503.0,1457.0,1494.0,1447.0,1489.0,1450.0,0.0,0.0,0.0,0.0,0.0,0.0,0.0,0.0
2482622878,8,1498.0,1457.0,1503.0,1455.0,1495.0,1446.0,1490.0,1448.0,0.0,0.0,0.0,0.0,0.0,0.0,0.0,0.0
2482646816,8,1496.0,1458.0,1504.0,1458.0,1496.0,1447.0,1488.0,1447.0,0.0,0.0,0.0,0.0,0.0,0.0,0.0,0.0
2482690822,8,1500.0,1459.0,1504.0,1454.0,1494.0,1444.0,1490.0,1448.0,0.0,0.0,0.0,0.0,0.0,0.0,0.0,0.0
2482754813,8,1499.0,1460.0,1507.0,1458.0,1496.0,1445.0,1488.0,1447.0,0.0,0.0,0.0,0.0,0.0,0.0,0.0,0.0
2482778794,8,1501.0,1459.0,1503.0,1452.0,1491.0,1442.0,1489.0,1449.0,0.0,0.0,0.0,0.0,0.0,0.0,0.0,0.0
2482822888,8,1502.0,1459.0,1504.0,1453.0,1494.0,1445.0,1492.0,1451.0,0.0,0.0,0.0,0.0,0.0,0.0,0.0,0.0
2482866828,8,1504.0,1458.0,1502.0,1449.0,1492.0,1443.0,1494.0,1451.0,0.0,0.0,0.0,0.0,0.0,0.0,0.0,0.0
2482910767,8,1503.0,1456.0,1502.0,1448.0,1491.0,1441.0,1492.0,1450.0,0.0,0.0,0.0,0.0,0.0,0.0,0.0,0.0
2482950800,8,1502.0,1454.0,1498.0,1445.0,1490.0,1443.0,1494.0,1451.0,0.0,0.0,0.0,0.0,0.0,0.0,0.0,0.0
2482998805,8,1501.0,1459.0,1508.0,1456.0,1497.0,1444.0,1490.0,1447.0,0.0,0.0,0.0,0.0,0.0,0.0,0.0,0.0
2483038995,8,1501.0,1456.0,1506.0,1454.0,1498.0,1444.0,1492.0,1446.0,0.0,0.0,0.0,0.0,0.0,0.0,0.0,0.0
2483082840,8,1500.0,1459.0,1510.0,1459.0,1500.0,1445.0,1490.0,1444.0,0.0,0.0,0.0,0.0,0.0,0.0,0.0,0.0
2483122831,8,1499.0,1459.0,1507.0,1457.0,1497.0,1444.0,1489.0,1445.0,0.0,0.0,0.0,0.0,0.0,0.0,0.0,0.0
2483170816,8,1499.0,1458.0,1506.0,1455.0,1496.0,1444.0,1489.0,1446.0,0.0,0.0,0.0,0.0,0.0,0.0,0.0,0.0
2483218945,8,1500.0,1454.0,1506.0,1454.0,1500.0,1446.0,1494.0,1446.0,0.0,0.0,0.0,0.0,0.0,0.0,0.0,0.0
2483242810,8,1503.0,1457.0,1504.0,1452.0,1496.0,1445.0,1494.0,1450.0,0.0,0.0,0.0,0.0,0.0,0.0,0.0,0.0
2483286792,8,1501.0,1453.0,1501.0,1449.0,1494.0,1444.0,1494.0,1449.0,0.0,0.0,0.0,0.0,0.0,0.0,0.0,0.0
2483330854,8,1502.0,1455.0,1503.0,1450.0,1495.0,1444.0,1494.0,1449.0,0.0,0.0,0.0,0.0,0.0,0.0,0.0,0.0
2483378545,8,1500.0,1452.0,1498.0,1447.0,1493.0,1445.0,1495.0,1449.0,0.0,0.0,0.0,0.0,0.0,0.0,0.0,0.0
2483418837,8,1502.0,1451.0,1498.0,1444.0,1493.0,1443.0,1496.0,1450.0,0.0,0.0,0.0,0.0,0.0,0.0,0.0,0.0
2483466796,8,1501.0,1456.0,1505.0,1453.0,1497.0,1444.0,1493.0,1447.0,0.0,0.0,0.0,0.0,0.0,0.0,0.0,0.0
2483510569,8,1500.0,1455.0,1502.0,1450.0,1494.0,1443.0,1492.0,1448.0,0.0,0.0,0.0,0.0,0.0,0.0,0.0,0.0
2483550579,8,1502.0,1453.0,1503.0,1448.0,1495.0,1442.0,1494.0,1447.0,0.0,0.0,0.0,0.0,0.0,0.0,0.0,0.0
2483594768,8,1502.0,1454.0,1502.0,1448.0,1494.0,1443.0,1495.0,1449.0,0.0,0.0,0.0,0.0,0.0,0.0,0.0,0.0
2483638764,8,1502.0,1449.0,1497.0,1443.0,1493.0,1444.0,1498.0,1450.0,0.0,0.0,0.0,0.0,0.0,0.0,0.0,0.0
2483662758,8,1502.0,1453.0,1497.0,1447.0,1494.0,1448.0,1495.0,1453.0,0.0,0.0,0.0,0.0,0.0,0.0,0.0,0.0
2483706820,8,1503.0,1451.0,1498.0,1445.0,1494.0,1445.0,1499.0,1452.0,0.0,0.0,0.0,0.0,0.0,0.0,0.0,0.0
2483746764,8,1503.0,1451.0,1495.0,1443.0,1491.0,1446.0,1499.0,1455.0,0.0,0.0,0.0,0.0,0.0,0.0,0.0,0.0
2483794876,8,1505.0,1457.0,1498.0,1446.0,1489.0,1446.0,1498.0,1456.0,0.0,0.0,0.0,0.0,0.0,0.0,0.0,0.0
2483838809,8,1504.0,1453.0,1494.0,1443.0,1491.0,1448.0,1501.0,1458.0,0.0,0.0,0.0,0.0,0.0,0.0,0.0,0.0
2483886525,8,1503.0,1452.0,1495.0,1444.0,1492.0,1450.0,1500.0,1457.0,0.0,0.0,0.0,0.0,0.0,0.0,0.0,0.0
2483932405,8,1502.0,1452.0,1492.0,1443.0,1489.0,1447.0,1499.0,1456.0,0.0,0.0,0.0,0.0,0.0,0.0,0.0,0.0
2483976532,8,1501.0,1449.0,1487.0,1441.0,1489.0,1451.0,1502.0,1460.0,0.0,0.0,0.0,0.0,0.0,0.0,0.0,0.0
2484020379,8,1499.0,1453.0,1489.0,1447.0,1490.0,1454.0,1500.0,1460.0,0.0,0.0,0.0,0.0,0.0,0.0,0.0,0.0
2484040382,8,1501.0,1456.0,1490.0,1445.0,1486.0,1451.0,1497.0,1461.0,0.0,0.0,0.0,0.0,0.0,0.0,0.0,0.0
2484084832,8,1499.0,1452.0,1486.0,1444.0,1487.0,1454.0,1500.0,1462.0,0.0,0.0,0.0,0.0,0.0,0.0,0.0,0.0
2484148357,8,1498.0,1452.0,1487.0,1445.0,1488.0,1453.0,1499.0,1461.0,0.0,0.0,0.0,0.0,0.0,0.0,0.0,0.0
2484168348,8,1499.0,1455.0,1490.0,1449.0,1490.0,1456.0,1500.0,1462.0,0.0,0.0,0.0,0.0,0.0,0.0,0.0,0.0
2484232454,8,1497.0,1455.0,1488.0,1448.0,1487.0,1453.0,1495.0,1460.0,0.0,0.0,0.0,0.0,0.0,0.0,0.0,0.0
2484276368,8,1499.0,1455.0,1491.0,1448.0,1490.0,1453.0,1498.0,1459.0,0.0,0.0,0.0,0.0,0.0,0.0,0.0,0.0
2484300485,8,1498.0,1457.0,1489.0,1448.0,1485.0,1452.0,1494.0,1460.0,0.0,0.0,0.0,0.0,0.0,0.0,0.0,0.0
2484344344,8,1498.0,1455.0,1489.0,1447.0,1487.0,1451.0,1495.0,1459.0,0.0,0.0,0.0,0.0,0.0,0.0,0.0,0.0
2484388385,8,1497.0,1455.0,1490.0,1449.0,1487.0,1451.0,1497.0,1460.0,0.0,0.0,0.0,0.0,0.0,0.0,0.0,0.0
2484428507,8,1497.0,1456.0,1491.0,1450.0,1488.0,1452.0,1494.0,1458.0,0.0,0.0,0.0,0.0,0.0,0.0,0.0,0.0
2484476338,8,1498.0,1457.0,1487.0,1446.0,1483.0,1451.0,1494.0,1461.0,0.0,0.0,0.0,0.0,0.0,0.0,0.0,0.0
2484520380,8,1500.0,1459.0,1492.0,1449.0,1487.0,1451.0,1495.0,1461.0,0.0,0.0,0.0,0.0,0.0,0.0,0.0,0.0
2484544445,8,1501.0,1459.0,1492.0,1448.0,1486.0,1452.0,1494.0,1459.0,0.0,0.0,0.0,0.0,0.0,0.0,0.0,0.0
2484592375,8,1500.0,1456.0,1489.0,1444.0,1484.0,1448.0,1495.0,1460.0,0.0,0.0,0.0,0.0,0.0,0.0,0.0,0.0
2484636361,8,1499.0,1458.0,1491.0,1448.0,1485.0,1450.0,1493.0,1460.0,0.0,0.0,0.0,0.0,0.0,0.0,0.0,0.0
2484680361,8,1500.0,1460.0,1491.0,1448.0,1484.0,1449.0,1493.0,1461.0,0.0,0.0,0.0,0.0,0.0,0.0,0.0,0.0
2484724384,8,1502.0,1459.0,1496.0,1449.0,1487.0,1447.0,1494.0,1458.0,0.0,0.0,0.0,0.0,0.0,0.0,0.0,0.0
2484768482,8,1498.0,1456.0,1488.0,1444.0,1481.0,1447.0,1494.0,1460.0,0.0,0.0,0.0,0.0,0.0,0.0,0.0,0.0
2484816357,8,1499.0,1456.0,1491.0,1446.0,1485.0,1448.0,1493.0,1457.0,0.0,0.0,0.0,0.0,0.0,0.0,0.0,0.0
2484860382,8,1499.0,1459.0,1493.0,1450.0,1487.0,1451.0,1493.0,1459.0,0.0,0.0,0.0,0.0,0.0,0.0,0.0,0.0
2484884387,8,1499.0,1456.0,1492.0,1447.0,1486.0,1446.0,1492.0,1456.0,0.0,0.0,0.0,0.0,0.0,0.0,0.0,0.0
2484928416,8,1499.0,1455.0,1494.0,1448.0,1489.0,1449.0,1495.0,1456.0,0.0,0.0,0.0,0.0,0.0,0.0,0.0,0.0
2484972378,8,1499.0,1457.0,1493.0,1450.0,1488.0,1450.0,1494.0,1458.0,0.0,0.0,0.0,0.0,0.0,0.0,0.0,0.0
2485016361,8,1498.0,1456.0,1489.0,1447.0,1486.0,1451.0,1495.0,1460.0,0.0,0.0,0.0,0.0,0.0,0.0,0.0,0.0
2485060374,8,1499.0,1455.0,1488.0,1444.0,1484.0,1448.0,1494.0,1458.0,0.0,0.0,0.0,0.0,0.0,0.0,0.0,0.0
2485104344,8,1498.0,1456.0,1489.0,1445.0,1482.0,1447.0,1491.0,1458.0,0.0,0.0,0.0,0.0,0.0,0.0,0.0,0.0
2485152344,8,1498.0,1458.0,1489.0,1446.0,1481.0,1446.0,1490.0,1459.0,0.0,0.0,0.0,0.0,0.0,0.0,0.0,0.0
2485176499,8,1499.0,1457.0,1493.0,1450.0,1485.0,1448.0,1490.0,1457.0,0.0,0.0,0.0,0.0,0.0,0.0,0.0,0.0
2485224368,8,1496.0,1456.0,1487.0,1446.0,1481.0,1448.0,1490.0,1459.0,0.0,0.0,0.0,0.0,0.0,0.0,0.0,0.0
2485264390,8,1495.0,1453.0,1486.0,1445.0,1483.0,1450.0,1492.0,1458.0,0.0,0.0,0.0,0.0,0.0,0.0,0.0,0.0
2485304366,8,1493.0,1456.0,1485.0,1449.0,1483.0,1452.0,1491.0,1460.0,0.0,0.0,0.0,0.0,0.0,0.0,0.0,0.0
2485348364,8,1495.0,1461.0,1487.0,1452.0,1482.0,1453.0,1489.0,1462.0,0.0,0.0,0.0,0.0,0.0,0.0,0.0,0.0
2485392381,8,1497.0,1459.0,1488.0,1449.0,1483.0,1452.0,1492.0,1462.0,0.0,0.0,0.0,0.0,0.0,0.0,0.0,0.0
2485436393,8,1494.0,1460.0,1486.0,1451.0,1481.0,1453.0,1489.0,1462.0,0.0,0.0,0.0,0.0,0.0,0.0,0.0,0.0
2485484415,8,1494.0,1455.0,1480.0,1443.0,1478.0,1451.0,1492.0,1463.0,0.0,0.0,0.0,0.0,0.0,0.0,0.0,0.0
2485528362,8,1496.0,1461.0,1486.0,1450.0,1480.0,1452.0,1490.0,1464.0,0.0,0.0,0.0,0.0,0.0,0.0,0.0,0.0
2485568384,8,1494.0,1464.0,1489.0,1452.0,1479.0,1450.0,1486.0,1462.0,0.0,0.0,0.0,0.0,0.0,0.0,0.0,0.0
2485612450,8,1497.0,1460.0,1487.0,1448.0,1479.0,1449.0,1489.0,1461.0,0.0,0.0,0.0,0.0,0.0,0.0,0.0,0.0
2485656400,8,1501.0,1461.0,1489.0,1445.0,1478.0,1445.0,1489.0,1461.0,0.0,0.0,0.0,0.0,0.0,0.0,0.0,0.0
2485700460,8,1499.0,1460.0,1489.0,1446.0,1479.0,1446.0,1489.0,1460.0,0.0,0.0,0.0,0.0,0.0,0.0,0.0,0.0
2485720459,8,1496.0,1458.0,1485.0,1447.0,1478.0,1449.0,1488.0,1462.0,0.0,0.0,0.0,0.0,0.0,0.0,0.0,0.0
2485788405,8,1495.0,1458.0,1486.0,1447.0,1481.0,1451.0,1490.0,1461.0,0.0,0.0,0.0,0.0,0.0,0.0,0.0,0.0
2485828474,8,1496.0,1460.0,1490.0,1450.0,1482.0,1448.0,1488.0,1458.0,0.0,0.0,0.0,0.0,0.0,0.0,0.0,0.0
2485868402,8,1495.0,1456.0,1486.0,1446.0,1480.0,1448.0,1489.0,1459.0,0.0,0.0,0.0,0.0,0.0,0.0,0.0,0.0
2485892337,8,1495.0,1454.0,1485.0,1444.0,1481.0,1448.0,1490.0,1458.0,0.0,0.0,0.0,0.0,0.0,0.0,0.0,0.0
2485936412,8,1495.0,1455.0,1486.0,1446.0,1482.0,1449.0,1491.0,1458.0,0.0,0.0,0.0,0.0,0.0,0.0,0.0,0.0
2485980333,8,1495.0,1455.0,1485.0,1445.0,1481.0,1450.0,1492.0,1460.0,0.0,0.0,0.0,0.0,0.0,0.0,0.0,0.0
2486028469,8,1493.0,1451.0,1481.0,1442.0,1479.0,1449.0,1492.0,1459.0,0.0,0.0,0.0,0.0,0.0,0.0,0.0,0.0
2486076387,8,1494.0,1452.0,1483.0,1444.0,1482.0,1451.0,1492.0,1459.0,0.0,0.0,0.0,0.0,0.0,0.0,0.0,0.0
2486120385,8,1492.0,1454.0,1487.0,1451.0,1487.0,1454.0,1492.0,1458.0,0.0,0.0,0.0,0.0,0.0,0.0,0.0,0.0
2486164478,8,1493.0,1454.0,1486.0,1449.0,1486.0,1454.0,1493.0,1458.0,0.0,0.0,0.0,0.0,0.0,0.0,0.0,0.0
2486188361,8,1492.0,1452.0,1486.0,1448.0,1486.0,1452.0,1492.0,1456.0,0.0,0.0,0.0,0.0,0.0,0.0,0.0,0.0
2486228348,8,1493.0,1453.0,1488.0,1450.0,1488.0,1454.0,1493.0,1457.0,0.0,0.0,0.0,0.0,0.0,0.0,0.0,0.0
2486272436,8,1491.0,1451.0,1485.0,1448.0,1487.0,1454.0,1493.0,1457.0,0.0,0.0,0.0,0.0,0.0,0.0,0.0,0.0
2486312391,8,1493.0,1455.0,1489.0,1453.0,1490.0,1456.0,1494.0,1458.0,0.0,0.0,0.0,0.0,0.0,0.0,0.0,0.0
2486360417,8,1495.0,1453.0,1487.0,1449.0,1488.0,1454.0,1495.0,1459.0,0.0,0.0,0.0,0.0,0.0,0.0,0.0,0.0
2486408386,8,1495.0,1453.0,1486.0,1445.0,1484.0,1449.0,1492.0,1457.0,0.0,0.0,0.0,0.0,0.0,0.0,0.0,0.0
2486456413,8,1493.0,1453.0,1487.0,1448.0,1486.0,1452.0,1493.0,1457.0,0.0,0.0,0.0,0.0,0.0,0.0,0.0,0.0
2486496947,8,1495.0,1452.0,1486.0,1445.0,1485.0,1451.0,1494.0,1458.0,0.0,0.0,0.0,0.0,0.0,0.0,0.0,0.0
2486540442,8,1497.0,1452.0,1488.0,1446.0,1488.0,1452.0,1496.0,1458.0,0.0,0.0,0.0,0.0,0.0,0.0,0.0,0.0
2486564380,8,1495.0,1457.0,1491.0,1453.0,1489.0,1454.0,1493.0,1458.0,0.0,0.0,0.0,0.0,0.0,0.0,0.0,0.0
2486612150,8,1498.0,1455.0,1489.0,1444.0,1483.0,1447.0,1493.0,1458.0,0.0,0.0,0.0,0.0,0.0,0.0,0.0,0.0
2486660372,8,1500.0,1454.0,1490.0,1444.0,1486.0,1448.0,1496.0,1458.0,0.0,0.0,0.0,0.0,0.0,0.0,0.0,0.0
2486708462,8,1499.0,1457.0,1492.0,1448.0,1486.0,1448.0,1492.0,1457.0,0.0,0.0,0.0,0.0,0.0,0.0,0.0,0.0
2486732403,8,1500.0,1455.0,1489.0,1443.0,1483.0,1447.0,1494.0,1458.0,0.0,0.0,0.0,0.0,0.0,0.0,0.0,0.0
2486776424,8,1501.0,1452.0,1489.0,1441.0,1485.0,1446.0,1496.0,1457.0,0.0,0.0,0.0,0.0,0.0,0.0,0.0,0.0
2486820423,8,1495.0,1455.0,1491.0,1448.0,1486.0,1448.0,1491.0,1455.0,0.0,0.0,0.0,0.0,0.0,0.0,0.0,0.0
2486860390,8,1498.0,1455.0,1491.0,1447.0,1487.0,1449.0,1494.0,1456.0,0.0,0.0,0.0,0.0,0.0,0.0,0.0,0.0
2486904413,8,1494.0,1453.0,1491.0,1450.0,1490.0,1451.0,1492.0,1454.0,0.0,0.0,0.0,0.0,0.0,0.0,0.0,0.0
2486944436,8,1496.0,1456.0,1493.0,1451.0,1489.0,1450.0,1492.0,1455.0,0.0,0.0,0.0,0.0,0.0,0.0,0.0,0.0
2486988452,8,1495.0,1455.0,1495.0,1454.0,1493.0,1453.0,1493.0,1454.0,0.0,0.0,0.0,0.0,0.0,0.0,0.0,0.0
2487032416,8,1496.0,1456.0,1494.0,1452.0,1490.0,1451.0,1492.0,1454.0,0.0,0.0,0.0,0.0,0.0,0.0,0.0,0.0
2487076186,8,1496.0,1456.0,1493.0,1451.0,1489.0,1451.0,1492.0,1456.0,0.0,0.0,0.0,0.0,0.0,0.0,0.0,0.0
2487120420,8,1496.0,1458.0,1492.0,1452.0,1488.0,1452.0,1492.0,1457.0,0.0,0.0,0.0,0.0,0.0,0.0,0.0,0.0
2487164367,8,1493.0,1459.0,1491.0,1455.0,1487.0,1453.0,1489.0,1458.0,0.0,0.0,0.0,0.0,0.0,0.0,0.0,0.0
2487208404,8,1495.0,1460.0,1489.0,1452.0,1484.0,1452.0,1490.0,1460.0,0.0,0.0,0.0,0.0,0.0,0.0,0.0,0.0
2487252493,8,1495.0,1459.0,1490.0,1452.0,1485.0,1453.0,1491.0,1460.0,0.0,0.0,0.0,0.0,0.0,0.0,0.0,0.0
2487292369,8,1497.0,1458.0,1488.0,1449.0,1484.0,1453.0,1493.0,1462.0,0.0,0.0,0.0,0.0,0.0,0.0,0.0,0.0
2487336407,8,1498.0,1459.0,1489.0,1448.0,1483.0,1451.0,1493.0,1462.0,0.0,0.0,0.0,0.0,0.0,0.0,0.0,0.0
2487360408,8,1498.0,1456.0,1489.0,1448.0,1486.0,1453.0,1495.0,1461.0,0.0,0.0,0.0,0.0,0.0,0.0,0.0,0.0
2487404416,8,1498.0,1460.0,1492.0,1452.0,1487.0,1453.0,1493.0,1460.0,0.0,0.0,0.0,0.0,0.0,0.0,0.0,0.0
2487448456,8,1502.0,1459.0,1491.0,1447.0,1486.0,1451.0,1496.0,1463.0,0.0,0.0,0.0,0.0,0.0,0.0,0.0,0.0
2487492407,8,1500.0,1460.0,1489.0,1449.0,1484.0,1452.0,1494.0,1462.0,0.0,0.0,0.0,0.0,0.0,0.0,0.0,0.0
2487536398,8,1503.0,1461.0,1492.0,1448.0,1485.0,1450.0,1496.0,1463.0,0.0,0.0,0.0,0.0,0.0,0.0,0.0,0.0
2487580365,8,1500.0,1458.0,1488.0,1446.0,1483.0,1452.0,1496.0,1464.0,0.0,0.0,0.0,0.0,0.0,0.0,0.0,0.0
2487620388,8,1501.0,1460.0,1491.0,1449.0,1486.0,1452.0,1495.0,1463.0,0.0,0.0,0.0,0.0,0.0,0.0,0.0,0.0
2487664418,8,1503.0,1458.0,1490.0,1452.0,1488.0,1454.0,1495.0,1461.0,0.0,0.0,0.0,0.0,0.0,0.0,0.0,0.0
2487712393,8,1498.0,1458.0,1490.0,1450.0,1487.0,1454.0,1496.0,1462.0,0.0,0.0,0.0,0.0,0.0,0.0,0.0,0.0
2487756454,8,1497.0,1458.0,1488.0,1451.0,1486.0,1456.0,1495.0,1463.0,0.0,0.0,0.0,0.0,0.0,0.0,0.0,0.0
2487798023,8,1498.0,1458.0,1487.0,1449.0,1486.0,1456.0,1497.0,1465.0,0.0,0.0,0.0,0.0,0.0,0.0,0.0,0.0
2487842002,8,1494.0,1456.0,1487.0,1450.0,1485.0,1454.0,1492.0,1460.0,0.0,0.0,0.0,0.0,0.0,0.0,0.0,0.0
2487886014,8,1499.0,1457.0,1484.0,1447.0,1484.0,1454.0,1496.0,1464.0,0.0,0.0,0.0,0.0,0.0,0.0,0.0,0.0
2487909980,8,1498.0,1455.0,1485.0,1445.0,1484.0,1454.0,1497.0,1464.0,0.0,0.0,0.0,0.0,0.0,0.0,0.0,0.0
2487974036,8,1498.0,1461.0,1485.0,1449.0,1481.0,1455.0,1494.0,1468.0,0.0,0.0,0.0,0.0,0.0,0.0,0.0,0.0
2487997971,8,1501.0,1460.0,1488.0,1448.0,1483.0,1453.0,1496.0,1465.0,0.0,0.0,0.0,0.0,0.0,0.0,0.0,0.0
2488042121,8,1499.0,1461.0,1489.0,1451.0,1485.0,1455.0,1494.0,1464.0,0.0,0.0,0.0,0.0,0.0,0.0,0.0,0.0
2488085971,8,1499.0,1460.0,1489.0,1451.0,1488.0,1456.0,1493.0,1462.0,0.0,0.0,0.0,0.0,0.0,0.0,0.0,0.0
2488125959,8,1498.0,1464.0,1491.0,1453.0,1483.0,1453.0,1491.0,1464.0,0.0,0.0,0.0,0.0,0.0,0.0,0.0,0.0
2488165968,8,1497.0,1459.0,1485.0,1447.0,1480.0,1452.0,1492.0,1464.0,0.0,0.0,0.0,0.0,0.0,0.0,0.0,0.0
2488209994,8,1496.0,1462.0,1489.0,1453.0,1484.0,1455.0,1492.0,1464.0,0.0,0.0,0.0,0.0,0.0,0.0,0.0,0.0
2488253976,8,1497.0,1463.0,1488.0,1453.0,1483.0,1455.0,1491.0,1465.0,0.0,0.0,0.0,0.0,0.0,0.0,0.0,0.0
2488298040,8,1498.0,1461.0,1487.0,1449.0,1481.0,1453.0,1492.0,1465.0,0.0,0.0,0.0,0.0,0.0,0.0,0.0,0.0
2488341726,8,1497.0,1460.0,1484.0,1448.0,1481.0,1455.0,1493.0,1466.0,0.0,0.0,0.0,0.0,0.0,0.0,0.0,0.0
2488386050,8,1494.0,1466.0,1490.0,1460.0,1485.0,1459.0,1489.0,1465.0,0.0,0.0,0.0,0.0,0.0,0.0,0.0,0.0
2488429952,8,1494.0,1463.0,1488.0,1455.0,1483.0,1456.0,1489.0,1464.0,0.0,0.0,0.0,0.0,0.0,0.0,0.0,0.0
2488477956,8,1495.0,1463.0,1487.0,1453.0,1482.0,1457.0,1491.0,1466.0,0.0,0.0,0.0,0.0,0.0,0.0,0.0,0.0
2488498025,8,1493.0,1459.0,1483.0,1450.0,1480.0,1454.0,1489.0,1464.0,0.0,0.0,0.0,0.0,0.0,0.0,0.0,0.0
2488546323,8,1495.0,1461.0,1485.0,1451.0,1481.0,1456.0,1492.0,1466.0,0.0,0.0,0.0,0.0,0.0,0.0,0.0,0.0
2488589981,8,1493.0,1463.0,1485.0,1454.0,1482.0,1457.0,1490.0,1466.0,0.0,0.0,0.0,0.0,0.0,0.0,0.0,0.0
2488638005,8,1491.0,1465.0,1488.0,1459.0,1483.0,1458.0,1486.0,1464.0,0.0,0.0,0.0,0.0,0.0,0.0,0.0,0.0
2488685937,8,1493.0,1463.0,1482.0,1452.0,1478.0,1457.0,1489.0,1468.0,0.0,0.0,0.0,0.0,0.0,0.0,0.0,0.0
2488710052,8,1492.0,1466.0,1488.0,1460.0,1484.0,1460.0,1487.0,1466.0,0.0,0.0,0.0,0.0,0.0,0.0,0.0,0.0
2488757984,8,1491.0,1466.0,1487.0,1459.0,1482.0,1458.0,1486.0,1464.0,0.0,0.0,0.0,0.0,0.0,0.0,0.0,0.0
2488802046,8,1491.0,1464.0,1485.0,1456.0,1481.0,1457.0,1487.0,1465.0,0.0,0.0,0.0,0.0,0.0,0.0,0.0,0.0
2488845735,8,1489.0,1463.0,1487.0,1459.0,1483.0,1458.0,1486.0,1462.0,0.0,0.0,0.0,0.0,0.0,0.0,0.0,0.0
2488885972,8,1490.0,1461.0,1488.0,1458.0,1485.0,1458.0,1488.0,1461.0,0.0,0.0,0.0,0.0,0.0,0.0,0.0,0.0
2488930017,8,1491.0,1463.0,1487.0,1458.0,1484.0,1458.0,1487.0,1463.0,0.0,0.0,0.0,0.0,0.0,0.0,0.0,0.0
2488973973,8,1491.0,1460.0,1486.0,1456.0,1484.0,1458.0,1489.0,1462.0,0.0,0.0,0.0,0.0,0.0,0.0,0.0,0.0
2489022015,8,1492.0,1461.0,1489.0,1456.0,1486.0,1457.0,1490.0,1461.0,0.0,0.0,0.0,0.0,0.0,0.0,0.0,0.0
2489045998,8,1493.0,1459.0,1489.0,1454.0,1486.0,1455.0,1490.0,1460.0,0.0,0.0,0.0,0.0,0.0,0.0,0.0,0.0
2489109963,8,1492.0,1461.0,1492.0,1459.0,1489.0,1456.0,1488.0,1459.0,0.0,0.0,0.0,0.0,0.0,0.0,0.0,0.0
2489129981,8,1495.0,1457.0,1489.0,1451.0,1486.0,1453.0,1492.0,1459.0,0.0,0.0,0.0,0.0,0.0,0.0,0.0,0.0
2489173965,8,1495.0,1458.0,1491.0,1453.0,1488.0,1454.0,1492.0,1459.0,0.0,0.0,0.0,0.0,0.0,0.0,0.0,0.0
2489217974,8,1494.0,1457.0,1493.0,1455.0,1491.0,1454.0,1492.0,1456.0,0.0,0.0,0.0,0.0,0.0,0.0,0.0,0.0
2489262031,8,1498.0,1459.0,1497.0,1458.0,1493.0,1453.0,1490.0,1454.0,0.0,0.0,0.0,0.0,0.0,0.0,0.0,0.0
2489306082,8,1497.0,1460.0,1498.0,1456.0,1491.0,1450.0,1490.0,1454.0,0.0,0.0,0.0,0.0,0.0,0.0,0.0,0.0
2489354050,8,1501.0,1460.0,1497.0,1450.0,1488.0,1447.0,1492.0,1456.0,0.0,0.0,0.0,0.0,0.0,0.0,0.0,0.0
2489394018,8,1499.0,1461.0,1498.0,1454.0,1489.0,1447.0,1489.0,1454.0,0.0,0.0,0.0,0.0,0.0,0.0,0.0,0.0
2489442043,8,1500.0,1462.0,1501.0,1456.0,1491.0,1447.0,1489.0,1454.0,0.0,0.0,0.0,0.0,0.0,0.0,0.0,0.0
2489482362,8,1499.0,1463.0,1501.0,1457.0,1491.0,1448.0,1489.0,1454.0,0.0,0.0,0.0,0.0,0.0,0.0,0.0,0.0
2489525961,8,1499.0,1460.0,1499.0,1454.0,1490.0,1448.0,1490.0,1454.0,0.0,0.0,0.0,0.0,0.0,0.0,0.0,0.0
2489550005,8,1499.0,1465.0,1504.0,1461.0,1493.0,1449.0,1487.0,1453.0,0.0,0.0,0.0,0.0,0.0,0.0,0.0,0.0
2489593959,8,1496.0,1462.0,1500.0,1460.0,1492.0,1451.0,1488.0,1454.0,0.0,0.0,0.0,0.0,0.0,0.0,0.0,0.0
2489638011,8,1497.0,1461.0,1499.0,1457.0,1491.0,1450.0,1489.0,1454.0,0.0,0.0,0.0,0.0,0.0,0.0,0.0,0.0
2489682090,8,1495.0,1458.0,1495.0,1455.0,1491.0,1452.0,1491.0,1455.0,0.0,0.0,0.0,0.0,0.0,0.0,0.0,0.0
2489722035,8,1495.0,1455.0,1494.0,1453.0,1492.0,1452.0,1492.0,1454.0,0.0,0.0,0.0,0.0,0.0,0.0,0.0,0.0
2489770067,8,1492.0,1456.0,1495.0,1457.0,1495.0,1456.0,1492.0,1454.0,0.0,0.0,0.0,0.0,0.0,0.0,0.0,0.0
2489813970,8,1496.0,1459.0,1495.0,1456.0,1491.0,1454.0,1493.0,1458.0,0.0,0.0,0.0,0.0,0.0,0.0,0.0,0.0
2489858022,8,1495.0,1460.0,1496.0,1459.0,1494.0,1456.0,1493.0,1457.0,0.0,0.0,0.0,0.0,0.0,0.0,0.0,0.0
2489901996,8,1494.0,1456.0,1494.0,1455.0,1493.0,1455.0,1494.0,1458.0,0.0,0.0,0.0,0.0,0.0,0.0,0.0,0.0
2489926017,8,1496.0,1463.0,1500.0,1463.0,1496.0,1456.0,1491.0,1456.0,0.0,0.0,0.0,0.0,0.0,0.0,0.0,0.0
2489969990,8,1495.0,1461.0,1496.0,1459.0,1492.0,1456.0,1492.0,1458.0,0.0,0.0,0.0,0.0,0.0,0.0,0.0,0.0
2490018002,8,1496.0,1462.0,1498.0,1460.0,1494.0,1456.0,1492.0,1458.0,0.0,0.0,0.0,0.0,0.0,0.0,0.0,0.0
2490061950,8,1496.0,1463.0,1500.0,1463.0,1496.0,1457.0,1491.0,1457.0,0.0,0.0,0.0,0.0,0.0,0.0,0.0,0.0
2490102014,8,1497.0,1463.0,1498.0,1461.0,1496.0,1457.0,1490.0,1457.0,0.0,0.0,0.0,0.0,0.0,0.0,0.0,0.0
2490149947,8,1496.0,1461.0,1494.0,1458.0,1492.0,1457.0,1493.0,1459.0,0.0,0.0,0.0,0.0,0.0,0.0,0.0,0.0
2490197948,8,1497.0,1463.0,1496.0,1460.0,1491.0,1457.0,1492.0,1461.0,0.0,0.0,0.0,0.0,0.0,0.0,0.0,0.0
2490222060,8,1497.0,1461.0,1496.0,1459.0,1493.0,1458.0,1494.0,1461.0,0.0,0.0,0.0,0.0,0.0,0.0,0.0,0.0
2490269984,8,1496.0,1461.0,1494.0,1459.0,1492.0,1459.0,1494.0,1462.0,0.0,0.0,0.0,0.0,0.0,0.0,0.0,0.0
2490318045,8,1495.0,1463.0,1497.0,1462.0,1494.0,1458.0,1492.0,1459.0,0.0,0.0,0.0,0.0,0.0,0.0,0.0,0.0
2490361939,8,1498.0,1462.0,1497.0,1458.0,1493.0,1457.0,1495.0,1461.0,0.0,0.0,0.0,0.0,0.0,0.0,0.0,0.0
2490402003,8,1497.0,1458.0,1494.0,1453.0,1491.0,1454.0,1495.0,1458.0,0.0,0.0,0.0,0.0,0.0,0.0,0.0,0.0
2490445940,8,1498.0,1459.0,1497.0,1457.0,1494.0,1455.0,1494.0,1457.0,0.0,0.0,0.0,0.0,0.0,0.0,0.0,0.0
2490490115,8,1500.0,1461.0,1499.0,1456.0,1492.0,1451.0,1493.0,1457.0,0.0,0.0,0.0,0.0,0.0,0.0,0.0,0.0
2490533981,8,1501.0,1462.0,1501.0,1457.0,1494.0,1451.0,1493.0,1456.0,0.0,0.0,0.0,0.0,0.0,0.0,0.0,0.0
2490557998,8,1502.0,1461.0,1501.0,1454.0,1492.0,1449.0,1494.0,1456.0,0.0,0.0,0.0,0.0,0.0,0.0,0.0,0.0
2490602024,8,1500.0,1463.0,1502.0,1458.0,1493.0,1450.0,1491.0,1456.0,0.0,0.0,0.0,0.0,0.0,0.0,0.0,0.0
2490646029,8,1502.0,1460.0,1503.0,1455.0,1496.0,1450.0,1495.0,1454.0,0.0,0.0,0.0,0.0,0.0,0.0,0.0,0.0
2490690001,8,1500.0,1459.0,1503.0,1457.0,1496.0,1450.0,1493.0,1453.0,0.0,0.0,0.0,0.0,0.0,0.0,0.0,0.0
2490730016,8,1500.0,1459.0,1503.0,1457.0,1497.0,1450.0,1494.0,1452.0,0.0,0.0,0.0,0.0,0.0,0.0,0.0,0.0
2490774047,8,1499.0,1459.0,1502.0,1457.0,1495.0,1450.0,1492.0,1453.0,0.0,0.0,0.0,0.0,0.0,0.0,0.0,0.0
2490822013,8,1502.0,1459.0,1501.0,1454.0,1494.0,1449.0,1495.0,1454.0,0.0,0.0,0.0,0.0,0.0,0.0,0.0,0.0
2490869958,8,1500.0,1459.0,1501.0,1455.0,1493.0,1449.0,1493.0,1454.0,0.0,0.0,0.0,0.0,0.0,0.0,0.0,0.0
2490894010,8,1502.0,1460.0,1501.0,1454.0,1493.0,1449.0,1494.0,1455.0,0.0,0.0,0.0,0.0,0.0,0.0,0.0,0.0
2490938001,8,1501.0,1463.0,1499.0,1456.0,1491.0,1451.0,1492.0,1458.0,0.0,0.0,0.0,0.0,0.0,0.0,0.0,0.0
2490978076,8,1502.0,1461.0,1496.0,1450.0,1487.0,1449.0,1494.0,1460.0,0.0,0.0,0.0,0.0,0.0,0.0,0.0,0.0
2491026000,8,1504.0,1467.0,1500.0,1455.0,1487.0,1448.0,1491.0,1460.0,0.0,0.0,0.0,0.0,0.0,0.0,0.0,0.0
2491073701,8,1503.0,1460.0,1495.0,1449.0,1487.0,1448.0,1495.0,1459.0,0.0,0.0,0.0,0.0,0.0,0.0,0.0,0.0
2491118038,8,1501.0,1460.0,1496.0,1453.0,1490.0,1452.0,1495.0,1460.0,0.0,0.0,0.0,0.0,0.0,0.0,0.0,0.0
2491158042,8,1501.0,1463.0,1499.0,1456.0,1491.0,1452.0,1493.0,1459.0,0.0,0.0,0.0,0.0,0.0,0.0,0.0,0.0
2491201997,8,1500.0,1465.0,1498.0,1457.0,1488.0,1451.0,1490.0,1459.0,0.0,0.0,0.0,0.0,0.0,0.0,0.0,0.0
2491246114,8,1497.0,1463.0,1497.0,1459.0,1492.0,1455.0,1492.0,1459.0,0.0,0.0,0.0,0.0,0.0,0.0,0.0,0.0
2491269972,8,1498.0,1467.0,1498.0,1459.0,1487.0,1451.0,1487.0,1459.0,0.0,0.0,0.0,0.0,0.0,0.0,0.0,0.0
2491318400,8,1496.0,1467.0,1497.0,1461.0,1487.0,1454.0,1487.0,1460.0,0.0,0.0,0.0,0.0,0.0,0.0,0.0,0.0
2491362022,8,1495.0,1464.0,1493.0,1458.0,1486.0,1454.0,1488.0,1460.0,0.0,0.0,0.0,0.0,0.0,0.0,0.0,0.0
2491406012,8,1499.0,1465.0,1496.0,1457.0,1487.0,1453.0,1490.0,1462.0,0.0,0.0,0.0,0.0,0.0,0.0,0.0,0.0
2491449982,8,1499.0,1467.0,1495.0,1456.0,1484.0,1450.0,1487.0,1461.0,0.0,0.0,0.0,0.0,0.0,0.0,0.0,0.0
2491494053,8,1498.0,1468.0,1498.0,1461.0,1488.0,1453.0,1488.0,1460.0,0.0,0.0,0.0,0.0,0.0,0.0,0.0,0.0
2491537998,8,1497.0,1467.0,1496.0,1459.0,1486.0,1452.0,1487.0,1460.0,0.0,0.0,0.0,0.0,0.0,0.0,0.0,0.0
2491582014,8,1495.0,1468.0,1495.0,1460.0,1483.0,1453.0,1484.0,1460.0,0.0,0.0,0.0,0.0,0.0,0.0,0.0,0.0
2491629987,8,1498.0,1469.0,1498.0,1460.0,1485.0,1450.0,1485.0,1459.0,0.0,0.0,0.0,0.0,0.0,0.0,0.0,0.0
2491653994,8,1496.0,1470.0,1498.0,1461.0,1484.0,1450.0,1482.0,1459.0,0.0,0.0,0.0,0.0,0.0,0.0,0.0,0.0
2491695612,8,1495.0,1471.0,1494.0,1459.0,1478.0,1449.0,1480.0,1461.0,0.0,0.0,0.0,0.0,0.0,0.0,0.0,0.0
2491739760,8,1497.0,1471.0,1499.0,1462.0,1486.0,1452.0,1484.0,1460.0,0.0,0.0,0.0,0.0,0.0,0.0,0.0,0.0
2491787704,8,1494.0,1471.0,1498.0,1464.0,1484.0,1452.0,1480.0,1459.0,0.0,0.0,0.0,0.0,0.0,0.0,0.0,0.0
2491835560,8,1496.0,1471.0,1495.0,1460.0,1480.0,1450.0,1481.0,1461.0,0.0,0.0,0.0,0.0,0.0,0.0,0.0,0.0
2491875548,8,1496.0,1473.0,1497.0,1462.0,1480.0,1450.0,1480.0,1461.0,0.0,0.0,0.0,0.0,0.0,0.0,0.0,0.0
2491923611,8,1496.0,1471.0,1494.0,1459.0,1478.0,1449.0,1480.0,1461.0,0.0,0.0,0.0,0.0,0.0,0.0,0.0,0.0
2491947580,8,1497.0,1471.0,1494.0,1458.0,1478.0,1448.0,1481.0,1462.0,0.0,0.0,0.0,0.0,0.0,0.0,0.0,0.0
2491991581,8,1497.0,1470.0,1497.0,1459.0,1481.0,1448.0,1481.0,1459.0,0.0,0.0,0.0,0.0,0.0,0.0,0.0,0.0
2492035517,8,1498.0,1468.0,1495.0,1455.0,1479.0,1446.0,1482.0,1459.0,0.0,0.0,0.0,0.0,0.0,0.0,0.0,0.0
2492079563,8,1500.0,1469.0,1496.0,1455.0,1479.0,1445.0,1483.0,1460.0,0.0,0.0,0.0,0.0,0.0,0.0,0.0,0.0
2492123578,8,1499.0,1471.0,1496.0,1455.0,1477.0,1445.0,1481.0,1461.0,0.0,0.0,0.0,0.0,0.0,0.0,0.0,0.0
2492167568,8,1497.0,1467.0,1493.0,1454.0,1478.0,1445.0,1481.0,1458.0,0.0,0.0,0.0,0.0,0.0,0.0,0.0,0.0
2492211559,8,1497.0,1467.0,1495.0,1454.0,1478.0,1444.0,1480.0,1457.0,0.0,0.0,0.0,0.0,0.0,0.0,0.0,0.0
2492251541,8,1497.0,1471.0,1499.0,1459.0,1480.0,1444.0,1478.0,1456.0,0.0,0.0,0.0,0.0,0.0,0.0,0.0,0.0
2492295590,8,1497.0,1469.0,1499.0,1458.0,1481.0,1444.0,1479.0,1455.0,0.0,0.0,0.0,0.0,0.0,0.0,0.0,0.0
2492339607,8,1498.0,1470.0,1500.0,1458.0,1480.0,1442.0,1478.0,1454.0,0.0,0.0,0.0,0.0,0.0,0.0,0.0,0.0
2492359597,8,1498.0,1466.0,1498.0,1454.0,1481.0,1442.0,1481.0,1454.0,0.0,0.0,0.0,0.0,0.0,0.0,0.0,0.0
2492407548,8,1501.0,1469.0,1502.0,1457.0,1483.0,1443.0,1482.0,1455.0,0.0,0.0,0.0,0.0,0.0,0.0,0.0,0.0
2492447553,8,1500.0,1468.0,1499.0,1455.0,1481.0,1442.0,1481.0,1455.0,0.0,0.0,0.0,0.0,0.0,0.0,0.0,0.0
2492491556,8,1498.0,1471.0,1502.0,1460.0,1483.0,1444.0,1479.0,1455.0,0.0,0.0,0.0,0.0,0.0,0.0,0.0,0.0
2492539542,8,1497.0,1466.0,1496.0,1453.0,1480.0,1442.0,1480.0,1455.0,0.0,0.0,0.0,0.0,0.0,0.0,0.0,0.0
2492580099,8,1499.0,1466.0,1498.0,1455.0,1483.0,1444.0,1484.0,1455.0,0.0,0.0,0.0,0.0,0.0,0.0,0.0,0.0
2492619597,8,1497.0,1471.0,1496.0,1457.0,1478.0,1444.0,1478.0,1458.0,0.0,0.0,0.0,0.0,0.0,0.0,0.0,0.0
2492663536,8,1495.0,1467.0,1495.0,1457.0,1480.0,1445.0,1479.0,1456.0,0.0,0.0,0.0,0.0,0.0,0.0,0.0,0.0
2492707561,8,1496.0,1465.0,1499.0,1458.0,1486.0,1447.0,1483.0,1454.0,0.0,0.0,0.0,0.0,0.0,0.0,0.0,0.0
2492755547,8,1494.0,1466.0,1499.0,1460.0,1486.0,1446.0,1483.0,1454.0,0.0,0.0,0.0,0.0,0.0,0.0,0.0,0.0
2492799620,8,1496.0,1466.0,1501.0,1461.0,1488.0,1448.0,1483.0,1453.0,0.0,0.0,0.0,0.0,0.0,0.0,0.0,0.0
2492843604,8,1497.0,1464.0,1500.0,1457.0,1488.0,1447.0,1485.0,1454.0,0.0,0.0,0.0,0.0,0.0,0.0,0.0,0.0
