timestamp,voltage_v,voltage_filtered_v,current_a,current_filtered_a,average_current_a,discharged_mah,remaining,scale,temperature,cell_count,capacity,cycle_count,run_time_to_empty,average_time_to_empty,serial_number,connected,system_source,priority,is_powering_off,warning
2467868033,25.0845,25.067684,0.0744,0.07004834,0.0,45.747917,1.0,1.0,0.0,6,0,0,0,0,0,1,1,0,0,0
2468372382,25.044106,25.055113,0.0744,0.071417205,0.0,45.758133,1.0,1.0,0.0,6,0,0,0,0,0,1,1,0,0,0
2468876049,23.85249,24.93207,0.0744,0.071257874,0.0,45.76808,1.0,1.0,0.0,6,0,0,0,0,0,1,1,0,0,0
2469380039,24.518986,24.710102,0.0744,0.07150624,0.0,45.77813,1.0,1.0,0.0,6,0,0,0,0,0,1,1,0,0,0
2469884045,24.418003,24.622122,0.0868,0.07204787,0.0,45.788246,1.0,1.0,0.0,6,0,0,0,0,0,1,1,0,0,0
2470388008,24.418003,24.556543,0.0744,0.07210822,0.0,45.798286,1.0,1.0,0.0,6,0,0,0,0,0,1,1,0,0,0
2470892415,24.357412,24.500067,0.062,0.070525914,0.0,45.808002,1.0,1.0,0.0,6,0,0,0,0,0,1,1,0,0,0
2471384094,24.397806,24.461157,0.0744,0.070914894,0.0,45.8177,1.0,1.0,0.0,6,0,0,0,0,0,1,1,0,0,0
2471888369,24.37761,24.429895,0.0744,0.071050085,0.0,45.82762,1.0,1.0,0.0,6,0,0,0,0,0,1,1,0,0,0
2472393766,24.37761,24.408443,0.0744,0.072082445,0.0,45.837814,1.0,1.0,0.0,6,0,0,0,0,0,1,1,0,0,0
2472897992,24.37761,24.388018,0.0744,0.07112938,0.0,45.847736,1.0,1.0,0.0,6,0,0,0,0,0,1,1,0,0,0
2473390192,24.337215,24.370888,0.0744,0.07151389,0.0,45.85754,1.0,1.0,0.0,6,0,0,0,0,0,1,1,0,0,0
2473893720,24.317019,24.354471,0.0744,0.07133832,0.0,45.86749,1.0,1.0,0.0,6,0,0,0,0,0,1,1,0,0,0
2474397696,24.276625,24.34275,0.0744,0.07029815,0.0,45.877163,1.0,1.0,0.0,6,0,0,0,0,0,1,1,0,0,0
2474901746,24.276625,24.327644,0.062,0.069839805,0.0,45.88691,1.0,1.0,0.0,6,0,0,0,0,0,1,1,0,0,0
2475406132,24.337215,24.313862,0.062,0.07106842,0.0,45.89704,1.0,1.0,0.0,6,0,0,0,0,0,1,1,0,0,0
2475909952,24.17564,24.299526,0.062,0.07053009,0.0,45.906906,1.0,1.0,0.0,6,0,0,0,0,0,1,1,0,0,0
2476415357,24.256428,24.286108,0.0744,0.07044707,0.0,45.916843,1.0,1.0,0.0,6,0,0,0,0,0,1,1,0,0,0
2476919633,24.256428,24.273531,0.062,0.07034179,0.0,45.926666,1.0,1.0,0.0,6,0,0,0,0,0,1,1,0,0,0
2477411359,24.195837,24.266779,0.062,0.07018621,0.0,45.93616,1.0,1.0,0.0,6,0,0,0,0,0,1,1,0,0,0
2477915373,24.276625,24.263239,0.0744,0.07054558,0.0,45.94612,1.0,1.0,0.0,6,0,0,0,0,0,1,1,0,0,0
2478419285,24.23623,24.253944,0.0744,0.07054724,0.0,45.95595,1.0,1.0,0.0,6,0,0,0,0,0,1,1,0,0,0
2478923337,24.23623,24.244625,0.0744,0.07171278,0.0,45.96612,1.0,1.0,0.0,6,0,0,0,0,0,1,1,0,0,0
2479427351,24.23623,24.23805,0.0744,0.07125186,0.0,45.976044,1.0,1.0,0.0,6,0,0,0,0,0,1,1,0,0,0
2479931307,24.23623,24.230236,0.0744,0.0714932,0.0,45.986088,1.0,1.0,0.0,6,0,0,0,0,0,1,1,0,0,0
2480436952,24.23623,24.224024,0.0868,0.0696224,0.0,45.99557,1.0,1.0,0.0,6,0,0,0,0,0,1,1,0,0,0
2480928817,24.216034,24.219507,0.0744,0.07075779,0.0,46.00537,1.0,1.0,0.0,6,0,0,0,0,0,1,1,0,0,0
2481432860,24.216034,24.218367,0.0744,0.07092954,0.0,46.01532,1.0,1.0,0.0,6,0,0,0,0,0,1,1,0,0,0
2481936874,24.195837,24.214428,0.062,0.07032384,0.0,46.025105,1.0,1.0,0.0,6,0,0,0,0,0,1,1,0,0,0
2482440846,24.195837,24.21184,0.062,0.07058543,0.0,46.03503,1.0,1.0,0.0,6,0,0,0,0,0,1,1,0,0,0
2482945258,24.17564,24.206507,0.062,0.070881695,0.0,46.045036,1.0,1.0,0.0,6,0,0,0,0,0,1,1,0,0,0
2483448846,24.23623,24.202158,0.062,0.069401875,0.0,46.0546,1.0,1.0,0.0,6,0,0,0,0,0,1,1,0,0,0
2483954506,24.17564,24.19715,0.0744,0.07039688,0.0,46.064545,1.0,1.0,0.0,6,0,0,0,0,0,1,1,0,0,0
2484458483,24.155443,24.192554,0.0744,0.07197635,0.0,46.07488,1.0,1.0,0.0,6,0,0,0,0,0,1,1,0,0,0
2484950913,24.195837,24.190018,0.0744,0.07051993,0.0,46.084393,1.0,1.0,0.0,6,0,0,0,0,0,1,1,0,0,0
2485454479,24.195837,24.190025,0.0744,0.07075526,0.0,46.094364,1.0,1.0,0.0,6,0,0,0,0,0,1,1,0,0,0
2485958522,24.216034,24.19063,0.0744,0.07037847,0.0,46.1042,1.0,1.0,0.0,6,0,0,0,0,0,1,1,0,0,0
2486462567,24.17564,24.18505,0.0744,0.07025897,0.0,46.114037,1.0,1.0,0.0,6,0,0,0,0,0,1,1,0,0,0
2486966417,24.195837,24.179003,0.0744,0.07039301,0.0,46.123867,1.0,1.0,0.0,6,0,0,0,0,0,1,1,0,0,0
2487470412,24.17564,24.177345,0.062,0.07179641,0.0,46.134075,1.0,1.0,0.0,6,0,0,0,0,0,1,1,0,0,0
2487976372,24.155443,24.154549,0.062,0.07031749,0.0,46.143703,1.0,1.0,0.0,6,0,0,0,0,0,1,1,0,0,0
2488468000,24.17564,24.157244,0.0744,0.07180833,0.0,46.15361,1.0,1.0,0.0,6,0,0,0,0,0,1,1,0,0,0
2488972505,24.155443,24.15579,0.0744,0.071411826,0.0,46.163544,1.0,1.0,0.0,6,0,0,0,0,0,1,1,0,0,0
2489476009,24.155443,24.154104,0.062,0.07160198,0.0,46.173573,1.0,1.0,0.0,6,0,0,0,0,0,1,1,0,0,0
2489980411,24.155443,24.150356,0.062,0.07134358,0.0,46.183544,1.0,1.0,0.0,6,0,0,0,0,0,1,1,0,0,0
2490484055,24.11505,24.143373,0.0744,0.07141447,0.0,46.19353,1.0,1.0,0.0,6,0,0,0,0,0,1,1,0,0,0
2490988055,24.155443,24.139097,0.062,0.07060319,0.0,46.203316,1.0,1.0,0.0,6,0,0,0,0,0,1,1,0,0,0
2491492303,24.155443,24.138025,0.0744,0.06988232,0.0,46.21304,1.0,1.0,0.0,6,0,0,0,0,0,1,1,0,0,0
2491998011,24.155443,24.134485,0.0744,0.0702918,0.0,46.222946,1.0,1.0,0.0,6,0,0,0,0,0,1,1,0,0,0
2492501693,24.155443,24.134598,0.062,0.07157052,0.0,46.233047,1.0,1.0,0.0,6,0,0,0,0,0,1,1,0,0,0
2492994118,24.155443,24.131912,0.062,0.07046201,0.0,46.24265,1.0,1.0,0.0,6,0,0,0,0,0,1,1,0,0,0
2493498178,24.11505,24.128838,0.049599998,0.07050941,0.0,46.25251,1.0,1.0,0.0,6,0,0,0,0,0,1,1,0,0,0
2494002212,24.155443,24.125265,0.024799999,0.0693731,0.0,46.262188,1.0,1.0,0.0,6,0,0,0,0,0,1,1,0,0,0
2494505996,24.11505,24.119465,0.062,0.070512384,0.0,46.272167,1.0,1.0,0.0,6,0,0,0,0,0,1,1,0,0,0
2495009761,24.155443,24.117327,0.062,0.07092697,0.0,46.28216,1.0,1.0,0.0,6,0,0,0,0,0,1,1,0,0,0
2495513779,24.17564,24.149302,0.0744,0.07118333,0.0,46.29212,1.0,1.0,0.0,6,0,0,0,0,0,1,1,0,0,0
2496019547,24.17564,24.128498,0.099199995,0.07037653,0.0,46.301876,1.0,1.0,0.0,6,0,0,0,0,0,1,1,0,0,0
2496523608,24.155443,24.136164,0.0744,0.07053676,0.0,46.31174,1.0,1.0,0.0,6,0,0,0,0,0,1,1,0,0,0
2497015551,24.11505,24.145355,0.0744,0.07040398,0.0,46.32132,1.0,1.0,0.0,6,0,0,0,0,0,1,1,0,0,0
2497519360,24.135246,24.147291,0.0744,0.06981638,0.0,46.331024,1.0,1.0,0.0,6,0,0,0,0,0,1,1,0,0,0
2498023303,24.155443,24.140337,0.0744,0.0713978,0.0,46.341145,1.0,1.0,0.0,6,0,0,0,0,0,1,1,0,0,0
2498527624,24.11505,24.137928,0.0744,0.07085552,0.0,46.351032,1.0,1.0,0.0,6,0,0,0,0,0,1,1,0,0,0
2499031327,24.094852,24.130787,0.0744,0.070508346,0.0,46.360863,1.0,1.0,0.0,6,0,0,0,0,0,1,1,0,0,0
2499525234,24.074656,24.11992,0.0744,0.06983885,0.0,46.370407,1.0,1.0,0.0,6,0,0,0,0,0,1,1,0,0,0
2500029216,24.11505,24.116245,0.0744,0.07050996,0.0,46.38034,1.0,1.0,0.0,6,0,0,0,0,0,1,1,0,0,0
2500533174,24.155443,24.111706,0.0744,0.06983512,0.0,46.389908,1.0,1.0,0.0,6,0,0,0,0,0,1,1,0,0,0
2501037248,24.11505,24.108809,0.0744,0.06968506,0.0,46.399662,1.0,1.0,0.0,6,0,0,0,0,0,1,1,0,0,0
2501528952,24.034262,24.106564,0.0744,0.069275595,0.0,46.40909,1.0,1.0,0.0,6,0,0,0,0,0,1,1,0,0,0
2502032857,24.11505,24.109669,0.0744,0.06812194,0.0,46.418545,1.0,1.0,0.0,6,0,0,0,0,0,1,1,0,0,0
2502536837,24.11505,24.114328,0.0744,0.07017918,0.0,46.428623,1.0,1.0,0.0,6,0,0,0,0,0,1,1,0,0,0
2503040851,24.094852,24.113867,0.0744,0.070025876,0.0,46.43851,1.0,1.0,0.0,6,0,0,0,0,0,1,1,0,0,0
2503546468,24.11505,24.111433,0.0744,0.06958919,0.0,46.44826,1.0,1.0,0.0,6,0,0,0,0,0,1,1,0,0,0
2504050550,24.054459,24.112679,0.0744,0.07010166,0.0,46.458134,1.0,1.0,0.0,6,0,0,0,0,0,1,1,0,0,0
2504554567,24.155443,24.11453,0.0744,0.07050872,0.0,46.467976,1.0,1.0,0.0,6,0,0,0,0,0,1,1,0,0,0
2505058473,24.094852,24.113245,0.0744,0.06984837,0.0,46.47768,1.0,1.0,0.0,6,0,0,0,0,0,1,1,0,0,0
2505562756,24.074656,24.103464,0.0744,0.0695583,0.0,46.48735,1.0,1.0,0.0,6,0,0,0,0,0,1,1,0,0,0
2506066498,24.074656,24.099222,0.062,0.070038155,0.0,46.49722,1.0,1.0,0.0,6,0,0,0,0,0,1,1,0,0,0
2506558443,24.074656,24.096441,0.0744,0.070471354,0.0,46.506943,1.0,1.0,0.0,6,0,0,0,0,0,1,1,0,0,0
2507062519,24.054459,24.09697,0.0744,0.070611745,0.0,46.516827,1.0,1.0,0.0,6,0,0,0,0,0,1,1,0,0,0
2507568168,24.074656,24.100279,0.062,0.06961184,0.0,46.52651,1.0,1.0,0.0,6,0,0,0,0,0,1,1,0,0,0
2508072161,24.11505,24.096657,0.062,0.06963976,0.0,46.53629,1.0,1.0,0.0,6,0,0,0,0,0,1,1,0,0,0
2508576154,24.034262,24.093523,0.0744,0.06951933,0.0,46.54604,1.0,1.0,0.0,6,0,0,0,0,0,1,1,0,0,0
2509080392,24.11505,24.088339,0.0744,0.06941551,0.0,46.555664,1.0,1.0,0.0,6,0,0,0,0,0,1,1,0,0,0
2509584179,24.074656,24.086426,0.062,0.07044765,0.0,46.565666,1.0,1.0,0.0,6,0,0,0,0,0,1,1,0,0,0
2510088355,24.074656,24.089697,0.024799999,0.067674205,0.0,46.574924,1.0,1.0,0.0,6,0,0,0,0,0,1,1,0,0,0
2510592163,24.054459,24.089025,0.0744,0.069704495,0.0,46.58495,1.0,1.0,0.0,6,0,0,0,0,0,1,1,0,0,0
2511085953,24.11505,24.088163,0.0744,0.07030978,0.0,46.5947,1.0,1.0,0.0,6,0,0,0,0,0,1,1,0,0,0
2511589747,24.074656,24.08592,0.0744,0.06913262,0.0,46.604275,1.0,1.0,0.0,6,0,0,0,0,0,1,1,0,0,0
2512093949,24.074656,24.083542,0.0744,0.06982147,0.0,46.614063,1.0,1.0,0.0,6,0,0,0,0,0,1,1,0,0,0
2512597738,24.11505,24.08129,0.0744,0.07039418,0.0,46.62402,1.0,1.0,0.0,6,0,0,0,0,0,1,1,0,0,0
2513089817,24.074656,24.075846,0.0744,0.07080526,0.0,46.6338,1.0,1.0,0.0,6,0,0,0,0,0,1,1,0,0,0
2513594061,24.094852,24.071611,0.0744,0.06959554,0.0,46.643387,1.0,1.0,0.0,6,0,0,0,0,0,1,1,0,0,0
2514097769,24.054459,24.068836,0.0744,0.06984025,0.0,46.65318,1.0,1.0,0.0,6,0,0,0,0,0,1,1,0,0,0
2514601754,24.034262,24.065128,0.0744,0.07072292,0.0,46.66319,1.0,1.0,0.0,6,0,0,0,0,0,1,1,0,0,0
2515107719,23.993868,24.058676,0.0868,0.07101108,0.0,46.673176,1.0,1.0,0.0,6,0,0,0,0,0,1,1,0,0,0
2515611270,24.034262,24.052116,0.0744,0.07078983,0.0,46.683052,1.0,1.0,0.0,6,0,0,0,0,0,1,1,0,0,0
2516115386,24.034262,24.049498,0.0744,0.069925815,0.0,46.692757,1.0,1.0,0.0,6,0,0,0,0,0,1,1,0,0,0
2516619268,24.074656,24.047901,0.0744,0.069923826,0.0,46.70258,1.0,1.0,0.0,6,0,0,0,0,0,1,1,0,0,0
2517123365,24.054459,24.050608,0.0744,0.069995366,0.0,46.712368,1.0,1.0,0.0,6,0,0,0,0,0,1,1,0,0,0
2517627352,24.094852,24.055899,0.0744,0.069413565,0.0,46.722034,1.0,1.0,0.0,6,0,0,0,0,0,1,1,0,0,0
2518131367,24.034262,24.060051,0.062,0.0685957,0.0,46.731533,1.0,1.0,0.0,6,0,0,0,0,0,1,1,0,0,0
2518635292,24.034262,24.058346,0.062,0.06823066,0.0,46.74096,1.0,1.0,0.0,6,0,0,0,0,0,1,1,0,0,0
2519128872,24.11505,24.056707,0.0744,0.06929598,0.0,46.750565,1.0,1.0,0.0,6,0,0,0,0,0,1,1,0,0,0
2519632914,24.074656,24.05775,0.0744,0.069420114,0.0,46.76029,1.0,1.0,0.0,6,0,0,0,0,0,1,1,0,0,0
2520136925,24.014065,24.058287,0.0744,0.069986135,0.0,46.770134,1.0,1.0,0.0,6,0,0,0,0,0,1,1,0,0,0
2520641120,24.074656,24.059145,0.062,0.07143662,0.0,46.780293,1.0,1.0,0.0,6,0,0,0,0,0,1,1,0,0,0
2521144979,24.014065,24.057377,0.062,0.07026125,0.0,46.789917,1.0,1.0,0.0,6,0,0,0,0,0,1,1,0,0,0
2521648866,24.054459,24.056366,0.0744,0.06916755,0.0,46.799496,1.0,1.0,0.0,6,0,0,0,0,0,1,1,0,0,0
2522152852,24.054459,24.052456,0.0744,0.070273705,0.0,46.80945,1.0,1.0,0.0,6,0,0,0,0,0,1,1,0,0,0
2522656861,24.034262,24.053343,0.0744,0.070796736,0.0,46.819454,1.0,1.0,0.0,6,0,0,0,0,0,1,1,0,0,0
2523150557,24.034262,24.051252,0.0744,0.07179822,0.0,46.82942,1.0,1.0,0.0,6,0,0,0,0,0,1,1,0,0,0
2523654582,24.054459,24.050373,0.062,0.07063804,0.0,46.83917,1.0,1.0,0.0,6,0,0,0,0,0,1,1,0,0,0
2524158822,24.014065,24.045408,0.0744,0.07007643,0.0,46.848896,1.0,1.0,0.0,6,0,0,0,0,0,1,1,0,0,0
2524662490,24.034262,24.03998,0.062,0.070399955,0.0,46.8588,1.0,1.0,0.0,6,0,0,0,0,0,1,1,0,0,0
2525166551,24.094852,24.04226,0.062,0.06930929,0.0,46.868427,1.0,1.0,0.0,6,0,0,0,0,0,1,1,0,0,0
2525670419,24.034262,24.040564,0.0744,0.06966126,0.0,46.878307,1.0,1.0,0.0,6,0,0,0,0,0,1,1,0,0,0
2526174462,24.034262,24.038214,0.0744,0.07065223,0.0,46.888268,1.0,1.0,0.0,6,0,0,0,0,0,1,1,0,0,0
2526668046,24.054459,24.040392,0.062,0.07079294,0.0,46.898018,1.0,1.0,0.0,6,0,0,0,0,0,1,1,0,0,0
2527172457,23.993868,24.041788,0.062,0.07066103,0.0,46.90786,1.0,1.0,0.0,6,0,0,0,0,0,1,1,0,0,0
2527676075,24.054459,24.041668,0.062,0.069949076,0.0,46.917522,1.0,1.0,0.0,6,0,0,0,0,0,1,1,0,0,0
2528180054,24.034262,24.043022,0.062,0.06949625,0.0,46.92719,1.0,1.0,0.0,6,0,0,0,0,0,1,1,0,0,0
2528684099,24.014065,24.04311,0.0744,0.069896035,0.0,46.93694,1.0,1.0,0.0,6,0,0,0,0,0,1,1,0,0,0
2529176061,24.034262,24.036428,0.0744,0.07040899,0.0,46.946606,1.0,1.0,0.0,6,0,0,0,0,0,1,1,0,0,0
2529680326,24.034262,24.027412,0.0744,0.07075824,0.0,46.956535,1.0,1.0,0.0,6,0,0,0,0,0,1,1,0,0,0
2530184074,24.014065,24.030493,0.0868,0.07092551,0.0,46.96646,1.0,1.0,0.0,6,0,0,0,0,0,1,1,0,0,0
2530689759,24.034262,24.034369,0.0744,0.070777275,0.0,46.976368,1.0,1.0,0.0,6,0,0,0,0,0,1,1,0,0,0
2531193773,24.074656,24.039062,0.0744,0.06972859,0.0,46.986042,1.0,1.0,0.0,6,0,0,0,0,0,1,1,0,0,0
2531697980,24.054459,24.038143,0.0744,0.069566086,0.0,46.99585,1.0,1.0,0.0,6,0,0,0,0,0,1,1,0,0,0
2532189726,24.074656,24.041582,0.0744,0.06981827,0.0,47.00543,1.0,1.0,0.0,6,0,0,0,0,0,1,1,0,0,0
2532693783,24.074656,24.046337,0.0744,0.07055275,0.0,47.015427,1.0,1.0,0.0,6,0,0,0,0,0,1,1,0,0,0
2533197928,24.034262,24.040874,0.0744,0.070055984,0.0,47.02513,1.0,1.0,0.0,6,0,0,0,0,0,1,1,0,0,0
2533701637,23.650522,23.984297,0.0744,0.071263306,0.0,47.035202,1.0,1.0,0.0,6,0,0,0,0,0,1,1,0,0,0
2534206206,23.832293,23.901932,0.0744,0.070246205,0.0,47.04493,1.0,1.0,0.0,6,0,0,0,0,0,1,1,0,0,0
2534699320,23.953474,23.915133,0.062,0.06968005,0.0,47.05441,1.0,1.0,0.0,6,0,0,0,0,0,1,1,0,0,0
2535203298,23.993868,23.933897,0.062,0.0688321,0.0,47.063915,1.0,1.0,0.0,6,0,0,0,0,0,1,1,0,0,0
2535707819,23.953474,23.944265,0.062,0.06954543,0.0,47.073803,1.0,1.0,0.0,6,0,0,0,0,0,1,1,0,0,0
2536211271,23.953474,23.953032,0.062,0.07017584,0.0,47.083664,1.0,1.0,0.0,6,0,0,0,0,0,1,1,0,0,0
2536715329,23.993868,23.964005,0.0744,0.070755035,0.0,47.09361,1.0,1.0,0.0,6,0,0,0,0,0,1,1,0,0,0
2537219281,24.054459,23.976303,0.0744,0.070526645,0.0,47.103443,1.0,1.0,0.0,6,0,0,0,0,0,1,1,0,0,0
2537723329,24.014065,23.98421,0.062,0.06918095,0.0,47.112988,1.0,1.0,0.0,6,0,0,0,0,0,1,1,0,0,0
2538228878,23.993868,23.989391,0.0744,0.06944359,0.0,47.122757,1.0,1.0,0.0,6,0,0,0,0,0,1,1,0,0,0
2538733576,24.014065,24.003042,0.0744,0.07108335,0.0,47.132904,1.0,1.0,0.0,6,0,0,0,0,0,1,1,0,0,0
2539224814,23.953474,23.997889,0.0744,0.07086252,0.0,47.142555,1.0,1.0,0.0,6,0,0,0,0,0,1,1,0,0,0
2539728834,23.993868,23.998291,0.062,0.06864975,0.0,47.1519,1.0,1.0,0.0,6,0,0,0,0,0,1,1,0,0,0
2540232813,23.953474,23.989077,0.0744,0.06928203,0.0,47.161682,1.0,1.0,0.0,6,0,0,0,0,0,1,1,0,0,0
2540736841,23.953474,23.97228,0.0744,0.0700071,0.0,47.171528,1.0,1.0,0.0,6,0,0,0,0,0,1,1,0,0,0
2541240872,23.953474,23.964552,0.0744,0.07002401,0.0,47.181377,1.0,1.0,0.0,6,0,0,0,0,0,1,1,0,0,0
2541744940,23.933277,23.957632,0.0744,0.07075282,0.0,47.191303,1.0,1.0,0.0,6,0,0,0,0,0,1,1,0,0,0
2542250489,23.953474,23.952492,0.0744,0.070762895,0.0,47.201202,1.0,1.0,0.0,6,0,0,0,0,0,1,1,0,0,0
2542754575,23.933277,23.95463,0.0744,0.07131875,0.0,47.21124,1.0,1.0,0.0,6,0,0,0,0,0,1,1,0,0,0
2543246519,23.953474,23.946915,0.0744,0.07011985,0.0,47.2207,1.0,1.0,0.0,6,0,0,0,0,0,1,1,0,0,0
2543750526,23.993868,23.946331,0.0744,0.07071161,0.0,47.23063,1.0,1.0,0.0,6,0,0,0,0,0,1,1,0,0,0
2544254528,23.892883,23.93403,0.0744,0.07070841,0.0,47.2405,1.0,1.0,0.0,6,0,0,0,0,0,1,1,0,0,0
2544758843,23.933277,23.931993,0.0744,0.07054981,0.0,47.250423,1.0,1.0,0.0,6,0,0,0,0,0,1,1,0,0,0
2545262840,23.993868,23.944988,0.0744,0.07052788,0.0,47.26031,1.0,1.0,0.0,6,0,0,0,0,0,1,1,0,0,0
2545778702,23.973671,23.962204,0.0744,0.07108975,0.0,47.270554,1.0,1.0,0.0,6,0,0,0,0,0,1,1,0,0,0
2546272407,23.993868,23.9698,0.062,0.07036046,0.0,47.280132,1.0,1.0,0.0,6,0,0,0,0,0,1,1,0,0,0
2546776099,23.953474,23.96827,0.0744,0.07111748,0.0,47.29014,1.0,1.0,0.0,6,0,0,0,0,0,1,1,0,0,0
2547280373,23.953474,23.964748,0.0744,0.07158534,0.0,47.30022,1.0,1.0,0.0,6,0,0,0,0,0,1,1,0,0,0
2547772394,23.953474,23.967077,0.0744,0.07055348,0.0,47.309723,1.0,1.0,0.0,6,0,0,0,0,0,1,1,0,0,0
2548276026,23.973671,23.963755,0.0744,0.07101429,0.0,47.319675,1.0,1.0,0.0,6,0,0,0,0,0,1,1,0,0,0
2548780053,23.933277,23.978998,0.062,0.06916317,0.0,47.32927,1.0,1.0,0.0,6,0,0,0,0,0,1,1,0,0,0
2549284033,23.91308,23.968477,0.0744,0.069838725,0.0,47.3391,1.0,1.0,0.0,6,0,0,0,0,0,1,1,0,0,0
2549788310,24.034262,23.987204,0.062,0.07115156,0.0,47.349186,1.0,1.0,0.0,6,0,0,0,0,0,1,1,0,0,0
2550294162,24.034262,24.00105,0.062,0.070484914,0.0,47.359013,1.0,1.0,0.0,6,0,0,0,0,0,1,1,0,0,0
2550785746,24.014065,24.006313,0.062,0.070223756,0.0,47.368626,1.0,1.0,0.0,6,0,0,0,0,0,1,1,0,0,0
2551289766,24.034262,24.023375,0.0744,0.07037385,0.0,47.378456,1.0,1.0,0.0,6,0,0,0,0,0,1,1,0,0,0
2551793757,23.993868,24.017899,0.0744,0.070966326,0.0,47.388454,1.0,1.0,0.0,6,0,0,0,0,0,1,1,0,0,0
2552297783,23.993868,24.00563,0.0744,0.07041101,0.0,47.398243,1.0,1.0,0.0,6,0,0,0,0,0,1,1,0,0,0
2552801780,23.953474,23.9896,0.062,0.07046108,0.0,47.408127,1.0,1.0,0.0,6,0,0,0,0,0,1,1,0,0,0
2553305744,24.014065,23.980799,0.062,0.07054585,0.0,47.41799,1.0,1.0,0.0,6,0,0,0,0,0,1,1,0,0,0
2553799348,23.953474,23.968878,0.0744,0.070470214,0.0,47.42765,1.0,1.0,0.0,6,0,0,0,0,0,1,1,0,0,0
2554303349,24.014065,23.96112,0.0744,0.07182441,0.0,47.43789,1.0,1.0,0.0,6,0,0,0,0,0,1,1,0,0,0
2554807619,23.933277,23.960205,0.0744,0.071060956,0.0,47.447765,1.0,1.0,0.0,6,0,0,0,0,0,1,1,0,0,0
2555311325,23.993868,23.962807,0.062,0.07065562,0.0,47.457596,1.0,1.0,0.0,6,0,0,0,0,0,1,1,0,0,0
2555815569,23.91308,23.96342,0.062,0.06940947,0.0,47.46718,1.0,1.0,0.0,6,0,0,0,0,0,1,1,0,0,0
2556319323,23.953474,23.962147,0.0744,0.0702431,0.0,47.477,1.0,1.0,0.0,6,0,0,0,0,0,1,1,0,0,0
2556823588,23.91308,23.958515,0.062,0.06918469,0.0,47.48664,1.0,1.0,0.0,6,0,0,0,0,0,1,1,0,0,0
2557327635,23.933277,23.95044,0.0744,0.06918083,0.0,47.496346,1.0,1.0,0.0,6,0,0,0,0,0,1,1,0,0,0
2557832815,23.953474,23.94687,0.0744,0.071441025,0.0,47.506573,1.0,1.0,0.0,6,0,0,0,0,0,1,1,0,0,0
2558324847,23.953474,23.94293,0.0744,0.070762545,0.0,47.516163,1.0,1.0,0.0,6,0,0,0,0,0,1,1,0,0,0
2558829210,23.953474,23.934237,0.0744,0.071205616,0.0,47.526222,1.0,1.0,0.0,6,0,0,0,0,0,1,1,0,0,0
2559333265,23.91308,23.92783,0.0744,0.070828624,0.0,47.536095,1.0,1.0,0.0,6,0,0,0,0,0,1,1,0,0,0
2559836874,23.91308,23.920494,0.0744,0.070631064,0.0,47.545925,1.0,1.0,0.0,6,0,0,0,0,0,1,1,0,0,0
2560340903,23.933277,23.920965,0.0744,0.071133204,0.0,47.555923,1.0,1.0,0.0,6,0,0,0,0,0,1,1,0,0,0
2560845127,23.953474,23.92318,0.0744,0.07104105,0.0,47.56585,1.0,1.0,0.0,6,0,0,0,0,0,1,1,0,0,0
2561348896,23.933277,23.92585,0.049599998,0.07087121,0.0,47.575798,1.0,1.0,0.0,6,0,0,0,0,0,1,1,0,0,0
2561842810,23.872686,23.923939,0.0744,0.07025006,0.0,47.585415,1.0,1.0,0.0,6,0,0,0,0,0,1,1,0,0,0
2562346567,23.892883,23.91855,0.0744,0.07069803,0.0,47.595337,1.0,1.0,0.0,6,0,0,0,0,0,1,1,0,0,0
2562850761,23.953474,23.922586,0.0744,0.07016812,0.0,47.605095,1.0,1.0,0.0,6,0,0,0,0,0,1,1,0,0,0
2563354503,23.993868,23.932339,0.062,0.06985095,0.0,47.614845,1.0,1.0,0.0,6,0,0,0,0,0,1,1,0,0,0
2563858577,23.953474,23.93549,0.062,0.06969437,0.0,47.624603,1.0,1.0,0.0,6,0,0,0,0,0,1,1,0,0,0
2564362702,23.953474,23.931498,0.062,0.0716281,0.0,47.63484,1.0,1.0,0.0,6,0,0,0,0,0,1,1,0,0,0
2564866525,23.933277,23.930405,0.062,0.069385655,0.0,47.64439,1.0,1.0,0.0,6,0,0,0,0,0,1,1,0,0,0
2565360076,23.892883,23.927013,0.062,0.07083222,0.0,47.65428,1.0,1.0,0.0,6,0,0,0,0,0,1,1,0,0,0
2565864151,23.953474,23.929165,0.0744,0.07199861,0.0,47.66445,1.0,1.0,0.0,6,0,0,0,0,0,1,1,0,0,0
2566368351,23.91308,23.927591,0.0744,0.071015924,0.0,47.674297,1.0,1.0,0.0,6,0,0,0,0,0,1,1,0,0,0
2566872171,23.91308,23.932968,0.0744,0.07041897,0.0,47.684082,1.0,1.0,0.0,6,0,0,0,0,0,1,1,0,0,0
2567376346,23.91308,23.936184,0.0744,0.06990837,0.0,47.693787,1.0,1.0,0.0,6,0,0,0,0,0,1,1,0,0,0
2567880227,23.933277,23.941145,0.062,0.07013834,0.0,47.703533,1.0,1.0,0.0,6,0,0,0,0,0,1,1,0,0,0
2568384363,23.91308,23.945786,0.0744,0.07105092,0.0,47.713577,1.0,1.0,0.0,6,0,0,0,0,0,1,1,0,0,0
2568888123,23.91308,23.948938,0.0744,0.07124518,0.0,47.723515,1.0,1.0,0.0,6,0,0,0,0,0,1,1,0,0,0
2569381772,23.953474,23.943241,0.024799999,0.0685847,0.0,47.73259,1.0,1.0,0.0,6,0,0,0,0,0,1,1,0,0,0
2569885946,23.91308,23.941175,0.062,0.068480276,0.0,47.742134,1.0,1.0,0.0,6,0,0,0,0,0,1,1,0,0,0
2570389707,23.91308,23.941574,0.0744,0.07075779,0.0,47.752254,1.0,1.0,0.0,6,0,0,0,0,0,1,1,0,0,0
2570893687,23.953474,23.937744,0.062,0.070201345,0.0,47.76204,1.0,1.0,0.0,6,0,0,0,0,0,1,1,0,0,0
2571386017,23.933277,23.935455,0.0744,0.070299335,0.0,47.77167,1.0,1.0,0.0,6,0,0,0,0,0,1,1,0,0,0
2571889741,23.91308,23.939293,0.0744,0.071699396,0.0,47.781837,1.0,1.0,0.0,6,0,0,0,0,0,1,1,0,0,0
2572393999,23.953474,23.9371,0.0744,0.071202815,0.0,47.791805,1.0,1.0,0.0,6,0,0,0,0,0,1,1,0,0,0
2572897936,23.91308,23.92723,0.0744,0.07146201,0.0,47.80185,1.0,1.0,0.0,6,0,0,0,0,0,1,1,0,0,0
2573403377,23.91308,23.921377,0.0744,0.07031329,0.0,47.811577,1.0,1.0,0.0,6,0,0,0,0,0,1,1,0,0,0
2573907733,23.933277,23.920263,0.0744,0.06977422,0.0,47.82133,1.0,1.0,0.0,6,0,0,0,0,0,1,1,0,0,0
2574411269,23.933277,23.926744,0.0744,0.06929146,0.0,47.830914,1.0,1.0,0.0,6,0,0,0,0,0,1,1,0,0,0
2574915351,23.872686,23.920912,0.062,0.068497345,0.0,47.840374,1.0,1.0,0.0,6,0,0,0,0,0,1,1,0,0,0
2575419326,23.892883,23.917835,0.1116,0.069129944,0.0,47.850132,1.0,1.0,0.0,6,0,0,0,0,0,1,1,0,0,0
2575923543,23.933277,23.918379,0.0744,0.0690861,0.0,47.859837,1.0,1.0,0.0,6,0,0,0,0,0,1,1,0,0,0
2576427579,23.892883,23.914255,0.0744,0.06888518,0.0,47.86936,1.0,1.0,0.0,6,0,0,0,0,0,1,1,0,0,0
2576931547,23.85249,23.916885,0.062,0.06907513,0.0,47.87907,1.0,1.0,0.0,6,0,0,0,0,0,1,1,0,0,0
2577424918,23.91308,23.910938,0.0744,0.0703334,0.0,47.88884,1.0,1.0,0.0,6,0,0,0,0,0,1,1,0,0,0
2577929271,23.892883,23.907143,0.0744,0.071711704,0.0,47.89901,1.0,1.0,0.0,6,0,0,0,0,0,1,1,0,0,0
2578432962,23.872686,23.89171,0.062,0.06982898,0.0,47.90858,1.0,1.0,0.0,6,0,0,0,0,0,1,1,0,0,0
2578937240,23.872686,23.88087,0.062,0.06959832,0.0,47.918297,1.0,1.0,0.0,6,0,0,0,0,0,1,1,0,0,0
2579440793,23.85249,23.868814,0.0744,0.06890524,0.0,47.927837,1.0,1.0,0.0,6,0,0,0,0,0,1,1,0,0,0
2579945196,23.872686,23.861456,0.0744,0.069552764,0.0,47.93764,1.0,1.0,0.0,6,0,0,0,0,0,1,1,0,0,0
2580448828,23.872686,23.854263,0.0744,0.06789788,0.0,47.946968,1.0,1.0,0.0,6,0,0,0,0,0,1,1,0,0,0
2580952979,23.91308,23.853111,0.0744,0.0695061,0.0,47.95689,1.0,1.0,0.0,6,0,0,0,0,0,1,1,0,0,0
2581446398,23.832293,23.852371,0.0744,0.07055095,0.0,47.96662,1.0,1.0,0.0,6,0,0,0,0,0,1,1,0,0,0
2581950473,23.872686,23.85088,0.0744,0.07038218,0.0,47.97646,1.0,1.0,0.0,6,0,0,0,0,0,1,1,0,0,0
2582454437,23.85249,23.845194,0.0744,0.070133284,0.0,47.986248,1.0,1.0,0.0,6,0,0,0,0,0,1,1,0,0,0
2582958934,23.791899,23.834751,0.0744,0.06840902,0.0,47.99571,1.0,1.0,0.0,6,0,0,0,0,0,1,1,0,0,0
2583462464,23.85249,23.830185,0.0744,0.06965603,0.0,48.00553,1.0,1.0,0.0,6,0,0,0,0,0,1,1,0,0,0
2583954572,23.791899,23.826197,0.0744,0.070491254,0.0,48.01524,1.0,1.0,0.0,6,0,0,0,0,0,1,1,0,0,0
2584458492,23.812096,23.824903,0.0744,0.070452645,0.0,48.02515,1.0,1.0,0.0,6,0,0,0,0,0,1,1,0,0,0
2584962850,23.892883,23.833092,0.062,0.06985786,0.0,48.034912,1.0,1.0,0.0,6,0,0,0,0,0,1,1,0,0,0
2585468188,23.85249,23.836153,0.0744,0.07135451,0.0,48.04506,1.0,1.0,0.0,6,0,0,0,0,0,1,1,0,0,0
2585972511,23.85249,23.84717,0.0744,0.071369156,0.0,48.054985,1.0,1.0,0.0,6,0,0,0,0,0,1,1,0,0,0
2586476135,23.872686,23.847448,0.0744,0.07152033,0.0,48.06493,1.0,1.0,0.0,6,0,0,0,0,0,1,1,0,0,0
2586968114,23.872686,23.857096,0.0744,0.0710642,0.0,48.074596,1.0,1.0,0.0,6,0,0,0,0,0,1,1,0,0,0
2589489777,23.791899,23.847176,0.0744,0.06916891,0.0,48.123825,1.0,1.0,0.0,6,0,0,0,0,0,1,1,0,0,0
2589991864,23.832293,23.840914,0.062,0.07097548,0.0,48.13395,1.0,1.0,0.0,6,0,0,0,0,0,1,1,0,0,0
2590498023,23.73131,23.843159,0.099199995,0.07154579,0.0,48.143974,1.0,1.0,0.0,6,0,0,0,0,0,1,1,0,0,0
2590990002,23.711113,23.800251,0.0744,0.07162408,0.0,48.153725,1.0,1.0,0.0,6,0,0,0,0,0,1,1,0,0,0
2591493744,23.630325,23.767044,0.062,0.07010808,0.0,48.16339,1.0,1.0,0.0,6,0,0,0,0,0,1,1,0,0,0
2591998504,23.73131,23.753857,0.0744,0.0699191,0.0,48.173103,1.0,1.0,0.0,6,0,0,0,0,0,1,1,0,0,0
2592501693,23.791899,23.757545,0.062,0.070019744,0.0,48.182877,1.0,1.0,0.0,6,0,0,0,0,0,1,1,0,0,0
2593003327,23.812096,23.785904,0.062,0.06960224,0.0,48.192562,1.0,1.0,0.0,6,0,0,0,0,0,1,1,0,0,0
2593507719,23.892883,23.807005,0.0744,0.069740385,0.0,48.20232,1.0,1.0,0.0,6,0,0,0,0,0,1,1,0,0,0
2594011816,23.832293,23.816154,0.062,0.069757864,0.0,48.212063,1.0,1.0,0.0,6,0,0,0,0,0,1,1,0,0,0
2594515637,23.791899,23.823969,0.0744,0.06929452,0.0,48.22174,1.0,1.0,0.0,6,0,0,0,0,0,1,1,0,0,0
2595007623,23.872686,23.821817,0.062,0.06887262,0.0,48.231075,1.0,1.0,0.0,6,0,0,0,0,0,1,1,0,0,0
2595511247,23.85249,23.823545,0.062,0.070133895,0.0,48.240944,1.0,1.0,0.0,6,0,0,0,0,0,1,1,0,0,0
2596015291,23.812096,23.818325,0.0744,0.069676004,0.0,48.250607,1.0,1.0,0.0,6,0,0,0,0,0,1,1,0,0,0
2596519258,23.832293,23.81473,0.0744,0.070922725,0.0,48.26068,1.0,1.0,0.0,6,0,0,0,0,0,1,1,0,0,0
2597012954,23.812096,23.801683,0.0744,0.06969484,0.0,48.27009,1.0,1.0,0.0,6,0,0,0,0,0,1,1,0,0,0
2597517244,23.73131,23.79177,0.062,0.07020283,0.0,48.27997,1.0,1.0,0.0,6,0,0,0,0,0,1,1,0,0,0
2598020973,23.711113,23.779633,0.0744,0.069671474,0.0,48.28964,1.0,1.0,0.0,6,0,0,0,0,0,1,1,0,0,0
2598524843,23.711113,23.776548,0.062,0.06963563,0.0,48.29935,1.0,1.0,0.0,6,0,0,0,0,0,1,1,0,0,0
2599028816,23.812096,23.7791,0.049599998,0.06925787,0.0,48.309067,1.0,1.0,0.0,6,0,0,0,0,0,1,1,0,0,0
2599533174,23.791899,23.785425,0.062,0.06941962,0.0,48.318825,1.0,1.0,0.0,6,0,0,0,0,0,1,1,0,0,0
2600024899,23.85249,23.798237,0.062,0.068081245,0.0,48.32803,1.0,1.0,0.0,6,0,0,0,0,0,1,1,0,0,0
2600528886,23.85249,23.806993,0.062,0.06912433,0.0,48.33774,1.0,1.0,0.0,6,0,0,0,0,0,1,1,0,0,0
2601034573,23.347569,23.769041,0.0744,0.069399975,0.0,48.347527,1.0,1.0,0.0,6,0,0,0,0,0,1,1,0,0,0
2601538561,23.73131,23.710388,0.0744,0.070844464,0.0,48.357605,1.0,1.0,0.0,6,0,0,0,0,0,1,1,0,0,0
2602042783,23.711113,23.716139,0.0744,0.0686964,0.0,48.366997,1.0,1.0,0.0,6,0,0,0,0,0,1,1,0,0,0
2602546563,23.67072,23.712852,0.0744,0.06894134,0.0,48.376575,1.0,1.0,0.0,6,0,0,0,0,0,1,1,0,0,0
2603050718,23.650522,23.70377,0.0744,0.070487276,0.0,48.38654,1.0,1.0,0.0,6,0,0,0,0,0,1,1,0,0,0
2603554541,23.711113,23.69845,0.062,0.06999432,0.0,48.39632,1.0,1.0,0.0,6,0,0,0,0,0,1,1,0,0,0
2604046567,23.791899,23.70868,0.0744,0.06999403,0.0,48.4059,1.0,1.0,0.0,6,0,0,0,0,0,1,1,0,0,0
2604550523,23.771704,23.728752,0.0744,0.07021015,0.0,48.415733,1.0,1.0,0.0,6,0,0,0,0,0,1,1,0,0,0
2605054936,23.771704,23.740072,0.049599998,0.068677075,0.0,48.425198,1.0,1.0,0.0,6,0,0,0,0,0,1,1,0,0,0
2605560151,23.791899,23.757048,0.0744,0.06967524,0.0,48.43506,1.0,1.0,0.0,6,0,0,0,0,0,1,1,0,0,0
2606064157,23.791899,23.770864,0.062,0.06959694,0.0,48.444763,1.0,1.0,0.0,6,0,0,0,0,0,1,1,0,0,0
2606568383,23.85249,23.801275,0.062,0.06970658,0.0,48.454517,1.0,1.0,0.0,6,0,0,0,0,0,1,1,0,0,0
2607072383,23.872686,23.81901,0.0744,0.07031704,0.0,48.46445,1.0,1.0,0.0,6,0,0,0,0,0,1,1,0,0,0
2607576163,23.73131,23.82848,0.0744,0.069190525,0.0,48.474033,1.0,1.0,0.0,6,0,0,0,0,0,1,1,0,0,0
2608080088,23.812096,23.828337,0.062,0.07095963,0.0,48.484154,1.0,1.0,0.0,6,0,0,0,0,0,1,1,0,0,0
2608584317,23.791899,23.826223,0.062,0.07141449,0.0,48.494225,1.0,1.0,0.0,6,0,0,0,0,0,1,1,0,0,0
2609088154,23.791899,23.819437,0.062,0.06962614,0.0,48.503773,1.0,1.0,0.0,6,0,0,0,0,0,1,1,0,0,0
2609582107,23.73131,23.80576,0.0744,0.070570946,0.0,48.513508,1.0,1.0,0.0,6,0,0,0,0,0,1,1,0,0,0
2610085751,23.73131,23.793348,0.0744,0.07026139,0.0,48.5233,1.0,1.0,0.0,6,0,0,0,0,0,1,1,0,0,0
2610589685,23.791899,23.793228,0.062,0.0702033,0.0,48.53313,1.0,1.0,0.0,6,0,0,0,0,0,1,1,0,0,0
2611093712,23.791899,23.790655,0.0744,0.071651734,0.0,48.543327,1.0,1.0,0.0,6,0,0,0,0,0,1,1,0,0,0
2611597951,23.812096,23.788208,0.062,0.06978359,0.0,48.552994,1.0,1.0,0.0,6,0,0,0,0,0,1,1,0,0,0
2612101665,23.711113,23.792885,0.0744,0.0707284,0.0,48.562984,1.0,1.0,0.0,6,0,0,0,0,0,1,1,0,0,0
2612605924,23.85249,23.807583,0.0744,0.069711015,0.0,48.572666,1.0,1.0,0.0,6,0,0,0,0,0,1,1,0,0,0
2613109647,23.812096,23.80952,0.049599998,0.06979337,0.0,48.582443,1.0,1.0,0.0,6,0,0,0,0,0,1,1,0,0,0
2613615585,23.85249,23.813208,0.0744,0.07019575,0.0,48.592403,1.0,1.0,0.0,6,0,0,0,0,0,1,1,0,0,0
2614107575,23.751507,23.824076,0.062,0.069020145,0.0,48.60166,1.0,1.0,0.0,6,0,0,0,0,0,1,1,0,0,0
2614611350,23.892883,23.842052,0.062,0.068442106,0.0,48.611187,1.0,1.0,0.0,6,0,0,0,0,0,1,1,0,0,0
2615115374,23.933277,23.855618,0.062,0.06744773,0.0,48.6206,1.0,1.0,0.0,6,0,0,0,0,0,1,1,0,0,0
2615619348,23.91308,23.872879,0.0744,0.068814784,0.0,48.630344,1.0,1.0,0.0,6,0,0,0,0,0,1,1,0,0,0
2616123305,23.933277,23.879635,0.0744,0.0698076,0.0,48.640217,1.0,1.0,0.0,6,0,0,0,0,0,1,1,0,0,0
2616627623,23.91308,23.890715,0.062,0.06840286,0.0,48.64968,1.0,1.0,0.0,6,0,0,0,0,0,1,1,0,0,0
2617131553,23.892883,23.896595,0.0868,0.06963207,0.0,48.65951,1.0,1.0,0.0,6,0,0,0,0,0,1,1,0,0,0
2617636927,23.91308,23.904533,0.062,0.06989231,0.0,48.669365,1.0,1.0,0.0,6,0,0,0,0,0,1,1,0,0,0
2618140831,23.933277,23.917217,0.0744,0.069440104,0.0,48.67903,1.0,1.0,0.0,6,0,0,0,0,0,1,1,0,0,0
2618632865,23.953474,23.92361,0.0744,0.06943585,0.0,48.688488,1.0,1.0,0.0,6,0,0,0,0,0,1,1,0,0,0
2619137220,23.933277,23.929573,0.0744,0.069758296,0.0,48.69824,1.0,1.0,0.0,6,0,0,0,0,0,1,1,0,0,0
2619640836,23.91308,23.934212,0.0744,0.06976399,0.0,48.708065,1.0,1.0,0.0,6,0,0,0,0,0,1,1,0,0,0
2620144923,23.973671,23.93168,0.062,0.06810266,0.0,48.717537,1.0,1.0,0.0,6,0,0,0,0,0,1,1,0,0,0
2620648855,23.933277,23.929642,0.0744,0.06937598,0.0,48.727367,1.0,1.0,0.0,6,0,0,0,0,0,1,1,0,0,0
2621153152,23.953474,23.931717,0.062,0.06972867,0.0,48.737198,1.0,1.0,0.0,6,0,0,0,0,0,1,1,0,0,0
2621656943,23.91308,23.919056,0.0372,0.06787968,0.0,48.74653,1.0,1.0,0.0,6,0,0,0,0,0,1,1,0,0,0
2622162770,23.933277,23.921045,0.062,0.06916418,0.0,48.756344,1.0,1.0,0.0,6,0,0,0,0,0,1,1,0,0,0
2622654578,23.892883,23.91906,0.0744,0.06923803,0.0,48.76576,1.0,1.0,0.0,6,0,0,0,0,0,1,1,0,0,0
2623158527,23.953474,23.918478,0.062,0.06990149,0.0,48.775597,1.0,1.0,0.0,6,0,0,0,0,0,1,1,0,0,0
2623662509,23.933277,23.911425,0.049599998,0.06940378,0.0,48.7853,1.0,1.0,0.0,6,0,0,0,0,0,1,1,0,0,0
2624166544,23.933277,23.927622,0.062,0.06812804,0.0,48.79473,1.0,1.0,0.0,6,0,0,0,0,0,1,1,0,0,0
2624670416,23.933277,23.932024,0.0868,0.06944898,0.0,48.804558,1.0,1.0,0.0,6,0,0,0,0,0,1,1,0,0,0
2625174741,23.91308,23.924238,0.062,0.06963979,0.0,48.814354,1.0,1.0,0.0,6,0,0,0,0,0,1,1,0,0,0
2625678733,23.91308,23.919733,0.062,0.06903189,0.0,48.823967,1.0,1.0,0.0,6,0,0,0,0,0,1,1,0,0,0
2626184378,23.91308,23.907421,0.0744,0.06923528,0.0,48.833706,1.0,1.0,0.0,6,0,0,0,0,0,1,1,0,0,0
2626676117,23.85249,23.90355,0.062,0.069925375,0.0,48.843376,1.0,1.0,0.0,6,0,0,0,0,0,1,1,0,0,0
2627180063,23.91308,23.915865,0.0744,0.06908618,0.0,48.852955,1.0,1.0,0.0,6,0,0,0,0,0,1,1,0,0,0
2627684201,23.832293,23.883451,0.0744,0.06970772,0.0,48.862743,1.0,1.0,0.0,6,0,0,0,0,0,1,1,0,0,0
2628188152,23.892883,23.882833,0.0744,0.06933716,0.0,48.87238,1.0,1.0,0.0,6,0,0,0,0,0,1,1,0,0,0
2628704171,23.933277,23.88416,0.0744,0.070132196,0.0,48.882545,1.0,1.0,0.0,6,0,0,0,0,0,1,1,0,0,0
2629195995,23.91308,23.899235,0.0744,0.06864113,0.0,48.891724,1.0,1.0,0.0,6,0,0,0,0,0,1,1,0,0,0
2629700162,23.953474,23.901329,0.062,0.06858072,0.0,48.901276,1.0,1.0,0.0,6,0,0,0,0,0,1,1,0,0,0
2630204166,23.85249,23.905464,0.0744,0.06982368,0.0,48.91119,1.0,1.0,0.0,6,0,0,0,0,0,1,1,0,0,0
2630709737,23.933277,23.913057,0.062,0.06834454,0.0,48.920597,1.0,1.0,0.0,6,0,0,0,0,0,1,1,0,0,0
2631213755,24.034262,23.920967,0.062,0.06917789,0.0,48.930344,1.0,1.0,0.0,6,0,0,0,0,0,1,1,0,0,0
2631705691,23.953474,23.919817,0.0744,0.06931217,0.0,48.939796,1.0,1.0,0.0,6,0,0,0,0,0,1,1,0,0,0
2632209608,23.953474,23.923897,0.0744,0.070577055,0.0,48.949764,1.0,1.0,0.0,6,0,0,0,0,0,1,1,0,0,0
2632714007,23.993868,23.934679,0.0744,0.06861219,0.0,48.959236,1.0,1.0,0.0,6,0,0,0,0,0,1,1,0,0,0
2633217772,23.933277,23.934767,0.062,0.067703456,0.0,48.968594,1.0,1.0,0.0,6,0,0,0,0,0,1,1,0,0,0
2633721591,23.953474,23.928448,0.062,0.067877166,0.0,48.978096,1.0,1.0,0.0,6,0,0,0,0,0,1,1,0,0,0
2634225588,23.91308,23.937763,0.0744,0.0676724,0.0,48.98757,1.0,1.0,0.0,6,0,0,0,0,0,1,1,0,0,0
2634731355,23.933277,23.936033,0.0744,0.068191215,0.0,48.997158,1.0,1.0,0.0,6,0,0,0,0,0,1,1,0,0,0
2635223305,23.91308,23.929754,0.0744,0.06818516,0.0,49.00645,1.0,1.0,0.0,6,0,0,0,0,0,1,1,0,0,0
2635727647,23.872686,23.93285,0.0744,0.06775872,0.0,49.01592,1.0,1.0,0.0,6,0,0,0,0,0,1,1,0,0,0
2636231356,23.993868,23.938742,0.062,0.06840993,0.0,49.025578,1.0,1.0,0.0,6,0,0,0,0,0,1,1,0,0,0
2636735657,23.91308,23.944399,0.062,0.06877987,0.0,49.03529,1.0,1.0,0.0,6,0,0,0,0,0,1,1,0,0,0
2637239321,23.993868,23.954887,0.0744,0.066792525,0.0,49.044453,1.0,1.0,0.0,6,0,0,0,0,0,1,1,0,0,0
2637743343,23.953474,23.954706,0.062,0.06749434,0.0,49.053913,1.0,1.0,0.0,6,0,0,0,0,0,1,1,0,0,0
2638247312,23.91308,23.948433,0.0744,0.068126164,0.0,49.0635,1.0,1.0,0.0,6,0,0,0,0,0,1,1,0,0,0
2638751220,23.91308,23.948994,0.062,0.068484485,0.0,49.073116,1.0,1.0,0.0,6,0,0,0,0,0,1,1,0,0,0
2639244847,23.933277,23.942286,0.0744,0.06783789,0.0,49.082314,1.0,1.0,0.0,6,0,0,0,0,0,1,1,0,0,0
2639748857,23.953474,23.93169,0.062,0.06741604,0.0,49.091785,1.0,1.0,0.0,6,0,0,0,0,0,1,1,0,0,0
2640252866,23.91308,23.922367,0.062,0.0678227,0.0,49.101334,1.0,1.0,0.0,6,0,0,0,0,0,1,1,0,0,0
2640756827,23.892883,23.919058,0.0744,0.06749039,0.0,49.110764,1.0,1.0,0.0,6,0,0,0,0,0,1,1,0,0,0
2641260855,23.872686,23.90234,0.0744,0.06839961,0.0,49.120426,1.0,1.0,0.0,6,0,0,0,0,0,1,1,0,0,0
2641765005,23.933277,23.893545,0.0744,0.06940175,0.0,49.130306,1.0,1.0,0.0,6,0,0,0,0,0,1,1,0,0,0
2642268989,23.91308,23.890385,0.0744,0.067987055,0.0,49.139698,1.0,1.0,0.0,6,0,0,0,0,0,1,1,0,0,0
2642772894,23.771704,23.8772,0.0744,0.06834716,0.0,49.14928,1.0,1.0,0.0,6,0,0,0,0,0,1,1,0,0,0
2643276840,23.85249,23.875793,0.062,0.06831464,0.0,49.15878,1.0,1.0,0.0,6,0,0,0,0,0,1,1,0,0,0
2643782878,23.892883,23.877249,0.0744,0.06845222,0.0,49.168365,1.0,1.0,0.0,6,0,0,0,0,0,1,1,0,0,0
2644286770,23.872686,23.873926,0.0744,0.06839349,0.0,49.177956,1.0,1.0,0.0,6,0,0,0,0,0,1,1,0,0,0
2644778817,23.85249,23.868937,0.0744,0.06969733,0.0,49.187626,1.0,1.0,0.0,6,0,0,0,0,0,1,1,0,0,0
2645282738,23.812096,23.860806,0.0744,0.069982305,0.0,49.197384,1.0,1.0,0.0,6,0,0,0,0,0,1,1,0,0,0
2645786885,23.872686,23.87057,0.0744,0.06840926,0.0,49.206764,1.0,1.0,0.0,6,0,0,0,0,0,1,1,0,0,0
2646290581,23.85249,23.865837,0.062,0.06813557,0.0,49.216366,1.0,1.0,0.0,6,0,0,0,0,0,1,1,0,0,0
2646794567,23.791899,23.859974,0.0744,0.068402596,0.0,49.225945,1.0,1.0,0.0,6,0,0,0,0,0,1,1,0,0,0
2647298576,23.832293,23.853199,0.062,0.068957955,0.0,49.235683,1.0,1.0,0.0,6,0,0,0,0,0,1,1,0,0,0
2647802766,23.771704,23.845371,0.062,0.06679288,0.0,49.244774,1.0,1.0,0.0,6,0,0,0,0,0,1,1,0,0,0
2648308098,23.832293,23.831514,0.0744,0.067675695,0.0,49.254295,1.0,1.0,0.0,6,0,0,0,0,0,1,1,0,0,0
2648800156,23.832293,23.816471,0.062,0.06802236,0.0,49.263676,1.0,1.0,0.0,6,0,0,0,0,0,1,1,0,0,0
2649304167,23.73131,23.809145,0.0744,0.068711154,0.0,49.273426,1.0,1.0,0.0,6,0,0,0,0,0,1,1,0,0,0
2649808385,23.771704,23.802204,0.062,0.0686347,0.0,49.28305,1.0,1.0,0.0,6,0,0,0,0,0,1,1,0,0,0
2650312339,23.832293,23.799252,0.0744,0.06827653,0.0,49.29254,1.0,1.0,0.0,6,0,0,0,0,0,1,1,0,0,0
2650816311,23.711113,23.794918,0.062,0.06900017,0.0,49.30234,1.0,1.0,0.0,6,0,0,0,0,0,1,1,0,0,0
2651320144,23.751507,23.788532,0.062,0.06764845,0.0,49.31173,1.0,1.0,0.0,6,0,0,0,0,0,1,1,0,0,0
2651824149,23.690916,23.775877,0.0744,0.06820231,0.0,49.321312,1.0,1.0,0.0,6,0,0,0,0,0,1,1,0,0,0
2652328375,23.711113,23.758791,0.062,0.06728815,0.0,49.33065,1.0,1.0,0.0,6,0,0,0,0,0,1,1,0,0,0
2652821753,23.690916,23.739275,0.0868,0.067378365,0.0,49.3399,1.0,1.0,0.0,6,0,0,0,0,0,1,1,0,0,0
2653325699,23.630325,23.716373,0.062,0.06885237,0.0,49.34968,1.0,1.0,0.0,6,0,0,0,0,0,1,1,0,0,0
2653829746,23.67072,23.69851,0.0744,0.06743327,0.0,49.358936,1.0,1.0,0.0,6,0,0,0,0,0,1,1,0,0,0
2654333956,23.650522,23.682001,0.062,0.066797264,0.0,49.368183,1.0,1.0,0.0,6,0,0,0,0,0,1,1,0,0,0
2654825734,23.67072,23.67587,0.062,0.06803261,0.0,49.37759,1.0,1.0,0.0,6,0,0,0,0,0,1,1,0,0,0
2655329744,23.73131,23.677673,0.0744,0.06824172,0.0,49.387123,1.0,1.0,0.0,6,0,0,0,0,0,1,1,0,0,0
2655833656,23.67072,23.674242,0.062,0.06672836,0.0,49.396378,1.0,1.0,0.0,6,0,0,0,0,0,1,1,0,0,0
2656338056,23.67072,23.670284,0.0744,0.06735086,0.0,49.405945,1.0,1.0,0.0,6,0,0,0,0,0,1,1,0,0,0
2656841687,23.67072,23.666458,0.0744,0.06734544,0.0,49.415436,1.0,1.0,0.0,6,0,0,0,0,0,1,1,0,0,0
2657347647,23.67072,23.665596,0.0744,0.06601451,0.0,49.42455,1.0,1.0,0.0,6,0,0,0,0,0,1,1,0,0,0
2657851320,23.650522,23.666197,0.062,0.06495279,0.0,49.433582,1.0,1.0,0.0,6,0,0,0,0,0,1,1,0,0,0
2658355281,23.67072,23.663101,0.0868,0.06568757,0.0,49.442837,1.0,1.0,0.0,6,0,0,0,0,0,1,1,0,0,0
2658859285,23.650522,23.651474,0.062,0.06631418,0.0,49.452187,1.0,1.0,0.0,6,0,0,0,0,0,1,1,0,0,0
2659363358,23.549538,23.631319,0.062,0.066522315,0.0,49.461563,1.0,1.0,0.0,6,0,0,0,0,0,1,1,0,0,0
2659867292,23.509144,23.597065,0.062,0.065670826,0.0,49.47065,1.0,1.0,0.0,6,0,0,0,0,0,1,1,0,0,0
2660371324,23.52934,23.57009,0.0744,0.06583597,0.0,49.479843,1.0,1.0,0.0,6,0,0,0,0,0,1,1,0,0,0
2660875595,23.509144,23.556055,0.062,0.066238135,0.0,49.489197,1.0,1.0,0.0,6,0,0,0,0,0,1,1,0,0,0
2661379520,23.52934,23.555517,0.062,0.065650366,0.0,49.498325,1.0,1.0,0.0,6,0,0,0,0,0,1,1,0,0,0
2661883542,23.67072,23.570583,0.0744,0.068114735,0.0,49.508133,1.0,1.0,0.0,6,0,0,0,0,0,1,1,0,0,0
2662377242,23.589931,23.59216,0.0744,0.06795883,0.0,49.51738,1.0,1.0,0.0,6,0,0,0,0,0,1,1,0,0,0
2662880937,23.569735,23.592358,0.062,0.06672891,0.0,49.52659,1.0,1.0,0.0,6,0,0,0,0,0,1,1,0,0,0
2663386066,23.630325,23.58582,0.062,0.06462781,0.0,49.535454,1.0,1.0,0.0,6,0,0,0,0,0,1,1,0,0,0
2663888844,23.91308,23.593601,0.062,0.066407666,0.0,49.544903,1.0,1.0,0.0,6,0,0,0,0,0,1,1,0,0,0
2664380797,23.610128,23.596806,0.0744,0.06684921,0.0,49.554016,1.0,1.0,0.0,6,0,0,0,0,0,1,1,0,0,0
2664884812,23.52934,23.589497,0.062,0.067215025,0.0,49.563473,1.0,1.0,0.0,6,0,0,0,0,0,1,1,0,0,0
2665388860,23.630325,23.59324,0.062,0.06674731,0.0,49.572723,1.0,1.0,0.0,6,0,0,0,0,0,1,1,0,0,0
2665892860,23.610128,23.597681,0.0744,0.067177586,0.0,49.582214,1.0,1.0,0.0,6,0,0,0,0,0,1,1,0,0,0
2666396841,23.589931,23.59821,0.0744,0.06705251,0.0,49.591583,1.0,1.0,0.0,6,0,0,0,0,0,1,1,0,0,0
2666902551,23.589931,23.602177,0.0744,0.06638007,0.0,49.60082,1.0,1.0,0.0,6,0,0,0,0,0,1,1,0,0,0
2667406493,23.569735,23.603548,0.062,0.06725502,0.0,49.610355,1.0,1.0,0.0,6,0,0,0,0,0,1,1,0,0,0
2667910506,23.630325,23.607761,0.0744,0.06682344,0.0,49.61965,1.0,1.0,0.0,6,0,0,0,0,0,1,1,0,0,0
2668414767,23.67072,23.617456,0.062,0.06777533,0.0,49.629307,1.0,1.0,0.0,6,0,0,0,0,0,1,1,0,0,0
2668918497,23.589931,23.62033,0.0744,0.068102546,0.0,49.638924,1.0,1.0,0.0,6,0,0,0,0,0,1,1,0,0,0
2669422550,23.650522,23.62483,0.0744,0.0671456,0.0,49.64818,1.0,1.0,0.0,6,0,0,0,0,0,1,1,0,0,0
2669914536,23.650522,23.624395,0.062,0.06732576,0.0,49.657425,1.0,1.0,0.0,6,0,0,0,0,0,1,1,0,0,0
2670418822,23.589931,23.626408,0.062,0.064647816,0.0,49.666233,1.0,1.0,0.0,6,0,0,0,0,0,1,1,0,0,0
2670922571,23.569735,23.625202,0.062,0.06644039,0.0,49.675774,1.0,1.0,0.0,6,0,0,0,0,0,1,1,0,0,0
2671426722,23.549538,23.622063,0.0744,0.06812529,0.0,49.685448,1.0,1.0,0.0,6,0,0,0,0,0,1,1,0,0,0
2671932566,23.650522,23.629738,0.0744,0.06749977,0.0,49.69478,1.0,1.0,0.0,6,0,0,0,0,0,1,1,0,0,0
2672436125,23.549538,23.62636,0.0744,0.06724797,0.0,49.704105,1.0,1.0,0.0,6,0,0,0,0,0,1,1,0,0,0
2672928178,23.650522,23.632643,0.062,0.068308674,0.0,49.713604,1.0,1.0,0.0,6,0,0,0,0,0,1,1,0,0,0
2673432350,23.650522,23.645803,0.062,0.06842876,0.0,49.7232,1.0,1.0,0.0,6,0,0,0,0,0,1,1,0,0,0
2673936386,23.650522,23.641016,0.062,0.06782221,0.0,49.732628,1.0,1.0,0.0,6,0,0,0,0,0,1,1,0,0,0
2674440137,23.650522,23.640993,0.062,0.06763403,0.0,49.742077,1.0,1.0,0.0,6,0,0,0,0,0,1,1,0,0,0
2674944159,23.630325,23.63273,0.0744,0.06759483,0.0,49.751564,1.0,1.0,0.0,6,0,0,0,0,0,1,1,0,0,0
2675448159,23.610128,23.627563,0.0744,0.067618154,0.0,49.761066,1.0,1.0,0.0,6,0,0,0,0,0,1,1,0,0,0
2675952345,23.630325,23.642904,0.0744,0.06701273,0.0,49.770313,1.0,1.0,0.0,6,0,0,0,0,0,1,1,0,0,0
2676456058,23.569735,23.63909,0.062,0.06852232,0.0,49.780052,1.0,1.0,0.0,6,0,0,0,0,0,1,1,0,0,0
2676961926,23.630325,23.631424,0.062,0.06794567,0.0,49.789513,1.0,1.0,0.0,6,0,0,0,0,0,1,1,0,0,0
2677465664,23.589931,23.627213,0.049599998,0.06678715,0.0,49.798717,1.0,1.0,0.0,6,0,0,0,0,0,1,1,0,0,0
2677957689,23.569735,23.628181,0.0744,0.06687177,0.0,49.80784,1.0,1.0,0.0,6,0,0,0,0,0,1,1,0,0,0
2679973985,23.630325,23.61075,0.0744,0.06622217,0.0,49.845646,1.0,1.0,0.0,6,0,0,0,0,0,1,1,0,0,0
2680477771,23.610128,23.615976,0.0744,0.06789117,0.0,49.855392,1.0,1.0,0.0,6,0,0,0,0,0,1,1,0,0,0
2680981627,23.650522,23.619495,0.0744,0.06931492,0.0,49.865227,1.0,1.0,0.0,6,0,0,0,0,0,1,1,0,0,0
2681485735,23.610128,23.614822,0.062,0.06847707,0.0,49.874645,1.0,1.0,0.0,6,0,0,0,0,0,1,1,0,0,0
2681991247,23.630325,23.61963,0.0744,0.0682148,0.0,49.884125,1.0,1.0,0.0,6,0,0,0,0,0,1,1,0,0,0
2682483347,23.569735,23.61359,0.0744,0.0655905,0.0,49.892715,1.0,1.0,0.0,6,0,0,0,0,0,1,1,0,0,0
2682987552,23.630325,23.604862,0.062,0.066007525,0.0,49.90201,1.0,1.0,0.0,6,0,0,0,0,0,1,1,0,0,0
2683491314,23.52934,23.591612,0.0744,0.0655855,0.0,49.91109,1.0,1.0,0.0,6,0,0,0,0,0,1,1,0,0,0
2683995705,23.549538,23.560139,0.062,0.065055296,0.0,49.920223,1.0,1.0,0.0,6,0,0,0,0,0,1,1,0,0,0
2684499615,23.428356,23.541756,0.062,0.06590503,0.0,49.92956,1.0,1.0,0.0,6,0,0,0,0,0,1,1,0,0,0
2685004075,23.448553,23.504045,0.0744,0.0661351,0.0,49.93878,1.0,1.0,0.0,6,0,0,0,0,0,1,1,0,0,0
2685507347,23.347569,23.465021,0.0744,0.06575204,0.0,49.94794,1.0,1.0,0.0,6,0,0,0,0,0,1,1,0,0,0
2685999265,23.367765,23.423695,0.0744,0.0661746,0.0,49.95697,1.0,1.0,0.0,6,0,0,0,0,0,1,1,0,0,0
2686503385,23.428356,23.40753,0.0744,0.066657044,0.0,49.966404,1.0,1.0,0.0,6,0,0,0,0,0,1,1,0,0,0
2687009207,23.46875,23.417274,0.062,0.064663425,0.0,49.975243,1.0,1.0,0.0,6,0,0,0,0,0,1,1,0,0,0
2687512899,23.46875,23.430702,0.062,0.064010106,0.0,49.98416,1.0,1.0,0.0,6,0,0,0,0,0,1,1,0,0,0
2688017225,23.46875,23.441998,0.062,0.06449199,0.0,49.99323,1.0,1.0,0.0,6,0,0,0,0,0,1,1,0,0,0
2688520896,23.448553,23.446917,0.062,0.0639977,0.0,50.002132,1.0,1.0,0.0,6,0,0,0,0,0,1,1,0,0,0
2689024976,23.428356,23.448658,0.062,0.06606111,0.0,50.011597,1.0,1.0,0.0,6,0,0,0,0,0,1,1,0,0,0
2689528986,23.428356,23.451523,0.062,0.067015246,0.0,50.021095,1.0,1.0,0.0,6,0,0,0,0,0,1,1,0,0,0
2690033198,23.448553,23.44773,0.0744,0.0664278,0.0,50.030228,1.0,1.0,0.0,6,0,0,0,0,0,1,1,0,0,0
2690536910,23.428356,23.444168,0.062,0.06614357,0.0,50.039467,1.0,1.0,0.0,6,0,0,0,0,0,1,1,0,0,0
2691040956,23.40816,23.433252,0.062,0.06624808,0.0,50.048798,1.0,1.0,0.0,6,0,0,0,0,0,1,1,0,0,0
2691544917,23.40816,23.428743,0.049599998,0.06531492,0.0,50.05788,1.0,1.0,0.0,6,0,0,0,0,0,1,1,0,0,0
2692049112,23.40816,23.429537,0.0744,0.06638899,0.0,50.06726,1.0,1.0,0.0,6,0,0,0,0,0,1,1,0,0,0
2692542789,23.40816,23.42194,0.062,0.065801345,0.0,50.07621,1.0,1.0,0.0,6,0,0,0,0,0,1,1,0,0,0
2693046501,23.327372,23.406713,0.062,0.065614514,0.0,50.085335,1.0,1.0,0.0,6,0,0,0,0,0,1,1,0,0,0
2693550483,23.428356,23.399185,0.062,0.06571223,0.0,50.09461,1.0,1.0,0.0,6,0,0,0,0,0,1,1,0,0,0
2694054483,23.347569,23.392448,0.062,0.0661639,0.0,50.103855,0.9970557,1.0002719,0.0,6,0,0,0,0,0,1,1,0,0,0
2694558508,23.347569,23.38672,0.062,0.06631406,0.0,50.11316,0.9944045,1.0005168,0.0,6,0,0,0,0,0,1,1,0,0,0
2695062791,23.40816,23.379921,0.0868,0.06593642,0.0,50.122276,0.99125355,1.000808,0.0,6,0,0,0,0,0,1,1,0,0,0
2695566517,23.327372,23.36927,0.062,0.06600857,0.0,50.13151,0.98632306,1.0012641,0.0,6,0,0,0,0,0,1,1,0,0,0
2696070548,23.387962,23.376188,0.062,0.064627,0.0,50.14048,0.98951405,1.0009688,0.0,6,0,0,0,0,0,1,1,0,0,0
2696574525,23.40816,23.38171,0.062,0.0656301,0.0,50.149773,0.99207944,1.0007317,0.0,6,0,0,0,0,0,1,1,0,0,0
2697078570,23.286978,23.3861,0.049599998,0.06427178,0.0,50.158607,0.9941003,1.0005449,0.0,6,0,0,0,0,0,1,1,0,0,0
2697582525,23.367765,23.388868,0.062,0.065135136,0.0,50.167816,0.99538964,1.0004257,0.0,6,0,0,0,0,0,1,1,0,0,0
2698088126,23.387962,23.390089,0.062,0.065117426,0.0,50.176975,0.99595326,1.0003737,0.0,6,0,0,0,0,0,1,1,0,0,0
2698580126,23.367765,23.384233,0.062,0.06509099,0.0,50.18583,0.9932429,1.0006242,0.0,6,0,0,0,0,0,1,1,0,0,0
2699084412,23.387962,23.375368,0.062,0.06596343,0.0,50.19516,0.98914593,1.0010029,0.0,6,0,0,0,0,0,1,1,0,0,0
2699588060,23.387962,23.3699,0.0744,0.06645555,0.0,50.204445,0.98661774,1.0012368,0.0,6,0,0,0,0,0,1,1,0,0,0
2700092165,23.347569,23.370918,0.062,0.06549548,0.0,50.213524,0.9870812,1.001194,0.0,6,0,0,0,0,0,1,1,0,0,0
2700596077,23.387962,23.367537,0.062,0.06485962,0.0,50.222515,0.9855105,1.0013393,0.0,6,0,0,0,0,0,1,1,0,0,0
2701100042,23.448553,23.38982,0.062,0.06510872,0.0,50.23169,0.9958293,1.0003852,0.0,6,0,0,0,0,0,1,1,0,0,0
2701604141,23.46875,23.400625,0.0744,0.06684466,0.0,50.241238,1.0,1.0,0.0,6,0,0,0,0,0,1,1,0,0,0
2702108054,23.46875,23.407686,0.0744,0.067143284,0.0,50.250656,1.0,1.0,0.0,6,0,0,0,0,0,1,1,0,0,0
2702612340,23.347569,23.40673,0.062,0.067030564,0.0,50.260113,1.0,1.0,0.0,6,0,0,0,0,0,1,1,0,0,0
2703116050,23.428356,23.417435,0.062,0.067194015,0.0,50.269516,1.0,1.0,0.0,6,0,0,0,0,0,1,1,0,0,0
2703621922,23.448553,23.42011,0.062,0.06603955,0.0,50.278717,1.0,1.0,0.0,6,0,0,0,0,0,1,1,0,0,0
2704113787,23.428356,23.412111,0.062,0.06603555,0.0,50.28775,1.0,1.0,0.0,6,0,0,0,0,0,1,1,0,0,0
2704617728,23.387962,23.42137,0.0744,0.06572777,0.0,50.29692,1.0,1.0,0.0,6,0,0,0,0,0,1,1,0,0,0
2705121627,23.387962,23.419422,0.0744,0.06548504,0.0,50.306,1.0,1.0,0.0,6,0,0,0,0,0,1,1,0,0,0
2705625731,23.46875,23.420492,0.0744,0.065924175,0.0,50.315285,1.0,1.0,0.0,6,0,0,0,0,0,1,1,0,0,0
2706130006,23.46875,23.428368,0.062,0.06482318,0.0,50.324295,1.0,1.0,0.0,6,0,0,0,0,0,1,1,0,0,0
2706633636,23.40816,23.431843,0.062,0.06591843,0.0,50.333626,1.0,1.0,0.0,6,0,0,0,0,0,1,1,0,0,0
2707137697,23.40816,23.42548,0.062,0.06527425,0.0,50.342754,1.0,1.0,0.0,6,0,0,0,0,0,1,1,0,0,0
2707641649,23.428356,23.4272,0.0744,0.06532274,0.0,50.35181,1.0,1.0,0.0,6,0,0,0,0,0,1,1,0,0,0
2708145672,23.448553,23.423183,0.062,0.06571356,0.0,50.361023,1.0,1.0,0.0,6,0,0,0,0,0,1,1,0,0,0
2708649663,23.367765,23.418205,0.0744,0.06520589,0.0,50.370075,1.0,1.0,0.0,6,0,0,0,0,0,1,1,0,0,0
2709143373,23.347569,23.406427,0.062,0.06594789,0.0,50.37924,1.0,1.0,0.0,6,0,0,0,0,0,1,1,0,0,0
2709647298,23.307175,23.38558,0.049599998,0.06445761,0.0,50.38815,0.9938609,1.0005671,0.0,6,0,0,0,0,0,1,1,0,0,0
2710151270,23.327372,23.358562,0.062,0.06430873,0.0,50.397118,0.98135155,1.0017244,0.0,6,0,0,0,0,0,1,1,0,0,0
2710655241,23.26678,23.339157,0.062,0.06587889,0.0,50.406445,0.97238034,1.002556,0.0,6,0,0,0,0,0,1,1,0,0,0
2711159277,23.387962,23.3449,0.062,0.06441792,0.0,50.415295,0.97502774,1.0023105,0.0,6,0,0,0,0,0,1,1,0,0,0
2711663351,23.46875,23.373281,0.062,0.065038264,0.0,50.42445,0.98817223,1.0010929,0.0,6,0,0,0,0,0,1,1,0,0,0
2712167702,23.448553,23.398691,0.062,0.06537421,0.0,50.433624,0.99993867,1.0000057,0.0,6,0,0,0,0,0,1,1,0,0,0
2712671335,23.428356,23.408295,0.0744,0.063601844,0.0,50.44238,1.0,1.0,0.0,6,0,0,0,0,0,1,1,0,0,0
2713175263,23.428356,23.415167,0.0744,0.06388919,0.0,50.45138,1.0,1.0,0.0,6,0,0,0,0,0,1,1,0,0,0
2713679254,23.46875,23.416378,0.0744,0.064556636,0.0,50.46046,1.0,1.0,0.0,6,0,0,0,0,0,1,1,0,0,0
2714183345,23.40816,23.418869,0.062,0.06539506,0.0,50.46971,1.0,1.0,0.0,6,0,0,0,0,0,1,1,0,0,0
2714687282,23.307175,23.401342,0.062,0.06484055,0.0,50.478714,1.0,1.0,0.0,6,0,0,0,0,0,1,1,0,0,0
2715180809,23.367765,23.382137,0.062,0.064687476,0.0,50.48758,0.9922692,1.0007141,0.0,6,0,0,0,0,0,1,1,0,0,0
2715684868,23.307175,23.368977,0.0744,0.06490898,0.0,50.496662,0.9861781,1.0012774,0.0,6,0,0,0,0,0,1,1,0,0,0
2716188818,23.387962,23.356142,0.0744,0.0656595,0.0,50.50591,0.98024243,1.0018271,0.0,6,0,0,0,0,0,1,1,0,0,0
2716692869,23.286978,23.34756,0.062,0.06453578,0.0,50.51497,0.9762599,1.0021962,0.0,6,0,0,0,0,0,1,1,0,0,0
2717196813,23.387962,23.344713,0.062,0.06563564,0.0,50.524254,0.9749505,1.0023177,0.0,6,0,0,0,0,0,1,1,0,0,0
2717700818,23.26678,23.349443,0.062,0.06552607,0.0,50.533432,0.9771401,1.0021145,0.0,6,0,0,0,0,0,1,1,0,0,0
2718204825,23.428356,23.381868,0.062,0.06594501,0.0,50.54265,0.99215573,1.0007246,0.0,6,0,0,0,0,0,1,1,0,0,0
2718708906,22.984026,23.409765,0.0744,0.06501424,0.0,50.551674,1.0,1.0,0.0,6,0,0,0,0,0,1,1,0,0,0
2719213016,23.448553,23.421099,0.062,0.06467162,0.0,50.56072,1.0,1.0,0.0,6,0,0,0,0,0,1,1,0,0,0
2719716792,23.428356,23.421888,0.062,0.06396874,0.0,50.569542,1.0,1.0,0.0,6,0,0,0,0,0,1,1,0,0,0
2720220823,23.448553,23.428488,0.062,0.06438782,0.0,50.578587,1.0,1.0,0.0,6,0,0,0,0,0,1,1,0,0,0
2720714758,23.387962,23.423742,0.0744,0.064220026,0.0,50.587334,1.0,1.0,0.0,6,0,0,0,0,0,1,1,0,0,0
2721218556,23.40816,23.417038,0.062,0.06312884,0.0,50.59604,1.0,1.0,0.0,6,0,0,0,0,0,1,1,0,0,0
2721722812,23.387962,23.414125,0.0744,0.065234676,0.0,50.605328,1.0,1.0,0.0,6,0,0,0,0,0,1,1,0,0,0
2722226750,23.428356,23.410646,0.0744,0.064728215,0.0,50.61429,1.0,1.0,0.0,6,0,0,0,0,0,1,1,0,0,0
2722730597,23.46875,23.41677,0.062,0.06517109,0.0,50.62346,1.0,1.0,0.0,6,0,0,0,0,0,1,1,0,0,0
2723234837,23.67072,23.43989,0.0868,0.06483416,0.0,50.632458,1.0,1.0,0.0,6,0,0,0,0,0,1,1,0,0,0
2723738574,23.367765,23.471704,0.049599998,0.06541724,0.0,50.641663,1.0,1.0,0.0,6,0,0,0,0,0,1,1,0,0,0
2724242583,23.428356,23.444721,0.062,0.0658438,0.0,50.6509,1.0,1.0,0.0,6,0,0,0,0,0,1,1,0,0,0
2724746916,23.387962,23.420471,0.062,0.06438041,0.0,50.659782,1.0,1.0,0.0,6,0,0,0,0,0,1,1,0,0,0
2725251024,23.327372,23.3898,0.062,0.065194055,0.0,50.668957,0.9958207,1.000386,0.0,6,0,0,0,0,0,1,1,0,0,0
2725754748,23.46875,23.380903,0.062,0.06561991,0.0,50.67817,0.9917056,1.0007662,0.0,6,0,0,0,0,0,1,1,0,0,0
2726246734,23.46875,23.39634,0.062,0.06606443,0.0,50.687206,0.9988553,1.0001056,0.0,6,0,0,0,0,0,1,1,0,0,0
2726750552,23.509144,23.419012,0.062,0.06564323,0.0,50.696327,1.0,1.0,0.0,6,0,0,0,0,0,1,1,0,0,0
2727256141,23.448553,23.43321,0.062,0.06546086,0.0,50.705524,1.0,1.0,0.0,6,0,0,0,0,0,1,1,0,0,0
2727760471,23.46875,23.441254,0.062,0.06578793,0.0,50.71475,1.0,1.0,0.0,6,0,0,0,0,0,1,1,0,0,0
2728264152,23.46875,23.44763,0.0744,0.06513627,0.0,50.72379,1.0,1.0,0.0,6,0,0,0,0,0,1,1,0,0,0
2728768411,23.488947,23.453136,0.062,0.06459958,0.0,50.732765,1.0,1.0,0.0,6,0,0,0,0,0,1,1,0,0,0
2729272420,23.428356,23.451675,0.0744,0.06495465,0.0,50.741905,1.0,1.0,0.0,6,0,0,0,0,0,1,1,0,0,0
2729776371,23.46875,23.451595,0.062,0.06509499,0.0,50.750996,1.0,1.0,0.0,6,0,0,0,0,0,1,1,0,0,0
2730280055,23.46875,23.447334,0.062,0.064383276,0.0,50.759922,1.0,1.0,0.0,6,0,0,0,0,0,1,1,0,0,0
2730784425,23.46875,23.440695,0.062,0.06481801,0.0,50.769016,1.0,1.0,0.0,6,0,0,0,0,0,1,1,0,0,0
2731288154,23.46875,23.437992,0.062,0.06381132,0.0,50.77786,1.0,1.0,0.0,6,0,0,0,0,0,1,1,0,0,0
2731792149,23.327372,23.423708,0.062,0.064556085,0.0,50.786945,1.0,1.0,0.0,6,0,0,0,0,0,1,1,0,0,0
2732296346,23.40816,23.415905,0.062,0.0648383,0.0,50.79609,1.0,1.0,0.0,6,0,0,0,0,0,1,1,0,0,0
2732800132,23.428356,23.414701,0.062,0.06519488,0.0,50.80522,1.0,1.0,0.0,6,0,0,0,0,0,1,1,0,0,0
2733294030,23.428356,23.414112,0.024799999,0.064790346,0.0,50.814125,1.0,1.0,0.0,6,0,0,0,0,0,1,1,0,0,0
2733797710,23.448553,23.421286,0.062,0.06529069,0.0,50.823322,1.0,1.0,0.0,6,0,0,0,0,0,1,1,0,0,0
2734301764,23.46875,23.4289,0.062,0.063626945,0.0,50.83209,1.0,1.0,0.0,6,0,0,0,0,0,1,1,0,0,0
2734805754,23.40816,23.445402,0.012399999,0.06264199,0.0,50.840836,1.0,1.0,0.0,6,0,0,0,0,0,1,1,0,0,0
2735309738,23.428356,23.439928,0.062,0.064575836,0.0,50.850075,1.0,1.0,0.0,6,0,0,0,0,0,1,1,0,0,0
2735813991,23.428356,23.438414,0.062,0.064381905,0.0,50.85895,1.0,1.0,0.0,6,0,0,0,0,0,1,1,0,0,0
2736305739,23.367765,23.426548,0.1116,0.066365704,0.0,50.86816,1.0,1.0,0.0,6,0,0,0,0,0,1,1,0,0,0
2736809753,23.448553,23.423086,0.0744,0.065745994,0.0,50.87728,1.0,1.0,0.0,6,0,0,0,0,0,1,1,0,0,0
2737313634,23.46875,23.43115,0.062,0.06541604,0.0,50.88637,1.0,1.0,0.0,6,0,0,0,0,0,1,1,0,0,0
2737817659,23.40816,23.424557,0.062,0.06455792,0.0,50.89537,1.0,1.0,0.0,6,0,0,0,0,0,1,1,0,0,0
2738321617,23.488947,23.423695,0.062,0.06471811,0.0,50.904457,1.0,1.0,0.0,6,0,0,0,0,0,1,1,0,0,0
2738825654,23.387962,23.428707,0.062,0.06534007,0.0,50.913708,1.0,1.0,0.0,6,0,0,0,0,0,1,1,0,0,0
2739329656,23.46875,23.43484,0.0744,0.06435961,0.0,50.92263,1.0,1.0,0.0,6,0,0,0,0,0,1,1,0,0,0
2739833756,23.488947,23.449312,0.062,0.06542273,0.0,50.931828,1.0,1.0,0.0,6,0,0,0,0,0,1,1,0,0,0
2740339237,23.46875,23.44858,0.062,0.064381525,0.0,50.94073,1.0,1.0,0.0,6,0,0,0,0,0,1,1,0,0,0
2740843271,23.509144,23.454857,0.024799999,0.062851384,0.0,50.94941,1.0,1.0,0.0,6,0,0,0,0,0,1,1,0,0,0
2741347591,23.448553,23.452301,0.0744,0.064620666,0.0,50.958622,1.0,1.0,0.0,6,0,0,0,0,0,1,1,0,0,0
2741851345,23.428356,23.439816,0.062,0.06436225,0.0,50.967625,1.0,1.0,0.0,6,0,0,0,0,0,1,1,0,0,0
2742355334,23.569735,23.455667,0.062,0.06512017,0.0,50.976845,1.0,1.0,0.0,6,0,0,0,0,0,1,1,0,0,0
2742859338,23.46875,23.477802,0.062,0.06575054,0.0,50.986073,1.0,1.0,0.0,6,0,0,0,0,0,1,1,0,0,0
2743363585,23.448553,23.468056,0.062,0.065382466,0.0,50.995167,1.0,1.0,0.0,6,0,0,0,0,0,1,1,0,0,0
2743867343,23.40816,23.451982,0.0744,0.06480589,0.0,51.00413,1.0,1.0,0.0,6,0,0,0,0,0,1,1,0,0,0
2744359261,23.46875,23.430334,0.062,0.06474692,0.0,51.012978,1.0,1.0,0.0,6,0,0,0,0,0,1,1,0,0,0
2744863224,23.387962,23.417791,0.0744,0.06408575,0.0,51.021767,1.0,1.0,0.0,6,0,0,0,0,0,1,1,0,0,0
2745367280,23.307175,23.380423,0.062,0.065254554,0.0,51.03102,0.9914796,1.0007871,0.0,6,0,0,0,0,0,1,1,0,0,0
2745871219,23.286978,23.34935,0.062,0.064268745,0.0,51.039898,0.9770867,1.0021195,0.0,6,0,0,0,0,0,1,1,0,0,0
2746375316,23.26678,23.338835,0.062,0.06434152,0.0,51.048866,0.97221917,1.002571,0.0,6,0,0,0,0,0,1,1,0,0,0
2746880878,23.26678,23.31563,0.062,0.06448226,0.0,51.05794,0.961477,1.0035686,0.0,6,0,0,0,0,0,1,1,0,0,0
2747373247,23.286978,23.305773,0.062,0.06347043,0.0,51.066513,0.95690507,1.0039939,0.0,6,0,0,0,0,0,1,1,0,0,0
2747876802,23.286978,23.295109,0.062,0.063697495,0.0,51.075504,0.95196885,1.0044534,0.0,6,0,0,0,0,0,1,1,0,0,0
2748380793,23.286978,23.291777,0.062,0.06424604,0.0,51.084515,0.9504315,1.0045966,0.0,6,0,0,0,0,0,1,1,0,0,0
2748884839,23.165796,23.282726,0.062,0.063781105,0.0,51.093357,0.9462382,1.0049874,0.0,6,0,0,0,0,0,1,1,0,0,0
2749388826,23.307175,23.276024,0.062,0.06293029,0.0,51.102123,0.9431283,1.0052774,0.0,6,0,0,0,0,0,1,1,0,0,0
2749893214,23.307175,23.28062,0.062,0.063439816,0.0,51.111034,0.94525975,1.0050786,0.0,6,0,0,0,0,0,1,1,0,0,0
2750397223,23.226387,23.28139,0.062,0.06402306,0.0,51.12,0.9456212,1.0050449,0.0,6,0,0,0,0,0,1,1,0,0,0
2750900789,23.286978,23.277723,0.062,0.063763045,0.0,51.12888,0.94392174,1.0052034,0.0,6,0,0,0,0,0,1,1,0,0,0
2751405184,23.185993,23.277506,0.0744,0.06381734,0.0,51.137802,0.9438216,1.0052128,0.0,6,0,0,0,0,0,1,1,0,0,0
2751908856,23.307175,23.280779,0.062,0.062490877,0.0,51.146435,0.94532555,1.0050725,0.0,6,0,0,0,0,0,1,1,0,0,0
2752412837,23.26678,23.27781,0.0744,0.0647229,0.0,51.155643,0.9439694,1.005199,0.0,6,0,0,0,0,0,1,1,0,0,0
2752916829,23.347569,23.284163,0.062,0.06427163,0.0,51.16456,0.94690675,1.004925,0.0,6,0,0,0,0,0,1,1,0,0,0
2753421151,23.286978,23.279362,0.062,0.06422709,0.0,51.173565,0.94468373,1.0051323,0.0,6,0,0,0,0,0,1,1,0,0,0
2753926520,23.26678,23.271433,0.062,0.06584591,0.0,51.183002,0.94102734,1.0054735,0.0,6,0,0,0,0,0,1,1,0,0,0
2754430727,23.226387,23.263384,0.0744,0.06590783,0.0,51.192204,0.9373004,1.0058213,0.0,6,0,0,0,0,0,1,1,0,0,0
2754934494,23.307175,23.259995,0.062,0.06486129,0.0,51.201157,0.935723,1.0059687,0.0,6,0,0,0,0,0,1,1,0,0,0
2755438478,23.26678,23.260347,0.062,0.06394349,0.0,51.21,0.93587846,1.0059541,0.0,6,0,0,0,0,0,1,1,0,0,0
2755942541,23.226387,23.262156,0.049599998,0.063124314,0.0,51.218792,0.93670815,1.0058767,0.0,6,0,0,0,0,0,1,1,0,0,0
2756446821,23.286978,23.26169,0.062,0.06420426,0.0,51.227848,0.93650216,1.005896,0.0,6,0,0,0,0,0,1,1,0,0,0
2756950763,23.26678,23.261232,0.062,0.06517197,0.0,51.237053,0.9362981,1.0059149,0.0,6,0,0,0,0,0,1,1,0,0,0
2757454850,23.185993,23.252172,0.062,0.064990975,0.0,51.246098,0.93210286,1.0063069,0.0,6,0,0,0,0,0,1,1,0,0,0
2757958553,23.185993,23.234104,0.062,0.065315954,0.0,51.255238,0.9237401,1.0070893,0.0,6,0,0,0,0,0,1,1,0,0,0
2758462881,23.185993,23.222036,0.0744,0.06537925,0.0,51.264336,0.9181544,1.0076125,0.0,6,0,0,0,0,0,1,1,0,0,0
2758966794,23.185993,23.211035,0.0744,0.06736303,0.0,51.274055,0.91307706,1.0080886,0.0,6,0,0,0,0,0,1,1,0,0,0
2759470476,23.165796,23.20184,0.062,0.066944346,0.0,51.28335,0.90881604,1.0084884,0.0,6,0,0,0,0,0,1,1,0,0,0
2759974513,23.165796,23.199163,0.0372,0.06500406,0.0,51.292267,0.90756196,1.0086062,0.0,6,0,0,0,0,0,1,1,0,0,0
2760478565,23.20619,23.196737,0.062,0.0660616,0.0,51.301666,0.9064471,1.0087109,0.0,6,0,0,0,0,0,1,1,0,0,0
2760982758,23.226387,23.204075,0.062,0.0656415,0.0,51.3108,0.9098403,1.0083923,0.0,6,0,0,0,0,0,1,1,0,0,0
2761488375,23.185993,23.200981,0.062,0.06463284,0.0,51.31972,0.9083993,1.0085276,0.0,6,0,0,0,0,0,1,1,0,0,0
2761980376,23.185993,23.19286,0.0744,0.06534516,0.0,51.328697,0.9046456,1.0088801,0.0,6,0,0,0,0,0,1,1,0,0,0
2762484071,23.1456,23.19559,0.062,0.06506993,0.0,51.33774,0.90590733,1.0087615,0.0,6,0,0,0,0,0,1,1,0,0,0
2762988142,23.226387,23.195312,0.0372,0.064156994,0.0,51.34671,0.9057719,1.0087743,0.0,6,0,0,0,0,0,1,1,0,0,0
2763492378,23.125402,23.184555,0.062,0.065372854,0.0,51.35604,0.9008023,1.0092413,0.0,6,0,0,0,0,0,1,1,0,0,0
2763996183,23.1456,23.176588,0.0744,0.06583248,0.0,51.36529,0.89711636,1.009588,0.0,6,0,0,0,0,0,1,1,0,0,0
2764500056,23.185993,23.171322,0.049599998,0.064408906,0.0,51.37417,0.8946664,1.0098186,0.0,6,0,0,0,0,0,1,1,0,0,0
2764992475,23.1456,23.168818,0.0744,0.06604265,0.0,51.383347,0.893521,1.0099264,0.0,6,0,0,0,0,0,1,1,0,0,0
2765496132,23.226387,23.16989,0.0744,0.06510735,0.0,51.392323,0.8940093,1.0098804,0.0,6,0,0,0,0,0,1,1,0,0,0
2766000167,23.165796,23.17088,0.062,0.06656134,0.0,51.401733,0.8944804,1.0098361,0.0,6,0,0,0,0,0,1,1,0,0,0
2766504405,23.1456,23.16783,0.049599998,0.06680169,0.0,51.41111,0.8930709,1.0099688,0.0,6,0,0,0,0,0,1,1,0,0,0
2767008328,23.185993,23.170439,0.062,0.06623587,0.0,51.420277,0.89427346,1.0098556,0.0,6,0,0,0,0,0,1,1,0,0,0
2767512346,23.185993,23.17275,0.062,0.06528704,0.0,51.429317,0.89533585,1.0097556,0.0,6,0,0,0,0,0,1,1,0,0,0
2768016140,23.226387,23.176523,0.062,0.06662747,0.0,51.438694,0.8970935,1.0095901,0.0,6,0,0,0,0,0,1,1,0,0,0
2768520130,23.26678,23.188717,0.0744,0.06670769,0.0,51.44802,0.9027392,1.0090593,0.0,6,0,0,0,0,0,1,1,0,0,0
2769024180,23.20619,23.199417,0.062,0.065709285,0.0,51.457115,0.907685,1.0085946,0.0,6,0,0,0,0,0,1,1,0,0,0
2769529658,23.26678,23.202154,0.049599998,0.06402996,0.0,51.46598,0.9089381,1.008477,0.0,6,0,0,0,0,0,1,1,0,0,0
2770033759,23.246584,23.21248,0.0744,0.06534643,0.0,51.47524,0.91372937,1.0080273,0.0,6,0,0,0,0,0,1,1,0,0,0
2770537766,23.125402,23.209194,0.062,0.06559114,0.0,51.484356,0.91221017,1.0081699,0.0,6,0,0,0,0,0,1,1,0,0,0
2771029736,23.428356,23.233812,0.062,0.065483935,0.0,51.49332,0.9236066,1.0071018,0.0,6,0,0,0,0,0,1,1,0,0,0
2771533750,23.185993,23.25896,0.062,0.06369493,0.0,51.50209,0.9352338,1.0060143,0.0,6,0,0,0,0,0,1,1,0,0,0
2772038157,23.20619,23.249073,0.062,0.06358804,0.0,51.511013,0.93065614,1.0064422,0.0,6,0,0,0,0,0,1,1,0,0,0
2772541669,23.165796,23.243156,0.0744,0.06512051,0.0,51.520206,0.9279296,1.0066972,0.0,6,0,0,0,0,0,1,1,0,0,0
2773045693,23.20619,23.235468,0.062,0.064809375,0.0,51.52926,0.92436665,1.0070306,0.0,6,0,0,0,0,0,1,1,0,0,0
2773549671,23.26678,23.234566,0.062,0.06490261,0.0,51.53831,0.92395085,1.0070695,0.0,6,0,0,0,0,0,1,1,0,0,0
2774053976,23.286978,23.238745,0.062,0.06429187,0.0,51.54728,0.92588013,1.006889,0.0,6,0,0,0,0,0,1,1,0,0,0
2774557747,23.26678,23.244272,0.062,0.06603422,0.0,51.55666,0.9284541,1.0066482,0.0,6,0,0,0,0,0,1,1,0,0,0
2775061681,23.26678,23.251724,0.049599998,0.06420141,0.0,51.56545,0.9318883,1.006327,0.0,6,0,0,0,0,0,1,1,0,0,0
2775565908,23.26678,23.258688,0.062,0.06450029,0.0,51.574482,0.93511456,1.0060256,0.0,6,0,0,0,0,0,1,1,0,0,0
2776069730,23.286978,23.260523,0.0744,0.06448714,0.0,51.583443,0.9359643,1.0059462,0.0,6,0,0,0,0,0,1,1,0,0,0
2776573742,23.26678,23.26837,0.062,0.0635996,0.0,51.59224,0.9395892,1.0056076,0.0,6,0,0,0,0,0,1,1,0,0,0
2777077668,23.286978,23.271875,0.062,0.063113965,0.0,51.60099,0.94120854,1.0054566,0.0,6,0,0,0,0,0,1,1,0,0,0
