timestamp,magnetometer_ga[0],magnetometer_ga[1],magnetometer_ga[2]
2467899180,0.20634513,-0.04514108,0.3510217
2468021253,0.20931657,-0.039021812,0.34211835
2468046873,0.21525945,-0.031372726,0.33915055
2468059196,0.21823087,-0.026783276,0.3554734
2468070709,0.20931657,-0.03443236,0.34805393
2468083200,0.20931657,-0.046670895,0.34805393
2468094560,0.20337369,-0.04973053,0.34657004
2468107157,0.20783085,-0.037491996,0.35250562
2468118685,0.2197166,-0.037491996,0.35250562
2468130932,0.2197166,-0.043611262,0.3554734
2468142746,0.20040226,-0.032902543,0.35250562
2468154880,0.20040226,-0.029842913,0.3554734
2468181498,0.20931657,-0.019134194,0.33915055
2468194959,0.20931657,-0.05279016,0.34657004
2468206745,0.2197166,-0.043611262,0.37179625
2468230827,0.21377371,-0.016074559,0.34657004
2468254588,0.212288,-0.02066401,0.33915055
2468278467,0.212288,-0.040551625,0.3628929
2468291020,0.20783085,-0.029842911,0.33321497
2468314989,0.22268803,-0.037491996,0.34805393
2468326709,0.21377371,-0.029842911,0.34211835
2468339194,0.20040226,-0.037491996,0.34211835
2468365336,0.20188798,-0.020664012,0.34508616
2468381469,0.20931657,-0.037491996,0.34953785
2468394857,0.21377371,-0.039021812,0.33618277
2468418867,0.21377371,-0.032902543,0.34657004
2468442532,0.212288,-0.046670895,0.35398954
2468466849,0.23011662,-0.043611262,0.35250562
2468502583,0.20634513,-0.02066401,0.34805393
2468526400,0.2286309,-0.020664008,0.35398954
2468538959,0.20931657,-0.046670895,0.34211835
2468550797,0.21525945,-0.03443236,0.34805393
2468574846,0.212288,-0.031372726,0.3628929
2468586798,0.20783085,-0.046670895,0.33173108
2468610933,0.212288,-0.03443236,0.34805393
2468622836,0.212288,-0.028313095,0.3510217
2468658848,0.22417374,-0.039021812,0.34211835
2468670394,0.20783085,-0.037491996,0.34657004
2468682984,0.21377371,-0.05279016,0.34657004
2468694882,0.21823087,-0.043611262,0.34211835
2468706935,0.20783085,-0.026783276,0.33618277
2468718803,0.20931657,-0.029842911,0.34211835
2468730837,0.20931657,-0.019134194,0.34211835
2468742772,0.20634513,-0.028313095,0.35844123
2468755140,0.21525945,-0.028313095,0.3510217
2468766398,0.21823087,-0.032902543,0.34657004
2468790740,0.19891654,-0.054319978,0.34211835
2468805348,0.22417374,-0.026783274,0.34211835
2468818928,0.22268803,-0.051260345,0.33915055
2468843056,0.22417374,-0.046670895,0.33321497
2468854336,0.23457377,-0.05584979,0.33321497
2468867316,0.2197166,-0.043611262,0.34211835
2468902782,0.24645951,-0.049730524,0.33618277
2468926595,0.24051665,-0.072677776,0.31540823
2468939337,0.27320245,-0.08491631,0.31244043
2468950488,0.22863092,-0.091035575,0.31392434
2468981457,0.24645951,-0.058909427,0.31837603
2468994853,0.25091666,-0.08950576,0.3243116
2469006789,0.25091666,-0.07573741,0.31244043
2469030883,0.24794523,-0.07726722,0.3287633
2469042962,0.24497382,-0.08950576,0.31837603
2469054562,0.23160234,-0.08338649,0.33321497
2469066576,0.24645951,-0.08491631,0.3272794
2469078629,0.24200237,-0.0742076,0.31540823
2469090772,0.24497382,-0.09715485,0.33321497
2469115054,0.24051665,-0.08338649,0.3243116
2469139011,0.24200238,-0.09715485,0.3228277
2469150740,0.23011662,-0.08491631,0.3272794
2469163294,0.24497381,-0.08491631,0.3243116
2469202781,0.21823087,-0.08338649,0.31985992
2469214467,0.21823089,-0.092565395,0.31540823
2469226766,0.21823087,-0.07726722,0.34211835
2469238877,0.212288,-0.07114796,0.3287633
2469250865,0.22565947,-0.08338649,0.34211835
2469274840,0.21823087,-0.0742076,0.34211835
2469286413,0.20931657,-0.06961815,0.34063447
2469298842,0.21525945,-0.071147956,0.33915055
2469322769,0.20931657,-0.05737961,0.34211835
2469334788,0.19891654,-0.074207604,0.33915055
2469358882,0.20783085,-0.07267778,0.34657004
2469370787,0.21823087,-0.04973053,0.34211835
2469382753,0.20931657,-0.055849794,0.34211835
2469406429,0.212288,-0.051260345,0.34805393
2469418838,0.19000223,-0.05126035,0.35398954
2469430584,0.212288,-0.03443236,0.35398954
2469454818,0.20040226,-0.037491996,0.361409
2469466866,0.20337369,-0.037491996,0.361409
2469478746,0.19148795,-0.0466709,0.36882848
2469490844,0.20931657,-0.046670895,0.35250562
2469514881,0.19297366,-0.013014929,0.36882848
2469538869,0.18554509,-0.028313097,0.3510217
2469562876,0.19594511,-0.019134196,0.36882848
2469574464,0.19594511,-0.014544745,0.36882848
2469587068,0.20040226,-0.026783278,0.361409
2469598766,0.18108793,-0.01301493,0.34953785
2469610938,0.18703079,-0.019134196,0.37476408
2469622833,0.18108793,-0.02219383,0.361409
2469634873,0.19594511,-0.008425479,0.35844123
2469646755,0.18108793,-0.019134197,0.36882848
2469670456,0.20188798,-0.025253464,0.36882848
2469682983,0.18703079,-0.00077639555,0.38069963
2469694580,0.18257365,-0.011485113,0.37328017
2469707135,0.18257365,-0.019134196,0.37328017
2469731045,0.17960219,-0.014544746,0.37328017
2469755008,0.17960219,-0.005365846,0.37624794
2469766773,0.18257365,0.0053428705,0.37328017
2469781217,0.18405935,-0.009955296,0.3658607
2469806757,0.17663077,0.0038130535,0.36882848
2469819043,0.18703079,0.0068726875,0.361409
2469830800,0.19297366,-0.006895662,0.3599251
2469854784,0.18108793,-0.009955296,0.37773186
2469867118,0.17514506,-0.008425481,0.3628929
2469878558,0.19000223,-0.011485112,0.36734456
2469890872,0.18554509,-0.019134196,0.37624794
2469902788,0.17365932,-0.02678328,0.3599251
2469914970,0.19594511,-0.008425479,0.36882848
2469950762,0.18405935,-0.0068956623,0.36882848
2469963059,0.19148795,-0.013014929,0.37179625
2469987266,0.20040226,-0.009955294,0.36882848
2469998789,0.17960219,-0.025253465,0.38218355
2470013358,0.17514506,-0.0007763966,0.36882848
2470038754,0.19743082,0.0068726884,0.37179625
2470050838,0.19743082,-0.013014928,0.3658607
2470062800,0.19891654,-0.013014928,0.37624794
2470074525,0.19891654,-0.005365845,0.37624794
2470086417,0.19891654,-0.014544744,0.3599251
2470125420,0.20783085,-0.022193827,0.361409
2470138843,0.19891654,-0.008425478,0.3599251
2470150869,0.19594511,-0.011485112,0.36882848
2470162751,0.20040226,-0.0007763944,0.3554734
2470174795,0.19743082,-0.01607456,0.3658607
2470186594,0.19297366,-0.009955295,0.3658607
2470198403,0.20188798,-0.019134196,0.3510217
2470210953,0.19743082,-0.013014928,0.361409
2470222761,0.19891654,-0.011485111,0.36734456
2470235333,0.19891654,-0.020664012,0.3628929
2470259306,0.20040226,-0.01607456,0.3658607
2470282870,0.20337369,-0.013014928,0.35250562
2470294430,0.20931657,-0.019134194,0.36734456
2470306877,0.19743082,0.0038130553,0.3658607
2470318869,0.21377371,-0.016074559,0.361409
2470330949,0.19743082,-0.009955294,0.34953785
2470342812,0.20783085,-0.026783276,0.35250562
2470354976,0.19743082,-0.01607456,0.35250562
2470366586,0.21525945,-0.0007763931,0.3628929
2470381275,0.20783085,-0.029842911,0.361409
2470394970,0.20634513,-0.014544744,0.3628929
2470419230,0.19297366,-0.01607456,0.3599251
2470430797,0.212288,-0.014544743,0.34508616
2470442793,0.20931657,-0.028313095,0.35844123
2470466755,0.20634513,-0.005365844,0.35844123
2470478499,0.2197166,-0.026783276,0.37179625
2470490582,0.20337369,-0.029842911,0.361409
2470502432,0.21823087,-0.029842911,0.3599251
2470514849,0.2286309,-0.011485109,0.34805393
2470526790,0.212288,-0.028313095,0.3599251
2470550356,0.20931657,-0.022193827,0.3554734
2470562525,0.20783085,-0.039021812,0.3599251
2470574604,0.22565947,-0.031372726,0.3599251
2470598291,0.2197166,-0.029842911,0.36882848
2470610580,0.20783085,-0.029842911,0.34211835
2470634740,0.2197166,-0.026783276,0.361409
2470646735,0.21377371,-0.029842911,0.3554734
2470682519,0.22268803,-0.031372726,0.33915055
2470694741,0.2197166,-0.032902543,0.35250562
2470706825,0.2286309,-0.03443236,0.35398954
2470730815,0.20931657,-0.043611262,0.34211835
2470742733,0.24497381,-0.031372722,0.33915055
2470754876,0.20634513,-0.037491996,0.34211835
2470766771,0.2360595,-0.037491992,0.3510217
2470781544,0.22565947,-0.019134192,0.33915055
2470795008,0.2360595,-0.04361126,0.34211835
2470819038,0.2286309,-0.031372726,0.34211835
2470830586,0.24051665,-0.037491992,0.34657004
2470842930,0.23160234,-0.04514108,0.35398954
2470867177,0.22268803,-0.028313095,0.34805393
2470878404,0.2360595,-0.022193825,0.361409
2470891276,0.22268803,-0.040551625,0.34508616
2470926546,0.24200237,-0.04055162,0.31540823
2470954895,0.21525945,-0.031372726,0.3346989
2470966419,0.2286309,-0.04514108,0.35844123
2470981553,0.21823087,-0.04514108,0.35398954
2470994921,0.23160234,-0.03443236,0.34508616
2471006746,0.2360595,-0.04361126,0.34063447
2471030756,0.24051665,-0.03902181,0.34657004
2471054439,0.24645951,-0.037491992,0.35250562
2471090795,0.212288,-0.04514108,0.3346989
2471102839,0.22565947,-0.03443236,0.34211835
2471114824,0.22565947,-0.037491996,0.33915055
2471126727,0.21823087,-0.039021812,0.34211835
2471138935,0.2197166,-0.029842911,0.34211835
2471163317,0.23011662,-0.04973053,0.34657004
2471174402,0.2286309,-0.046670895,0.34508616
2471187210,0.23011662,-0.032902543,0.34657004
2471210886,0.23011662,-0.043611262,0.33173108
2471222836,0.23457377,-0.03902181,0.3554734
2471246762,0.2197166,-0.037491996,0.34063447
2471259249,0.23457377,-0.04361126,0.3554734
2471307205,0.23011662,-0.032902543,0.33618277
2471331221,0.24051665,-0.052790157,0.3243116
2471342861,0.2360595,-0.037491992,0.35398954
2471354849,0.2286309,-0.03443236,0.34508616
2471366625,0.22417374,-0.046670895,0.33618277
2471381701,0.22565947,-0.037491996,0.3346989
2471395142,0.21525945,-0.051260345,0.3599251
2471406831,0.20931657,-0.043611262,0.34063447
2471430765,0.2360595,-0.031372722,0.3287633
2471442552,0.24200237,-0.057379607,0.34805393
2471454438,0.21823087,-0.043611262,0.34657004
2471478375,0.2360595,-0.037491992,0.33915055
2471490895,0.2360595,-0.037491992,0.3599251
2471502585,0.2197166,-0.039021812,0.34211835
2471526774,0.2197166,-0.043611262,0.34211835
2471539011,0.22565947,-0.04514108,0.3257955
2471562759,0.2360595,-0.049730524,0.34211835
2471574832,0.22565947,-0.040551625,0.34211835
2471586753,0.21525945,-0.046670895,0.3510217
2471610854,0.22417374,-0.032902543,0.35250562
2471622851,0.2360595,-0.04055162,0.35398954
2471634952,0.2360595,-0.02984291,0.3599251
2471646757,0.22565947,-0.037491996,0.3510217
2471659171,0.20783085,-0.046670895,0.34063447
2471670360,0.23011662,-0.039021812,0.34953785
2471694580,0.2360595,-0.054319974,0.3346989
2471707250,0.22268803,-0.037491996,0.3346989
2471718856,0.2286309,-0.051260345,0.33915055
2471754608,0.22714518,-0.039021812,0.34211835
2471766767,0.22565947,-0.040551625,0.34508616
2471778852,0.23160234,-0.054319978,0.34805393
2471790470,0.22714518,-0.043611262,0.33173108
2471802536,0.23903093,-0.04055162,0.34508616
2471826883,0.21823087,-0.022193827,0.34953785
2471838329,0.23903093,-0.037491992,0.33321497
2471850971,0.23457377,-0.04361126,0.34953785
2471874770,0.22268803,-0.03443236,0.35398954
2471886853,0.23457377,-0.04667089,0.34657004
2471910841,0.2286309,-0.031372726,0.34805393
2471922888,0.24200237,-0.04667089,0.35844123
2471934770,0.22268803,-0.02066401,0.35398954
2471970879,0.22565947,-0.04514108,0.3510217
2471982337,0.22714518,-0.032902543,0.3599251
2471995246,0.22268803,-0.037491996,0.3510217
2472006774,0.212288,-0.037491996,0.3510217
2472043036,0.2286309,-0.03443236,0.3510217
2472054787,0.22565947,-0.020664008,0.34657004
2472066886,0.23160234,-0.028313093,0.3510217
2472091025,0.22268803,-0.04514108,0.34805393
2472115031,0.21823087,-0.03443236,0.3510217
2472150584,0.2197166,-0.037491996,0.34953785
2472174764,0.23011662,-0.026783274,0.361409
2472186886,0.22417374,-0.037491996,0.34657004
2472198584,0.23457377,-0.03290254,0.35250562
2472222351,0.212288,-0.031372726,0.34211835
2472234531,0.23903093,-0.037491992,0.35844123
2472258582,0.2286309,-0.040551625,0.3599251
2472270351,0.22714518,-0.022193825,0.34211835
2472283004,0.20931657,-0.037491996,0.34211835
2472308809,0.21823087,-0.037491996,0.35250562
2472320860,0.21823087,-0.039021812,0.3658607
2472332166,0.22417374,-0.037491996,0.3554734
2472356110,0.22268803,-0.04514108,0.35398954
2472380726,0.22268803,-0.051260345,0.3510217
2472404694,0.22268803,-0.031372726,0.3510217
2472416521,0.21525945,-0.028313095,0.35844123
2472440822,0.20931657,-0.046670895,0.35398954
2472452105,0.22417374,-0.037491996,0.3554734
2472464782,0.2286309,-0.031372726,0.34508616
2472488825,0.212288,-0.040551625,0.34805393
2472500693,0.2197166,-0.032902543,0.3554734
2472512904,0.20931657,-0.026783276,0.3658607
2472524722,0.21823087,-0.037491996,0.3599251
2472536726,0.212288,-0.02066401,0.3628929
2472548749,0.20783085,-0.037491996,0.34953785
2472572117,0.20783085,-0.039021812,0.3599251
2472584473,0.22268803,-0.03443236,0.34508616
2472596020,0.20931657,-0.039021812,0.3599251
2472620817,0.20783085,-0.032902543,0.35250562
2472632503,0.2286309,-0.02525346,0.34805393
2472644719,0.212288,-0.037491996,0.34508616
2472656684,0.21823087,-0.029842911,0.3599251
2472667896,0.2197166,-0.039021812,0.34953785
2472680460,0.20783085,-0.0130149275,0.361409
2472704613,0.21377371,-0.019134194,0.35250562
2472715943,0.212288,-0.03443236,0.35844123
2472728890,0.21525945,-0.028313095,0.35398954
2472740724,0.22268803,-0.037491996,0.35398954
2472752484,0.20337369,-0.019134194,0.3599251
2472778965,0.22268803,-0.03443236,0.3628929
2472804009,0.22417374,-0.026783274,0.35250562
2472816535,0.23160234,-0.037491996,0.3599251
2472840713,0.23011662,-0.032902543,0.34953785
2472852736,0.22417374,-0.019134192,0.36882848
2472864647,0.20931657,-0.022193827,0.361409
2472888457,0.2197166,-0.026783276,0.3554734
2472900766,0.23160234,-0.040551625,0.34211835
2472912489,0.22714518,-0.02984291,0.35250562
2472924044,0.22714518,-0.039021812,0.35250562
2472936442,0.20931657,-0.014544743,0.35398954
2472948085,0.20337369,-0.029842911,0.35250562
2472972022,0.21377371,-0.029842911,0.34063447
2472984452,0.2286309,-0.032902543,0.36734456
2472996112,0.20783085,-0.037491996,0.34211835
2473020038,0.19891654,-0.020664012,0.35844123
2473032448,0.21377371,-0.026783276,0.3658607
2473056495,0.21823087,-0.031372726,0.36882848
2473068645,0.21823087,-0.04514108,0.36734456
2473080730,0.20931657,-0.037491996,0.37179625
2473104439,0.21823087,-0.032902543,0.36882848
2473116079,0.21377371,-0.016074559,0.34953785
2473128582,0.21823087,-0.037491996,0.35398954
2473152170,0.22565947,-0.02525346,0.35398954
2473191519,0.19743082,-0.01607456,0.36882848
2473204202,0.20634513,-0.031372726,0.3599251
2473216564,0.20931657,-0.028313095,0.36734456
2473240453,0.19743082,-0.026783278,0.3658607
2473252103,0.22268803,-0.040551625,0.3510217
2473264625,0.20931657,-0.037491996,0.3599251
2473290962,0.21823087,-0.019134194,0.3628929
2473304487,0.21377371,-0.037491996,0.361409
2473316004,0.20783085,-0.029842911,0.361409
2473328209,0.22714518,-0.02984291,0.3658607
2473339935,0.22565947,-0.031372726,0.3628929
2473352116,0.212288,-0.025253462,0.3599251
2473363988,0.20783085,-0.037491996,0.34657004
2473378937,0.22714518,-0.019134192,0.37179625
2473391714,0.22565947,-0.040551625,0.34805393
2473416166,0.23160234,-0.03443236,0.3628929
2473427979,0.21823087,-0.02066401,0.3628929
2473451755,0.2197166,-0.037491996,0.3554734
2473464457,0.2197166,-0.026783276,0.3599251
2473475939,0.20783085,-0.016074559,0.3554734
2473500786,0.212288,-0.031372726,0.35398954
2473512744,0.20634513,-0.037491996,0.3628929
2473524032,0.23903093,-0.031372722,0.36734456
2473536543,0.20931657,-0.025253462,0.35398954
2473548724,0.23160234,-0.040551625,0.3628929
2473560762,0.2197166,-0.022193827,0.3554734
2473584832,0.22565947,-0.02525346,0.34508616
2473596742,0.20931657,-0.031372726,0.34211835
2473608948,0.2197166,-0.019134194,0.3554734
2473632714,0.21525945,-0.02066401,0.35844123
2473644830,0.2286309,-0.019134192,0.34805393
2473656754,0.20931657,-0.019134194,0.361409
2473668034,0.2197166,-0.037491996,0.36882848
2473680757,0.21823087,-0.019134194,0.3658607
2473692810,0.22714518,-0.043611262,0.3554734
2473715996,0.23457377,-0.037491992,0.36882848
2473730920,0.20931657,-0.031372726,0.34805393
2473743207,0.20188798,-0.014544744,0.3628929
2473768447,0.22268803,-0.025253462,0.3599251
2473792482,0.212288,-0.025253462,0.3628929
2473816616,0.21823087,-0.026783276,0.361409
2473827760,0.21525945,-0.014544743,0.3510217
2473851988,0.22417374,-0.02984291,0.361409
2473864921,0.20931657,-0.032902543,0.3599251
2473876798,0.21823087,-0.04514108,0.3628929
2473900029,0.21525945,-0.037491996,0.3628929
2473912372,0.21823087,-0.026783276,0.361409
2473924372,0.20783085,-0.019134194,0.35250562
2473936857,0.20783085,-0.026783276,0.3658607
2473948820,0.21377371,-0.026783276,0.3658607
2473960765,0.2197166,-0.022193827,0.361409
2473984645,0.22565947,-0.020664008,0.36734456
2473996415,0.23011662,-0.019134192,0.37179625
2474044786,0.212288,-0.03443236,0.35844123
2474056810,0.21525945,-0.03443236,0.36734456
2474067819,0.21823087,-0.04514108,0.35844123
2474081545,0.21525945,-0.025253462,0.34805393
2474095575,0.2197166,-0.029842911,0.35250562
2474108051,0.20634513,-0.029842911,0.35844123
2474120473,0.22268803,-0.031372726,0.3628929
2474131979,0.22417374,-0.02984291,0.3599251
2474144591,0.2286309,-0.046670895,0.3628929
2474169552,0.20931657,-0.029842911,0.3554734
2474183278,0.20783085,-0.029842911,0.361409
2474195972,0.20040226,-0.029842913,0.361409
2474220047,0.21823087,-0.019134194,0.35398954
2474256575,0.212288,-0.028313095,0.36882848
2474267943,0.20337369,-0.029842911,0.3554734
2474280643,0.20931657,-0.0130149275,0.37179625
2474292747,0.21525945,-0.03443236,0.3599251
2474304729,0.2197166,-0.022193827,0.3658607
2474328470,0.20188798,-0.025253464,0.3599251
2474339981,0.21377371,-0.019134194,0.3599251
2474352468,0.21525945,-0.03443236,0.38218355
2474364149,0.21377371,-0.026783276,0.361409
2474378926,0.20783085,-0.039021812,0.3554734
2474391285,0.212288,-0.03443236,0.36734456
2474404039,0.22565947,-0.03443236,0.35398954
2474416481,0.20040226,-0.019134196,0.3599251
2474427803,0.21525945,-0.03443236,0.35844123
2474475871,0.21823087,-0.029842911,0.3658607
2474488566,0.2197166,-0.032902543,0.3599251
2474512742,0.20634513,-0.03443236,0.36882848
2474536538,0.20634513,-0.031372726,0.35844123
2474560533,0.212288,-0.028313095,0.35844123
2474572000,0.20931657,-0.03443236,0.35844123
2474595804,0.20337369,-0.037491996,0.38069963
2474608903,0.20931657,-0.016074559,0.35250562
2474620824,0.212288,-0.040551625,0.3599251
2474644758,0.21823087,-0.031372726,0.3599251
2474658838,0.212288,-0.025253462,0.37624794
2474671345,0.21823087,-0.037491996,0.3599251
2474682939,0.20634513,-0.037491996,0.36882848
2474720587,0.20634513,-0.037491996,0.34953785
2474731978,0.20783085,-0.043611262,0.34953785
2474744655,0.21525945,-0.03443236,0.35398954
2474779935,0.20634513,-0.037491996,0.34805393
2474792225,0.212288,-0.031372726,0.36734456
2474803920,0.21377371,-0.029842911,0.37476408
2474816376,0.21377371,-0.019134194,0.361409
2474828123,0.19594511,-0.03443236,0.3628929
2474840382,0.20783085,-0.026783276,0.361409
2474864701,0.21377371,-0.029842911,0.361409
2474876716,0.20931657,-0.040551625,0.3628929
2474888724,0.20634513,-0.031372726,0.3599251
2474924757,0.20188798,-0.040551625,0.3599251
2474936787,0.20931657,-0.039021812,0.37476408
2474962880,0.21377371,-0.026783276,0.37476408
2475002547,0.21525945,-0.025253462,0.36882848
2475016417,0.21525945,-0.028313095,0.3510217
2475027864,0.20931657,-0.029842911,0.34953785
2475040366,0.20931657,-0.026783276,0.3658607
2475088508,0.20783085,-0.032902543,0.3658607
2475100724,0.20931657,-0.043611262,0.34953785
2475124413,0.21525945,-0.031372726,0.37624794
2475136451,0.2197166,-0.019134194,0.3599251
2475148062,0.212288,-0.031372726,0.36734456
2475160530,0.20931657,-0.032902543,0.3554734
2475171847,0.212288,-0.025253462,0.3599251
2475184413,0.20634513,-0.025253462,0.35844123
2475208371,0.21823087,-0.019134194,0.37328017
2475220099,0.20783085,-0.022193827,0.37179625
2475232316,0.212288,-0.031372726,0.36734456
2475256510,0.20931657,-0.037491996,0.37624794
2475268043,0.212288,-0.031372726,0.36882848
2475280473,0.212288,-0.046670895,0.37328017
2475292002,0.22268803,-0.03443236,0.36734456
2475305578,0.20931657,-0.026783276,0.37476408
2475319564,0.20188798,-0.025253464,0.36734456
2475344616,0.20931657,-0.046670895,0.361409
2475368577,0.21525945,-0.037491996,0.36734456
2475394936,0.21823087,-0.022193827,0.36882848
2475407872,0.21823087,-0.029842911,0.361409
2475420057,0.21525945,-0.025253462,0.36734456
2475443936,0.23160234,-0.03443236,0.37328017
2475456360,0.20634513,-0.02066401,0.3510217
2475467763,0.20931657,-0.032902543,0.37476408
2475480168,0.20931657,-0.028313095,0.3628929
2475491985,0.21377371,-0.039021812,0.37476408
2475504574,0.22565947,-0.031372726,0.35844123
2475528455,0.212288,-0.02066401,0.3599251
2475540793,0.20931657,-0.037491996,0.3599251
2475552736,0.20634513,-0.025253462,0.34805393
2475578907,0.2286309,-0.02525346,0.36734456
2475594954,0.19594511,-0.031372726,0.35398954
2475608448,0.20337369,-0.026783276,0.38069963
2475620002,0.20040226,-0.029842913,0.34953785
2475632155,0.20931657,-0.025253462,0.36734456
2475656125,0.21525945,-0.025253462,0.35844123
2475667798,0.21823087,-0.02066401,0.36734456
2475680367,0.20783085,-0.026783276,0.3658607
2475692018,0.20931657,-0.037491996,0.36882848
2475704613,0.212288,-0.02066401,0.36882848
2475716069,0.21823087,-0.031372726,0.37328017
2475752354,0.20634513,-0.03443236,0.35844123
2475764104,0.212288,-0.025253462,0.37624794
2475788794,0.2197166,-0.029842911,0.36882848
2475802972,0.20931657,-0.032902543,0.3599251
2475815571,0.20931657,-0.037491996,0.3599251
2475827846,0.21377371,-0.016074559,0.361409
2475840471,0.19594511,-0.014544745,0.3599251
2475852747,0.20783085,-0.029842911,0.37476408
2475864717,0.20783085,-0.029842911,0.38069963
2475876135,0.21823087,-0.026783276,0.38069963
2475888714,0.20783085,-0.022193827,0.36882848
2475900024,0.20931657,-0.031372726,0.35844123
2475924146,0.20931657,-0.019134194,0.36882848
2475938866,0.20931657,-0.03443236,0.3599251
2475951567,0.20931657,-0.022193827,0.36882848
2475979218,0.20337369,-0.019134194,0.3554734
2475992445,0.20634513,-0.03443236,0.37624794
2476004149,0.21823087,-0.040551625,0.35398954
2476016438,0.20188798,-0.028313097,0.3628929
2476028010,0.212288,-0.032902543,0.35398954
2476040380,0.212288,-0.031372726,0.35398954
2476064401,0.20188798,-0.03443236,0.37328017
2476088624,0.21525945,-0.03443236,0.38218355
2476100052,0.20337369,-0.019134194,0.3658607
2476136936,0.20931657,-0.029842911,0.36882848
2476148804,0.22417374,-0.043611262,0.3658607
2476162446,0.20931657,-0.039021812,0.37179625
2476186520,0.212288,-0.028313095,0.36882848
2476197779,0.20931657,-0.025253462,0.3628929
2476210337,0.20931657,-0.037491996,0.3658607
2476221681,0.20188798,-0.037491996,0.37328017
2476234420,0.20337369,-0.032902543,0.37476408
2476245777,0.21377371,-0.016074559,0.38069963
2476269669,0.2197166,-0.039021812,0.37773186
2476282125,0.20931657,-0.025253462,0.37921575
2476306208,0.212288,-0.028313095,0.37328017
2476317699,0.21377371,-0.022193827,0.37773186
2476341685,0.21823087,-0.031372726,0.36882848
2476354443,0.20634513,-0.028313095,0.36882848
2476365638,0.19891654,-0.028313097,0.3628929
2476380635,0.20931657,-0.040551625,0.37328017
2476405614,0.21823087,-0.02066401,0.37328017
2476418349,0.20931657,-0.046670895,0.3599251
2476429666,0.20040226,-0.029842913,0.36882848
2476453748,0.19743082,-0.01607456,0.3658607
2476466090,0.20931657,-0.037491996,0.37773186
2476477737,0.19594511,-0.028313097,0.36882848
2476490406,0.20634513,-0.03443236,0.37328017
2476501783,0.20783085,-0.039021812,0.37179625
2476514206,0.20040226,-0.029842913,0.37773186
2476538373,0.20783085,-0.04973053,0.3658607
2476549694,0.20634513,-0.04514108,0.37624794
2476597718,0.20931657,-0.029842911,0.36882848
2476621664,0.20188798,-0.020664012,0.37328017
2476634137,0.20040226,-0.019134196,0.3554734
2476682477,0.19148795,-0.037492,0.36734456
2476693681,0.19000223,-0.03137273,0.36882848
2476717673,0.20337369,-0.039021812,0.36882848
2476730028,0.20931657,-0.046670895,0.37179625
2476753769,0.19148795,-0.032902546,0.37179625
2476765684,0.18703079,-0.0466709,0.38069963
2476780492,0.19891654,-0.051260345,0.37624794
2476805697,0.19297366,-0.01607456,0.37179625
2476818142,0.19148795,-0.019134196,0.361409
2476829631,0.18405935,-0.026783278,0.37773186
2476853628,0.19891654,-0.031372726,0.36882848
2476866322,0.20188798,-0.046670895,0.36882848
2476890466,0.2197166,-0.032902543,0.37476408
2476916600,0.21823087,-0.04973053,0.3554734
2476928888,0.20337369,-0.039021812,0.37179625
2476940612,0.20931657,-0.032902543,0.361409
2476954383,0.212288,-0.03443236,0.37624794
2476965772,0.20931657,-0.031372726,0.37328017
2476980563,0.212288,-0.037491996,0.35844123
2476994122,0.22714518,-0.026783274,0.36882848
2477018109,0.20931657,-0.029842911,0.38069963
2477029706,0.20634513,-0.046670895,0.36734456
2477041931,0.20931657,-0.025253462,0.35398954
2477077720,0.21377371,-0.032902543,0.361409
2477101762,0.20337369,-0.022193827,0.37476408
2477116515,0.2197166,-0.037491996,0.38069963
2477128981,0.20783085,-0.039021812,0.37773186
2477154140,0.21525945,-0.028313095,0.37921575
2477165590,0.19891654,-0.051260345,0.3628929
2477180636,0.20931657,-0.029842911,0.37476408
2477205656,0.19297366,-0.043611262,0.37476408
2477218320,0.20337369,-0.029842911,0.36882848
2477229734,0.21377371,-0.043611262,0.3554734
2477253693,0.19891654,-0.025253464,0.3599251
2477265691,0.21377371,-0.037491996,0.38366744
2477277695,0.20337369,-0.032902543,0.37476408
2477290485,0.20040226,-0.039021812,0.38366744
2477314242,0.20634513,-0.028313095,0.36734456
2477325636,0.20931657,-0.028313095,0.36882848
2477338161,0.20931657,-0.04973053,0.36882848
2477349589,0.21525945,-0.03443236,0.37921575
2477362106,0.19743082,-0.043611262,0.37476408
2477388765,0.20931657,-0.039021812,0.37476408
2477413654,0.212288,-0.028313095,0.3628929
2477426062,0.20931657,-0.028313095,0.36734456
2477437662,0.19891654,-0.03443236,0.3628929
2477450152,0.2197166,-0.046670895,0.3658607
2477461593,0.20931657,-0.025253462,0.36734456
2477473728,0.212288,-0.02066401,0.35844123
2477485604,0.19743082,-0.037491996,0.36882848
2477500437,0.20931657,-0.032902543,0.37179625
2477512859,0.20188798,-0.03443236,0.36882848
2477524801,0.212288,-0.054319978,0.37921575
2477549677,0.20783085,-0.039021812,0.361409
2477564442,0.212288,-0.046670895,0.36734456
2477580604,0.21525945,-0.028313095,0.36734456
2477592770,0.20188798,-0.019134196,0.34805393
2477605719,0.19891654,-0.037491996,0.38218355
2477618064,0.23011662,-0.043611262,0.36882848
2477629635,0.20634513,-0.040551625,0.3628929
2477653646,0.20337369,-0.037491996,0.37179625
2477677750,0.18703079,-0.026783278,0.37773186
2477690096,0.20931657,-0.040551625,0.36882848
2477714132,0.20931657,-0.051260345,0.35844123
2477725671,0.20634513,-0.037491996,0.35398954
2477749780,0.20634513,-0.037491996,0.36882848
2477762188,0.21525945,-0.046670895,0.3599251
2477788509,0.19297366,-0.037491996,0.3554734
2477818020,0.19743082,-0.029842913,0.361409
2477829784,0.20188798,-0.040551625,0.36882848
2477841989,0.20040226,-0.032902543,0.3658607
2477865778,0.21823087,-0.037491996,0.37624794
2477877392,0.19891654,-0.028313097,0.3628929
2477889817,0.20634513,-0.028313095,0.37624794
2477914001,0.20337369,-0.029842911,0.3658607
2477925963,0.20931657,-0.032902543,0.37179625
2477949631,0.19743082,-0.039021812,0.36882848
2477962398,0.19743082,-0.022193829,0.37773186
2477973701,0.20188798,-0.025253464,0.36882848
2477998599,0.21377371,-0.032902543,0.38069963
2478011214,0.18554509,-0.03137273,0.36882848
2478024941,0.20188798,-0.025253464,0.35844123
2478049413,0.20040226,-0.046670895,0.3658607
2478085623,0.19148795,-0.0466709,0.36734456
2478098434,0.20783085,-0.037491996,0.36882848
2478110068,0.20634513,-0.037491996,0.37624794
2478122116,0.20634513,-0.037491996,0.36734456
2478134238,0.20783085,-0.026783276,0.3658607
2478157956,0.19594511,-0.03443236,0.3628929
2478170066,0.20931657,-0.031372726,0.36882848
2478181607,0.20337369,-0.022193827,0.37773186
2478194000,0.212288,-0.04514108,0.36734456
2478205615,0.20188798,-0.031372726,0.36882848
2478218044,0.19297366,-0.039021812,0.36882848
2478229669,0.19743082,-0.022193829,0.37476408
2478242254,0.2197166,-0.032902543,0.37773186
2478266055,0.20783085,-0.026783276,0.37179625
2478290073,0.19297366,-0.029842913,0.37179625
2478301654,0.212288,-0.031372726,0.36734456
2478314038,0.20040226,-0.019134196,0.3658607
2478326190,0.20931657,-0.043611262,0.37476408
2478338079,0.20337369,-0.029842911,0.37179625
2478349615,0.20634513,-0.03443236,0.36882848
2478362110,0.20783085,-0.037491996,0.38366744
2478397770,0.21525945,-0.040551625,0.38218355
2478409960,0.20040226,-0.04973053,0.37179625
2478421615,0.19743082,-0.026783278,0.3599251
2478435140,0.212288,-0.03443236,0.3628929
2478448874,0.20337369,-0.032902543,0.37476408
2478461337,0.20337369,-0.029842911,0.3658607
2478474133,0.212288,-0.031372726,0.36734456
2478485670,0.19148795,-0.028313097,0.36882848
2478498038,0.20337369,-0.029842911,0.38069963
2478509727,0.20931657,-0.028313095,0.37624794
2478522534,0.19297366,-0.037491996,0.38069963
2478535069,0.20783085,-0.026783276,0.3658607
2478560803,0.20337369,-0.037491996,0.36882848
2478572616,0.20634513,-0.031372726,0.3628929
2478585727,0.20040226,-0.032902543,0.38069963
2478621624,0.20188798,-0.03443236,0.37624794
2478634281,0.20931657,-0.03443236,0.3881191
2478660469,0.20783085,-0.022193827,0.36882848
2478673732,0.19148795,-0.0466709,0.37921575
2478685633,0.19743082,-0.01607456,0.37179625
2478698097,0.21377371,-0.029842911,0.36882848
2478709650,0.20634513,-0.019134194,0.37921575
2478722255,0.20931657,-0.037491996,0.3658607
2478746438,0.20634513,-0.037491996,0.36734456
2478770433,0.19594511,-0.037491996,0.36734456
2478784589,0.21377371,-0.022193827,0.37179625
2478796464,0.19000223,-0.034432363,0.3628929
2478809957,0.19743082,-0.026783278,0.38069963
2478821565,0.19891654,-0.037491996,0.3599251
2478834223,0.19891654,-0.037491996,0.36882848
2478858221,0.20634513,-0.037491996,0.37921575
2478869747,0.19000223,-0.045141082,0.36734456
2478906200,0.20931657,-0.04514108,0.37328017
2478917714,0.20931657,-0.039021812,0.361409
2478930129,0.19297366,-0.029842913,0.37476408
2478954089,0.212288,-0.014544743,0.3628929
2478965680,0.19891654,-0.031372726,0.36882848
2478980647,0.19743082,-0.043611262,0.36882848
2478993554,0.20634513,-0.037491996,0.36882848
2479005750,0.20040226,-0.022193829,0.3658607
2479019057,0.19297366,-0.022193829,0.3658607
2479044640,0.19891654,-0.031372726,0.36734456
2479058071,0.20040226,-0.026783278,0.37179625
2479069951,0.19000223,-0.028313097,0.37624794
2479093623,0.19000223,-0.037492,0.37328017
2479106461,0.20040226,-0.029842913,0.38366744
2479141646,0.19000223,-0.028313097,0.37921575
2479156063,0.19594511,-0.028313097,0.36734456
2479168805,0.20931657,-0.037491996,0.37476408
2479181571,0.20188798,-0.025253464,0.37624794
2479193735,0.20634513,-0.031372726,0.3628929
2479205664,0.20931657,-0.022193827,0.37179625
2479220563,0.21823087,-0.025253462,0.37624794
2479232781,0.19594511,-0.028313097,0.37624794
2479245474,0.20040226,-0.022193829,0.38069963
2479257930,0.19148795,-0.019134196,0.3658607
2479269650,0.20931657,-0.037491996,0.38218355
2479281932,0.20040226,-0.013014928,0.37773186
2479306277,0.20040226,-0.032902543,0.3940547
2479317727,0.19891654,-0.032902543,0.37624794
2479330515,0.20188798,-0.028313097,0.38218355
2479365609,0.19297366,-0.032902543,0.361409
2479380552,0.20634513,-0.032902543,0.37328017
2479393538,0.20634513,-0.025253462,0.37328017
2479405707,0.19000223,-0.037492,0.37328017
2479418519,0.21377371,-0.029842911,0.38366744
2479431155,0.20040226,-0.022193829,0.36882848
2479444161,0.19891654,-0.020664012,0.38218355
2479456852,0.19148795,-0.032902546,0.38069963
2479468693,0.19743082,-0.039021812,0.37476408
2479493614,0.19297366,-0.019134196,0.3554734
2479517703,0.19148795,-0.037492,0.3628929
2479530028,0.20634513,-0.031372726,0.3628929
2479541755,0.19000223,-0.034432363,0.37921575
2479554100,0.20040226,-0.037491996,0.37773186
2479565738,0.19743082,-0.026783278,0.37179625
2479592830,0.19891654,-0.028313097,0.37624794
2479628720,0.19891654,-0.040551625,0.3628929
2479652591,0.212288,-0.025253462,0.37624794
2479665376,0.20188798,-0.028313097,0.37921575
2479677521,0.18703079,-0.029842913,0.37476408
2479706141,0.19000223,-0.037492,0.37624794
2479730048,0.20337369,-0.026783276,0.37179625
2479741611,0.19148795,-0.028313097,0.37624794
2479753938,0.19148795,-0.037492,0.37179625
2479765769,0.20040226,-0.037491996,0.37773186
2479778087,0.19297366,-0.029842913,0.37773186
2479804432,0.20188798,-0.037491996,0.37328017
2479829576,0.19743082,-0.029842913,0.37773186
2479841936,0.18405935,-0.037492,0.37773186
2479866416,0.19743082,-0.032902543,0.36882848
2479890424,0.18108793,-0.02219383,0.3658607
2479925627,0.19148795,-0.034432363,0.37328017
2479949618,0.19297366,-0.029842913,0.37179625
2479962179,0.18257365,-0.019134196,0.36734456
2479997707,0.19000223,-0.05431998,0.38218355
2480010253,0.20040226,-0.01607456,0.37476408
2480021604,0.212288,-0.028313095,0.36734456
2480034989,0.19891654,-0.031372726,0.36734456
2480047234,0.19297366,-0.029842913,0.37773186
2480060041,0.19891654,-0.03443236,0.36882848
2480084020,0.19297366,-0.040551625,0.38366744
2480095733,0.20337369,-0.037491996,0.37773186
2480107960,0.20634513,-0.025253462,0.38218355
2480131657,0.20188798,-0.020664012,0.3628929
2480143737,0.19000223,-0.034432363,0.38218355
2480155679,0.20337369,-0.039021812,0.37179625
2480182142,0.19148795,-0.04055163,0.37328017
2480219645,0.20188798,-0.03443236,0.3628929
2480243327,0.19297366,-0.043611262,0.36882848
2480267686,0.19148795,-0.028313097,0.37328017
2480279296,0.20040226,-0.032902543,0.36882848
2480291565,0.19891654,-0.025253464,0.35844123
2480327704,0.19148795,-0.037492,0.37773186
2480339940,0.19148795,-0.0466709,0.3599251
2480363771,0.19743082,-0.019134196,0.3658607
2480375781,0.18405935,-0.043611266,0.37476408
2480399746,0.19000223,-0.025253464,0.36882848
2480411887,0.19891654,-0.04514108,0.37921575
2480423195,0.19743082,-0.022193829,0.37773186
2480447694,0.19743082,-0.029842913,0.36882848
2480459785,0.19594511,-0.014544745,0.38218355
2480483692,0.20188798,-0.014544744,0.37624794
2480495129,0.19000223,-0.03137273,0.37624794
2480543824,0.19148795,-0.020664012,0.37624794
2480555802,0.20188798,-0.03443236,0.37921575
2480567652,0.19297366,-0.04973053,0.3658607
2480582142,0.18703079,-0.01607456,0.3658607
2480607262,0.20040226,-0.032902543,0.3658607
2480619856,0.18405935,-0.009955296,0.37773186
2480631680,0.20337369,-0.022193827,0.37179625
2480643849,0.18554509,-0.014544746,0.35398954
2480667757,0.19148795,-0.026783278,0.3658607
2480692110,0.20783085,-0.026783276,0.37179625
2480703658,0.18405935,-0.026783278,0.38663524
2480715752,0.18405935,-0.01607456,0.36882848
2480727783,0.19594511,-0.020664012,0.37921575
2480739668,0.19891654,-0.025253464,0.3628929
2480751138,0.19743082,-0.022193829,0.37773186
2480775746,0.20040226,-0.019134196,0.361409
2480799652,0.19297366,-0.019134196,0.37476408
2480823206,0.20040226,-0.037491996,0.37476408
2480836096,0.19148795,-0.034432363,0.3599251
2480847664,0.19594511,-0.011485112,0.37328017
2480860000,0.19743082,-0.032902543,0.37773186
2480871652,0.18554509,-0.034432363,0.36882848
2480884157,0.19594511,-0.04514108,0.37624794
2480895840,0.19891654,-0.028313097,0.37921575
2480932022,0.19743082,-0.028313097,0.37773186
2480943552,0.19743082,-0.039021812,0.37773186
2480955853,0.19297366,-0.029842913,0.37773186
2480982311,0.19148795,-0.037492,0.3881191
2480994947,0.18405935,-0.019134196,0.38663524
2481007215,0.19297366,-0.019134196,0.37476408
2481019928,0.17365932,-0.029842915,0.38663524
2481043990,0.19891654,-0.031372726,0.37921575
2481055685,0.19891654,-0.019134196,0.36734456
2481067767,0.20040226,-0.022193829,0.37476408
2481091705,0.19891654,-0.025253464,0.37328017
2481103786,0.19148795,-0.028313097,0.38218355
2481115743,0.16474503,-0.014544748,0.37624794
2481139745,0.19297366,-0.029842913,0.37476408
2481151741,0.18703079,-0.029842913,0.37476408
2481175114,0.19891654,-0.031372726,0.37921575
2481187550,0.19297366,-0.037491996,0.38366744
2481199656,0.19148795,-0.037492,0.3658607
2481223000,0.18257365,-0.020664012,0.3628929
2481235862,0.20337369,-0.029842911,0.37476408
2481259615,0.20040226,-0.032902543,0.37476408
2481271130,0.19148795,-0.034432363,0.37921575
2481283656,0.19000223,-0.034432363,0.37921575
2481307655,0.19148795,-0.025253464,0.35844123
2481319279,0.19891654,-0.020664012,0.3599251
2481331617,0.19148795,-0.04055163,0.3628929
2481355560,0.17663077,-0.032902546,0.38366744
2481367146,0.18703079,-0.029842913,0.37179625
2481391266,0.19148795,-0.037492,0.38218355
2481403863,0.19148795,-0.032902546,0.37476408
2481415734,0.18257365,-0.028313097,0.37624794
2481439772,0.18554509,-0.028313097,0.37624794
2481463121,0.19000223,-0.03137273,0.37624794
2481475358,0.18405935,-0.022193829,0.37773186
2481487164,0.19000223,-0.03137273,0.37921575
2481499644,0.19297366,-0.026783278,0.38366744
2481523842,0.19148795,-0.04055163,0.36734456
2481535728,0.19148795,-0.037492,0.37624794
2481547377,0.19594511,-0.037491996,0.37921575
2481571863,0.18554509,-0.045141082,0.37624794
2481583638,0.20040226,-0.046670895,0.37773186
2481595398,0.19148795,-0.01607456,0.37179625
2481607119,0.18257365,-0.028313097,0.38218355
2481619639,0.19148795,-0.037492,0.38218355
2481631112,0.19297366,-0.029842913,0.36882848
2481655152,0.18703079,-0.032902546,0.38069963
2481667548,0.19148795,-0.019134196,0.37921575
2481715718,0.19148795,-0.037492,0.38218355
2481739780,0.20634513,-0.031372726,0.38663524
2481751174,0.18257365,-0.028313097,0.35844123
2481787639,0.20337369,-0.037491996,0.38069963
2481799192,0.18554509,-0.037492,0.37921575
2481811574,0.16920218,-0.037492,0.37624794
2481835292,0.18703079,-0.032902546,0.36882848
2481847219,0.17960219,-0.034432363,0.38663524
2481871693,0.19000223,-0.037492,0.37179625
2481883730,0.18554509,-0.028313097,0.36882848
2481895711,0.20188798,-0.040551625,0.36734456
2481932029,0.19594511,-0.046670895,0.3925708
2481943792,0.19000223,-0.03137273,0.37921575
2481967770,0.19148795,-0.034432363,0.35398954
2482010401,0.18108793,-0.0466709,0.37773186
2482023139,0.19891654,-0.031372726,0.37624794
2482035865,0.18554509,-0.028313097,0.36882848
2482047683,0.18703079,-0.0466709,0.37773186
2482059861,0.17960219,-0.04055163,0.37328017
2482083671,0.19000223,-0.034432363,0.37921575
2482095225,0.20634513,-0.037491996,0.38663524
2482107644,0.19297366,-0.032902543,0.36882848
2482131384,0.19148795,-0.025253464,0.37328017
2482143324,0.18554509,-0.0466709,0.38218355
2482155594,0.18405935,-0.032902546,0.37179625
2482167418,0.19148795,-0.043611266,0.37476408
2482182122,0.19148795,-0.037492,0.3658607
2482219899,0.19297366,-0.05279016,0.36882848
2482231672,0.19148795,-0.037492,0.3658607
2482243826,0.18703079,-0.039021816,0.37179625
2482267665,0.19148795,-0.034432363,0.37624794
2482291735,0.18108793,-0.039021816,0.36882848
2482327781,0.20040226,-0.029842913,0.36882848
2482351673,0.19000223,-0.04055163,0.36882848
2482363757,0.19743082,-0.032902543,0.37476408
2482399673,0.19148795,-0.032902546,0.3599251
2482412103,0.19297366,-0.05279016,0.361409
2482423277,0.20188798,-0.040551625,0.37921575
2482437993,0.19000223,-0.05126035,0.37921575
2482450339,0.19148795,-0.037492,0.3599251
2482463264,0.20188798,-0.046670895,0.37328017
2482475578,0.19000223,-0.025253464,0.36734456
2482487209,0.19148795,-0.0466709,0.38366744
2482499952,0.19297366,-0.043611262,0.38663524
2482511801,0.18554509,-0.045141082,0.3599251
2482535766,0.19594511,-0.037491996,0.3628929
2482547772,0.18554509,-0.0466709,0.36882848
2482559334,0.20337369,-0.04973053,0.3658607
2482571648,0.20931657,-0.037491996,0.37773186
2482583348,0.19743082,-0.039021812,0.3658607
2482619572,0.20040226,-0.032902543,0.36882848
2482631062,0.19891654,-0.04514108,0.36734456
2482643699,0.19148795,-0.0466709,0.36734456
2482667558,0.20040226,-0.037491996,0.37476408
2482679234,0.18703079,-0.039021816,0.37179625
2482691677,0.19743082,-0.037491996,0.37476408
2482703757,0.19148795,-0.039021816,0.361409
2482715668,0.18405935,-0.049730532,0.37773186
2482727872,0.19297366,-0.043611262,0.37179625
2482739771,0.19148795,-0.043611266,0.37328017
2482751685,0.19148795,-0.025253464,0.3599251
2482763805,0.19743082,-0.055849794,0.3658607
2482775024,0.18703079,-0.037492,0.361409
2482799773,0.20783085,-0.04973053,0.37179625
2482835384,0.19891654,-0.046670895,0.36734456
2482859687,0.19297366,-0.046670895,0.38366744
2482883312,0.19743082,-0.039021812,0.37179625
2482907569,0.19148795,-0.049730532,0.3658607
2482919778,0.18405935,-0.026783278,0.37179625
2482934033,0.18703079,-0.039021816,0.3658607
2482947241,0.19891654,-0.046670895,0.3628929
2482959336,0.18405935,-0.058909435,0.38069963
2482972152,0.212288,-0.03443236,0.3628929
2482983061,0.18703079,-0.032902546,0.3658607
2482995879,0.19743082,-0.04973053,0.37773186
2483007687,0.19148795,-0.034432363,0.36882848
2483022100,0.18703079,-0.043611266,0.36882848
2483047146,0.20634513,-0.040551625,0.37921575
2483059856,0.16920218,-0.045141082,0.36734456
2483095139,0.18108793,-0.055849798,0.37179625
2483107572,0.19594511,-0.031372726,0.37624794
2483119218,0.20634513,-0.046670895,0.38218355
2483143864,0.19000223,-0.034432363,0.36734456
2483155685,0.19148795,-0.037492,0.36734456
2483179737,0.19594511,-0.037491996,0.36882848
2483190968,0.19594511,-0.040551625,0.37328017
2483203883,0.19891654,-0.031372726,0.36882848
2483227737,0.19743082,-0.043611262,0.37179625
2483239674,0.18703079,-0.022193829,0.3599251
2483251556,0.19594511,-0.031372726,0.38663524
2483275297,0.19148795,-0.0466709,0.37476408
2483287312,0.18405935,-0.037492,0.37773186
2483323786,0.19891654,-0.028313097,0.37328017
2483335757,0.18554509,-0.037492,0.38218355
2483359208,0.19148795,-0.0466709,0.36882848
2483395678,0.19148795,-0.03137273,0.36882848
2483407039,0.20931657,-0.046670895,0.3628929
2483419755,0.20040226,-0.043611262,0.37476408
2483443686,0.20040226,-0.037491996,0.3554734
2483454982,0.18554509,-0.045141082,0.36882848
2483467562,0.18108793,-0.049730532,0.36882848
2483491865,0.19594511,-0.040551625,0.37624794
2483503064,0.20188798,-0.046670895,0.37624794
2483527755,0.19148795,-0.0466709,0.37328017
2483539793,0.17960219,-0.04055163,0.36882848
2483551230,0.18703079,-0.043611266,0.37773186
2483575736,0.20188798,-0.040551625,0.37328017
2483587580,0.19148795,-0.039021816,0.37773186
2483599176,0.18554509,-0.0466709,0.36882848
2483623234,0.18554509,-0.045141082,0.3628929
2483635526,0.19297366,-0.046670895,0.37773186
2483659724,0.17365932,-0.0466709,0.36882848
2483671058,0.16474503,-0.037492,0.38663524
2483708124,0.17663077,-0.0466709,0.37179625
2483719707,0.20634513,-0.040551625,0.36882848
2483731705,0.19891654,-0.051260345,0.36882848
2483743723,0.19148795,-0.019134196,0.361409
2483755833,0.19891654,-0.04514108,0.38663524
2483767706,0.19148795,-0.05126035,0.38218355
2483791198,0.19000223,-0.045141082,0.37624794
2483803669,0.19000223,-0.045141082,0.36734456
2483815766,0.19148795,-0.037492,0.36882848
2483839325,0.19000223,-0.034432363,0.37624794
2483851325,0.19148795,-0.03137273,0.36734456
2483875595,0.19148795,-0.032902546,0.36882848
2483887205,0.20188798,-0.040551625,0.36734456
2483899622,0.19000223,-0.03137273,0.3599251
2483925346,0.20188798,-0.031372726,0.36734456
2483936853,0.19000223,-0.037492,0.37624794
2483984790,0.19743082,-0.046670895,0.37476408
2483997501,0.18703079,-0.037492,0.37179625
2484008789,0.19148795,-0.0466709,0.37773186
2484023611,0.19297366,-0.043611262,0.3658607
2484061217,0.19594511,-0.040551625,0.3628929
2484085523,0.17663077,-0.052790165,0.38366744
2484109698,0.19000223,-0.025253464,0.37921575
2484121650,0.19000223,-0.034432363,0.37921575
2484133653,0.19000223,-0.045141082,0.38218355
2484145646,0.19297366,-0.026783278,0.36882848
2484159655,0.18257365,-0.03137273,0.37921575
2484172037,0.20634513,-0.031372726,0.36882848
2484184759,0.20188798,-0.03443236,0.3599251
2484197281,0.18554509,-0.0466709,0.37328017
2484221169,0.18405935,-0.032902546,0.36882848
2484232908,0.18257365,-0.025253464,0.35844123
2484280735,0.18554509,-0.028313097,0.37624794
2484293318,0.17663077,-0.028313098,0.37773186
2484304785,0.17663077,-0.029842915,0.37773186
2484317192,0.18405935,-0.032902546,0.36882848
2484328859,0.20040226,-0.013014928,0.38069963
2484352745,0.17663077,-0.0466709,0.37773186
2484365637,0.18703079,-0.037492,0.36882848
2484376832,0.17663077,-0.0466709,0.37773186
2484404155,0.18703079,-0.039021816,0.36882848
2484415743,0.18554509,-0.025253464,0.37921575
2484428976,0.19000223,-0.014544745,0.37328017
2484440752,0.17514506,-0.025253465,0.36882848
2484453557,0.19000223,-0.019134196,0.38663524
2484464735,0.17217362,-0.034432363,0.38218355
2484488812,0.17960219,-0.03137273,0.36734456
2484501328,0.20634513,-0.03443236,0.38663524
2484512783,0.17514506,-0.025253465,0.37624794
2484540984,0.19000223,-0.014544745,0.38218355
2484565160,0.18703079,-0.037492,0.361409
2484576753,0.16771646,-0.019134197,0.38069963
2484589366,0.18703079,-0.026783278,0.37773186
2484600725,0.18703079,-0.022193829,0.37773186
2484613780,0.17663077,-0.029842915,0.37179625
2484625651,0.18257365,-0.019134196,0.36882848
2484637756,0.17514506,-0.020664014,0.36734456
2484649646,0.17514506,-0.008425481,0.37328017
2484661689,0.18257365,-0.014544746,0.36882848
2484673625,0.19743082,-0.029842913,0.37476408
2484709319,0.19000223,-0.020664012,0.37328017
2484733615,0.19594511,-0.019134196,0.36734456
2484745682,0.18554509,-0.020664012,0.36882848
2484757675,0.19891654,-0.031372726,0.3599251
2484781247,0.18257365,-0.028313097,0.36882848
2484792864,0.17217362,-0.014544747,0.37624794
2484805451,0.17960219,-0.019134197,0.37624794
2484829270,0.18703079,-0.022193829,0.36882848
2484853286,0.17217362,-0.020664014,0.38218355
2484877346,0.18108793,-0.009955296,0.37476408
2484888800,0.18703079,-0.022193829,0.36882848
2484912839,0.19297366,-0.01607456,0.36882848
2484925284,0.17514506,-0.019134197,0.37624794
2484936715,0.17514506,-0.03137273,0.37624794
2484950319,0.18108793,-0.02219383,0.37773186
2484961709,0.17365932,-0.02219383,0.3599251
2484975720,0.18108793,-0.037492,0.36882848
2484988793,0.17960219,-0.011485113,0.37624794
2485000951,0.18108793,-0.019134197,0.36882848
2485024814,0.16771646,-0.019134197,0.38069963
2485048846,0.17960219,-0.019134197,0.36882848
2485061639,0.18703079,-0.0068956623,0.37179625
2485109645,0.18257365,-0.014544746,0.36734456
2485120732,0.19000223,-0.014544745,0.37921575
2485133442,0.19148795,-0.013014929,0.361409
2485144795,0.18257365,-0.014544746,0.38663524
2485192746,0.17663077,-0.032902546,0.36882848
2485205433,0.19000223,-0.019134196,0.37328017
2485229425,0.19594511,-0.011485112,0.37328017
2485241606,0.18108793,-0.019134197,0.37476408
2485264918,0.17365932,-0.02678328,0.37476408
2485277378,0.19148795,-0.014544745,0.36734456
2485288940,0.18257365,-0.028313097,0.37921575
2485312710,0.19594511,-0.025253464,0.37328017
2485326322,0.19000223,-0.019134196,0.37921575
2485337707,0.19594511,-0.014544745,0.3881191
2485351384,0.17217362,-0.019134197,0.3925708
2485363974,0.17663077,-0.016074562,0.38069963
2485375784,0.18405935,-0.01301493,0.37773186
2485400735,0.18257365,-0.020664012,0.37624794
2485424948,0.18257365,-0.028313097,0.37624794
2485437367,0.18405935,-0.019134196,0.36882848
2485472784,0.18257365,-0.011485113,0.36734456
2485485311,0.19148795,-0.025253464,0.37921575
2485496730,0.17514506,-0.014544747,0.3628929
2485509319,0.17663077,-0.016074562,0.37179625
2485520798,0.19148795,-0.002306212,0.37179625
2485533183,0.17365932,-0.029842915,0.37476408
2485544932,0.18405935,-0.026783278,0.361409
2485557159,0.17217362,-0.034432363,0.37624794
2485583601,0.17960219,-0.011485113,0.37921575
2485621604,0.20337369,-0.026783276,0.38069963
2485633166,0.18703079,-0.029842913,0.3658607
2485656923,0.18108793,-0.019134197,0.37179625
2485669306,0.19000223,-0.028313097,0.37328017
2485693316,0.19148795,-0.03137273,0.3628929
2485704826,0.17514506,-0.03137273,0.37921575
2485717639,0.20931657,-0.03443236,0.37328017
2485741425,0.19594511,-0.019134196,0.3628929
2485752959,0.18554509,-0.020664012,0.36882848
2485765288,0.18108793,-0.01301493,0.361409
2485791613,0.17663077,-0.029842915,0.37179625
2485803997,0.18108793,-0.016074562,0.36882848
2485828551,0.18405935,-0.032902546,0.37476408
2485840737,0.18703079,-0.029842913,0.37476408
2485853249,0.18257365,-0.020664012,0.37328017
2485876950,0.19148795,-0.01607456,0.37179625
2485888986,0.19594511,-0.03443236,0.37328017
2485925721,0.19594511,-0.028313097,0.36734456
2485937651,0.19594511,-0.037491996,0.36882848
2485949763,0.20040226,-0.026783278,0.38069963
2485961785,0.20040226,-0.039021812,0.37773186
2485973617,0.19297366,-0.032902543,0.37773186
2485985628,0.18108793,-0.02219383,0.361409
2486008916,0.18703079,-0.032902546,0.37773186
2486021268,0.18703079,-0.026783278,0.361409
2486032835,0.20337369,-0.022193827,0.36882848
2486045242,0.20188798,-0.040551625,0.37921575
2486056851,0.18703079,-0.032902546,0.361409
2486069189,0.18703079,-0.022193829,0.3599251
2486093458,0.19148795,-0.032902546,0.3658607
2486104920,0.18405935,-0.019134196,0.37179625
2486152807,0.19148795,-0.034432363,0.37921575
2486167658,0.19594511,-0.020664012,0.37328017
2486180946,0.19297366,-0.029842913,0.3658607
2486192723,0.18703079,-0.039021816,0.37476408
2486205396,0.19891654,-0.028313097,0.36734456
2486216705,0.18257365,-0.025253464,0.3599251
2486229697,0.19594511,-0.040551625,0.36734456
2486241657,0.18257365,-0.037492,0.36734456
2486253444,0.18257365,-0.025253464,0.3599251
2486264846,0.19594511,-0.028313097,0.37328017
2486277393,0.19594511,-0.031372726,0.36882848
2486301615,0.17514506,-0.045141082,0.3628929
2486313675,0.18257365,-0.028313097,0.37328017
2486325695,0.19148795,-0.034432363,0.3628929
2486360876,0.18405935,-0.037492,0.35250562
2486388560,0.18405935,-0.01301493,0.3955386
2486400778,0.17217362,-0.028313098,0.34805393
2486437629,0.19594511,-0.037491996,0.36882848
2486448744,0.18703079,-0.037492,0.3658607
2486461350,0.19148795,-0.032902546,0.37476408
2486485280,0.19148795,-0.037492,0.36734456
2486497212,0.19148795,-0.0466709,0.38663524
2486521645,0.18554509,-0.03137273,0.35844123
2486533702,0.19148795,-0.034432363,0.35398954
2486544749,0.18554509,-0.03137273,0.35398954
2486581276,0.19297366,-0.037491996,0.36882848
2486592713,0.18703079,-0.039021816,0.37179625
2486616744,0.19594511,-0.051260345,0.36882848
2486629184,0.19891654,-0.03443236,0.3628929
2486652981,0.16920218,-0.028313098,0.36734456
2486664780,0.19891654,-0.020664012,0.36882848
2486676929,0.19891654,-0.019134196,0.38218355
2486701001,0.19891654,-0.037491996,0.37328017
2486712840,0.17663077,-0.032902546,0.36882848
2486725571,0.20040226,-0.039021812,0.38366744
2486760717,0.17960219,-0.037492,0.36882848
2486788570,0.19148795,-0.045141082,0.37476408
2486800820,0.18554509,-0.037492,0.3628929
2486813622,0.17663077,-0.032902546,0.36882848
2486837795,0.18703079,-0.032902546,0.3599251
2486863807,0.18108793,-0.0068956628,0.3658607
2486877235,0.17960219,-0.034432363,0.36734456
2486888829,0.19594511,-0.031372726,0.37328017
2486912754,0.19148795,-0.026783278,0.361409
2486925780,0.17365932,-0.049730532,0.36882848
2486936768,0.18703079,-0.032902546,0.3658607
2486975764,0.19297366,-0.05279016,0.37476408
2487000851,0.18703079,-0.043611266,0.37179625
2487013176,0.19148795,-0.045141082,0.37624794
2487024799,0.18405935,-0.029842913,0.36882848
2487048811,0.17960219,-0.028313098,0.35844123
2487061573,0.19148795,-0.026783278,0.3658607
2487072770,0.18703079,-0.019134196,0.36882848
2487096864,0.19743082,-0.032902543,0.38960302
2487109438,0.19743082,-0.029842913,0.36882848
2487133369,0.19000223,-0.025253464,0.36882848
2487144853,0.18257365,-0.028313097,0.3628929
2487157381,0.19148795,-0.045141082,0.36734456
2487196127,0.18257365,-0.034432363,0.3599251
2487208873,0.18703079,-0.026783278,0.37179625
2487232744,0.19148795,-0.039021816,0.37476408
2487245256,0.20188798,-0.025253464,0.37328017
2487256775,0.19148795,-0.019134196,0.3554734
2487269195,0.18554509,-0.03137273,0.3628929
2487293356,0.19000223,-0.028313097,0.36882848
2487317340,0.18405935,-0.022193829,0.361409
2487340979,0.19000223,-0.04055163,0.35844123
2487352712,0.19000223,-0.03137273,0.37328017
2487365166,0.19743082,-0.026783278,0.37773186
2487376745,0.18257365,-0.045141082,0.3599251
2487389371,0.19743082,-0.029842913,0.37179625
2487400758,0.18554509,-0.04055163,0.36882848
2487412893,0.19297366,-0.029842913,0.3599251
2487424803,0.19148795,-0.037492,0.38069963
2487448926,0.18703079,-0.049730532,0.3658607
2487461380,0.18554509,-0.025253464,0.37328017
2487485354,0.18257365,-0.04055163,0.37328017
2487509499,0.20337369,-0.022193827,0.37773186
2487533472,0.18554509,-0.034432363,0.36882848
2487545648,0.19594511,-0.025253464,0.36734456
2487593612,0.18405935,-0.029842913,0.37773186
2487605219,0.19594511,-0.04514108,0.38663524
2487616804,0.18108793,-0.052790165,0.37476408
2487628928,0.19891654,-0.037491996,0.36734456
2487640761,0.18405935,-0.032902546,0.3599251
2487664969,0.18108793,-0.03137273,0.3599251
2487677410,0.18108793,-0.032902546,0.3599251
2487689184,0.20634513,-0.03443236,0.37624794
2487712944,0.18257365,-0.037492,0.3599251
2487736834,0.19891654,-0.046670895,0.36882848
2487749247,0.18108793,-0.019134197,0.37476408
2487760832,0.19000223,-0.025253464,0.3599251
2487773506,0.19891654,-0.051260345,0.37624794
2487801366,0.18554509,-0.04055163,0.3599251
2487826586,0.18703079,-0.037492,0.3658607
2487839134,0.17663077,-0.037492,0.36882848
2487850317,0.20040226,-0.026783278,0.3658607
2487877549,0.19148795,-0.028313097,0.3628929
2487890397,0.19000223,-0.05126035,0.36882848
2487902565,0.19148795,-0.028313097,0.37921575
2487926871,0.18703079,-0.039021816,0.34953785
2487938767,0.20337369,-0.037491996,0.37773186
2487950858,0.18257365,-0.03137273,0.3628929
2487962750,0.18108793,-0.02678328,0.37179625
2487990847,0.18108793,-0.037492,0.38069963
2488002770,0.18405935,-0.037492,0.3658607
2488026773,0.17960219,-0.03137273,0.37624794
2488063312,0.19000223,-0.028313097,0.37624794
2488089271,0.19148795,-0.052790165,0.35250562
2488102817,0.18703079,-0.052790165,0.36882848
2488114581,0.18554509,-0.034432363,0.36882848
2488138364,0.19148795,-0.04055163,0.36882848
2488150851,0.18405935,-0.039021816,0.3554734
2488162357,0.20040226,-0.046670895,0.3554734
2488177424,0.19000223,-0.028313097,0.36882848
2488190907,0.18554509,-0.034432363,0.36882848
2488202908,0.18257365,-0.025253464,0.37921575
2488226874,0.17960219,-0.028313098,0.37328017
2488238757,0.17365932,-0.043611266,0.38960302
2488287146,0.17960219,-0.028313098,0.37624794
2488298856,0.17960219,-0.04055163,0.36734456
2488311109,0.18703079,-0.026783278,0.36882848
2488322765,0.19148795,-0.05126035,0.36882848
2488335151,0.18257365,-0.028313097,0.37921575
2488358981,0.17663077,-0.039021816,0.37179625
2488370802,0.19148795,-0.037492,0.35844123
2488385480,0.18108793,-0.043611266,0.3658607
2488410795,0.19743082,-0.046670895,0.3554734
2488422846,0.19743082,-0.029842913,0.3554734
2488434514,0.19000223,-0.020664012,0.3881191
2488446845,0.18257365,-0.03137273,0.37921575
2488458826,0.17663077,-0.029842915,0.37179625
2488470858,0.17960219,-0.045141082,0.37624794
2488495157,0.18108793,-0.02678328,0.3599251
2488518876,0.16474503,-0.037492,0.38069963
2488542794,0.19000223,-0.034432363,0.38663524
2488566928,0.17514506,-0.014544747,0.38218355
2488578390,0.18703079,-0.043611266,0.37773186
2488593327,0.17365932,-0.039021816,0.3658607
2488606913,0.18108793,-0.039021816,0.37476408
2488618438,0.18703079,-0.037492,0.36882848
2488630883,0.17663077,-0.037492,0.37179625
2488642339,0.17960219,-0.028313098,0.36734456
2488655072,0.18554509,-0.014544746,0.37921575
2488666599,0.18554509,-0.034432363,0.36882848
2488678924,0.17514506,-0.03137273,0.37921575
2488714516,0.16474503,-0.028313098,0.38663524
2488738583,0.17663077,-0.032902546,0.38069963
2488750952,0.16474503,-0.045141082,0.37921575
2488775001,0.18108793,-0.037492,0.38366744
2488801444,0.18554509,-0.028313097,0.38663524
2488815077,0.17365932,-0.0466709,0.3658607
2488839063,0.1706879,-0.037492,0.38663524
2488850774,0.1706879,-0.043611266,0.38960302
2488863068,0.16028787,-0.032902546,0.37179625
2488886852,0.17217362,-0.03137273,0.37328017
2488898876,0.17217362,-0.020664014,0.37328017
2488911024,0.17217362,-0.037492,0.37624794
2488946767,0.18405935,-0.039021816,0.38069963
2488970425,0.19000223,-0.020664012,0.3510217
2488985357,0.1706879,-0.016074562,0.37179625
2489014849,0.17960219,-0.03137273,0.37624794
2489026870,0.16474503,-0.037492,0.37179625
2489050787,0.17365932,-0.02678328,0.37773186
2489062744,0.18554509,-0.020664012,0.3628929
2489074326,0.17365932,-0.029842915,0.37179625
2489086770,0.18108793,-0.032902546,0.37773186
2489098770,0.18554509,-0.028313097,0.38218355
2489111106,0.16474503,-0.025253465,0.37328017
2489122846,0.17663077,-0.043611266,0.38366744
2489134870,0.18257365,-0.045141082,0.38218355
2489146771,0.18554509,-0.04055163,0.37624794
2489158963,0.1632593,-0.03137273,0.36734456
2489185299,0.17663077,-0.016074562,0.37179625
2489201292,0.18108793,-0.043611266,0.38069963
2489238841,0.1706879,-0.037492,0.37476408
2489262845,0.18257365,-0.04055163,0.37921575
2489287029,0.18703079,-0.037492,0.36882848
2489298593,0.17663077,-0.02678328,0.38069963
2489310858,0.17365932,-0.032902546,0.36882848
2489322204,0.18108793,-0.032902546,0.3599251
2489334941,0.17663077,-0.037492,0.34953785
2489346392,0.18108793,-0.009955296,0.38069963
2489370754,0.17514506,-0.020664014,0.38218355
2489382804,0.17663077,-0.032902546,0.38366744
2489394785,0.18108793,-0.037492,0.37773186
2489418851,0.1706879,-0.037492,0.3658607
2489430983,0.17365932,-0.032902546,0.37179625
2489454973,0.1706879,-0.02219383,0.38069963
2489466326,0.17960219,-0.020664014,0.36734456
2489479003,0.19148795,-0.043611266,0.361409
2489505254,0.17365932,-0.037492,0.37773186
2489542933,0.17663077,-0.02678328,0.36882848
2489566845,0.17365932,-0.016074562,0.3658607
2489578728,0.17365932,-0.02219383,0.36882848
2489590892,0.18554509,-0.034432363,0.37328017
2489602760,0.17365932,-0.016074562,0.3658607
2489615379,0.1706879,-0.029842915,0.36882848
2489626421,0.18703079,-0.029842913,0.36882848
2489639199,0.18257365,-0.025253464,0.36882848
2489663322,0.17514506,-0.020664014,0.37328017
2489674314,0.19297366,-0.032902543,0.36882848
2489686868,0.18257365,-0.03137273,0.36734456
2489698755,0.18108793,-0.029842915,0.38366744
2489711207,0.19000223,-0.037492,0.36734456
2489722737,0.17663077,-0.02678328,0.38069963
2489736945,0.18257365,-0.04055163,0.35398954
2489749564,0.17663077,-0.037492,0.37179625
2489762340,0.17663077,-0.037492,0.37773186
2489817303,0.19594511,-0.014544745,0.36734456
2489830893,0.17960219,-0.03137273,0.3881191
2489842734,0.17960219,-0.037492,0.36882848
2489854855,0.17365932,-0.02678328,0.36882848
2489866359,0.18554509,-0.020664012,0.37624794
2489879047,0.17217362,-0.028313098,0.36734456
2489902998,0.16474503,-0.02678328,0.361409
2489929242,0.18703079,-0.026783278,0.3658607
2489942832,0.17663077,-0.037492,0.3658607
2489954557,0.18108793,-0.019134197,0.37179625
2489978721,0.17663077,-0.032902546,0.37476408
2489991030,0.19148795,-0.029842913,0.37773186
2490015288,0.18554509,-0.04055163,0.37328017
2490039148,0.18257365,-0.020664012,0.36734456
2490065301,0.16771646,-0.032902546,0.37773186
2490078868,0.17365932,-0.037492,0.3599251
2490090487,0.18257365,-0.025253464,0.36734456
2490118925,0.18554509,-0.057379615,0.37624794
2490142869,0.18405935,-0.01301493,0.361409
2490154764,0.17663077,-0.032902546,0.36882848
2490166838,0.19148795,-0.037492,0.34657004
2490178393,0.19148795,-0.043611266,0.38069963
2490190752,0.18405935,-0.043611266,0.3658607
2490202814,0.17663077,-0.039021816,0.38069963
2490214890,0.19000223,-0.025253464,0.3628929
2490226917,0.19000223,-0.03137273,0.3881191
2490250850,0.17514506,-0.028313098,0.38218355
2490274770,0.17514506,-0.05431998,0.36734456
2490298470,0.18108793,-0.037492,0.37179625
2490322781,0.17960219,-0.034432363,0.37328017
2490335303,0.17217362,-0.037492,0.3628929
2490346395,0.18108793,-0.037492,0.36882848
2490359229,0.17960219,-0.025253465,0.37328017
2490385359,0.18108793,-0.0466709,0.37179625
2490410813,0.19148795,-0.025253464,0.38218355
2490422935,0.17960219,-0.0466709,0.3628929
2490434580,0.19000223,-0.037492,0.38218355
2490458440,0.19148795,-0.032902546,0.3658607
2490470869,0.18554509,-0.037492,0.35844123
2490495143,0.18554509,-0.028313097,0.35844123
2490506865,0.17663077,-0.016074562,0.3599251
2490542853,0.18703079,-0.032902546,0.38069963
2490554397,0.17663077,-0.032902546,0.37476408
