timestamp,timestamp_sample,control[0],control[1],control[2],control[3],control[4],control[5],control[6],control[7]
2467875680,2467875435,-0.0285739,-0.015827358,-0.00086583645,0.5041633,0.0,0.0,0.0,-1.0
2468043712,2468043434,-0.03075385,-0.0153081445,0.0019765275,0.53885144,0.0,0.0,0.0,-1.0
2468087748,2468087434,-0.031121138,-0.013995484,0.0015202758,0.5472995,0.0,0.0,0.0,-1.0
2468127749,2468127434,-0.03199919,-0.018733714,-0.0011889891,0.55616635,0.0,0.0,0.0,-1.0
2468171714,2468171434,-0.023672074,-0.01149332,0.0022953085,0.56389475,0.0,0.0,0.0,-1.0
2468211709,2468211434,-0.037642844,-0.012731671,0.0007209011,0.5733008,0.0,0.0,0.0,-1.0
2468255753,2468255440,-0.021047892,-0.028690841,-0.005131084,0.58356273,0.0,0.0,0.0,-1.0
2468295740,2468295442,-0.04059897,-0.008676404,-0.021148304,0.5901595,0.0,0.0,0.0,-1.0
2468339703,2468339435,-0.032158926,-0.012284354,0.005849749,0.5999248,0.0,0.0,0.0,-1.0
2468379698,2468379435,-0.047413472,-0.02128233,-0.010830399,0.6083262,0.0,0.0,0.0,-1.0
2468423753,2468423435,-0.03959814,-0.014606456,0.004985503,0.6179936,0.0,0.0,0.0,-1.0
2468467649,2468467435,-0.03544992,-0.016726194,0.004613869,0.6266171,0.0,0.0,0.0,-1.0
2468511708,2468511435,-0.03345528,-0.017328113,0.0022433645,0.63696676,0.0,0.0,0.0,-1.0
2468551701,2468551435,-0.027318414,-0.013961542,0.0054615145,0.64549845,0.0,0.0,0.0,-1.0
2468595666,2468595435,-0.03036691,-0.019803029,0.0015451186,0.6552439,0.0,0.0,0.0,-1.0
2468635656,2468635435,-0.03259095,-0.019791823,0.0024449204,0.66400677,0.0,0.0,0.0,-1.0
2468679703,2468679435,-0.03706843,-0.019507391,0.0014323456,0.67304176,0.0,0.0,0.0,-1.0
2468719685,2468719435,-0.032526433,-0.016766809,0.0047945078,0.6816266,0.0,0.0,0.0,-1.0
2468763679,2468763442,-0.0048060277,0.00885486,0.008225125,0.6907237,0.0,0.0,0.0,-1.0
2468803841,2468803441,0.030763041,0.047816414,0.010127131,0.6882401,0.0,0.0,0.0,-1.0
2468847700,2468847435,0.089676306,0.09184979,-0.0032792017,0.693053,0.0,0.0,0.0,-1.0
2468887649,2468887438,0.10879757,0.1227184,-0.014729612,0.69674355,0.0,0.0,0.0,-1.0
2468931712,2468931470,0.08586015,0.078196086,-0.023973934,0.6682282,0.0,0.0,0.0,-1.0
2468975720,2468975435,0.05657564,0.022884652,-0.04325864,0.6307662,0.0,0.0,0.0,-1.0
2469019671,2469019443,0.06521565,0.008460227,-0.044448886,0.60920966,0.0,0.0,0.0,-1.0
2469063696,2469063435,0.08784508,0.05194208,-0.03379747,0.6005453,0.0,0.0,0.0,-1.0
2469103709,2469103435,0.09143684,0.0266662,-0.033077363,0.5697492,0.0,0.0,0.0,-1.0
2469147665,2469147435,0.05842422,-0.010146202,-0.04365825,0.5559949,0.0,0.0,0.0,-1.0
2469187839,2469187435,0.035109185,-0.014889112,-0.046356782,0.5408754,0.0,0.0,0.0,-1.0
2469231713,2469231441,0.013966056,-0.014626117,-0.031119889,0.53218687,0.0,0.0,0.0,-1.0
2469271700,2469271441,0.018446887,-0.009464271,-0.027068555,0.5261993,0.0,0.0,0.0,-1.0
2469315670,2469315435,0.005306155,-0.009940859,-0.031586863,0.5281142,0.0,0.0,0.0,-1.0
2469355672,2469355435,-0.010716576,-0.0020874096,-0.027528485,0.5217855,0.0,0.0,0.0,-1.0
2469399706,2469399435,-0.017420689,-0.0192592,-0.03131988,0.520325,0.0,0.0,0.0,-1.0
2469439696,2469439435,-0.020667147,-0.027975844,-0.030654117,0.52328414,0.0,0.0,0.0,-1.0
2469483654,2469483435,-0.02118192,-0.021886475,-0.033223346,0.5201041,0.0,0.0,0.0,-1.0
2469523660,2469523435,-0.03127127,-0.036994223,-0.032716777,0.5171411,0.0,0.0,0.0,-1.0
2469567698,2469567435,-0.041810594,-0.05025676,-0.030776542,0.5170695,0.0,0.0,0.0,-1.0
2469607691,2469607441,-0.05042252,-0.048113644,-0.029043024,0.5176357,0.0,0.0,0.0,-1.0
2469651651,2469651435,-0.0352752,-0.042622197,-0.03119411,0.5144463,0.0,0.0,0.0,-1.0
2469691664,2469691435,-0.025909536,-0.0456891,-0.03070468,0.5153898,0.0,0.0,0.0,-1.0
2469735708,2469735435,-0.022655996,-0.038847428,-0.027721401,0.51588815,0.0,0.0,0.0,-1.0
2469775652,2469775435,-0.021534523,-0.028590277,-0.02960161,0.51652336,0.0,0.0,0.0,-1.0
2469819676,2469819436,-0.010939198,-0.024413252,-0.025750194,0.51574636,0.0,0.0,0.0,-1.0
2469859714,2469859486,-0.016815776,-0.021235928,-0.023813572,0.515543,0.0,0.0,0.0,-1.0
2469903662,2469903435,-0.017579516,-0.023015644,-0.024793245,0.51649857,0.0,0.0,0.0,-1.0
2469943668,2469943441,-0.01594034,-0.027613886,-0.025420073,0.5179838,0.0,0.0,0.0,-1.0
2469987680,2469987451,-0.012445711,-0.029563148,-0.026852105,0.5181737,0.0,0.0,0.0,-1.0
2470027714,2470027485,-0.013074309,-0.027757771,-0.025032274,0.5176031,0.0,0.0,0.0,-1.0
2470071649,2470071435,-0.014528125,-0.02667824,-0.026743492,0.52013487,0.0,0.0,0.0,-1.0
2470111617,2470111435,-0.017672928,-0.026094893,-0.026902048,0.52076477,0.0,0.0,0.0,-1.0
2470155697,2470155489,-0.019665122,-0.027651906,-0.026872572,0.5215584,0.0,0.0,0.0,-1.0
2470195701,2470195476,-0.02528183,-0.0268588,-0.029973254,0.52575904,0.0,0.0,0.0,-1.0
2470239629,2470239435,-0.02425284,-0.02824902,-0.029720794,0.5283227,0.0,0.0,0.0,-1.0
2470279628,2470279435,-0.020843532,-0.022725584,-0.029990368,0.52740943,0.0,0.0,0.0,-1.0
2470323643,2470323443,-0.016759755,-0.021000765,-0.03023167,0.52696764,0.0,0.0,0.0,-1.0
2470363659,2470363435,-0.019697057,-0.021396548,-0.0334893,0.5275293,0.0,0.0,0.0,-1.0
2470407636,2470407435,-0.01681514,-0.01923675,-0.0333034,0.52748215,0.0,0.0,0.0,-1.0
2470447621,2470447435,-0.013827549,-0.013304044,-0.03794925,0.52592283,0.0,0.0,0.0,-1.0
2470491674,2470491443,-0.0129358675,-0.015180321,-0.03700331,0.5263325,0.0,0.0,0.0,-1.0
2470531691,2470531437,-0.014915825,-0.011853762,-0.037950404,0.52828586,0.0,0.0,0.0,-1.0
2470575626,2470575435,-0.015075311,-0.014837041,-0.039760087,0.52875435,0.0,0.0,0.0,-1.0
2470619689,2470619469,-0.015572576,-0.01528885,-0.036964774,0.5330716,0.0,0.0,0.0,-1.0
2470663648,2470663435,-0.018086504,-0.014555068,-0.035641115,0.5333928,0.0,0.0,0.0,-1.0
2470703653,2470703435,-0.01530648,-0.015170994,-0.03897144,0.53454566,0.0,0.0,0.0,-1.0
2470743665,2470743435,-0.011811187,-0.015137545,-0.03625951,0.5320951,0.0,0.0,0.0,-1.0
2470783669,2470783435,-0.009759709,-0.011115491,-0.036776077,0.5294966,0.0,0.0,0.0,-1.0
2470827699,2470827435,-0.009673424,-0.013528995,-0.036399815,0.53156227,0.0,0.0,0.0,-1.0
2470867681,2470867434,-0.01132996,-0.013426371,-0.03452568,0.53307253,0.0,0.0,0.0,-1.0
2470911660,2470911435,-0.012272519,-0.015444983,-0.035041012,0.53498244,0.0,0.0,0.0,-1.0
2470951681,2470951435,-0.008464527,-0.012715,-0.034792252,0.53243315,0.0,0.0,0.0,-1.0
2470995688,2470995435,-0.009327569,-0.01627848,-0.0343853,0.5366074,0.0,0.0,0.0,-1.0
2471035676,2471035435,-0.011632531,-0.017979825,-0.031049447,0.53721505,0.0,0.0,0.0,-1.0
2471079639,2471079435,-0.010989482,-0.020853681,-0.031510614,0.53834534,0.0,0.0,0.0,-1.0
2471119663,2471119435,-0.0096289525,-0.016529065,-0.032465752,0.5347371,0.0,0.0,0.0,-1.0
2471163711,2471163447,-0.010515233,-0.017364541,-0.030925158,0.53476256,0.0,0.0,0.0,-1.0
2471203696,2471203435,-0.010944633,-0.01736592,-0.031005077,0.5369155,0.0,0.0,0.0,-1.0
2471247643,2471247435,-0.011758919,-0.022041583,-0.030402876,0.5372878,0.0,0.0,0.0,-1.0
2471287664,2471287451,-0.012966871,-0.017464934,-0.028915176,0.53513825,0.0,0.0,0.0,-1.0
2471331677,2471331434,-0.012742724,-0.021162687,-0.028904997,0.5353121,0.0,0.0,0.0,-1.0
2471371690,2471371435,-0.013163393,-0.020300979,-0.029637367,0.5364436,0.0,0.0,0.0,-1.0
2471415663,2471415435,-0.013120659,-0.023546843,-0.029516133,0.5378491,0.0,0.0,0.0,-1.0
2471455645,2471455435,-0.011741703,-0.021767251,-0.027434664,0.5350063,0.0,0.0,0.0,-1.0
2471499694,2471499441,-0.0104486765,-0.020647498,-0.027757764,0.5346718,0.0,0.0,0.0,-1.0
2471539708,2471539437,-0.012132782,-0.018421255,-0.026178416,0.5340567,0.0,0.0,0.0,-1.0
2471583652,2471583435,-0.0106665315,-0.019785458,-0.025871836,0.5346019,0.0,0.0,0.0,-1.0
2471623657,2471623435,-0.012837565,-0.015043666,-0.02305948,0.53354245,0.0,0.0,0.0,-1.0
2471667687,2471667435,-0.013463458,-0.014394188,-0.022357589,0.53235507,0.0,0.0,0.0,-1.0
2471707679,2471707436,-0.01059847,-0.011815501,-0.022479042,0.53272563,0.0,0.0,0.0,-1.0
2471751657,2471751435,-0.011116143,-0.014108266,-0.022813471,0.5330739,0.0,0.0,0.0,-1.0
2471791652,2471791435,-0.015025753,-0.020958163,-0.020713234,0.5366385,0.0,0.0,0.0,-1.0
2471835696,2471835435,-0.014281402,-0.019634321,-0.020375742,0.53665656,0.0,0.0,0.0,-1.0
2471875734,2471875466,-0.015632128,-0.020810205,-0.019439254,0.5358056,0.0,0.0,0.0,-1.0
2471919667,2471919439,-0.013897054,-0.016383648,-0.019193355,0.5352312,0.0,0.0,0.0,-1.0
2471959653,2471959435,-0.014938218,-0.020375703,-0.019339493,0.53715044,0.0,0.0,0.0,-1.0
2472003695,2472003436,-0.014414102,-0.019584667,-0.018489497,0.53754956,0.0,0.0,0.0,-1.0
2472043658,2472043434,-0.013239857,-0.01765059,-0.019128637,0.5364364,0.0,0.0,0.0,-1.0
2472087650,2472087435,-0.011930266,-0.01771185,-0.017755302,0.5357173,0.0,0.0,0.0,-1.0
2472127655,2472127442,-0.009194276,-0.015037905,-0.018815417,0.5345599,0.0,0.0,0.0,-1.0
2472171703,2472171435,-0.010267869,-0.01755689,-0.016927667,0.53424054,0.0,0.0,0.0,-1.0
2472211656,2472211435,-0.01215449,-0.020165665,-0.014577279,0.5373259,0.0,0.0,0.0,-1.0
2472255659,2472255441,-0.012724776,-0.022548048,-0.015230546,0.5369512,0.0,0.0,0.0,-1.0
2472297338,2472297059,-0.011778691,-0.021197166,-0.014670929,0.53480124,0.0,0.0,0.0,-1.0
2472337306,2472337080,-0.009805295,-0.018031245,-0.014694072,0.53151,0.0,0.0,0.0,-1.0
2472381338,2472381041,-0.008996452,-0.019410193,-0.015113633,0.5331055,0.0,0.0,0.0,-1.0
2472421349,2472421077,-0.014337154,-0.0259101,-0.0136111975,0.53769845,0.0,0.0,0.0,-1.0
2472465320,2472465049,-0.015701452,-0.024946842,-0.015287759,0.5372898,0.0,0.0,0.0,-1.0
2472505319,2472505075,-0.016458219,-0.025746377,-0.014528902,0.53628707,0.0,0.0,0.0,-1.0
2472549340,2472549034,-0.018064396,-0.023823135,-0.015337866,0.5375479,0.0,0.0,0.0,-1.0
2472589320,2472589085,-0.016151858,-0.023400769,-0.016905311,0.535341,0.0,0.0,0.0,-1.0
2472633279,2472633035,-0.016505692,-0.024457078,-0.01644841,0.5373052,0.0,0.0,0.0,-1.0
2472673253,2472673037,-0.014390992,-0.023183238,-0.017921057,0.53434473,0.0,0.0,0.0,-1.0
2472717370,2472717061,-0.014182743,-0.02236843,-0.01706282,0.5344892,0.0,0.0,0.0,-1.0
2472757345,2472757090,-0.012576321,-0.022131637,-0.017057821,0.53479755,0.0,0.0,0.0,-1.0
2472801288,2472801035,-0.012609717,-0.021736236,-0.01705699,0.53592,0.0,0.0,0.0,-1.0
2472841292,2472841073,-0.013465504,-0.024993526,-0.016588463,0.53735334,0.0,0.0,0.0,-1.0
2472885339,2472885035,-0.011365238,-0.025570234,-0.015589923,0.5365669,0.0,0.0,0.0,-1.0
2472925345,2472925075,-0.011828271,-0.020770628,-0.016315151,0.53616506,0.0,0.0,0.0,-1.0
2472969305,2472969035,-0.0094093,-0.021446737,-0.014979454,0.53375524,0.0,0.0,0.0,-1.0
2473009284,2473009038,-0.011308689,-0.019693002,-0.016136922,0.5368925,0.0,0.0,0.0,-1.0
2473053328,2473053035,-0.011294718,-0.022349423,-0.014756626,0.5362806,0.0,0.0,0.0,-1.0
2473093333,2473093038,-0.010071321,-0.024068302,-0.013979338,0.53608537,0.0,0.0,0.0,-1.0
2473137332,2473137076,-0.012756985,-0.022465397,-0.013312969,0.53768265,0.0,0.0,0.0,-1.0
2473177522,2473177119,-0.0066260197,-0.019451706,-0.013599979,0.5335537,0.0,0.0,0.0,-1.0
2473221318,2473221035,-0.006390193,-0.017832512,-0.013616998,0.53438663,0.0,0.0,0.0,-1.0
2473261303,2473261076,-0.009529279,-0.02099342,-0.013746735,0.5393778,0.0,0.0,0.0,-1.0
2473305327,2473305039,-0.010154532,-0.021038992,-0.013112915,0.539754,0.0,0.0,0.0,-1.0
2473345300,2473345072,-0.008682754,-0.020758549,-0.008733722,0.5380434,0.0,0.0,0.0,-1.0
2473389338,2473389035,-0.008635314,-0.01915958,-0.009317105,0.53919756,0.0,0.0,0.0,-1.0
2473429291,2473429058,-0.008532621,-0.016907202,-0.009403009,0.5346461,0.0,0.0,0.0,-1.0
2473473326,2473473075,-0.008380943,-0.013954805,-0.009550671,0.53558457,0.0,0.0,0.0,-1.0
2473513325,2473513101,-0.012085718,-0.015677322,-0.011044607,0.53865725,0.0,0.0,0.0,-1.0
2473557310,2473557057,-0.011477357,-0.015741004,-0.011133036,0.5385909,0.0,0.0,0.0,-1.0
2473597285,2473597064,-0.01260395,-0.015681261,-0.008692004,0.53929514,0.0,0.0,0.0,-1.0
2473641317,2473641055,-0.011829632,-0.01521779,-0.00877961,0.53798413,0.0,0.0,0.0,-1.0
2473681299,2473681059,-0.009131459,-0.012277973,-0.008550409,0.5377278,0.0,0.0,0.0,-1.0
2473725298,2473725041,-0.01227045,-0.009917474,-0.007727678,0.53903806,0.0,0.0,0.0,-1.0
2473765285,2473765069,-0.009957552,-0.0060906545,-0.008887085,0.53591067,0.0,0.0,0.0,-1.0
2473809338,2473809041,-0.011176119,-0.0065041655,-0.008067617,0.5362637,0.0,0.0,0.0,-1.0
2473849317,2473849059,-0.013545471,-0.011233346,-0.007700068,0.5396568,0.0,0.0,0.0,-1.0
2473893305,2473893035,-0.01462332,-0.00869106,-0.008267759,0.5378787,0.0,0.0,0.0,-1.0
2473933293,2473933058,-0.01596334,-0.013094055,-0.0075512948,0.53914154,0.0,0.0,0.0,-1.0
2473973264,2473973034,-0.013483951,-0.014114209,-0.006958247,0.5366863,0.0,0.0,0.0,-1.0
2474017330,2474017073,-0.011934777,-0.01633045,-0.0071762027,0.5376686,0.0,0.0,0.0,-1.0
2474057306,2474057057,-0.012322492,-0.016086292,-0.008506819,0.53742534,0.0,0.0,0.0,-1.0
2474097329,2474097058,-0.011557912,-0.018430931,-0.008646438,0.53751266,0.0,0.0,0.0,-1.0
2474137302,2474137058,-0.0102448845,-0.016208299,-0.0074701672,0.53593963,0.0,0.0,0.0,-1.0
2474181266,2474181035,-0.008887819,-0.016664514,-0.007560813,0.536627,0.0,0.0,0.0,-1.0
2474225272,2474225035,-0.008531965,-0.016424729,-0.008478801,0.5372282,0.0,0.0,0.0,-1.0
2474265282,2474265035,-0.0066553275,-0.014995835,-0.009222979,0.5350124,0.0,0.0,0.0,-1.0
2474309310,2474309078,-0.004814508,-0.01576884,-0.009475289,0.5350746,0.0,0.0,0.0,-1.0
2474349253,2474349035,-0.00576788,-0.021021083,-0.010171298,0.5411834,0.0,0.0,0.0,-1.0
2474393336,2474393081,-0.006241408,-0.020957349,-0.010629756,0.5404403,0.0,0.0,0.0,-1.0
2474437313,2474437075,-0.006573145,-0.019795716,-0.011280315,0.5410998,0.0,0.0,0.0,-1.0
2474481289,2474481035,-0.0061296667,-0.018786898,-0.010668165,0.5399224,0.0,0.0,0.0,-1.0
2474521371,2474521086,-0.0073416648,-0.017846758,-0.010290762,0.5408813,0.0,0.0,0.0,-1.0
2474565274,2474565035,-0.0062003946,-0.01687846,-0.009963881,0.54007274,0.0,0.0,0.0,-1.0
2474605269,2474605072,-0.0040020715,-0.014573019,-0.011010362,0.5382859,0.0,0.0,0.0,-1.0
2474649300,2474649037,-0.0018194164,-0.016214803,-0.010013431,0.5372042,0.0,0.0,0.0,-1.0
2474689312,2474689075,-0.006527351,-0.014677838,-0.010956706,0.5410781,0.0,0.0,0.0,-1.0
2474733283,2474733035,-0.0072866916,-0.015375225,-0.010937973,0.5409616,0.0,0.0,0.0,-1.0
2474773271,2474773071,-0.006075384,-0.016338926,-0.00982671,0.54156107,0.0,0.0,0.0,-1.0
2474817326,2474817059,-0.008852024,-0.016124671,-0.009502888,0.5422618,0.0,0.0,0.0,-1.0
2474857342,2474857082,-0.004765405,-0.012912791,-0.011252381,0.5420496,0.0,0.0,0.0,-1.0
2474901271,2474901035,-0.007933417,-0.012181287,-0.010483727,0.54271644,0.0,0.0,0.0,-1.0
2474941267,2474941049,-0.0026063486,-0.01170943,-0.012112032,0.54070795,0.0,0.0,0.0,-1.0
2474985345,2474985035,-0.004940404,-0.011261779,-0.012315902,0.54060435,0.0,0.0,0.0,-1.0
2475025324,2475025071,-0.0061598523,-0.013646495,-0.012794886,0.5449254,0.0,0.0,0.0,-1.0
2475069287,2475069035,-0.0051889853,-0.01273439,-0.0125485305,0.54528165,0.0,0.0,0.0,-1.0
2475109294,2475109040,-0.0076398687,-0.012556273,-0.011762993,0.54650134,0.0,0.0,0.0,-1.0
2475153353,2475153061,-0.0069649117,-0.011148903,-0.012440896,0.5468068,0.0,0.0,0.0,-1.0
2475193337,2475193071,-0.005773028,-0.008918354,-0.011404007,0.5466355,0.0,0.0,0.0,-1.0
2475237298,2475237057,-0.0050020707,-0.008927793,-0.011411265,0.5466191,0.0,0.0,0.0,-1.0
2475277302,2475277083,-0.0015013431,-0.0061000623,-0.01192325,0.5445842,0.0,0.0,0.0,-1.0
2475317292,2475317069,-0.0021738987,-0.00569674,-0.013583374,0.5458149,0.0,0.0,0.0,-1.0
2475357298,2475357084,-0.004664095,-0.007185191,-0.012900541,0.548257,0.0,0.0,0.0,-1.0
2475401262,2475401035,-0.0031213576,-0.008290445,-0.013786114,0.54694146,0.0,0.0,0.0,-1.0
2475445256,2475445038,-0.00097354833,-0.00810372,-0.013627155,0.54743654,0.0,0.0,0.0,-1.0
2475485265,2475485040,-0.005456653,-0.008094039,-0.011705918,0.5476977,0.0,0.0,0.0,-1.0
2475525302,2475525035,-0.0069063846,-0.006037566,-0.01173176,0.54697883,0.0,0.0,0.0,-1.0
2475569258,2475569035,-0.0056618717,-0.006326775,-0.012393935,0.5470723,0.0,0.0,0.0,-1.0
2475613291,2475613058,-0.0031203534,-0.008523841,-0.012396081,0.5469476,0.0,0.0,0.0,-1.0
2475657357,2475657057,-0.0027231162,-0.0086093,-0.013768679,0.5483751,0.0,0.0,0.0,-1.0
2475697350,2475697076,-0.0033484565,-0.005292021,-0.013507727,0.5456521,0.0,0.0,0.0,-1.0
2475741326,2475741063,-0.0028916672,-0.0058006537,-0.013948607,0.5465956,0.0,0.0,0.0,-1.0
2475781277,2475781045,-0.00392335,-0.0035160126,-0.016542045,0.5461939,0.0,0.0,0.0,-1.0
2475825287,2475825035,-0.0022934265,-0.0029858209,-0.018432913,0.54561096,0.0,0.0,0.0,-1.0
2475865290,2475865072,-0.0057540545,-0.0076471474,-0.017552765,0.54772025,0.0,0.0,0.0,-1.0
2475909348,2475909074,-0.0035996747,-0.0071625225,-0.019249694,0.5472992,0.0,0.0,0.0,-1.0
2475949353,2475949075,-0.0057145883,-0.0076941014,-0.018595807,0.5463127,0.0,0.0,0.0,-1.0
2475993305,2475993041,-0.006442003,-0.00874506,-0.020130772,0.5462021,0.0,0.0,0.0,-1.0
2476033291,2476033075,-0.0064460533,-0.004612391,-0.022851998,0.5454265,0.0,0.0,0.0,-1.0
2476077360,2476077095,-0.0056182276,-0.006071022,-0.024271756,0.54601914,0.0,0.0,0.0,-1.0
2476117351,2476117090,-0.005357275,-0.004383073,-0.023361847,0.54378766,0.0,0.0,0.0,-1.0
2476158831,2476158635,-0.008046963,-0.007763591,-0.024072506,0.5465228,0.0,0.0,0.0,-1.0
2476202867,2476202635,-0.0044434424,-0.008467995,-0.026134329,0.54731196,0.0,0.0,0.0,-1.0
2476242820,2476242635,-0.006114359,-0.011902082,-0.026239231,0.54735535,0.0,0.0,0.0,-1.0
2476282820,2476282635,-0.0053050932,-0.009011109,-0.026543621,0.54536885,0.0,0.0,0.0,-1.0
2476326821,2476326635,-0.0036350915,-0.008405274,-0.027455565,0.5448895,0.0,0.0,0.0,-1.0
2476370834,2476370648,-0.0025722985,-0.008946708,-0.030097136,0.54577726,0.0,0.0,0.0,-1.0
2476410821,2476410635,-0.00038287806,-0.0073292125,-0.029503226,0.54331464,0.0,0.0,0.0,-1.0
2476450814,2476450635,-0.0038017558,-0.0077454867,-0.030117422,0.5453675,0.0,0.0,0.0,-1.0
2476494872,2476494682,-0.003074105,-0.009156744,-0.030254565,0.54659766,0.0,0.0,0.0,-1.0
2476534909,2476534660,-0.003597145,-0.008330369,-0.029637124,0.54558706,0.0,0.0,0.0,-1.0
2476574902,2476574635,-0.003043974,-0.004743485,-0.03226514,0.5435858,0.0,0.0,0.0,-1.0
2476618917,2476618647,-0.0022195207,-0.0072876047,-0.032588836,0.54337484,0.0,0.0,0.0,-1.0
2476662893,2476662684,-0.005674782,-0.008513743,-0.03373153,0.5451507,0.0,0.0,0.0,-1.0
2476702943,2476702635,-0.0066173775,-0.012006193,-0.031776525,0.5464713,0.0,0.0,0.0,-1.0
2476746841,2476746635,-0.009258091,-0.01068465,-0.032325637,0.5471415,0.0,0.0,0.0,-1.0
2476786893,2476786644,-0.009230036,-0.00887622,-0.032174125,0.547881,0.0,0.0,0.0,-1.0
2476830892,2476830681,-0.009807891,-0.009331899,-0.031462286,0.54769313,0.0,0.0,0.0,-1.0
2476870934,2476870646,-0.0047809617,-0.0080736065,-0.03408706,0.54526174,0.0,0.0,0.0,-1.0
2476910912,2476910635,-0.0072696055,-0.012709125,-0.033230346,0.5486356,0.0,0.0,0.0,-1.0
2476954897,2476954634,-0.0061683576,-0.0119049605,-0.033176776,0.5471468,0.0,0.0,0.0,-1.0
2476998878,2476998635,-0.007858519,-0.011514091,-0.032627724,0.5477577,0.0,0.0,0.0,-1.0
2477038907,2477038635,-0.006006047,-0.008374294,-0.030534036,0.54500425,0.0,0.0,0.0,-1.0
2477082835,2477082635,-0.0071172505,-0.005841042,-0.03153742,0.54626983,0.0,0.0,0.0,-1.0
2477122886,2477122635,-0.0035358733,-0.00705973,-0.031352192,0.54465485,0.0,0.0,0.0,-1.0
2477166916,2477166641,-0.0022227836,-0.0039356635,-0.03118222,0.5443177,0.0,0.0,0.0,-1.0
2477206941,2477206641,-0.0030258598,-0.009665758,-0.030902877,0.54730433,0.0,0.0,0.0,-1.0
2477250838,2477250635,-0.00034321903,-0.005504471,-0.03035177,0.5447917,0.0,0.0,0.0,-1.0
2477290882,2477290634,-0.0038536903,-0.0050350646,-0.027830234,0.5438112,0.0,0.0,0.0,-1.0
2477334875,2477334635,0.00044068263,-0.0023217902,-0.029915802,0.5419037,0.0,0.0,0.0,-1.0
2477374920,2477374635,0.00038057583,0.00019669952,-0.030539282,0.54155266,0.0,0.0,0.0,-1.0
2477418852,2477418635,0.0010668706,0.00059648335,-0.030513134,0.5397027,0.0,0.0,0.0,-1.0
2477458885,2477458635,0.0009641632,-0.0044669337,-0.029430341,0.54398793,0.0,0.0,0.0,-1.0
2477502905,2477502641,0.0016588047,-0.0043728165,-0.030817494,0.5434256,0.0,0.0,0.0,-1.0
2477546847,2477546635,3.5691053e-05,-0.007812192,-0.02879318,0.54612863,0.0,0.0,0.0,-1.0
2477586842,2477586635,-0.0010504312,-0.0034804773,-0.029476816,0.54348266,0.0,0.0,0.0,-1.0
2477630898,2477630647,-0.0026210393,-0.0071204356,-0.027265,0.545728,0.0,0.0,0.0,-1.0
2477670881,2477670635,4.199274e-05,-0.004175937,-0.02944752,0.5417468,0.0,0.0,0.0,-1.0
2477714864,2477714647,-0.0016188673,-0.0055557303,-0.028987179,0.54231346,0.0,0.0,0.0,-1.0
2477754843,2477754635,-0.0006559371,-0.0057304613,-0.029025491,0.5451855,0.0,0.0,0.0,-1.0
2477798884,2477798635,-0.0026171198,-0.0067913616,-0.028633581,0.54737055,0.0,0.0,0.0,-1.0
2477838885,2477838635,-0.0028315177,-0.010205404,-0.02606473,0.54717934,0.0,0.0,0.0,-1.0
2477882837,2477882635,-0.0035962393,-0.00673261,-0.026103364,0.5471702,0.0,0.0,0.0,-1.0
2477922859,2477922638,-0.0046607014,-0.006635008,-0.026154567,0.5464827,0.0,0.0,0.0,-1.0
2477962924,2477962646,-0.0024297354,-0.0053941375,-0.027464908,0.5444551,0.0,0.0,0.0,-1.0
2478006899,2478006635,-0.0033090115,-0.0038897342,-0.027445445,0.54609776,0.0,0.0,0.0,-1.0
2478046933,2478046635,-0.004348142,-0.009235131,-0.026308918,0.55036676,0.0,0.0,0.0,-1.0
2478090845,2478090635,-0.004478628,-0.007131832,-0.025498109,0.5483257,0.0,0.0,0.0,-1.0
2478130900,2478130635,-0.0038713058,-0.006412127,-0.025706032,0.5471972,0.0,0.0,0.0,-1.0
2478174886,2478174635,-0.0022678156,-0.0063059377,-0.024236472,0.5458476,0.0,0.0,0.0,-1.0
2478218850,2478218635,-0.0006395221,-0.0038284687,-0.02564121,0.5455718,0.0,0.0,0.0,-1.0
2478258838,2478258635,0.0020716703,-0.003805237,-0.026257979,0.54335505,0.0,0.0,0.0,-1.0
2478302905,2478302635,0.003053233,-0.0031063356,-0.026378985,0.542883,0.0,0.0,0.0,-1.0
2478342902,2478342635,0.0035566688,-0.0050251056,-0.027155807,0.5445449,0.0,0.0,0.0,-1.0
2478386856,2478386641,0.0030521213,-0.0030703784,-0.029689493,0.5442809,0.0,0.0,0.0,-1.0
2478426841,2478426635,0.0015405891,-0.0060961884,-0.025315505,0.5452778,0.0,0.0,0.0,-1.0
2478470889,2478470642,0.0011967814,-0.0046414295,-0.027350528,0.54623765,0.0,0.0,0.0,-1.0
2478510885,2478510635,0.00078523636,-0.0032386067,-0.02635381,0.544172,0.0,0.0,0.0,-1.0
2478554901,2478554684,-0.00069228513,-0.0008134834,-0.026052935,0.544859,0.0,0.0,0.0,-1.0
2478594852,2478594635,0.00282591,0.0008329981,-0.029106122,0.5423872,0.0,0.0,0.0,-1.0
2478638901,2478638637,0.0004097182,-0.00015247695,-0.026859889,0.5421173,0.0,0.0,0.0,-1.0
2478678841,2478678635,0.00017276173,-0.001628322,-0.028715957,0.5461,0.0,0.0,0.0,-1.0
2478722861,2478722642,-0.0028712912,-0.0030281534,-0.02730462,0.546258,0.0,0.0,0.0,-1.0
2478762824,2478762640,-0.0029606097,-0.0016026732,-0.02648966,0.5464042,0.0,0.0,0.0,-1.0
2478806842,2478806656,-0.0045513078,-0.0041583152,-0.025123969,0.5465227,0.0,0.0,0.0,-1.0
2478846831,2478846635,-0.0055751433,-0.0013808358,-0.025032662,0.5457048,0.0,0.0,0.0,-1.0
2478886814,2478886635,0.0009074574,8.789008e-06,-0.027005447,0.5448865,0.0,0.0,0.0,-1.0
2478930863,2478930678,-0.0019661905,-0.002822877,-0.02583359,0.546143,0.0,0.0,0.0,-1.0
2478970895,2478970653,-0.0017691273,-0.004371621,-0.026256396,0.548289,0.0,0.0,0.0,-1.0
2479014835,2479014635,-0.0021105364,-0.0060850256,-0.025709419,0.54895115,0.0,0.0,0.0,-1.0
2479058860,2479058668,0.0003270855,-0.007749143,-0.025742732,0.5483897,0.0,0.0,0.0,-1.0
2479098832,2479098638,-0.0014929138,-0.007720954,-0.022218127,0.54821324,0.0,0.0,0.0,-1.0
2479142827,2479142635,0.001100777,-0.008433596,-0.024176065,0.5484971,0.0,0.0,0.0,-1.0
2479182821,2479182635,-0.0012126607,-0.0056165177,-0.023553183,0.5463705,0.0,0.0,0.0,-1.0
2479226880,2479226674,0.0027220435,-0.006330964,-0.022976045,0.54659617,0.0,0.0,0.0,-1.0
2479266880,2479266635,0.003163577,-0.0060083326,-0.024135651,0.5457243,0.0,0.0,0.0,-1.0
2479310844,2479310635,0.004169845,-0.005898532,-0.024039209,0.5461407,0.0,0.0,0.0,-1.0
2479350849,2479350635,0.0029086252,-0.0076508005,-0.02397914,0.5472306,0.0,0.0,0.0,-1.0
2479394898,2479394667,0.00087096205,-0.006729759,-0.023417454,0.5473153,0.0,0.0,0.0,-1.0
2479434875,2479434640,-0.0002247889,-0.005570842,-0.02153778,0.54757357,0.0,0.0,0.0,-1.0
2479478858,2479478635,-0.0018602228,-0.007248383,-0.02004561,0.54787666,0.0,0.0,0.0,-1.0
2479518852,2479518635,0.0011673484,-0.0031181136,-0.01929239,0.5452475,0.0,0.0,0.0,-1.0
2479562878,2479562635,0.0003119922,-0.002361052,-0.018144287,0.5477627,0.0,0.0,0.0,-1.0
2479602896,2479602645,0.0019359466,-0.0011580621,-0.018665751,0.54519075,0.0,0.0,0.0,-1.0
2479642929,2479642635,0.0026212914,-0.0022152544,-0.018222645,0.5468,0.0,0.0,0.0,-1.0
2479686852,2479686636,0.0024516068,-0.004062515,-0.016580641,0.5484176,0.0,0.0,0.0,-1.0
2479730907,2479730634,0.00056830386,-0.004201704,-0.016211115,0.54894334,0.0,0.0,0.0,-1.0
2479770879,2479770639,0.0014347045,-0.0058189584,-0.015067969,0.54962486,0.0,0.0,0.0,-1.0
2479814861,2479814635,-0.0003254872,-0.0039030735,-0.013874627,0.5503052,0.0,0.0,0.0,-1.0
2479854852,2479854635,0.00023745169,-0.0031059564,-0.010215023,0.5488325,0.0,0.0,0.0,-1.0
2479898889,2479898636,-0.00056698214,-0.0033078822,-0.010412395,0.54884225,0.0,0.0,0.0,-1.0
2479938911,2479938635,0.00067735073,-0.0024602609,-0.0084272465,0.54699624,0.0,0.0,0.0,-1.0
2479982870,2479982647,-0.00078980415,-0.0038263297,-0.0065660793,0.5470326,0.0,0.0,0.0,-1.0
2480023658,2480023434,-0.00039858685,-0.00324526,-0.0073284293,0.54506737,0.0,0.0,0.0,-1.0
2480068466,2480068238,-0.0034431382,-0.0050503355,-0.0034884512,0.54529124,0.0,0.0,0.0,-1.0
2480108496,2480108274,-0.001305465,-0.0036934153,-0.004734002,0.54376143,0.0,0.0,0.0,-1.0
2480152468,2480152234,-0.004020016,-0.003943452,-0.0044111963,0.54485416,0.0,0.0,0.0,-1.0
2480192452,2480192235,-0.0025265089,-0.0021025944,-0.0059406953,0.54246575,0.0,0.0,0.0,-1.0
2480232454,2480232235,-0.0024439069,0.00014686096,-0.005804918,0.5407878,0.0,0.0,0.0,-1.0
2480272458,2480272234,-0.0020227896,0.0013788405,-0.0035326257,0.5423576,0.0,0.0,0.0,-1.0
2480316508,2480316243,-0.0019680227,0.0012407901,-0.0048699994,0.54296863,0.0,0.0,0.0,-1.0
2480356484,2480356235,-0.003073523,0.00045598007,-0.0026890393,0.54321563,0.0,0.0,0.0,-1.0
2480400428,2480400236,-0.0024983818,0.00045072244,-0.0031295586,0.543835,0.0,0.0,0.0,-1.0
2480440420,2480440235,-0.0024626867,-0.0008486635,-0.0027154852,0.54309005,0.0,0.0,0.0,-1.0
2480484452,2480484235,-0.0036061103,-0.0019668494,-0.0016647857,0.54321396,0.0,0.0,0.0,-1.0
2480524479,2480524241,-0.0046608564,-0.0006212001,-0.004570592,0.5429275,0.0,0.0,0.0,-1.0
2480568421,2480568235,-0.0032980056,-0.0015632599,-0.003497311,0.54143864,0.0,0.0,0.0,-1.0
2480608416,2480608235,-0.0054715276,-0.0018571347,-0.004947584,0.5428472,0.0,0.0,0.0,-1.0
2480652470,2480652235,-0.0066978917,-0.0028651787,-0.0053149266,0.5415783,0.0,0.0,0.0,-1.0
2480692458,2480692244,-0.005458214,-0.004059088,-0.0061359964,0.54269713,0.0,0.0,0.0,-1.0
2480736448,2480736245,-0.0072368085,-0.0046695992,-0.006856343,0.5421028,0.0,0.0,0.0,-1.0
2480776421,2480776239,-0.0062597105,-0.0044497927,-0.008928998,0.5417345,0.0,0.0,0.0,-1.0
2480820453,2480820235,-0.008825942,-0.0035076302,-0.008943062,0.5410657,0.0,0.0,0.0,-1.0
2480860502,2480860234,-0.009244872,-0.005579272,-0.011019189,0.5443514,0.0,0.0,0.0,-1.0
2480904454,2480904235,-0.009085349,-0.0061562615,-0.011158671,0.5424955,0.0,0.0,0.0,-1.0
2480944464,2480944235,-0.010789327,-0.0073675523,-0.011399103,0.54378736,0.0,0.0,0.0,-1.0
2480988518,2480988235,-0.010249947,-0.00895235,-0.011185357,0.54355687,0.0,0.0,0.0,-1.0
2481028483,2481028235,-0.008445505,-0.0064522764,-0.011969829,0.5421809,0.0,0.0,0.0,-1.0
2481072451,2481072235,-0.009560051,-0.008637752,-0.013454704,0.54222834,0.0,0.0,0.0,-1.0
2481112452,2481112235,-0.007246009,-0.005201773,-0.014505843,0.5397478,0.0,0.0,0.0,-1.0
2481156502,2481156235,-0.0062879976,-0.0061752186,-0.015563684,0.53965086,0.0,0.0,0.0,-1.0
2481196499,2481196235,-0.0069168173,-0.0034563504,-0.017011784,0.53789675,0.0,0.0,0.0,-1.0
2481240465,2481240235,-0.0068425057,-0.0052725975,-0.018033484,0.53758055,0.0,0.0,0.0,-1.0
2481280454,2481280235,-0.008927809,-0.005786505,-0.019161733,0.54002905,0.0,0.0,0.0,-1.0
2481320472,2481320246,-0.011020538,-0.005590955,-0.018253436,0.5409123,0.0,0.0,0.0,-1.0
2481360490,2481360262,-0.008640025,-0.0060933502,-0.01788314,0.53955233,0.0,0.0,0.0,-1.0
2481404508,2481404234,-0.009883727,-0.0052575255,-0.019186024,0.5394972,0.0,0.0,0.0,-1.0
2481444452,2481444235,-0.0098578995,-0.008398759,-0.02016587,0.54090494,0.0,0.0,0.0,-1.0
2481488486,2481488253,-0.01032309,-0.0076070093,-0.021478724,0.5412089,0.0,0.0,0.0,-1.0
2481528503,2481528266,-0.010901783,-0.010948275,-0.02067713,0.5411777,0.0,0.0,0.0,-1.0
2481572508,2481572235,-0.012318903,-0.008706859,-0.021658357,0.54180163,0.0,0.0,0.0,-1.0
2481612482,2481612241,-0.009706868,-0.006912251,-0.021541566,0.5392479,0.0,0.0,0.0,-1.0
2481656480,2481656261,-0.011706822,-0.006728389,-0.021985479,0.5398962,0.0,0.0,0.0,-1.0
2481696470,2481696240,-0.009300129,-0.0063502826,-0.02355624,0.53917485,0.0,0.0,0.0,-1.0
2481740464,2481740242,-0.009481897,-0.0059073097,-0.024363952,0.53949004,0.0,0.0,0.0,-1.0
2481780466,2481780237,-0.010231256,-0.010868742,-0.024671242,0.540246,0.0,0.0,0.0,-1.0
2481824507,2481824284,-0.009808161,-0.011764121,-0.023658179,0.5408027,0.0,0.0,0.0,-1.0
2481864505,2481864259,-0.009491884,-0.008981863,-0.025452696,0.54031914,0.0,0.0,0.0,-1.0
2481908465,2481908234,-0.010209505,-0.007995786,-0.026159342,0.5401033,0.0,0.0,0.0,-1.0
2481948477,2481948244,-0.0071010417,-0.0070336787,-0.027383385,0.53792393,0.0,0.0,0.0,-1.0
2481992489,2481992243,-0.008102509,-0.0062435125,-0.028136302,0.5395744,0.0,0.0,0.0,-1.0
2482036487,2482036245,-0.010843132,-0.005991074,-0.0279661,0.54022324,0.0,0.0,0.0,-1.0
2482080488,2482080267,-0.0141814,-0.0069297277,-0.029481824,0.5407653,0.0,0.0,0.0,-1.0
2482120509,2482120280,-0.014494376,-0.006230585,-0.026131751,0.53983337,0.0,0.0,0.0,-1.0
2482164463,2482164235,-0.013390648,-0.002873586,-0.027633421,0.53992915,0.0,0.0,0.0,-1.0
2482204454,2482204235,-0.013958119,-0.0028730412,-0.027376276,0.5413777,0.0,0.0,0.0,-1.0
2482248487,2482248264,-0.010690107,0.0012063761,-0.027934488,0.53872174,0.0,0.0,0.0,-1.0
2482288505,2482288268,-0.011537665,-0.0013792977,-0.029697131,0.5421739,0.0,0.0,0.0,-1.0
2482332476,2482332245,-0.008456486,-0.001568907,-0.030790294,0.54243076,0.0,0.0,0.0,-1.0
2482372482,2482372235,-0.011045018,0.0017143314,-0.031309795,0.5416823,0.0,0.0,0.0,-1.0
2482416475,2482416244,-0.008961958,0.00039534335,-0.03017439,0.5402327,0.0,0.0,0.0,-1.0
2482456511,2482456241,-0.010598555,0.0015543142,-0.031087302,0.53985274,0.0,0.0,0.0,-1.0
2482500477,2482500234,-0.009306734,-0.0007962182,-0.032209687,0.53844064,0.0,0.0,0.0,-1.0
2482540477,2482540248,-0.011873241,-0.0031495474,-0.035095137,0.54076046,0.0,0.0,0.0,-1.0
2482584518,2482584244,-0.011361146,-0.0068867397,-0.037172362,0.54163635,0.0,0.0,0.0,-1.0
2482624507,2482624235,-0.0128469365,-0.0057765106,-0.036106825,0.54073745,0.0,0.0,0.0,-1.0
2482668452,2482668235,-0.012208423,-0.0021887831,-0.03860383,0.54112595,0.0,0.0,0.0,-1.0
2482708465,2482708235,-0.0120149255,-0.00032065596,-0.036047403,0.54040325,0.0,0.0,0.0,-1.0
2482752527,2482752259,-0.010357169,0.0029083826,-0.037694596,0.53957313,0.0,0.0,0.0,-1.0
2482796450,2482796235,-0.007923491,0.008202906,-0.039343305,0.5404732,0.0,0.0,0.0,-1.0
2482840473,2482840245,-0.010753232,0.006136697,-0.039384693,0.5404187,0.0,0.0,0.0,-1.0
2482880478,2482880235,-0.012109905,0.005521482,-0.03977517,0.5395463,0.0,0.0,0.0,-1.0
2482920526,2482920235,-0.007849224,0.00895673,-0.03971128,0.5395379,0.0,0.0,0.0,-1.0
2482964477,2482964242,-0.009024638,0.00403044,-0.03911033,0.5393556,0.0,0.0,0.0,-1.0
2483008513,2483008258,-0.012326415,-0.0030646212,-0.038904067,0.54198956,0.0,0.0,0.0,-1.0
2483048495,2483048235,-0.012259815,-0.004883538,-0.041070588,0.5420369,0.0,0.0,0.0,-1.0
2483092456,2483092235,-0.014577744,-0.0063271862,-0.03986888,0.54379594,0.0,0.0,0.0,-1.0
2483132445,2483132235,-0.015916599,-0.0059826947,-0.03909175,0.54353225,0.0,0.0,0.0,-1.0
2483176512,2483176238,-0.015143361,-0.0012412507,-0.03894581,0.54107165,0.0,0.0,0.0,-1.0
2483216451,2483216235,-0.008788403,0.00041140817,-0.04060054,0.5397887,0.0,0.0,0.0,-1.0
2483260416,2483260235,-0.006341996,0.0045657805,-0.041176658,0.53957176,0.0,0.0,0.0,-1.0
2483300441,2483300237,-0.010407644,0.0014876161,-0.041388,0.5416362,0.0,0.0,0.0,-1.0
2483344476,2483344248,-0.006525726,0.0038860682,-0.042021792,0.53979295,0.0,0.0,0.0,-1.0
2483388461,2483388262,-0.0047520953,0.0017661962,-0.040552773,0.5390567,0.0,0.0,0.0,-1.0
2483428416,2483428235,-0.004169554,0.0062729605,-0.042006843,0.5374933,0.0,0.0,0.0,-1.0
2483472496,2483472261,-0.0038483278,0.0024785302,-0.041322306,0.5370823,0.0,0.0,0.0,-1.0
2483512485,2483512238,-0.0029605008,0.00087688246,-0.042898778,0.53831935,0.0,0.0,0.0,-1.0
2483556497,2483556262,-0.008427948,-5.2641146e-05,-0.042015612,0.54072213,0.0,0.0,0.0,-1.0
2483596489,2483596236,-0.006449369,0.001354122,-0.040372346,0.53864735,0.0,0.0,0.0,-1.0
2483640520,2483640261,-0.0075092,0.005783139,-0.040387105,0.5411966,0.0,0.0,0.0,-1.0
2483680480,2483680235,-0.0041143014,0.008243764,-0.041132934,0.539106,0.0,0.0,0.0,-1.0
2483724497,2483724270,-0.0044287285,0.011434893,-0.040717803,0.5389672,0.0,0.0,0.0,-1.0
2483764470,2483764235,-0.00563335,0.00834504,-0.040427398,0.5423261,0.0,0.0,0.0,-1.0
2483808534,2483808258,-0.0014057859,0.011698574,-0.03862686,0.54086524,0.0,0.0,0.0,-1.0
2483848497,2483848235,-0.0032450757,0.011013921,-0.03728619,0.5408404,0.0,0.0,0.0,-1.0
2483892527,2483892309,0.002893478,0.010474939,-0.036417756,0.5396047,0.0,0.0,0.0,-1.0
2483934082,2483933835,0.003205203,0.011961002,-0.037310734,0.5372322,0.0,0.0,0.0,-1.0
2483978107,2483977850,0.004137451,0.011130749,-0.035785776,0.5359263,0.0,0.0,0.0,-1.0
2484022136,2484021835,0.0025923648,0.013166906,-0.034215182,0.5395394,0.0,0.0,0.0,-1.0
2484062102,2484061834,0.006564325,0.014007833,-0.03453108,0.5411194,0.0,0.0,0.0,-1.0
2484102111,2484101834,0.0044574994,0.010188105,-0.033128276,0.54151875,0.0,0.0,0.0,-1.0
2484146130,2484145891,2.6554335e-07,0.0083691785,-0.03273928,0.5441062,0.0,0.0,0.0,-1.0
2484190051,2484189835,0.004053125,0.008853169,-0.03233912,0.5424049,0.0,0.0,0.0,-1.0
2484230057,2484229835,-0.0007618794,0.009920658,-0.032556914,0.5422262,0.0,0.0,0.0,-1.0
2484274098,2484273872,0.0018780269,0.008691608,-0.0339554,0.54099876,0.0,0.0,0.0,-1.0
2484314076,2484313848,0.0017429532,0.011032545,-0.032461222,0.539901,0.0,0.0,0.0,-1.0
2484358056,2484357835,0.0018574247,0.007569506,-0.03260634,0.53965414,0.0,0.0,0.0,-1.0
2484398056,2484397835,0.0034943915,0.011605765,-0.033623904,0.5371152,0.0,0.0,0.0,-1.0
2484442136,2484441884,0.0008318229,0.010060185,-0.033360913,0.5391812,0.0,0.0,0.0,-1.0
2484482151,2484481841,-0.00041889428,0.006616,-0.033612173,0.54133695,0.0,0.0,0.0,-1.0
2484522153,2484521841,-0.0019745878,0.00810653,-0.032023817,0.54199564,0.0,0.0,0.0,-1.0
2484566055,2484565835,-0.0047496436,0.006889907,-0.031573173,0.5431374,0.0,0.0,0.0,-1.0
2484606048,2484605835,-0.0026188805,0.013149417,-0.031671282,0.5396029,0.0,0.0,0.0,-1.0
2484650125,2484649845,-0.005092499,0.012327744,-0.03132445,0.54140204,0.0,0.0,0.0,-1.0
2484690048,2484689836,-0.0035458542,0.0123759005,-0.034468617,0.53896606,0.0,0.0,0.0,-1.0
2484730072,2484729835,-0.0035872923,0.008544019,-0.035363276,0.54086107,0.0,0.0,0.0,-1.0
2484774030,2484773835,-0.005251388,0.009746621,-0.033194672,0.54187757,0.0,0.0,0.0,-1.0
2484818074,2484817839,-0.0027659747,0.012591428,-0.034416728,0.5392533,0.0,0.0,0.0,-1.0
2484858067,2484857841,-0.003494879,0.00952782,-0.031865574,0.54063064,0.0,0.0,0.0,-1.0
2484902076,2484901838,-0.0019681484,0.010174766,-0.032378305,0.5366788,0.0,0.0,0.0,-1.0
2484942054,2484941836,-0.0019346469,0.013178264,-0.032362193,0.5358675,0.0,0.0,0.0,-1.0
2484986090,2484985835,-0.00053875276,0.014051041,-0.031678807,0.53383577,0.0,0.0,0.0,-1.0
2485030019,2485029835,-0.0001312083,0.013359081,-0.03248215,0.5354594,0.0,0.0,0.0,-1.0
2485070022,2485069835,0.0015468221,0.012778369,-0.03413845,0.5346756,0.0,0.0,0.0,-1.0
2485114050,2485113835,-0.00058733235,0.011672296,-0.03389093,0.5366941,0.0,0.0,0.0,-1.0
2485154073,2485153835,-0.004042796,0.0075912005,-0.031030634,0.53760535,0.0,0.0,0.0,-1.0
2485198057,2485197870,-0.0070011313,0.009105795,-0.031218056,0.5376225,0.0,0.0,0.0,-1.0
2485238045,2485237835,-0.0053345775,0.008705895,-0.028682206,0.5386895,0.0,0.0,0.0,-1.0
2485282156,2485281870,-0.004067147,0.0101937,-0.02827274,0.53658026,0.0,0.0,0.0,-1.0
2485322132,2485321835,-0.00091455877,0.011470727,-0.029823832,0.5353709,0.0,0.0,0.0,-1.0
2485366061,2485365835,-0.0031465006,0.01441322,-0.027905332,0.53538173,0.0,0.0,0.0,-1.0
2485406076,2485405835,-0.0011324113,0.014260657,-0.02756013,0.53710335,0.0,0.0,0.0,-1.0
2485450103,2485449846,-0.0032041217,0.015227562,-0.026777307,0.53882223,0.0,0.0,0.0,-1.0
2485490118,2485489835,-0.004267616,0.012569739,-0.025296947,0.53729963,0.0,0.0,0.0,-1.0
2485534082,2485533835,-0.006552056,0.012602537,-0.025243314,0.5379377,0.0,0.0,0.0,-1.0
2485574064,2485573835,-0.0073051006,0.013629325,-0.0251562,0.5360968,0.0,0.0,0.0,-1.0
2485618099,2485617835,-0.008304046,0.013004536,-0.026839249,0.53691,0.0,0.0,0.0,-1.0
2485658083,2485657835,-0.006483923,0.017677283,-0.028052308,0.5347957,0.0,0.0,0.0,-1.0
2485702117,2485701851,-0.004328992,0.015289099,-0.02833631,0.53528535,0.0,0.0,0.0,-1.0
2485742114,2485741836,-0.0051824083,0.014395759,-0.028155155,0.5359059,0.0,0.0,0.0,-1.0
2485786089,2485785835,-0.0009787864,0.012845373,-0.028028714,0.5360734,0.0,0.0,0.0,-1.0
2485826099,2485825835,-0.0039824005,0.007731186,-0.028015124,0.5371596,0.0,0.0,0.0,-1.0
2485870041,2485869835,-0.0015274372,0.008282661,-0.028300514,0.537634,0.0,0.0,0.0,-1.0
2485910054,2485909835,-0.0018648119,0.0075311484,-0.028667059,0.5367137,0.0,0.0,0.0,-1.0
2485954108,2485953836,-0.0005468365,0.011563328,-0.029499598,0.5356914,0.0,0.0,0.0,-1.0
2485994089,2485993835,0.004087592,0.01527875,-0.030068269,0.5343405,0.0,0.0,0.0,-1.0
2486038075,2486037868,0.006676671,0.01707749,-0.030929515,0.53190106,0.0,0.0,0.0,-1.0
2486078069,2486077858,0.005342406,0.010411302,-0.029698014,0.5349761,0.0,0.0,0.0,-1.0
2486118051,2486117845,0.0018728666,0.0050585675,-0.029441884,0.5374139,0.0,0.0,0.0,-1.0
2486162140,2486161835,0.0041008256,0.008665743,-0.031993058,0.53624475,0.0,0.0,0.0,-1.0
2486206054,2486205835,0.0045381673,0.007789072,-0.03186506,0.53415745,0.0,0.0,0.0,-1.0
2486246088,2486245851,0.0073359073,0.009139582,-0.03132187,0.53451294,0.0,0.0,0.0,-1.0
2486286108,2486285882,0.0064836983,0.009318627,-0.031088373,0.5345004,0.0,0.0,0.0,-1.0
2486330063,2486329835,0.0052217264,0.01063574,-0.031291597,0.533967,0.0,0.0,0.0,-1.0
2486370054,2486369835,0.005315167,0.010391197,-0.032287467,0.53728896,0.0,0.0,0.0,-1.0
2486414087,2486413857,0.0020579041,0.00921815,-0.032465316,0.53792393,0.0,0.0,0.0,-1.0
2486454052,2486453843,0.001825758,0.008393392,-0.03247443,0.53829396,0.0,0.0,0.0,-1.0
2486498052,2486497835,-0.0012926596,0.007381432,-0.03169355,0.537813,0.0,0.0,0.0,-1.0
2486538087,2486537835,0.0022252065,0.012734533,-0.03208084,0.53523266,0.0,0.0,0.0,-1.0
2486582114,2486581846,-0.0012324902,0.01240494,-0.03165844,0.5352305,0.0,0.0,0.0,-1.0
2486622123,2486621835,-0.00031469428,0.012515892,-0.03408084,0.5378386,0.0,0.0,0.0,-1.0
2486666042,2486665835,-0.001546965,0.010760905,-0.034567416,0.5377798,0.0,0.0,0.0,-1.0
2486706069,2486705835,-0.0039252173,0.010137208,-0.03306519,0.5382754,0.0,0.0,0.0,-1.0
2486750088,2486749853,-0.0023302275,0.006675453,-0.033075124,0.53895223,0.0,0.0,0.0,-1.0
2486790095,2486789848,-0.0035697958,0.009388055,-0.03160205,0.5369072,0.0,0.0,0.0,-1.0
2486834045,2486833835,-0.0021777079,0.0054220925,-0.031823292,0.53860503,0.0,0.0,0.0,-1.0
2486878041,2486877838,-0.0027547674,0.008160041,-0.03394297,0.5378902,0.0,0.0,0.0,-1.0
2486918114,2486917835,0.0007284328,0.005822432,-0.0348097,0.5373804,0.0,0.0,0.0,-1.0
2486962115,2486961835,0.0007185064,0.008151256,-0.03485185,0.5363023,0.0,0.0,0.0,-1.0
2487002122,2487001835,-0.0005640455,0.0057324604,-0.034785695,0.53949106,0.0,0.0,0.0,-1.0
2487046101,2487045835,-0.0018802746,0.006083982,-0.0331284,0.53900963,0.0,0.0,0.0,-1.0
2487086101,2487085834,-0.0036286726,0.007216127,-0.032764968,0.53862315,0.0,0.0,0.0,-1.0
2487130055,2487129835,-0.0049344283,0.007945158,-0.03167969,0.53931767,0.0,0.0,0.0,-1.0
2487170060,2487169835,-0.00058188674,0.013721039,-0.031015646,0.53671753,0.0,0.0,0.0,-1.0
2487214078,2487213835,-0.00035277533,0.014091627,-0.02922691,0.5380406,0.0,0.0,0.0,-1.0
2487254102,2487253835,-0.0012534393,0.011497368,-0.030279895,0.5404129,0.0,0.0,0.0,-1.0
2487298042,2487297835,-0.0012760835,0.010558866,-0.029208835,0.5404931,0.0,0.0,0.0,-1.0
2487338060,2487337835,-0.0048747277,0.009031761,-0.029247232,0.54143226,0.0,0.0,0.0,-1.0
2487382103,2487381835,-0.0031556834,0.0077651544,-0.02884817,0.5405826,0.0,0.0,0.0,-1.0
2487422093,2487421835,-0.00438636,0.010420606,-0.028738575,0.5416238,0.0,0.0,0.0,-1.0
2487466017,2487465835,-0.0026021216,0.009268991,-0.029242974,0.5415337,0.0,0.0,0.0,-1.0
2487506042,2487505846,-0.00087903143,0.012210876,-0.02962888,0.5404503,0.0,0.0,0.0,-1.0
2487550052,2487549835,0.00030177354,0.01475213,-0.030252859,0.5405752,0.0,0.0,0.0,-1.0
2487590070,2487589835,-0.0012045469,0.014261564,-0.03029996,0.539952,0.0,0.0,0.0,-1.0
2487634056,2487633878,-0.0008116781,0.016575942,-0.032601025,0.54055655,0.0,0.0,0.0,-1.0
2487674017,2487673835,0.000733472,0.0110602975,-0.03127066,0.5413808,0.0,0.0,0.0,-1.0
2487714034,2487713835,8.482235e-05,0.0091816,-0.03126352,0.5426452,0.0,0.0,0.0,-1.0
2487758057,2487757835,0.003130666,0.010969211,-0.030277872,0.5412293,0.0,0.0,0.0,-1.0
2487799699,2487799441,0.0036809514,0.013169478,-0.030636676,0.53971076,0.0,0.0,0.0,-1.0
2487839692,2487839441,0.004244987,0.015671205,-0.0293484,0.53763765,0.0,0.0,0.0,-1.0
2487883642,2487883435,0.0036955622,0.017509943,-0.029355373,0.53877705,0.0,0.0,0.0,-1.0
2487927732,2487927508,7.377143e-05,0.015870294,-0.02876817,0.5396531,0.0,0.0,0.0,-1.0
2487975689,2487975435,0.002870922,0.014330873,-0.02732385,0.5418616,0.0,0.0,0.0,-1.0
2488015727,2488015455,0.00062866585,0.015119622,-0.026195912,0.54167235,0.0,0.0,0.0,-1.0
2488055719,2488055455,0.0010850558,0.013464426,-0.02883679,0.54040825,0.0,0.0,0.0,-1.0
2488099744,2488099435,0.0028631599,0.018759804,-0.029877244,0.5393015,0.0,0.0,0.0,-1.0
2488139712,2488139435,0.0012745992,0.01036497,-0.028345272,0.542641,0.0,0.0,0.0,-1.0
2488183690,2488183440,0.0017313431,0.013397896,-0.028274342,0.5402415,0.0,0.0,0.0,-1.0
2488223721,2488223435,0.00033180145,0.0122275995,-0.027248105,0.5415369,0.0,0.0,0.0,-1.0
2488267694,2488267441,-0.00026500208,0.01371632,-0.02819458,0.53994787,0.0,0.0,0.0,-1.0
2488307722,2488307448,0.0006063104,0.014285187,-0.026891517,0.54025584,0.0,0.0,0.0,-1.0
2488351717,2488351463,-0.00019826513,0.012617897,-0.025278902,0.5393275,0.0,0.0,0.0,-1.0
2488391754,2488391435,0.0024158899,0.015264935,-0.026178662,0.53810215,0.0,0.0,0.0,-1.0
2488431733,2488431463,0.004359819,0.016817104,-0.027642336,0.53860664,0.0,0.0,0.0,-1.0
2488475695,2488475435,0.0026669612,0.015823124,-0.026606018,0.5372651,0.0,0.0,0.0,-1.0
2488519735,2488519434,-0.0012781944,0.013121987,-0.023960585,0.5381421,0.0,0.0,0.0,-1.0
2488559729,2488559435,3.082525e-05,0.010048609,-0.022660783,0.5399722,0.0,0.0,0.0,-1.0
2488603707,2488603442,-0.0031395992,0.007909143,-0.021565642,0.5413614,0.0,0.0,0.0,-1.0
2488643703,2488643441,-0.0044133794,0.007357143,-0.021584686,0.54159224,0.0,0.0,0.0,-1.0
2488687716,2488687435,-0.005275349,0.0049202605,-0.020068614,0.5422955,0.0,0.0,0.0,-1.0
2488727742,2488727434,-0.003947778,0.0066897413,-0.019673437,0.5402825,0.0,0.0,0.0,-1.0
2488767717,2488767477,-0.0018419516,0.010224535,-0.021997267,0.5398918,0.0,0.0,0.0,-1.0
2488811700,2488811435,-0.003831314,0.005722316,-0.020785324,0.54084086,0.0,0.0,0.0,-1.0
2488855755,2488855442,-0.0053059096,0.003869631,-0.021476103,0.54213005,0.0,0.0,0.0,-1.0
2488895724,2488895435,-0.002900278,0.0022787773,-0.021479676,0.54027486,0.0,0.0,0.0,-1.0
2488939712,2488939435,-0.0023399263,0.002865382,-0.022664197,0.54015297,0.0,0.0,0.0,-1.0
2488979705,2488979441,-0.0029364321,0.00029143493,-0.023887044,0.542584,0.0,0.0,0.0,-1.0
2489023702,2489023435,-0.0029955455,0.0028084132,-0.025134923,0.5425919,0.0,0.0,0.0,-1.0
2489063703,2489063435,-0.0055780285,-0.0007662204,-0.025215104,0.54292816,0.0,0.0,0.0,-1.0
2489107674,2489107435,-0.004191721,0.0022702506,-0.027179504,0.54160935,0.0,0.0,0.0,-1.0
2489147675,2489147435,-0.0037360336,0.0031399108,-0.0275899,0.54227984,0.0,0.0,0.0,-1.0
2489191701,2489191435,-0.0010424589,0.005844539,-0.028819706,0.5401072,0.0,0.0,0.0,-1.0
2489231691,2489231435,-0.0026084525,0.0071180314,-0.031282295,0.5392103,0.0,0.0,0.0,-1.0
2489275665,2489275435,-0.0018246721,0.009439992,-0.03227523,0.5370021,0.0,0.0,0.0,-1.0
2489315664,2489315435,-0.0067594307,0.0048415186,-0.03328715,0.5404422,0.0,0.0,0.0,-1.0
2489359709,2489359444,-0.008935953,0.005228986,-0.03426613,0.53991026,0.0,0.0,0.0,-1.0
2489399719,2489399435,-0.01119275,0.005928518,-0.03324442,0.5408859,0.0,0.0,0.0,-1.0
2489439678,2489439459,-0.009746306,0.009832955,-0.03441932,0.5396221,0.0,0.0,0.0,-1.0
2489483716,2489483435,-0.0077214595,0.008767147,-0.03474564,0.53963524,0.0,0.0,0.0,-1.0
2489523702,2489523480,-0.009738128,0.0039397613,-0.033426452,0.5409995,0.0,0.0,0.0,-1.0
2489567730,2489567435,-0.008598009,0.0026958548,-0.033792797,0.54172826,0.0,0.0,0.0,-1.0
2489607714,2489607460,-0.008673152,0.0004156473,-0.032648925,0.54066056,0.0,0.0,0.0,-1.0
2489651697,2489651435,-0.008544054,-0.0024384446,-0.032602213,0.5401319,0.0,0.0,0.0,-1.0
2489695731,2489695448,-0.010624136,-0.0044123232,-0.0303084,0.5434581,0.0,0.0,0.0,-1.0
2489735724,2489735435,-0.0032272257,-0.0006714506,-0.032679684,0.5412569,0.0,0.0,0.0,-1.0
2489779696,2489779435,-0.003390509,-0.002827606,-0.029907448,0.5436181,0.0,0.0,0.0,-1.0
2489819684,2489819435,-0.0043508383,-0.0035758656,-0.031019589,0.54584724,0.0,0.0,0.0,-1.0
2489863735,2489863435,-0.0061180703,-0.00426803,-0.029745676,0.5464276,0.0,0.0,0.0,-1.0
2489903722,2489903434,-0.0069345823,-0.005494836,-0.030061463,0.54608876,0.0,0.0,0.0,-1.0
2489943680,2489943462,-0.0027405652,-0.0007203138,-0.031279292,0.544272,0.0,0.0,0.0,-1.0
2489987683,2489987435,-0.00493019,-0.00084155996,-0.030594302,0.54518515,0.0,0.0,0.0,-1.0
2490031720,2490031435,-0.0043049688,0.0038865325,-0.030130247,0.5435516,0.0,0.0,0.0,-1.0
2490071722,2490071435,-0.0049492633,0.00020756305,-0.029730856,0.54650027,0.0,0.0,0.0,-1.0
2490115702,2490115435,-0.0020016516,0.004008923,-0.029772,0.5434485,0.0,0.0,0.0,-1.0
2490155707,2490155463,-0.0046980525,0.0017682348,-0.02759662,0.5458028,0.0,0.0,0.0,-1.0
2490199763,2490199441,-0.0035471306,0.0023104695,-0.02736939,0.5446582,0.0,0.0,0.0,-1.0
2490239684,2490239434,-0.002286495,0.005334514,-0.027871681,0.5429535,0.0,0.0,0.0,-1.0
2490283702,2490283447,-0.003209696,0.0049484153,-0.030007713,0.5439802,0.0,0.0,0.0,-1.0
2490323745,2490323485,0.00013781316,0.0072867847,-0.028746298,0.5424612,0.0,0.0,0.0,-1.0
2490367735,2490367435,-2.0676525e-06,0.005281886,-0.031522978,0.5430964,0.0,0.0,0.0,-1.0
2490407696,2490407435,-0.0045619668,0.0056754155,-0.031732697,0.54501796,0.0,0.0,0.0,-1.0
2490451713,2490451459,-0.0045286193,0.002962354,-0.034021653,0.546175,0.0,0.0,0.0,-1.0
2490491723,2490491460,-0.0075524487,0.0014867675,-0.03450379,0.5449098,0.0,0.0,0.0,-1.0
2490535770,2490535465,-0.009203686,-0.0012363768,-0.033889495,0.5469035,0.0,0.0,0.0,-1.0
2490575685,2490575438,-0.008644288,0.0003899343,-0.034672424,0.54554135,0.0,0.0,0.0,-1.0
2490619702,2490619445,-0.009499371,0.00010685962,-0.034047227,0.54644066,0.0,0.0,0.0,-1.0
2490659717,2490659435,-0.0077719977,0.0011665465,-0.036572553,0.54515326,0.0,0.0,0.0,-1.0
2490703696,2490703435,-0.009271873,0.0034246843,-0.0366868,0.5442727,0.0,0.0,0.0,-1.0
2490743686,2490743435,-0.009627003,0.00048496976,-0.03654295,0.5443042,0.0,0.0,0.0,-1.0
2490783680,2490783460,-0.009937544,0.0017175731,-0.035102863,0.54450226,0.0,0.0,0.0,-1.0
2490827722,2490827435,-0.013286414,0.004119145,-0.03399224,0.54443884,0.0,0.0,0.0,-1.0
2490867692,2490867459,-0.013050522,0.0064418255,-0.03484961,0.54269606,0.0,0.0,0.0,-1.0
2490911709,2490911445,-0.012498137,0.007775245,-0.034025025,0.54312176,0.0,0.0,0.0,-1.0
2490951700,2490951471,-0.011080546,0.008665383,-0.0345352,0.54517883,0.0,0.0,0.0,-1.0
2490995741,2490995435,-0.009806169,0.009997705,-0.033172894,0.5446497,0.0,0.0,0.0,-1.0
2491035716,2491035459,-0.010710073,0.007979274,-0.030938402,0.54462385,0.0,0.0,0.0,-1.0
2491079694,2491079435,-0.006360008,0.0074911313,-0.03003611,0.544705,0.0,0.0,0.0,-1.0
2491119681,2491119463,-0.007893649,0.009246283,-0.02890223,0.5430368,0.0,0.0,0.0,-1.0
2491163759,2491163443,-0.0050301314,0.007041074,-0.029365312,0.54203,0.0,0.0,0.0,-1.0
2491203710,2491203459,-0.002909617,0.008539517,-0.03052963,0.54172045,0.0,0.0,0.0,-1.0
2491247691,2491247435,-0.0027992218,0.009117356,-0.03242014,0.5407678,0.0,0.0,0.0,-1.0
2491287672,2491287460,-0.0048775817,0.0031148568,-0.029706556,0.54382855,0.0,0.0,0.0,-1.0
2491331724,2491331435,-0.006782775,0.0053156167,-0.030784657,0.54323786,0.0,0.0,0.0,-1.0
2491375699,2491375435,-0.008381757,0.0064247064,-0.029464766,0.5437399,0.0,0.0,0.0,-1.0
2491415708,2491415435,-0.010765716,0.0066567613,-0.027639842,0.5433351,0.0,0.0,0.0,-1.0
2491455679,2491455460,-0.008423665,0.012402655,-0.028270327,0.54061943,0.0,0.0,0.0,-1.0
2491499735,2491499435,-0.01093455,0.01142924,-0.027262285,0.54081106,0.0,0.0,0.0,-1.0
2491543703,2491543444,-0.012118172,0.008512226,-0.025933571,0.5426233,0.0,0.0,0.0,-1.0
2491583699,2491583435,-0.011841831,0.008653059,-0.025403364,0.5403386,0.0,0.0,0.0,-1.0
2491627735,2491627435,-0.013612517,0.006224263,-0.024040096,0.5416239,0.0,0.0,0.0,-1.0
2491668508,2491668234,-0.017429827,0.0037224903,-0.024472184,0.5432538,0.0,0.0,0.0,-1.0
2491709302,2491709034,-0.016846828,0.0039284523,-0.024707992,0.54330176,0.0,0.0,0.0,-1.0
2491753285,2491753056,-0.015446642,0.0012566729,-0.023795256,0.5447178,0.0,0.0,0.0,-1.0
2491793250,2491793034,-0.015803676,0.0056147096,-0.02277014,0.5425265,0.0,0.0,0.0,-1.0
2491837326,2491837058,-0.016011026,0.0040128264,-0.021951383,0.54254013,0.0,0.0,0.0,-1.0
2491877298,2491877057,-0.013939202,0.0074648517,-0.022520922,0.5386278,0.0,0.0,0.0,-1.0
2491921285,2491921055,-0.016222704,0.0091277845,-0.02273734,0.54018646,0.0,0.0,0.0,-1.0
2491961282,2491961043,-0.01675453,0.009371882,-0.025452092,0.54110235,0.0,0.0,0.0,-1.0
2492005322,2492005065,-0.018718675,0.009768299,-0.025478985,0.54166335,0.0,0.0,0.0,-1.0
2492045300,2492045034,-0.017566508,0.008912076,-0.025392272,0.5396687,0.0,0.0,0.0,-1.0
2492089312,2492089069,-0.019087905,0.012048699,-0.025539808,0.5390288,0.0,0.0,0.0,-1.0
2492129267,2492129034,-0.017703258,0.01249749,-0.026154755,0.5395228,0.0,0.0,0.0,-1.0
2492173328,2492173064,-0.01893445,0.01091349,-0.026764411,0.53780085,0.0,0.0,0.0,-1.0
2492213284,2492213035,-0.017932203,0.013106827,-0.028504493,0.5359805,0.0,0.0,0.0,-1.0
2492257292,2492257061,-0.018000286,0.010734333,-0.029113457,0.53602827,0.0,0.0,0.0,-1.0
2492297285,2492297060,-0.019354148,0.011351214,-0.030016202,0.5373891,0.0,0.0,0.0,-1.0
2492341306,2492341055,-0.0194963,0.007122509,-0.02838656,0.5384807,0.0,0.0,0.0,-1.0
2492381301,2492381035,-0.017383061,0.008587563,-0.029183002,0.53664297,0.0,0.0,0.0,-1.0
2492421315,2492421035,-0.019822566,0.0095100105,-0.028658278,0.53629625,0.0,0.0,0.0,-1.0
2492465239,2492465035,-0.019291857,0.008473775,-0.028372325,0.53531605,0.0,0.0,0.0,-1.0
2492505259,2492505035,-0.015711276,0.011762793,-0.029641049,0.53560245,0.0,0.0,0.0,-1.0
2492549282,2492549035,-0.015221512,0.010515624,-0.030293725,0.53628284,0.0,0.0,0.0,-1.0
2492589278,2492589035,-0.01629763,0.0039878157,-0.026694518,0.53821754,0.0,0.0,0.0,-1.0
2492633251,2492633035,-0.016390398,0.0018373507,-0.027743276,0.5395537,0.0,0.0,0.0,-1.0
2492673261,2492673035,-0.017764457,0.0028832087,-0.026740842,0.5400518,0.0,0.0,0.0,-1.0
2492717334,2492717068,-0.015338281,0.0014806235,-0.02724444,0.5402233,0.0,0.0,0.0,-1.0
2492757371,2492757058,-0.013701986,0.005575208,-0.029278114,0.5387861,0.0,0.0,0.0,-1.0
2492801265,2492801035,-0.012714956,0.009212139,-0.030169824,0.5387958,0.0,0.0,0.0,-1.0
2492845307,2492845041,-0.010857264,0.011418742,-0.031717364,0.5373577,0.0,0.0,0.0,-1.0
2492885313,2492885040,-0.013448544,0.007614323,-0.0320708,0.54047495,0.0,0.0,0.0,-1.0
2492925312,2492925035,-0.015339037,0.00830566,-0.031610027,0.5413026,0.0,0.0,0.0,-1.0
2492969261,2492969035,-0.013412399,0.009973249,-0.032263782,0.5394283,0.0,0.0,0.0,-1.0
2493009253,2493009035,-0.011029479,0.009939842,-0.032697223,0.5378101,0.0,0.0,0.0,-1.0
2493053291,2493053035,-0.012009206,0.011236021,-0.034126442,0.53601694,0.0,0.0,0.0,-1.0
2493093318,2493093035,-0.015261136,0.007872204,-0.031511754,0.5389863,0.0,0.0,0.0,-1.0
2493137291,2493137072,-0.014823242,0.006582851,-0.03098563,0.54033744,0.0,0.0,0.0,-1.0
2493177275,2493177057,-0.016785134,0.009025345,-0.031564258,0.5401702,0.0,0.0,0.0,-1.0
2493221300,2493221041,-0.017840244,0.007890429,-0.030023681,0.54143095,0.0,0.0,0.0,-1.0
2493261247,2493261035,-0.014037469,0.013043076,-0.031215891,0.5379509,0.0,0.0,0.0,-1.0
2493305243,2493305039,-0.012846881,0.011938574,-0.030154468,0.53895926,0.0,0.0,0.0,-1.0
2493349228,2493349035,-0.01275729,0.014198379,-0.02953372,0.5393222,0.0,0.0,0.0,-1.0
2493389226,2493389034,-0.009543943,0.011934853,-0.03223114,0.5406204,0.0,0.0,0.0,-1.0
2493433276,2493433083,-0.01176363,0.012489266,-0.032413818,0.53907394,0.0,0.0,0.0,-1.0
2493473264,2493473062,-0.008675832,0.011121476,-0.032248706,0.53824276,0.0,0.0,0.0,-1.0
2493517314,2493517061,-0.011718459,0.0075102174,-0.032481052,0.53921825,0.0,0.0,0.0,-1.0
2493557269,2493557064,-0.010195503,0.011855293,-0.03192612,0.5385396,0.0,0.0,0.0,-1.0
2493601247,2493601047,-0.0131453695,0.008362985,-0.031888835,0.542273,0.0,0.0,0.0,-1.0
2493641274,2493641075,-0.010122782,0.013925492,-0.034312416,0.539452,0.0,0.0,0.0,-1.0
2493685271,2493685058,-0.012166345,0.012720175,-0.035066165,0.54110795,0.0,0.0,0.0,-1.0
2493729251,2493729039,-0.009960475,0.01559275,-0.034540664,0.54084593,0.0,0.0,0.0,-1.0
2493769288,2493769059,-0.01263454,0.013703664,-0.03482751,0.54582804,0.0,0.0,0.0,-1.0
2493809292,2493809060,-0.013554337,0.012989894,-0.034272943,0.54507303,0.0,0.0,0.0,-1.0
2493853300,2493853084,-0.014383231,0.017093623,-0.034505367,0.5453104,0.0,0.0,0.0,-1.0
2493897318,2493897079,-0.0117645245,0.019295106,-0.034325205,0.5425038,0.0,0.0,0.0,-1.0
2493941318,2493941035,-0.013132367,0.015566275,-0.03607427,0.54268986,0.0,0.0,0.0,-1.0
2493981264,2493981035,-0.012085701,0.021020861,-0.034787547,0.540245,0.0,0.0,0.0,-1.0
2494025261,2494025042,-0.013176355,0.018582303,-0.03391359,0.542521,0.0,0.0,0.0,-1.0
2494065295,2494065079,-0.009825306,0.020429429,-0.036566548,0.53855956,0.0,0.0,0.0,-1.0
2494109269,2494109035,-0.013003318,0.02042266,-0.036806867,0.53818345,0.0,0.0,0.0,-1.0
2494149280,2494149035,-0.01086908,0.020614035,-0.037341937,0.53886473,0.0,0.0,0.0,-1.0
2494193269,2494193054,-0.01334172,0.020243768,-0.03629566,0.5420315,0.0,0.0,0.0,-1.0
2494233292,2494233072,-0.0109963715,0.01655487,-0.035450365,0.53976715,0.0,0.0,0.0,-1.0
2494277268,2494277057,-0.009375463,0.015534885,-0.035005614,0.5420989,0.0,0.0,0.0,-1.0
2494317517,2494317092,-0.0086473925,0.019006385,-0.03483734,0.54051274,0.0,0.0,0.0,-1.0
2494361284,2494361040,-0.00790206,0.018741842,-0.03520097,0.5414107,0.0,0.0,0.0,-1.0
2494401319,2494401041,-0.0043363106,0.018375559,-0.035984803,0.54042864,0.0,0.0,0.0,-1.0
2494445253,2494445035,-0.005660184,0.021395504,-0.036684357,0.53998095,0.0,0.0,0.0,-1.0
2494485272,2494485035,-0.006180109,0.018282268,-0.036610544,0.54284585,0.0,0.0,0.0,-1.0
2494529283,2494529053,-0.0063953605,0.020310482,-0.038329765,0.54172575,0.0,0.0,0.0,-1.0
2494569311,2494569035,-0.009494188,0.017474193,-0.034217138,0.54373324,0.0,0.0,0.0,-1.0
2494613265,2494613035,-0.009014587,0.01618284,-0.034895144,0.5445504,0.0,0.0,0.0,-1.0
2494653259,2494653035,-0.009150982,0.018454963,-0.033805892,0.54308194,0.0,0.0,0.0,-1.0
2494697338,2494697058,-0.008232195,0.017322224,-0.03382224,0.5421641,0.0,0.0,0.0,-1.0
2494737377,2494737108,-0.0066307355,0.019260902,-0.034203,0.5410048,0.0,0.0,0.0,-1.0
2494781292,2494781035,-0.00995539,0.020211777,-0.033625793,0.54217565,0.0,0.0,0.0,-1.0
2494821271,2494821035,-0.009601412,0.019852277,-0.035354327,0.5426387,0.0,0.0,0.0,-1.0
2494865297,2494865034,-0.0101935845,0.021564266,-0.034444563,0.54247135,0.0,0.0,0.0,-1.0
2494905342,2494905048,-0.011562359,0.019917414,-0.03371162,0.5431321,0.0,0.0,0.0,-1.0
2494949273,2494949034,-0.01249292,0.017894942,-0.0319727,0.54332256,0.0,0.0,0.0,-1.0
2494989278,2494989042,-0.015505858,0.018851284,-0.030423848,0.53560984,0.0,0.0,0.0,-1.0
2495033298,2495033035,-0.01535179,0.015585375,-0.030506661,0.5249237,0.0,0.0,0.0,-1.0
2495073324,2495073034,-0.012640371,0.021581743,-0.031653274,0.5134495,0.0,0.0,0.0,-1.0
2495117293,2495117057,-0.013372995,0.018148901,-0.03124144,0.5079021,0.0,0.0,0.0,-1.0
2495157331,2495157091,-0.0114043355,0.01656846,-0.030786276,0.504211,0.0,0.0,0.0,-1.0
2495201290,2495201035,-0.013401034,0.015669491,-0.03201173,0.50145817,0.0,0.0,0.0,-1.0
2495241294,2495241035,-0.013477784,0.017300311,-0.030420056,0.49720573,0.0,0.0,0.0,-1.0
2495285259,2495285035,-0.012069016,0.01899031,-0.030032141,0.49122807,0.0,0.0,0.0,-1.0
2495325267,2495325035,-0.007160134,0.021009445,-0.034337457,0.4902369,0.0,0.0,0.0,-1.0
2495369314,2495369035,-0.008803152,0.015331325,-0.033170033,0.49112606,0.0,0.0,0.0,-1.0
2495409302,2495409035,-0.012666759,0.016966712,-0.03027394,0.4898383,0.0,0.0,0.0,-1.0
2495453259,2495453035,0.088010535,0.123808414,-0.05593405,0.4822811,0.0,0.0,0.0,1.0
2495493280,2495493036,0.046317197,0.084299594,-0.050646223,0.49540487,0.0,0.0,0.0,1.0
2495537313,2495537057,0.012657363,0.053096477,-0.048529193,0.5067265,0.0,0.0,0.0,1.0
2495578927,2495578635,-0.0055028163,0.037658334,-0.049803257,0.52414715,0.0,0.0,0.0,1.0
2495618912,2495618659,-0.024977677,0.024236668,-0.04513696,0.53294355,0.0,0.0,0.0,1.0
2495662925,2495662668,-0.043708146,0.0021434077,-0.042925518,0.5470884,0.0,0.0,0.0,1.0
2495702887,2495702664,-0.0346268,-0.0034096437,-0.039418936,0.5474902,0.0,0.0,0.0,1.0
2495747018,2495746651,-0.024718959,0.002376724,-0.037103705,0.54700166,0.0,0.0,0.0,1.0
2495786906,2495786658,-0.031567317,-0.034402534,0.30500472,0.5338318,0.0,0.0,0.0,1.0
2495826905,2495826636,-0.03812357,-0.035490964,0.27134904,0.5253673,0.0,0.0,0.0,1.0
2495870885,2495870658,-0.044803545,-0.029759804,0.19477986,0.5131376,0.0,0.0,0.0,1.0
2495910860,2495910635,-0.034481227,-0.0105364835,0.15193431,0.5104083,0.0,0.0,0.0,1.0
2495954918,2495954658,-0.024177419,-0.0027785674,0.12060612,0.50613636,0.0,0.0,0.0,1.0
2495994901,2495994635,-0.024321562,0.005000745,0.10387289,0.50337934,0.0,0.0,0.0,1.0
2496038895,2496038664,-0.015182938,0.015700113,0.084463514,0.507641,0.0,0.0,0.0,1.0
2496082937,2496082639,-0.005925666,0.024270114,0.06936698,0.50794923,0.0,0.0,0.0,1.0
2496122952,2496122658,-0.0055048955,0.022010516,0.058614902,0.51088136,0.0,0.0,0.0,1.0
2496166919,2496166653,-0.004027859,0.021098256,0.049785543,0.51476824,0.0,0.0,0.0,1.0
2496206884,2496206658,0.00083739706,0.026294652,0.042407446,0.51620656,0.0,0.0,0.0,1.0
2496250925,2496250634,0.010383312,0.027250784,0.031588946,0.5215083,0.0,0.0,0.0,1.0
2496290911,2496290657,0.004567603,0.025231514,0.026913425,0.5222011,0.0,0.0,0.0,1.0
2496330884,2496330635,0.005526506,0.025412848,0.021386527,0.521483,0.0,0.0,0.0,1.0
2496374886,2496374665,0.010209794,0.026980171,0.015380098,0.52461857,0.0,0.0,0.0,1.0
2496418964,2496418651,0.014826284,0.027150847,0.012643828,0.5237344,0.0,0.0,0.0,1.0
2496458904,2496458659,0.017117215,0.029620508,0.008916934,0.522588,0.0,0.0,0.0,1.0
2496502905,2496502646,0.019776471,0.03381869,0.0073889755,0.5208246,0.0,0.0,0.0,1.0
2496542892,2496542662,0.027605446,0.03894733,0.0015465897,0.5196998,0.0,0.0,0.0,1.0
2496587063,2496586691,0.031256344,0.04011879,0.0010413582,0.5197506,0.0,0.0,0.0,1.0
