timestamp,baro_alt_meter,baro_temp_celcius,baro_pressure_pa,rho
2468021271,39.05877,49.129997,100856.73,1.1983447
2468034987,38.39026,49.129997,100864.73,1.1984398
2468046887,38.64128,49.129997,100861.72,1.1984041
2468070723,39.143322,49.129997,100855.72,1.1983328
2468083215,39.227875,49.129997,100854.73,1.198321
2468094574,39.309788,49.129997,100853.73,1.1983091
2468118700,38.725834,49.129997,100860.73,1.1983923
2468130946,39.39434,49.129997,100852.73,1.1982973
2468142764,38.976856,49.129997,100857.73,1.1983566
2468166739,39.05877,49.129997,100856.73,1.1983447
2468181512,38.474815,49.129997,100863.73,1.1984279
2468194974,38.64128,49.129997,100861.72,1.1984041
2468219181,38.725834,49.129997,100860.73,1.1983923
2468230841,38.64128,49.129997,100861.72,1.1984041
2468243042,38.39026,49.129997,100864.73,1.1984398
2468267038,38.725834,49.129997,100860.73,1.1983923
2468278511,39.143322,49.129997,100855.72,1.1983328
2468291034,38.8923,49.129997,100858.73,1.1983685
2468315003,39.143322,49.12,100855.72,1.1983328
2468326723,39.478897,49.12,100851.73,1.1982853
2468339208,38.807747,49.12,100859.73,1.1983804
2468365350,38.55673,49.129997,100862.73,1.198416
2468381529,39.143322,49.129997,100855.72,1.1983328
2468394871,38.8923,49.129997,100858.73,1.1983685
2468418881,38.725834,49.129997,100860.73,1.1983923
2468430741,39.05877,49.129997,100856.73,1.1983447
2468442546,38.64128,49.129997,100861.72,1.1984041
2468466868,38.976856,49.129997,100857.73,1.1983566
2468478464,38.807747,49.129997,100859.73,1.1983804
2468490851,39.645363,49.129997,100849.72,1.1982615
2468515000,38.807747,49.129997,100859.73,1.1983804
2468526418,38.807747,49.129997,100859.73,1.1983804
2468538973,39.309788,49.129997,100853.73,1.1983091
2468562846,38.807747,49.129997,100859.73,1.1983804
2468574861,38.976856,49.129997,100857.73,1.1983566
2468586811,39.227875,49.129997,100854.73,1.198321
2468610996,39.05877,49.129997,100856.73,1.1983447
2468622850,38.64128,49.129997,100861.72,1.1984041
2468635110,39.05877,49.129997,100856.73,1.1983447
2468658863,38.30835,49.129997,100865.73,1.1984516
2468670408,38.725834,49.129997,100860.73,1.1983923
2468682998,39.143322,49.129997,100855.72,1.1983328
2468706949,38.807747,49.129997,100859.73,1.1983804
2468718818,38.807747,49.129997,100859.73,1.1983804
2468730851,39.39434,49.129997,100852.73,1.1982973
2468755154,38.223793,49.129997,100866.73,1.1984636
2468766415,39.39434,49.129997,100852.73,1.1982973
2468779115,38.976856,49.129997,100857.73,1.1983566
2468805369,38.8923,49.12,100858.73,1.1983685
2468818942,38.725834,49.12,100860.73,1.1983923
2468830847,38.55673,49.12,100862.73,1.198416
2468854350,38.474815,49.129997,100863.73,1.1984279
2468867334,38.976856,49.129997,100857.73,1.1983566
2468878760,39.645363,49.129997,100849.72,1.1982615
2468902796,39.478897,49.129997,100851.73,1.1982853
2468915227,38.976856,49.129997,100857.73,1.1983566
2468926827,39.560806,49.129997,100850.73,1.1982734
2468950502,40.062847,49.129997,100844.73,1.1982021
2468965519,39.309788,49.129997,100853.73,1.1983091
2468981471,40.564888,49.129997,100838.73,1.1981308
2469006804,41.233395,49.129997,100830.72,1.1980357
2469019005,39.560806,49.129997,100850.73,1.1982734
2469030952,40.731358,49.129997,100836.72,1.198107
2469054576,40.14476,49.129997,100843.73,1.1981903
2469066745,40.6468,49.129997,100837.73,1.198119
2469078838,40.398422,49.129997,100840.73,1.1981547
2469102379,40.231956,49.12,100842.72,1.1981783
2469115068,40.14476,49.12,100843.73,1.1981903
2469126759,40.31387,49.12,100841.73,1.1981665
2469150754,39.478897,49.129997,100851.73,1.1982853
2469163308,39.309788,49.129997,100853.73,1.1983091
2469174902,40.982376,49.129997,100833.73,1.1980715
2469202795,40.31387,49.12,100841.73,1.1981665
2469214481,41.399864,49.12,100828.73,1.1980121
2469226783,40.398422,49.12,100840.73,1.1981547
2469250926,40.062847,49.12,100844.73,1.1982021
2469262590,40.897823,49.12,100834.73,1.1980834
2469274855,40.14476,49.12,100843.73,1.1981903
2469298859,39.978294,49.12,100845.73,1.198214
2469310767,40.982376,49.12,100833.73,1.1980715
2469322783,40.81591,49.12,100835.73,1.1980952
2469346904,40.062847,49.129997,100844.73,1.1982021
2469358951,40.6468,49.129997,100837.73,1.198119
2469370801,39.89374,49.129997,100846.73,1.198226
2469394882,39.81183,49.129997,100847.73,1.1982378
2469406443,39.729916,49.129997,100848.72,1.1982496
2469418935,39.05877,49.129997,100856.73,1.1983447
2469442960,38.64128,49.129997,100861.72,1.1984041
2469454835,39.978294,49.129997,100845.73,1.198214
2469466880,39.978294,49.129997,100845.73,1.198214
2469490858,39.645363,49.129997,100849.72,1.1982615
2469502861,40.062847,49.129997,100844.73,1.1982021
2469514895,39.143322,49.129997,100855.72,1.1983328
2469538883,39.39434,49.129997,100852.73,1.1982973
2469550755,39.39434,49.129997,100852.73,1.1982973
2469562890,39.978294,49.129997,100845.73,1.198214
2469587082,40.14476,49.129997,100843.73,1.1981903
2469598780,39.478897,49.129997,100851.73,1.1982853
2469610952,39.978294,49.129997,100845.73,1.198214
2469634887,39.81183,49.129997,100847.73,1.1982378
2469646821,38.976856,49.129997,100857.73,1.1983566
2469658857,40.31387,49.129997,100841.73,1.1981665
2469683001,39.227875,49.129997,100854.73,1.198321
2469694749,40.062847,49.129997,100844.73,1.1982021
2469707153,39.81183,49.129997,100847.73,1.1982378
2469731059,40.062847,49.129997,100844.73,1.1982021
2469742740,39.81183,49.129997,100847.73,1.1982378
2469755022,40.31387,49.129997,100841.73,1.1981665
2469781278,40.398422,49.129997,100840.73,1.1981547
2469795299,39.81183,49.129997,100847.73,1.1982378
2469806772,39.978294,49.129997,100845.73,1.198214
2469830814,39.978294,49.129997,100845.73,1.198214
2469843065,39.729916,49.129997,100848.72,1.1982496
2469854854,39.729916,49.129997,100848.72,1.1982496
2469878572,40.231956,49.129997,100842.72,1.1981783
2469890889,40.231956,49.129997,100842.72,1.1981783
2469902802,39.309788,49.129997,100853.73,1.1983091
2469926795,39.309788,49.129997,100853.73,1.1983091
2469939057,39.645363,49.129997,100849.72,1.1982615
2469950776,39.89374,49.129997,100846.73,1.198226
2469974771,39.645363,49.129997,100849.72,1.1982615
2469987280,40.062847,49.129997,100844.73,1.1982021
2469998803,40.14476,49.129997,100843.73,1.1981903
2470026891,39.89374,49.129997,100846.73,1.198226
2470038772,39.81183,49.129997,100847.73,1.1982378
2470050852,39.729916,49.129997,100848.72,1.1982496
2470074539,40.062847,49.129997,100844.73,1.1982021
2470086499,40.480335,49.129997,100839.73,1.1981428
2470098856,40.062847,49.129997,100844.73,1.1982021
2470125443,40.14476,49.12,100843.73,1.1981903
2470138860,39.978294,49.12,100845.73,1.198214
2470150883,40.14476,49.12,100843.73,1.1981903
2470174809,39.978294,49.12,100845.73,1.198214
2470186757,39.978294,49.12,100845.73,1.198214
2470198417,40.731358,49.12,100836.72,1.198107
2470222776,40.31387,49.129997,100841.73,1.1981665
2470235347,39.81183,49.129997,100847.73,1.1982378
2470246845,40.6468,49.129997,100837.73,1.198119
2470270843,39.478897,49.129997,100851.73,1.1982853
2470282885,40.731358,49.129997,100836.72,1.198107
2470294444,39.81183,49.129997,100847.73,1.1982378
2470318883,39.978294,49.129997,100845.73,1.198214
2470330963,40.14476,49.129997,100843.73,1.1981903
2470342830,39.978294,49.129997,100845.73,1.198214
2470366751,40.564888,49.129997,100838.73,1.1981308
2470381319,40.398422,49.129997,100840.73,1.1981547
2470395040,39.560806,49.129997,100850.73,1.1982734
2470419244,40.231956,49.129997,100842.72,1.1981783
2470430811,39.81183,49.129997,100847.73,1.1982378
2470442807,40.14476,49.129997,100843.73,1.1981903
2470466773,40.31387,49.129997,100841.73,1.1981665
2470478594,40.31387,49.129997,100841.73,1.1981665
2470490597,40.731358,49.129997,100836.72,1.198107
2470514863,39.729916,49.129997,100848.72,1.1982496
2470526804,40.398422,49.129997,100840.73,1.1981547
2470539067,40.564888,49.129997,100838.73,1.1981308
2470562745,40.398422,49.129997,100840.73,1.1981547
2470574622,40.81591,49.129997,100835.73,1.1980952
2470586875,40.31387,49.129997,100841.73,1.1981665
2470610728,40.062847,49.129997,100844.73,1.1982021
2470622738,40.231956,49.129997,100842.72,1.1981783
2470634754,40.14476,49.129997,100843.73,1.1981903
2470658863,40.731358,49.129997,100836.72,1.198107
2470670317,40.231956,49.129997,100842.72,1.1981783
2470682533,40.31387,49.129997,100841.73,1.1981665
2470706839,40.480335,49.129997,100839.73,1.1981428
2470718827,40.398422,49.129997,100840.73,1.1981547
2470730829,40.731358,49.129997,100836.72,1.198107
2470754890,40.31387,49.129997,100841.73,1.1981665
2470766786,40.564888,49.129997,100838.73,1.1981308
2470781558,40.398422,49.129997,100840.73,1.1981547
2470806715,40.231956,49.129997,100842.72,1.1981783
2470819051,40.480335,49.129997,100839.73,1.1981428
2470830722,40.564888,49.129997,100838.73,1.1981308
2470854819,40.982376,49.129997,100833.73,1.1980715
2470867191,40.6468,49.129997,100837.73,1.198119
2470878418,40.6468,49.129997,100837.73,1.198119
2470902813,40.81591,49.129997,100835.73,1.1980952
2470915333,40.982376,49.129997,100833.73,1.1980715
2470926564,40.982376,49.129997,100833.73,1.1980715
2470954909,40.6468,49.12,100837.73,1.198119
2470966435,40.982376,49.12,100833.73,1.1980715
2470981567,40.231956,49.12,100842.72,1.1981783
2471006760,40.480335,49.129997,100839.73,1.1981428
2471019301,40.982376,49.129997,100833.73,1.1980715
2471030811,40.398422,49.129997,100840.73,1.1981547
2471054453,41.233395,49.129997,100830.72,1.1980357
2471066736,40.564888,49.129997,100838.73,1.1981308
2471078597,41.484417,49.129997,100827.73,1.1980002
2471102853,40.897823,49.12,100834.73,1.1980834
2471114842,40.897823,49.12,100834.73,1.1980834
2471126741,41.399864,49.12,100828.73,1.1980121
2471150204,40.731358,49.129997,100836.72,1.198107
2471163383,41.399864,49.129997,100828.73,1.1980121
2471174420,41.14884,49.129997,100831.73,1.1980478
2471198813,40.564888,49.129997,100838.73,1.1981308
2471210900,40.480335,49.129997,100839.73,1.1981428
2471222940,41.399864,49.129997,100828.73,1.1980121
2471246838,40.982376,49.129997,100833.73,1.1980715
2471259264,40.564888,49.129997,100838.73,1.1981308
2471270287,41.06429,49.129997,100832.73,1.1980596
2471294800,41.06429,49.129997,100832.73,1.1980596
2471307248,41.399864,49.129997,100828.73,1.1980121
2471318257,40.982376,49.129997,100833.73,1.1980715
2471342875,40.81591,49.129997,100835.73,1.1980952
2471354863,40.81591,49.129997,100835.73,1.1980952
2471366829,41.484417,49.129997,100827.73,1.1980002
2471395156,40.231956,49.129997,100842.72,1.1981783
2471406845,40.81591,49.129997,100835.73,1.1980952
2471419127,41.233395,49.129997,100830.72,1.1980357
2471442566,41.233395,49.14,100830.71,1.1980356
2471454553,41.233395,49.14,100830.71,1.1980356
2471466561,41.484417,49.14,100827.72,1.1980001
2471490909,41.06429,49.129997,100832.73,1.1980596
2471502750,40.897823,49.129997,100834.73,1.1980834
2471514937,41.81735,49.129997,100823.72,1.1979525
2471539025,41.901905,49.129997,100822.73,1.1979408
2471550884,41.14884,49.129997,100831.73,1.1980478
2471562773,41.399864,49.129997,100828.73,1.1980121
2471586767,40.982376,49.129997,100833.73,1.1980715
2471598756,41.14884,49.129997,100831.73,1.1980478
2471610868,41.983814,49.129997,100821.73,1.1979289
2471634966,41.56633,49.129997,100826.73,1.1979883
2471646771,41.56633,49.129997,100826.73,1.1979883
2471659185,41.315308,49.129997,100829.73,1.1980239
2471682989,41.233395,49.129997,100830.72,1.1980357
2471694751,40.982376,49.129997,100833.73,1.1980715
2471707264,42.152924,49.129997,100819.73,1.1979052
2471730949,41.56633,49.129997,100826.73,1.1979883
2471742839,41.06429,49.129997,100832.73,1.1980596
2471754622,41.06429,49.129997,100832.73,1.1980596
2471778870,41.06429,49.129997,100832.73,1.1980596
2471790484,41.650883,49.129997,100825.73,1.1979765
2471802550,41.901905,49.129997,100822.73,1.1979408
2471826897,41.56633,49.129997,100826.73,1.1979883
2471838343,41.14884,49.129997,100831.73,1.1980478
2471850985,41.650883,49.129997,100825.73,1.1979765
2471874783,41.484417,49.129997,100827.73,1.1980002
2471886871,41.735435,49.129997,100824.72,1.1979644
2471899050,42.152924,49.129997,100819.73,1.1979052
2471922902,41.650883,49.129997,100825.73,1.1979765
2471934784,41.650883,49.129997,100825.73,1.1979765
2471946857,41.484417,49.129997,100827.73,1.1980002
2471970894,41.56633,49.129997,100826.73,1.1979883
2471982351,41.650883,49.129997,100825.73,1.1979765
2471995260,41.901905,49.129997,100822.73,1.1979408
2472018883,41.650883,49.129997,100825.73,1.1979765
2472030757,41.484417,49.129997,100827.73,1.1980002
2472043050,42.06837,49.129997,100820.73,1.197917
2472066900,41.484417,49.129997,100827.73,1.1980002
2472078425,41.484417,49.129997,100827.73,1.1980002
2472091039,41.315308,49.129997,100829.73,1.1980239
2472115053,41.735435,49.129997,100824.72,1.1979644
2472126819,41.650883,49.129997,100825.73,1.1979765
2472138876,41.56633,49.129997,100826.73,1.1979883
2472162812,41.81735,49.129997,100823.72,1.1979525
2472174778,41.56633,49.129997,100826.73,1.1979883
2472186900,42.06837,49.129997,100820.73,1.197917
2472210777,41.735435,49.129997,100824.72,1.1979644
2472222368,41.735435,49.129997,100824.72,1.1979644
2472234546,41.81735,49.129997,100823.72,1.1979525
2472258755,41.56633,49.129997,100826.73,1.1979883
2472270365,41.56633,49.129997,100826.73,1.1979883
2472283073,41.735435,49.129997,100824.72,1.1979644
2472308823,41.650883,49.129997,100825.73,1.1979765
2472320888,42.57041,49.129997,100814.73,1.1978457
2472332180,41.650883,49.129997,100825.73,1.1979765
2472356124,41.81735,49.129997,100823.72,1.1979525
2472368975,41.650883,49.129997,100825.73,1.1979765
2472380744,41.735435,49.129997,100824.72,1.1979644
2472404712,41.901905,49.14,100822.72,1.1979407
2472416535,41.986458,49.14,100821.72,1.1979288
2472428805,42.06837,49.14,100820.72,1.1979169
2472452119,41.399864,49.129997,100828.73,1.1980121
2472464830,41.484417,49.129997,100827.73,1.1980002
2472476738,41.735435,49.129997,100824.72,1.1979644
2472500707,42.401302,49.129997,100816.73,1.1978695
2472512918,41.81735,49.129997,100823.72,1.1979525
2472524736,41.81735,49.129997,100823.72,1.1979525
2472548767,42.06837,49.129997,100820.73,1.197917
2472560555,41.983814,49.129997,100821.73,1.1979289
2472572131,42.654964,49.129997,100813.73,1.1978339
2472596034,41.983814,49.129997,100821.73,1.1979289
2472608700,42.152924,49.129997,100819.73,1.1979052
2472620831,41.81735,49.129997,100823.72,1.1979525
2472644747,42.57041,49.129997,100814.73,1.1978457
2472656715,41.650883,49.129997,100825.73,1.1979765
2472667910,41.901905,49.129997,100822.73,1.1979408
2472691897,41.484417,49.129997,100827.73,1.1980002
2472704627,42.152924,49.129997,100819.73,1.1979052
2472715957,42.82143,49.129997,100811.72,1.1978099
2472740738,42.654964,49.129997,100813.73,1.1978339
2472752498,42.234837,49.129997,100818.73,1.1978933
2472764037,42.401302,49.129997,100816.73,1.1978695
2472792384,41.983814,49.129997,100821.73,1.1979289
2472804027,42.234837,49.129997,100818.73,1.1978933
2472816549,42.57041,49.129997,100814.73,1.1978457
2472840728,42.57041,49.129997,100814.73,1.1978457
2472852749,42.06837,49.129997,100820.73,1.197917
2472864661,42.152924,49.129997,100819.73,1.1979052
2472888526,42.152924,49.129997,100819.73,1.1979052
2472900824,42.401302,49.129997,100816.73,1.1978695
2472912503,42.485855,49.129997,100815.73,1.1978576
2472936455,42.485855,49.129997,100815.73,1.1978576
2472948113,42.654964,49.129997,100813.73,1.1978339
2472960477,42.654964,49.129997,100813.73,1.1978339
2472984466,41.81735,49.129997,100823.72,1.1979525
2472996126,42.57041,49.129997,100814.73,1.1978457
2473008485,42.401302,49.129997,100816.73,1.1978695
2473032462,43.405384,49.129997,100804.73,1.197727
2473044111,42.401302,49.129997,100816.73,1.1978695
2473056509,42.736877,49.129997,100812.73,1.197822
2473080744,42.31939,49.129997,100817.72,1.1978812
2473092162,42.152924,49.129997,100819.73,1.1979052
2473104534,42.654964,49.129997,100813.73,1.1978339
2473128609,41.983814,49.129997,100821.73,1.1979289
2473139953,42.987896,49.129997,100809.73,1.1977863
2473152184,42.654964,49.129997,100813.73,1.1978339
2473179237,42.987896,49.129997,100809.73,1.1977863
2473191533,42.736877,49.129997,100812.73,1.197822
2473204216,42.31939,49.129997,100817.72,1.1978812
2473227998,42.401302,49.129997,100816.73,1.1978695
2473240467,42.31939,49.129997,100817.72,1.1978812
2473252117,42.31939,49.129997,100817.72,1.1978812
2473276744,42.654964,49.129997,100813.73,1.1978339
2473290977,42.57041,49.129997,100814.73,1.1978457
2473304501,42.987896,49.129997,100809.73,1.1977863
2473328223,42.82143,49.129997,100811.72,1.1978099
2473339949,43.072453,49.129997,100808.73,1.1977744
2473352130,43.23892,49.129997,100806.73,1.1977507
2473378951,43.15436,49.129997,100807.73,1.1977626
2473391728,43.15436,49.129997,100807.73,1.1977626
2473404020,42.57041,49.129997,100814.73,1.1978457
2473427996,43.23892,49.12,100806.73,1.1977507
2473440368,42.905983,49.12,100810.73,1.1977983
2473451770,42.987896,49.12,100809.73,1.1977863
2473475953,42.57041,49.129997,100814.73,1.1978457
2473488832,42.905983,49.129997,100810.73,1.1977983
2473500910,42.987896,49.129997,100809.73,1.1977863
2473524046,42.905983,49.129997,100810.73,1.1977983
2473536561,42.401302,49.129997,100816.73,1.1978695
2473548768,43.32347,49.129997,100805.72,1.1977386
2473571916,43.32347,49.129997,100805.72,1.1977386
2473584846,42.987896,49.129997,100809.73,1.1977863
2473596757,43.32347,49.129997,100805.72,1.1977386
2473620838,42.905983,49.14,100810.72,1.1977981
2473632738,42.905983,49.14,100810.72,1.1977981
2473644899,43.072453,49.14,100808.72,1.1977743
2473668048,43.072453,49.129997,100808.73,1.1977744
2473680771,43.489937,49.129997,100803.73,1.197715
2473692824,43.489937,49.129997,100803.73,1.197715
2473716010,43.072453,49.129997,100808.73,1.1977744
2473730934,43.32347,49.129997,100805.72,1.1977386
2473743250,43.656403,49.129997,100801.73,1.1976913
2473768521,43.072453,49.129997,100808.73,1.1977744
2473779984,43.32347,49.129997,100805.72,1.1977386
2473792496,43.32347,49.129997,100805.72,1.1977386
2473816637,43.405384,49.129997,100804.73,1.197727
2473827774,42.987896,49.129997,100809.73,1.1977863
2473840598,42.736877,49.129997,100812.73,1.197822
2473864936,43.656403,49.129997,100801.73,1.1976913
2473876812,43.072453,49.129997,100808.73,1.1977744
2473888815,43.15436,49.129997,100807.73,1.1977626
2473912390,43.32347,49.129997,100805.72,1.1977386
2473924386,43.57449,49.129997,100802.73,1.1977031
2473936871,43.57449,49.129997,100802.73,1.1977031
2473960779,43.23892,49.129997,100806.73,1.1977507
2473972818,43.489937,49.129997,100803.73,1.197715
2473984659,43.32347,49.129997,100805.72,1.1977386
2474008746,43.907425,49.129997,100798.72,1.1976556
2474019961,42.905983,49.129997,100810.73,1.1977983
2474032542,43.489937,49.129997,100803.73,1.197715
2474056865,43.15436,49.129997,100807.73,1.1977626
2474067879,43.405384,49.129997,100804.73,1.197727
2474081559,43.74096,49.129997,100800.73,1.1976794
2474108065,43.23892,49.12,100806.73,1.1977507
2474120542,43.23892,49.12,100806.73,1.1977507
2474131996,43.32347,49.12,100805.72,1.1977386
2474155976,43.32347,49.129997,100805.72,1.1977386
2474169566,43.57449,49.129997,100802.73,1.1977031
2474183292,43.991978,49.129997,100797.73,1.1976438
2474208454,43.489937,49.12,100803.73,1.197715
2474220065,43.57449,49.12,100802.73,1.1977031
2474232423,43.32347,49.12,100805.72,1.1977386
2474256640,43.32347,49.129997,100805.72,1.1977386
2474268013,43.907425,49.129997,100798.72,1.1976556
2474280657,43.23892,49.129997,100806.73,1.1977507
2474304743,43.57449,49.129997,100802.73,1.1977031
2474316005,43.656403,49.129997,100801.73,1.1976913
2474328545,43.825512,49.129997,100799.72,1.1976674
2474352482,43.656403,49.129997,100801.73,1.1976913
2474364163,43.656403,49.129997,100801.73,1.1976913
2474378940,43.656403,49.129997,100801.73,1.1976913
2474404059,43.74096,49.129997,100800.73,1.1976794
2474416495,43.74096,49.129997,100800.73,1.1976794
2474427817,43.489937,49.129997,100803.73,1.197715
2474452018,43.23892,49.12,100806.73,1.1977507
2474464491,43.907425,49.12,100798.72,1.1976556
2474475937,43.991978,49.12,100797.73,1.1976438
2474500812,43.405384,49.129997,100804.73,1.197727
2474512756,44.07389,49.129997,100796.73,1.1976318
2474524167,43.656403,49.129997,100801.73,1.1976913
2474548006,43.74096,49.129997,100800.73,1.1976794
2474560547,43.405384,49.129997,100804.73,1.197727
2474572014,43.74096,49.129997,100800.73,1.1976794
2474595818,43.489937,49.129997,100803.73,1.197715
2474608917,44.409466,49.129997,100792.72,1.1975843
2474620838,44.32491,49.129997,100793.73,1.1975962
2474644772,43.825512,49.129997,100799.72,1.1976674
2474658852,43.825512,49.129997,100799.72,1.1976674
2474671359,44.243,49.129997,100794.73,1.1976081
2474695282,44.158443,49.129997,100795.73,1.1976199
2474708014,43.991978,49.129997,100797.73,1.1976438
2474720602,43.825512,49.129997,100799.72,1.1976674
2474744721,43.825512,49.129997,100799.72,1.1976674
2474755942,44.07389,49.129997,100796.73,1.1976318
2474768489,44.07389,49.129997,100796.73,1.1976318
2474792398,43.57449,49.129997,100802.73,1.1977031
2474803935,43.656403,49.129997,100801.73,1.1976913
2474816394,43.991978,49.129997,100797.73,1.1976438
2474840400,43.405384,49.129997,100804.73,1.197727
2474851989,44.409466,49.129997,100792.72,1.1975843
2474864715,44.49402,49.129997,100791.73,1.1975725
2474888738,43.991978,49.129997,100797.73,1.1976438
2474900728,43.907425,49.129997,100798.72,1.1976556
2474912844,44.660484,49.129997,100789.73,1.1975486
2474936801,43.825512,49.129997,100799.72,1.1976674
2474948784,44.158443,49.129997,100795.73,1.1976199
2474962894,44.243,49.129997,100794.73,1.1976081
2474988715,43.825512,49.129997,100799.72,1.1976674
2475002562,44.07389,49.129997,100796.73,1.1976318
2475016433,43.907425,49.129997,100798.72,1.1976556
2475040380,43.991978,49.129997,100797.73,1.1976438
2475052014,44.32491,49.129997,100793.73,1.1975962
2475064600,44.32491,49.129997,100793.73,1.1975962
2475088523,44.409466,49.129997,100792.72,1.1975843
2475100738,44.243,49.129997,100794.73,1.1976081
2475112749,44.32491,49.129997,100793.73,1.1975962
2475136517,44.74504,49.129997,100788.73,1.1975368
2475148076,43.907425,49.129997,100798.72,1.1976556
2475160544,44.911507,49.129997,100786.72,1.197513
2475184429,44.243,49.129997,100794.73,1.1976081
2475196046,44.57593,49.129997,100790.73,1.1975605
2475208385,44.32491,49.129997,100793.73,1.1975962
2475232330,44.158443,49.129997,100795.73,1.1976199
2475244064,44.49402,49.129997,100791.73,1.1975725
2475256524,43.23892,49.129997,100806.73,1.1977507
2475280517,44.243,49.12,100794.73,1.1976081
2475292016,44.158443,49.12,100795.73,1.1976199
2475305650,44.49402,49.12,100791.73,1.1975725
2475332046,44.409466,49.129997,100792.72,1.1975843
2475344631,43.907425,49.129997,100798.72,1.1976556
2475355833,44.243,49.129997,100794.73,1.1976081
2475380733,44.57593,49.129997,100790.73,1.1975605
2475394954,43.991978,49.129997,100797.73,1.1976438
2475407887,44.243,49.129997,100794.73,1.1976081
2475432491,44.158443,49.129997,100795.73,1.1976199
2475443950,45.077972,49.129997,100784.73,1.1974893
2475456377,43.907425,49.129997,100798.72,1.1976556
2475480182,44.158443,49.129997,100795.73,1.1976199
2475491999,43.991978,49.129997,100797.73,1.1976438
2475504588,44.158443,49.129997,100795.73,1.1976199
2475528470,44.243,49.129997,100794.73,1.1976081
2475540807,44.57593,49.129997,100790.73,1.1975605
2475552750,44.243,49.129997,100794.73,1.1976081
2475578973,44.660484,49.12,100789.73,1.1975486
2475594969,44.49402,49.12,100791.73,1.1975725
2475608462,43.656403,49.12,100801.73,1.1976913
2475632169,45.24444,49.12,100782.73,1.1974655
2475644002,44.49402,49.12,100791.73,1.1975725
2475656139,44.57593,49.12,100790.73,1.1975605
2475680381,44.660484,49.12,100789.73,1.1975486
2475692032,44.57593,49.12,100790.73,1.1975605
2475704627,44.911507,49.12,100786.72,1.197513
2475728740,44.07389,49.12,100796.73,1.1976318
2475740758,44.32491,49.12,100793.73,1.1975962
2475752368,44.82695,49.12,100787.73,1.1975249
2475776451,44.911507,49.129997,100786.72,1.197513
2475788808,44.409466,49.129997,100792.72,1.1975843
2475803031,44.409466,49.129997,100792.72,1.1975843
2475827913,44.911507,49.12,100786.72,1.197513
2475840486,45.162525,49.12,100783.73,1.1974773
2475852761,45.077972,49.12,100784.73,1.1974893
2475876149,44.660484,49.12,100789.73,1.1975486
2475888784,44.49402,49.12,100791.73,1.1975725
2475900042,44.409466,49.12,100792.72,1.1975843
2475924160,44.243,49.129997,100794.73,1.1976081
2475938880,44.993416,49.129997,100785.73,1.1975012
2475951591,44.911507,49.129997,100786.72,1.197513
2475979231,44.911507,49.12,100786.72,1.197513
2475992465,44.993416,49.12,100785.73,1.1975012
2476004163,44.660484,49.12,100789.73,1.1975486
2476028025,44.82695,49.12,100787.73,1.1975249
2476040398,44.911507,49.12,100786.72,1.197513
2476051890,45.162525,49.12,100783.73,1.1974773
2476075747,44.57593,49.129997,100790.73,1.1975605
2476088638,45.077972,49.129997,100784.73,1.1974893
2476100172,45.24444,49.129997,100782.73,1.1974655
2476124835,44.993416,49.129997,100785.73,1.1975012
2476136950,45.077972,49.129997,100784.73,1.1974893
2476148818,44.993416,49.129997,100785.73,1.1975012
2476173730,45.580013,49.12,100778.73,1.197418
2476186534,45.24444,49.12,100782.73,1.1974655
2476197793,44.82695,49.12,100787.73,1.1975249
2476221695,44.49402,49.129997,100791.73,1.1975725
2476234439,44.660484,49.129997,100789.73,1.1975486
2476246000,45.495457,49.129997,100779.73,1.1974299
2476269683,45.32899,49.129997,100781.73,1.1974536
2476282139,45.74648,49.129997,100776.73,1.1973943
2476293684,44.911507,49.129997,100786.72,1.197513
2476317719,45.83103,49.12,100775.73,1.1973823
2476330508,45.077972,49.12,100784.73,1.1974893
2476341699,45.664566,49.12,100777.73,1.197406
2476365652,45.413548,49.129997,100780.72,1.1974417
2476380649,45.413548,49.129997,100780.72,1.1974417
2476393648,45.162525,49.129997,100783.73,1.1974773
2476418363,45.162525,49.129997,100783.73,1.1974773
2476429680,44.993416,49.129997,100785.73,1.1975012
2476442099,45.664566,49.129997,100777.73,1.197406
2476466104,44.993416,49.129997,100785.73,1.1975012
2476477751,45.24444,49.129997,100782.73,1.1974655
2476490420,45.32899,49.129997,100781.73,1.1974536
2476514223,45.162525,49.129997,100783.73,1.1974773
2476526055,45.162525,49.129997,100783.73,1.1974773
2476538387,45.495457,49.129997,100779.73,1.1974299
2476562300,45.32899,49.129997,100781.73,1.1974536
2476573629,45.077972,49.129997,100784.73,1.1974893
2476586218,45.077972,49.129997,100784.73,1.1974893
2476610064,45.32899,49.129997,100781.73,1.1974536
2476621685,45.580013,49.129997,100778.73,1.197418
2476634151,45.580013,49.129997,100778.73,1.197418
2476658341,45.580013,49.129997,100778.73,1.197418
2476669700,45.580013,49.129997,100778.73,1.197418
2476682491,45.495457,49.129997,100779.73,1.1974299
2476706527,45.664566,49.129997,100777.73,1.197406
2476717687,45.74648,49.129997,100776.73,1.1973943
2476730042,45.83103,49.129997,100775.73,1.1973823
2476753915,45.580013,49.129997,100778.73,1.197418
2476765698,45.664566,49.129997,100777.73,1.197406
2476780506,45.162525,49.129997,100783.73,1.1974773
2476805711,46.166607,49.129997,100771.73,1.1973348
2476818159,45.74648,49.129997,100776.73,1.1973943
2476829645,45.664566,49.129997,100777.73,1.197406
2476853653,45.83103,49.129997,100775.73,1.1973823
2476866418,45.74648,49.129997,100776.73,1.1973943
2476877673,46.082054,49.129997,100772.73,1.1973467
2476901637,45.83103,49.129997,100775.73,1.1973823
2476916614,46.333073,49.129997,100769.73,1.197311
2476928902,45.664566,49.129997,100777.73,1.197406
2476954414,45.91559,49.129997,100774.72,1.1973704
2476965786,46.00014,49.129997,100773.72,1.1973585
2476980577,45.580013,49.129997,100778.73,1.197418
2477005677,44.911507,49.12,100786.72,1.197513
2477018126,46.417625,49.12,100768.73,1.1972991
2477029775,46.00014,49.12,100773.72,1.1973585
2477053613,45.91559,49.12,100774.72,1.1973704
2477066078,45.91559,49.12,100774.72,1.1973704
2477077734,46.333073,49.12,100769.73,1.197311
2477101776,45.32899,49.129997,100781.73,1.1974536
2477116576,46.166607,49.129997,100771.73,1.1973348
2477129101,45.580013,49.129997,100778.73,1.197418
2477154164,45.664566,49.129997,100777.73,1.197406
2477165608,45.83103,49.129997,100775.73,1.1973823
2477180650,46.417625,49.129997,100768.73,1.1972991
2477205670,46.082054,49.12,100772.73,1.1973467
2477218335,45.664566,49.12,100777.73,1.197406
2477229748,46.333073,49.12,100769.73,1.197311
2477253718,45.664566,49.12,100777.73,1.197406
2477265706,46.417625,49.12,100768.73,1.1972991
2477277709,46.00014,49.12,100773.72,1.1973585
2477302060,46.082054,49.129997,100772.73,1.1973467
2477314257,45.91559,49.129997,100774.72,1.1973704
2477325650,46.333073,49.129997,100769.73,1.197311
2477349603,45.580013,49.129997,100778.73,1.197418
2477362123,46.082054,49.129997,100772.73,1.1973467
2477373596,46.24852,49.129997,100770.73,1.197323
2477400911,46.00014,49.129997,100773.72,1.1973585
2477413671,46.24852,49.129997,100770.73,1.197323
2477426077,46.417625,49.129997,100768.73,1.1972991
2477450166,46.082054,49.129997,100772.73,1.1973467
2477461607,46.49954,49.129997,100767.72,1.1972872
2477473742,46.75056,49.129997,100764.73,1.1972517
2477500451,45.83103,49.12,100775.73,1.1973823
2477512879,46.24852,49.12,100770.73,1.197323
2477524815,46.75056,49.12,100764.73,1.1972517
2477549695,46.00014,49.12,100773.72,1.1973585
2477564456,47.00158,49.12,100761.72,1.1972159
2477580618,46.49954,49.12,100767.72,1.1972872
2477605733,46.835114,49.129997,100763.73,1.1972398
2477618078,46.666004,49.129997,100765.73,1.1972635
2477629649,46.333073,49.129997,100769.73,1.197311
2477653660,46.584095,49.129997,100766.73,1.1972754
2477666063,46.333073,49.129997,100769.73,1.197311
2477677764,47.086136,49.129997,100760.73,1.1972041
2477701705,46.584095,49.12,100766.73,1.1972754
2477714147,46.835114,49.12,100763.73,1.1972398
2477725685,46.666004,49.12,100765.73,1.1972635
2477749939,46.49954,49.12,100767.72,1.1972872
2477762202,45.664566,49.12,100777.73,1.197406
2477773649,46.49954,49.12,100767.72,1.1972872
2477804583,46.584095,49.12,100766.73,1.1972754
2477818034,46.49954,49.12,100767.72,1.1972872
2477829953,47.168045,49.12,100759.73,1.1971922
2477853692,46.75056,49.12,100764.73,1.1972517
2477865991,46.75056,49.12,100764.73,1.1972517
2477877406,46.75056,49.12,100764.73,1.1972517
2477901714,46.666004,49.12,100765.73,1.1972635
2477914019,46.24852,49.12,100770.73,1.197323
2477925978,47.086136,49.12,100760.73,1.1972041
2477949645,46.584095,49.129997,100766.73,1.1972754
2477962423,46.49954,49.129997,100767.72,1.1972872
2477973715,46.917027,49.129997,100762.73,1.1972278
2477999152,46.584095,49.12,100766.73,1.1972754
2478011228,46.417625,49.12,100768.73,1.1972991
2478024955,47.168045,49.12,100759.73,1.1971922
2478049429,47.168045,49.12,100759.73,1.1971922
2478061380,46.584095,49.12,100766.73,1.1972754
2478074205,46.666004,49.12,100765.73,1.1972635
2478098448,46.666004,49.129997,100765.73,1.1972635
2478110102,47.00158,49.129997,100761.72,1.1972159
2478122130,46.917027,49.129997,100762.73,1.1972278
2478146344,47.419067,49.129997,100756.73,1.1971565
2478158028,47.337154,49.129997,100757.73,1.1971685
2478170080,46.417625,49.129997,100768.73,1.1972991
2478194014,46.49954,49.12,100767.72,1.1972872
2478205629,48.090214,49.12,100748.72,1.1970614
2478218058,47.337154,49.12,100757.73,1.1971685
2478242268,47.50362,49.129997,100755.72,1.1971446
2478253615,47.337154,49.129997,100757.73,1.1971685
2478266069,46.417625,49.129997,100768.73,1.1972991
2478290105,47.2526,49.129997,100758.73,1.1971804
2478301720,47.086136,49.129997,100760.73,1.1972041
2478314052,47.168045,49.129997,100759.73,1.1971922
2478338107,47.086136,49.12,100760.73,1.1972041
2478349629,47.419067,49.12,100756.73,1.1971565
2478362135,47.00158,49.12,100761.72,1.1972159
2478385969,47.337154,49.129997,100757.73,1.1971685
2478397784,46.917027,49.129997,100762.73,1.1972278
2478409974,47.337154,49.129997,100757.73,1.1971685
2478435156,48.172127,49.129997,100747.73,1.1970496
2478448888,47.92111,49.129997,100750.73,1.1970853
2478461352,47.086136,49.129997,100760.73,1.1972041
2478485685,47.337154,49.129997,100757.73,1.1971685
2478498052,47.2526,49.129997,100758.73,1.1971804
2478509741,47.2526,49.129997,100758.73,1.1971804
2478535138,47.50362,49.12,100755.72,1.1971446
2478548444,47.588177,49.12,100754.73,1.1971328
2478560817,47.670086,49.12,100753.73,1.1971209
2478585742,47.2526,49.129997,100758.73,1.1971804
2478597770,47.50362,49.129997,100755.72,1.1971446
2478609964,47.588177,49.129997,100754.73,1.1971328
2478634295,47.337154,49.12,100757.73,1.1971685
2478645632,48.00566,49.12,100749.72,1.1970733
2478660483,47.670086,49.12,100753.73,1.1971209
2478685648,47.670086,49.12,100753.73,1.1971209
2478698111,47.588177,49.12,100754.73,1.1971328
2478709664,47.83655,49.12,100751.73,1.1970972
2478733631,47.2526,49.129997,100758.73,1.1971804
2478746456,47.670086,49.129997,100753.73,1.1971209
2478757761,47.086136,49.129997,100760.73,1.1972041
2478784603,48.256683,49.12,100746.73,1.1970378
2478796478,48.42315,49.12,100744.73,1.197014
2478809971,48.172127,49.12,100747.73,1.1970496
2478834237,48.090214,49.129997,100748.72,1.1970614
2478845745,47.754642,49.129997,100752.73,1.1971091
2478858239,47.92111,49.129997,100750.73,1.1970853
2478882220,47.92111,49.129997,100750.73,1.1970853
2478893677,48.256683,49.129997,100746.73,1.1970378
2478906214,48.00566,49.129997,100749.72,1.1970733
2478930143,47.670086,49.129997,100753.73,1.1971209
2478941675,47.50362,49.129997,100755.72,1.1971446
2478954103,47.670086,49.129997,100753.73,1.1971209
2478980661,47.670086,49.129997,100753.73,1.1971209
2478993568,47.83655,49.129997,100751.73,1.1970972
2479005764,47.2526,49.129997,100758.73,1.1971804
2479031176,48.758724,49.129997,100740.73,1.1969665
2479044655,48.172127,49.129997,100747.73,1.1970496
2479058085,48.172127,49.129997,100747.73,1.1970496
2479081995,48.090214,49.12,100748.72,1.1970614
2479093637,48.172127,49.12,100747.73,1.1970496
2479106475,48.172127,49.12,100747.73,1.1970496
2479130103,47.670086,49.12,100753.73,1.1971209
2479141660,48.256683,49.12,100746.73,1.1970378
2479156077,48.592255,49.12,100742.72,1.1969901
2479181585,48.172127,49.12,100747.73,1.1970496
2479193749,47.92111,49.12,100750.73,1.1970853
2479205678,48.42315,49.12,100744.73,1.197014
2479232795,48.00566,49.12,100749.72,1.1970733
2479245488,48.256683,49.12,100746.73,1.1970378
2479257944,48.172127,49.12,100747.73,1.1970496
2479281946,47.92111,49.12,100750.73,1.1970853
2479293927,48.42315,49.12,100744.73,1.197014
2479306294,48.42315,49.12,100744.73,1.197014
2479330529,47.92111,49.12,100750.73,1.1970853
2479341775,48.341236,49.12,100745.73,1.1970259
2479354262,47.83655,49.12,100751.73,1.1970972
2479380566,48.758724,49.129997,100740.73,1.1969665
2479393552,48.256683,49.129997,100746.73,1.1970378
2479405721,48.172127,49.129997,100747.73,1.1970496
2479431169,49.009743,49.12,100737.73,1.1969309
2479444176,48.5077,49.12,100743.73,1.1970022
2479456866,48.42315,49.12,100744.73,1.197014
2479480967,48.5077,49.12,100743.73,1.1970022
2479493631,48.92519,49.12,100738.73,1.1969427
2479506028,48.341236,49.12,100745.73,1.1970259
2479530042,48.674168,49.12,100741.73,1.1969783
2479541770,48.674168,49.12,100741.73,1.1969783
2479554114,48.256683,49.12,100746.73,1.1970378
2479580538,48.341236,49.129997,100745.73,1.1970259
2479592844,48.92519,49.129997,100738.73,1.1969427
2479604706,48.5077,49.129997,100743.73,1.1970022
2479628735,48.92519,49.12,100738.73,1.1969427
2479640926,48.674168,49.12,100741.73,1.1969783
2479652657,49.094296,49.12,100736.72,1.1969188
2479677535,48.172127,49.129997,100747.73,1.1970496
2479692726,48.341236,49.129997,100745.73,1.1970259
2479706155,48.758724,49.129997,100740.73,1.1969665
2479730063,48.843277,49.12,100739.73,1.1969546
2479741626,49.009743,49.12,100737.73,1.1969309
2479753952,49.342674,49.12,100733.73,1.1968833
2479778153,48.843277,49.12,100739.73,1.1969546
2479789677,49.094296,49.12,100736.72,1.1969188
2479804446,49.342674,49.12,100733.73,1.1968833
2479829590,48.92519,49.12,100738.73,1.1969427
2479841954,48.92519,49.12,100738.73,1.1969427
2479853665,49.17621,49.12,100735.73,1.196907
2479877715,48.843277,49.12,100739.73,1.1969546
2479890440,49.511784,49.12,100731.73,1.1968596
2479901675,48.674168,49.12,100741.73,1.1969783
2479925641,49.094296,49.129997,100736.72,1.1969188
2479938264,48.92519,49.129997,100738.73,1.1969427
2479949638,49.17621,49.129997,100735.73,1.196907
2479973793,49.094296,49.12,100736.72,1.1969188
2479986273,48.92519,49.12,100738.73,1.1969427
2479997722,48.592255,49.12,100742.72,1.1969901
2480021618,49.42723,49.129997,100732.73,1.1968714
2480035003,49.26076,49.129997,100734.73,1.1968952
2480047248,49.342674,49.129997,100733.73,1.1968833
2480071659,49.42723,49.129997,100732.73,1.1968714
2480084035,49.094296,49.129997,100736.72,1.1969188
2480095747,49.42723,49.129997,100732.73,1.1968714
2480119686,49.009743,49.12,100737.73,1.1969309
2480131672,49.009743,49.12,100737.73,1.1969309
2480143751,49.094296,49.12,100736.72,1.1969188
2480167281,49.17621,49.12,100735.73,1.196907
2480182156,49.511784,49.12,100731.73,1.1968596
2480195579,49.342674,49.12,100733.73,1.1968833
2480219659,49.511784,49.12,100731.73,1.1968596
2480231247,49.511784,49.12,100731.73,1.1968596
2480243342,49.511784,49.12,100731.73,1.1968596
2480267700,49.26076,49.12,100734.73,1.1968952
2480279310,49.92927,49.12,100726.73,1.1968001
2480291579,49.92927,49.12,100726.73,1.1968001
2480315749,49.511784,49.12,100731.73,1.1968596
2480327718,49.67825,49.12,100729.73,1.1968358
2480339954,49.67825,49.12,100729.73,1.1968358
2480363785,49.596336,49.129997,100730.72,1.1968476
2480375795,50.013824,49.129997,100725.73,1.1967883
2480387783,49.009743,49.129997,100737.73,1.1969309
2480411902,49.762802,49.129997,100728.73,1.196824
2480423210,49.762802,49.129997,100728.73,1.196824
2480436058,49.511784,49.129997,100731.73,1.1968596
2480459799,49.342674,49.129997,100733.73,1.1968833
2480471745,49.342674,49.129997,100733.73,1.1968833
2480483706,49.596336,49.129997,100730.72,1.1968476
2480507762,49.342674,49.129997,100733.73,1.1968833
2480519758,49.342674,49.129997,100733.73,1.1968833
2480531869,50.264843,49.129997,100722.73,1.1967527
2480555816,49.596336,49.129997,100730.72,1.1968476
2480567666,49.762802,49.129997,100728.73,1.196824
2480582159,50.013824,49.129997,100725.73,1.1967883
2480607276,50.346756,49.12,100721.73,1.1967407
2480619874,50.095737,49.12,100724.72,1.1967763
2480631694,50.346756,49.12,100721.73,1.1967407
2480655325,50.095737,49.12,100724.72,1.1967763
2480667827,50.095737,49.12,100724.72,1.1967763
2480679788,50.346756,49.12,100721.73,1.1967407
2480703681,49.844715,49.129997,100727.73,1.196812
2480715766,50.18029,49.129997,100723.72,1.1967643
2480727797,50.264843,49.129997,100722.73,1.1967527
2480751152,50.264843,49.12,100722.73,1.1967527
2480763667,50.013824,49.12,100725.73,1.1967883
2480775770,50.013824,49.12,100725.73,1.1967883
2480799670,49.67825,49.129997,100729.73,1.1968358
2480811776,49.762802,49.129997,100728.73,1.196824
2480823220,50.431313,49.129997,100720.73,1.1967288
2480847682,50.59778,49.129997,100718.73,1.1967051
2480860013,50.431313,49.129997,100720.73,1.1967288
2480871666,50.013824,49.129997,100725.73,1.1967883
2480895906,50.515865,49.129997,100719.73,1.196717
2480908153,50.431313,49.129997,100720.73,1.1967288
2480919314,50.515865,49.129997,100719.73,1.196717
2480943566,50.515865,49.129997,100719.73,1.196717
2480955867,50.431313,49.129997,100720.73,1.1967288
2480967674,50.515865,49.129997,100719.73,1.196717
2480994965,50.346756,49.129997,100721.73,1.1967407
2481007229,50.431313,49.129997,100720.73,1.1967288
2481019942,50.59778,49.129997,100718.73,1.1967051
2481044008,50.59778,49.12,100718.73,1.1967051
2481055699,50.431313,49.12,100720.73,1.1967288
2481067781,50.264843,49.12,100722.73,1.1967527
2481091719,50.766884,49.129997,100716.73,1.1966814
2481103800,50.264843,49.129997,100722.73,1.1967527
2481115757,49.844715,49.129997,100727.73,1.196812
2481139759,50.013824,49.129997,100725.73,1.1967883
2481151755,50.68233,49.129997,100717.72,1.1966931
2481163754,51.09982,49.129997,100712.73,1.1966338
2481187616,50.431313,49.129997,100720.73,1.1967288
2481199670,50.68233,49.129997,100717.72,1.1966931
2481211702,51.017906,49.129997,100713.73,1.1966456
2481235876,50.59778,49.129997,100718.73,1.1967051
2481247751,50.264843,49.129997,100722.73,1.1967527
2481259629,50.59778,49.129997,100718.73,1.1967051
2481283670,50.59778,49.129997,100718.73,1.1967051
2481295715,51.09982,49.129997,100712.73,1.1966338
2481307675,51.09982,49.129997,100712.73,1.1966338
2481331694,51.350838,49.129997,100709.73,1.1965982
2481343175,50.59778,49.129997,100718.73,1.1967051
2481355574,51.017906,49.129997,100713.73,1.1966456
2481379685,51.017906,49.129997,100713.73,1.1966456
2481391280,50.515865,49.129997,100719.73,1.196717
2481403883,51.09982,49.129997,100712.73,1.1966338
2481427795,51.519947,49.129997,100707.73,1.1965743
2481439786,51.43539,49.129997,100708.73,1.1965863
2481451701,50.59778,49.129997,100718.73,1.1967051
2481475554,51.09982,49.129997,100712.73,1.1966338
2481487178,50.515865,49.129997,100719.73,1.196717
2481499658,51.43539,49.129997,100708.73,1.1965863
2481523886,50.68233,49.129997,100717.72,1.1966931
2481535743,50.766884,49.129997,100716.73,1.1966814
2481547626,51.09982,49.129997,100712.73,1.1966338
2481571877,51.350838,49.129997,100709.73,1.1965982
2481583662,50.264843,49.129997,100722.73,1.1967527
2481595416,51.184372,49.129997,100711.72,1.1966218
2481619735,50.848797,49.129997,100715.73,1.1966695
2481631126,51.268925,49.129997,100710.73,1.19661
2481643365,51.09982,49.129997,100712.73,1.1966338
2481667562,51.268925,49.129997,100710.73,1.19661
2481679285,51.09982,49.129997,100712.73,1.1966338
2481691954,51.350838,49.129997,100709.73,1.1965982
2481715732,50.848797,49.129997,100715.73,1.1966695
2481727679,51.017906,49.129997,100713.73,1.1966456
2481739794,51.350838,49.129997,100709.73,1.1965982
2481763723,51.686413,49.129997,100705.72,1.1965505
2481775819,51.268925,49.129997,100710.73,1.19661
2481787660,51.85288,49.129997,100703.73,1.1965269
2481811588,51.519947,49.129997,100707.73,1.1965743
2481823079,51.768326,49.129997,100704.73,1.1965387
2481835306,51.268925,49.129997,100710.73,1.19661
2481860046,51.686413,49.129997,100705.72,1.1965505
2481871707,51.519947,49.129997,100707.73,1.1965743
2481883744,51.350838,49.129997,100709.73,1.1965982
2481907877,51.43539,49.129997,100708.73,1.1965863
2481919750,51.686413,49.129997,100705.72,1.1965505
2481932043,51.519947,49.129997,100707.73,1.1965743
2481955757,51.43539,49.129997,100708.73,1.1965863
2481967790,51.268925,49.129997,100710.73,1.19661
2481982216,51.268925,49.129997,100710.73,1.19661
2482010422,51.268925,49.129997,100710.73,1.19661
2482023153,51.60186,49.129997,100706.73,1.1965625
2482035938,52.273006,49.129997,100698.72,1.1964674
2482059875,51.85288,49.129997,100703.73,1.1965269
2482071905,51.519947,49.129997,100707.73,1.1965743
2482083685,51.686413,49.129997,100705.72,1.1965505
2482107658,51.09982,49.129997,100712.73,1.1966338
2482119196,51.686413,49.129997,100705.72,1.1965505
2482131401,52.103897,49.129997,100700.73,1.1964912
2482155609,51.350838,49.129997,100709.73,1.1965982
2482167586,51.93743,49.129997,100702.73,1.196515
2482182136,51.93743,49.129997,100702.73,1.196515
2482207148,51.519947,49.12,100707.73,1.1965743
2482219919,51.768326,49.12,100704.73,1.1965387
2482231686,51.85288,49.12,100703.73,1.1965269
2482255055,51.93743,49.129997,100702.73,1.196515
2482267735,52.188454,49.129997,100699.72,1.1964792
2482279769,51.85288,49.129997,100703.73,1.1965269
2482303271,52.021988,49.129997,100701.73,1.196503
2482315847,51.768326,49.129997,100704.73,1.1965387
2482327795,52.103897,49.129997,100700.73,1.1964912
2482351742,51.43539,49.129997,100708.73,1.1965863
2482363771,51.93743,49.129997,100702.73,1.196515
2482375247,52.103897,49.129997,100700.73,1.1964912
2482399687,51.768326,49.129997,100704.73,1.1965387
2482412117,51.519947,49.129997,100707.73,1.1965743
2482423291,52.273006,49.129997,100698.72,1.1964674
2482450353,52.273006,49.129997,100698.72,1.1964674
2482463282,51.85288,49.129997,100703.73,1.1965269
2482475652,52.439472,49.129997,100696.73,1.1964437
2482499966,52.439472,49.129997,100696.73,1.1964437
2482511815,52.35492,49.129997,100697.73,1.1964556
2482523868,52.021988,49.129997,100701.73,1.196503
2482547786,52.35492,49.129997,100697.73,1.1964556
2482559348,51.768326,49.129997,100704.73,1.1965387
2482571662,51.768326,49.129997,100704.73,1.1965387
2482595586,52.35492,49.129997,100697.73,1.1964556
2482607211,52.775047,49.129997,100692.72,1.1963961
2482619586,52.188454,49.129997,100699.72,1.1964792
2482643813,52.188454,49.129997,100699.72,1.1964792
2482654970,52.605938,49.129997,100694.73,1.19642
2482667573,52.775047,49.129997,100692.72,1.1963961
2482691704,52.775047,49.129997,100692.72,1.1963961
2482703775,52.605938,49.129997,100694.73,1.19642
2482715681,52.690495,49.129997,100693.73,1.196408
2482739786,52.85696,49.129997,100691.73,1.1963843
2482751699,52.941513,49.129997,100690.73,1.1963724
2482763819,52.52403,49.129997,100695.73,1.1964318
2482787825,52.690495,49.129997,100693.73,1.196408
2482799791,51.85288,49.129997,100703.73,1.1965269
2482811566,52.775047,49.129997,100692.72,1.1963961
2482835551,52.021988,49.129997,100701.73,1.196503
2482847277,52.690495,49.129997,100693.73,1.196408
2482859701,52.941513,49.129997,100690.73,1.1963724
2482883326,52.52403,49.129997,100695.73,1.1964318
2482895272,52.273006,49.129997,100698.72,1.1964674
2482907583,53.443554,49.129997,100684.73,1.1963011
2482934116,52.605938,49.129997,100694.73,1.19642
2482947256,53.02607,49.129997,100689.73,1.1963605
2482959350,53.02607,49.129997,100689.73,1.1963605
2482983075,53.10798,49.129997,100688.73,1.1963487
2482995952,52.188454,49.129997,100699.72,1.1964792
2483007701,52.605938,49.129997,100694.73,1.19642
2483035603,52.605938,49.129997,100694.73,1.19642
2483047160,52.52403,49.129997,100695.73,1.1964318
2483059922,53.443554,49.129997,100684.73,1.1963011
2483083647,52.52403,49.12,100695.73,1.1964318
2483095164,53.861042,49.12,100679.73,1.1962417
2483107593,52.85696,49.12,100691.73,1.1963843
2483131838,52.775047,49.129997,100692.72,1.1963961
2483143878,53.10798,49.129997,100688.73,1.1963487
2483155700,53.27709,49.129997,100686.72,1.1963248
2483179752,52.941513,49.129997,100690.73,1.1963724
2483190982,53.02607,49.129997,100689.73,1.1963605
2483203897,53.61002,49.129997,100682.73,1.1962774
2483227751,52.85696,49.129997,100691.73,1.1963843
2483239689,53.27709,49.129997,100686.72,1.1963248
2483251570,53.10798,49.129997,100688.73,1.1963487
2483275311,53.359,49.129997,100685.73,1.196313
2483287571,52.775047,49.129997,100692.72,1.1963961
2483299651,53.77913,49.129997,100680.72,1.1962535
2483323804,52.941513,49.129997,100690.73,1.1963724
2483335771,53.443554,49.129997,100684.73,1.1963011
2483347767,53.694576,49.129997,100681.73,1.1962655
2483371610,53.27709,49.129997,100686.72,1.1963248
2483383026,53.61002,49.129997,100682.73,1.1962774
2483395702,53.27709,49.129997,100686.72,1.1963248
2483419769,52.85696,49.129997,100691.73,1.1963843
2483431024,52.941513,49.129997,100690.73,1.1963724
2483443700,53.945595,49.129997,100678.73,1.1962298
2483467577,53.61002,49.129997,100682.73,1.1962774
2483479795,53.694576,49.129997,100681.73,1.1962655
2483491882,53.61002,49.129997,100682.73,1.1962774
2483515914,53.77913,49.12,100680.72,1.1962535
2483527770,53.61002,49.12,100682.73,1.1962774
2483539807,53.77913,49.12,100680.72,1.1962535
2483563712,53.10798,49.129997,100688.73,1.1963487
2483575750,53.77913,49.129997,100680.72,1.1962535
2483587594,53.61002,49.129997,100682.73,1.1962774
2483611528,53.694576,49.129997,100681.73,1.1962655
2483623304,53.52811,49.129997,100683.73,1.1962892
2483635540,53.359,49.129997,100685.73,1.196313
2483659738,53.52811,49.12,100683.73,1.1962892
2483671072,53.694576,49.12,100681.73,1.1962655
2483683299,53.77913,49.12,100680.72,1.1962535
2483708138,53.694576,49.129997,100681.73,1.1962655
2483719722,53.443554,49.129997,100684.73,1.1963011
2483731719,53.861042,49.129997,100679.73,1.1962417
2483755847,53.77913,49.129997,100680.72,1.1962535
2483767773,53.359,49.129997,100685.73,1.196313
2483779778,54.28117,49.129997,100674.72,1.1961823
2483803683,53.110622,49.14,100688.72,1.1963485
2483815786,53.192535,49.14,100687.72,1.1963366
2483827682,53.52811,49.14,100683.72,1.1962892
2483851518,53.77913,49.129997,100680.72,1.1962535
2483863373,53.52811,49.129997,100683.73,1.1962892
2483875613,54.03015,49.129997,100677.73,1.1962179
2483899650,53.77913,49.129997,100680.72,1.1962535
2483912857,53.945595,49.129997,100678.73,1.1962298
2483925364,54.11206,49.129997,100676.73,1.1962061
2483949286,54.28117,49.129997,100674.72,1.1961823
2483960823,54.28117,49.129997,100674.72,1.1961823
2483973282,53.945595,49.129997,100678.73,1.1962298
2483997515,53.861042,49.129997,100679.73,1.1962417
2484008807,53.861042,49.129997,100679.73,1.1962417
2484023625,53.77913,49.129997,100680.72,1.1962535
2484047840,53.945595,49.129997,100678.73,1.1962298
2484061276,54.11206,49.129997,100676.73,1.1962061
2484072758,54.365723,49.129997,100673.72,1.1961703
2484096805,53.77913,49.129997,100680.72,1.1962535
2484109712,54.196617,49.129997,100675.73,1.1961942
2484121664,54.196617,49.129997,100675.73,1.1961942
2484145660,53.861042,49.12,100679.73,1.1962417
2484159673,54.196617,49.12,100675.73,1.1961942
2484172051,54.6141,49.12,100670.73,1.1961348
2484197295,54.11206,49.129997,100676.73,1.1962061
2484208823,54.6141,49.129997,100670.73,1.1961348
2484221187,54.196617,49.129997,100675.73,1.1961942
2484245228,54.365723,49.129997,100673.72,1.1961703
2484256878,54.28117,49.129997,100674.72,1.1961823
2484269213,53.861042,49.129997,100679.73,1.1962417
2484293332,54.28117,49.12,100674.72,1.1961823
2484304798,54.365723,49.12,100673.72,1.1961703
2484317210,54.365723,49.12,100673.72,1.1961703
2484341215,54.78321,49.129997,100668.73,1.196111
2484352759,54.28117,49.129997,100674.72,1.1961823
2484365651,54.447636,49.129997,100672.73,1.1961585
2484391695,54.78321,49.129997,100668.73,1.196111
2484404169,54.867764,49.129997,100667.72,1.196099
2484415757,54.03015,49.129997,100677.73,1.1962179
2484440766,55.116142,49.129997,100664.73,1.1960635
2484453571,55.2007,49.129997,100663.73,1.1960516
2484464749,54.698658,49.129997,100669.73,1.1961229
2484488826,54.28117,49.129997,100674.72,1.1961823
2484501342,54.949677,49.129997,100666.73,1.1960872
2484512797,54.949677,49.129997,100666.73,1.1960872
2484541233,54.867764,49.12,100667.72,1.196099
2484552790,54.867764,49.12,100667.72,1.196099
2484565174,54.78321,49.12,100668.73,1.196111
2484589421,54.196617,49.129997,100675.73,1.1961942
2484600739,54.949677,49.129997,100666.73,1.1960872
2484614328,55.2007,49.129997,100663.73,1.1960516
2484637770,54.78321,49.12,100668.73,1.196111
2484649661,54.698658,49.12,100669.73,1.1961229
2484661703,54.949677,49.12,100666.73,1.1960872
2484685550,55.116142,49.129997,100664.73,1.1960635
2484696841,55.116142,49.129997,100664.73,1.1960635
2484709333,54.867764,49.129997,100667.72,1.196099
2484733633,55.116142,49.129997,100664.73,1.1960635
2484745696,54.867764,49.129997,100667.72,1.196099
2484757690,55.28525,49.129997,100662.73,1.1960397
2484781313,55.034233,49.129997,100665.73,1.1960753
2484792882,55.28525,49.129997,100662.73,1.1960397
2484805475,55.034233,49.129997,100665.73,1.1960753
2484829284,55.28525,49.129997,100662.73,1.1960397
2484841159,55.451717,49.129997,100660.73,1.196016
2484853300,55.451717,49.129997,100660.73,1.196016
2484877360,55.034233,49.129997,100665.73,1.1960753
2484888814,55.116142,49.129997,100664.73,1.1960635
2484901377,55.034233,49.129997,100665.73,1.1960753
2484925302,55.620827,49.129997,100658.73,1.1959922
2484936729,55.2007,49.129997,100663.73,1.1960516
2484950333,55.620827,49.129997,100658.73,1.1959922
2484975734,55.034233,49.129997,100665.73,1.1960753
2484988807,55.28525,49.129997,100662.73,1.1960397
2485000965,55.28525,49.129997,100662.73,1.1960397
2485024832,55.28525,49.129997,100662.73,1.1960397
2485037464,55.369804,49.129997,100661.72,1.1960278
2485048860,55.28525,49.129997,100662.73,1.1960397
2485073747,55.28525,49.129997,100662.73,1.1960397
2485085729,55.787292,49.129997,100656.73,1.1959684
2485097747,55.53627,49.129997,100659.73,1.196004
2485120746,55.95376,49.129997,100654.73,1.1959447
2485133508,55.034233,49.129997,100665.73,1.1960753
2485144809,55.620827,49.129997,100658.73,1.1959922
2485168970,56.20478,49.129997,100651.73,1.195909
2485181265,55.620827,49.129997,100658.73,1.1959922
2485192761,54.949677,49.129997,100666.73,1.1960872
2485216953,56.373886,49.12,100649.72,1.1958852
2485229441,55.53627,49.12,100659.73,1.196004
2485241620,55.787292,49.12,100656.73,1.1959684
2485264932,55.871845,49.129997,100655.72,1.1959565
2485277393,55.787292,49.129997,100656.73,1.1959684
2485288955,55.70274,49.129997,100657.73,1.1959803
2485312724,55.70274,49.129997,100657.73,1.1959803
2485326336,55.787292,49.129997,100656.73,1.1959684
2485337721,55.620827,49.129997,100658.73,1.1959922
2485363988,55.70274,49.129997,100657.73,1.1959803
2485375798,56.03831,49.129997,100653.73,1.1959327
2485389140,55.871845,49.129997,100655.72,1.1959565
2485413407,56.20478,49.129997,100651.73,1.195909
2485424966,56.373886,49.129997,100649.72,1.1958852
2485437381,56.289333,49.129997,100650.73,1.1958971
2485461431,55.787292,49.129997,100656.73,1.1959684
2485472828,55.871845,49.129997,100655.72,1.1959565
2485485325,55.70274,49.129997,100657.73,1.1959803
2485509333,56.20478,49.129997,100651.73,1.195909
2485520812,56.20478,49.129997,100651.73,1.195909
2485533207,55.620827,49.129997,100658.73,1.1959922
2485557173,56.20478,49.129997,100651.73,1.195909
2485568972,56.20478,49.129997,100651.73,1.195909
2485583644,56.03831,49.129997,100653.73,1.1959327
2485609662,55.116142,49.129997,100664.73,1.1960635
2485621618,55.871845,49.129997,100655.72,1.1959565
2485633187,56.960484,49.129997,100642.72,1.195802
2485656937,56.458443,49.129997,100648.72,1.1958733
2485669320,55.787292,49.129997,100656.73,1.1959684
2485680909,56.122868,49.129997,100652.73,1.195921
2485704841,56.289333,49.12,100650.73,1.1958971
2485717652,56.62491,49.12,100646.73,1.1958497
2485728834,56.70682,49.12,100645.73,1.1958377
2485753233,56.373886,49.129997,100649.72,1.1958852
2485765303,55.871845,49.129997,100655.72,1.1959565
2485776878,56.122868,49.129997,100652.73,1.195921
2485804011,56.03831,49.129997,100653.73,1.1959327
2485815898,56.791374,49.129997,100644.73,1.1958258
2485828566,56.54035,49.129997,100647.73,1.1958615
2485853264,56.62491,49.129997,100646.73,1.1958497
2485864820,56.62491,49.129997,100646.73,1.1958497
2485877228,56.122868,49.129997,100652.73,1.195921
2485901296,56.458443,49.129997,100648.72,1.1958733
2485913306,56.54035,49.129997,100647.73,1.1958615
2485925735,56.289333,49.129997,100650.73,1.1958971
2485949777,56.70682,49.12,100645.73,1.1958377
2485961799,56.875927,49.12,100643.73,1.195814
2485973637,56.458443,49.12,100648.72,1.1958733
2485997657,56.458443,49.129997,100648.72,1.1958733
2486008930,57.042393,49.129997,100641.73,1.1957902
2486021337,56.62491,49.129997,100646.73,1.1958497
2486045256,56.62491,49.129997,100646.73,1.1958497
2486056865,56.791374,49.129997,100644.73,1.1958258
2486069207,57.544434,49.129997,100635.73,1.1957189
2486093472,57.377968,49.129997,100637.73,1.1957427
2486104934,56.458443,49.129997,100648.72,1.1958733
2486117543,56.791374,49.129997,100644.73,1.1958258
2486141709,57.20886,49.129997,100639.73,1.1957664
2486152821,56.960484,49.129997,100642.72,1.195802
2486167672,56.791374,49.129997,100644.73,1.1958258
2486192777,56.791374,49.129997,100644.73,1.1958258
2486205410,56.960484,49.129997,100642.72,1.195802
2486216719,57.042393,49.129997,100641.73,1.1957902
2486241671,57.20886,49.129997,100639.73,1.1957664
2486253458,57.20886,49.129997,100639.73,1.1957664
2486264860,57.12695,49.129997,100640.73,1.1957784
2486288872,57.20886,49.129997,100639.73,1.1957664
2486301633,56.875927,49.129997,100643.73,1.195814
2486313689,56.875927,49.129997,100643.73,1.195814
2486336807,56.791374,49.12,100644.73,1.1958258
2486349452,57.462524,49.12,100636.72,1.1957307
2486360890,56.875927,49.12,100643.73,1.195814
2486388574,57.20886,49.129997,100639.73,1.1957664
2486400792,57.042393,49.129997,100641.73,1.1957902
2486413527,57.20886,49.129997,100639.73,1.1957664
2486437643,57.293415,49.12,100638.73,1.1957545
2486448759,57.293415,49.12,100638.73,1.1957545
2486461364,57.377968,49.12,100637.73,1.1957427
2486485294,57.20886,49.129997,100639.73,1.1957664
2486497310,57.042393,49.129997,100641.73,1.1957902
2486509451,57.544434,49.129997,100635.73,1.1957189
2486533717,57.12695,49.129997,100640.73,1.1957784
2486544763,57.544434,49.129997,100635.73,1.1957189
2486557415,57.795456,49.129997,100632.73,1.1956832
2486581293,57.12695,49.129997,100640.73,1.1957784
2486592727,57.7109,49.129997,100633.73,1.1956952
2486605258,57.20886,49.129997,100639.73,1.1957664
2486629198,57.544434,49.129997,100635.73,1.1957189
2486640801,57.293415,49.129997,100638.73,1.1957545
2486653167,57.964565,49.129997,100630.72,1.1956594
2486677174,57.544434,49.129997,100635.73,1.1957189
2486688889,57.62899,49.129997,100634.73,1.1957071
2486701019,57.462524,49.129997,100636.72,1.1957307
2486725585,57.964565,49.129997,100630.72,1.1956594
2486736777,57.544434,49.129997,100635.73,1.1957189
2486749388,58.046474,49.129997,100629.73,1.1956476
2486775896,57.544434,49.129997,100635.73,1.1957189
2486788584,57.62899,49.129997,100634.73,1.1957071
2486800834,57.62899,49.129997,100634.73,1.1957071
2486825691,57.795456,49.12,100632.73,1.1956832
2486837809,58.046474,49.12,100629.73,1.1956476
2486848821,57.795456,49.12,100632.73,1.1956832
2486877253,58.046474,49.129997,100629.73,1.1956476
2486888943,57.88001,49.129997,100631.73,1.1956714
2486900984,57.795456,49.129997,100632.73,1.1956832
2486925794,57.964565,49.12,100630.72,1.1956594
2486936782,57.88001,49.12,100631.73,1.1956714
2486949257,58.13103,49.12,100628.73,1.1956358
2486975778,57.7109,49.129997,100633.73,1.1956952
2486988850,57.62899,49.129997,100634.73,1.1957071
2487000865,57.7109,49.129997,100633.73,1.1956952
2487024823,58.297497,49.12,100626.73,1.195612
2487037664,57.88001,49.12,100631.73,1.1956714
2487048829,58.38205,49.12,100625.73,1.1956
2487072784,58.13103,49.129997,100628.73,1.1956358
2487085325,57.88001,49.129997,100631.73,1.1956714
2487096937,58.297497,49.129997,100626.73,1.195612
2487121740,57.964565,49.129997,100630.72,1.1956594
2487133383,57.88001,49.129997,100631.73,1.1956714
2487144870,58.046474,49.129997,100629.73,1.1956476
2487168872,57.88001,49.129997,100631.73,1.1956714
2487183782,58.215584,49.129997,100627.73,1.1956239
2487196148,57.795456,49.129997,100632.73,1.1956832
2487221192,58.215584,49.129997,100627.73,1.1956239
2487232758,57.964565,49.129997,100630.72,1.1956594
2487245270,57.377968,49.129997,100637.73,1.1957427
2487269209,58.215584,49.129997,100627.73,1.1956239
2487280771,58.63307,49.129997,100622.73,1.1955644
2487293370,58.13103,49.129997,100628.73,1.1956358
2487317354,58.215584,49.129997,100627.73,1.1956239
2487328782,58.548515,49.129997,100623.72,1.1955762
2487341203,58.13103,49.129997,100628.73,1.1956358
2487365180,58.548515,49.12,100623.72,1.1955762
2487376759,57.62899,49.12,100634.73,1.1957071
2487389385,58.802177,49.12,100620.73,1.1955407
2487412907,58.63307,49.129997,100622.73,1.1955644
2487424818,58.548515,49.129997,100623.72,1.1955762
2487437274,58.297497,49.129997,100626.73,1.195612
2487461400,57.964565,49.129997,100630.72,1.1956594
2487472781,58.38205,49.129997,100625.73,1.1956
2487485368,58.717625,49.129997,100621.73,1.1955526
2487509514,58.297497,49.129997,100626.73,1.195612
2487520716,59.0532,49.129997,100617.72,1.1955049
2487533538,58.548515,49.129997,100623.72,1.1955762
2487557407,58.63307,49.129997,100622.73,1.1955644
2487568756,58.968647,49.129997,100618.73,1.195517
2487581615,59.135113,49.129997,100616.73,1.1954931
2487605233,58.63307,49.129997,100622.73,1.1955644
2487616891,59.0532,49.129997,100617.72,1.1955049
2487628943,58.968647,49.129997,100618.73,1.195517
2487653179,58.968647,49.129997,100618.73,1.195517
2487665181,58.968647,49.129997,100618.73,1.195517
2487677526,58.63307,49.129997,100622.73,1.1955644
