timestamp,ref_timestamp,ref_lat,ref_lon,x,y,z,delta_xy[0],delta_xy[1],delta_z,vx,vy,vz,z_deriv,delta_vxy[0],delta_vxy[1],delta_vz,ax,ay,az,yaw,ref_alt,dist_bottom,dist_bottom_rate,eph,epv,evh,evv,vxy_max,vz_max,hagl_min,hagl_max,xy_valid,z_valid,v_xy_valid,v_z_valid,xy_reset_counter,z_reset_counter,vxy_reset_counter,vz_reset_counter,xy_global,z_global,dist_bottom_valid
2468080137,24016975,37.1022701,-76.3875065,27.010254,-83.164345,-5.675445,-0.0051764916,-0.00053137715,0.0,-0.0032779628,0.10237762,-0.008315773,0.012468443,-0.12507585,0.013086374,0.06673187,0.41343048,0.7174793,-0.5360359,-0.10185647,-2.3111293,0.1,0.008315773,0.266542,0.23547165,0.14425367,0.09478697,inf,inf,inf,inf,1,1,1,1,2,0,2,2,1,1,0
2468180571,24016975,37.1022701,-76.3875065,27.011198,-83.15437,-5.6779556,-0.0051764916,-0.00053137715,0.0,-0.016549699,0.10779138,-0.002746832,0.014106435,-0.12507585,0.013086374,0.06673187,0.19583632,1.746268,0.5003023,-0.10204923,-2.3111293,0.1,0.002746832,0.25538534,0.23473197,0.13966067,0.09434461,inf,inf,inf,inf,1,1,1,1,2,0,2,2,1,1,0
2468284464,24016975,37.1022701,-76.3875065,27.012959,-83.14467,-5.6781964,-0.0051764916,-0.00053137715,0.0,0.017931823,0.13972057,-0.011077413,0.0045734174,-0.12507585,0.013086374,0.06673187,0.13533242,-0.074716054,-0.32963794,-0.10117452,-2.3111293,0.10013485,0.011077413,0.26651037,0.23566966,0.14421645,0.094831735,inf,inf,inf,inf,1,1,1,1,2,0,2,2,1,1,0
2468384443,24016975,37.1022701,-76.3875065,27.014978,-83.135925,-5.679335,-0.0051764916,-0.00053137715,0.0,-0.018068492,0.109292105,-0.009034898,0.0046953172,-0.12507585,0.013086374,0.06673187,-1.014043,0.16522485,-0.15873331,-0.100466095,-2.3111293,0.10127354,0.009034898,0.25619292,0.23550598,0.13999449,0.09454467,inf,inf,inf,inf,1,1,1,1,2,0,2,2,1,1,0
2468484373,24016975,37.1022701,-76.3875065,27.017324,-83.12674,-5.675068,-0.0051764916,-0.00053137715,0.0,0.015796024,0.096034914,-0.0067457445,0.010631302,-0.12507585,0.013086374,0.06673187,-0.049612466,0.11036398,-0.19297937,-0.1015158,-2.3111293,0.1,0.0067457445,0.2664819,0.23586,0.14420795,0.094873786,inf,inf,inf,inf,1,1,1,1,2,0,2,2,1,1,0
2468588404,24016975,37.1022701,-76.3875065,27.019585,-83.1169,-5.673296,-0.0051764916,-0.00053137715,0.0,0.0035581428,0.10240192,-0.004531035,0.013429467,-0.12507585,0.013086374,0.06673187,-0.12740156,-0.3923786,-0.27823552,-0.102590375,-2.3111293,0.1,0.004531035,0.25616932,0.23568328,0.13997026,0.09458205,inf,inf,inf,inf,1,1,1,1,2,0,2,2,1,1,0
2468688059,24016975,37.1022701,-76.3875065,27.023384,-83.106964,-5.671819,-0.0051764916,-0.00053137715,0.0,0.00052889856,0.10236964,-0.008255426,0.0098598525,-0.12507585,0.013086374,0.06673187,-0.78055686,-0.418231,-0.36678988,-0.102955446,-2.3111293,0.1,0.008255426,0.26733446,0.23660502,0.14454612,0.09506199,inf,inf,inf,inf,1,1,1,1,2,0,2,2,1,1,0
2468792503,24016975,37.1022701,-76.3875065,27.026398,-83.09663,-5.6717725,-0.0051764916,-0.00053137715,0.0,0.008121947,0.10384644,-0.010593159,0.0071392395,-0.12507585,0.013086374,0.06673187,1.190049,2.1756704,1.4258808,-0.10460723,-2.3111293,0.1,0.010593159,0.27908972,0.23587908,0.14917967,0.09514288,inf,inf,inf,inf,1,1,1,1,2,0,2,2,1,1,0
2468896512,24016975,37.1022701,-76.3875065,27.030949,-83.0857,-5.6704264,-0.0051764916,-0.00053137715,0.0,0.03493358,0.07053177,-0.058297537,-0.03768572,-0.12507585,0.013086374,0.06673187,-0.11979804,-2.0451171,-6.3673263,-0.099696115,-2.3111293,0.1,0.058297537,0.2678111,0.23572667,0.14468159,0.09486908,inf,inf,inf,inf,1,1,1,1,2,0,2,2,1,1,0
2469000379,24016975,37.1022701,-76.3875065,27.046305,-83.09259,-5.6888986,-0.0051764916,-0.00053137715,0.0,0.24748546,-0.24611464,-0.38481522,-0.36278376,-0.12507585,0.013086374,0.06673187,0.41616964,-4.5465245,-9.241412,-0.08945983,-2.3111293,0.11083698,0.38481522,0.25749084,0.2355812,0.14049223,0.09459269,inf,inf,inf,inf,1,1,1,1,2,0,2,2,1,1,0
2469100385,24016975,37.1022701,-76.3875065,27.076721,-83.12588,-5.7337284,-0.0051764916,-0.00053137715,0.0,0.24552056,-0.32858938,-0.63387495,-0.6115702,-0.12507585,0.013086374,0.06673187,-1.3313159,1.0223095,-2.6566422,-0.08480399,-2.3111293,0.15566683,0.63387495,0.26783147,0.2359634,0.14509612,0.0949258,inf,inf,inf,inf,1,1,1,1,2,0,2,2,1,1,0
2469204473,24016975,37.1022701,-76.3875065,27.103548,-83.160255,-5.8173165,-0.0051764916,-0.00053137715,0.0,0.25954098,-0.44467494,-0.79283017,-0.78152645,-0.12507585,0.013086374,0.06673187,0.03330633,-4.1854224,-0.8813487,-0.08147465,-2.3111293,0.23925495,0.79283017,0.25752127,0.23581009,0.14224231,0.09465165,inf,inf,inf,inf,1,1,1,1,2,0,2,2,1,1,0
2469304394,24016975,37.1022701,-76.3875065,27.13375,-83.20832,-5.930096,-0.0051764916,-0.00053137715,0.0,0.27833977,-0.54252285,-0.858199,-0.87644297,-0.12507585,0.013086374,0.06673187,0.014246145,-3.0176485,-3.4480772,-0.08302483,-2.3111293,0.35203457,0.858199,0.26887882,0.23511733,0.14779894,0.09474201,inf,inf,inf,inf,1,1,1,1,2,0,2,2,1,1,0
2469408436,24016975,37.1022701,-76.3875065,27.163677,-83.26325,-6.0614123,-0.0051764916,-0.00053137715,0.0,0.28008837,-0.6076907,-0.9026062,-0.95634276,-0.12507585,0.013086374,0.06673187,2.9110322,-2.5088472,-0.15678854,-0.08204127,-2.3111293,0.48335075,0.9026062,0.2585473,0.2349656,0.14400236,0.09446954,inf,inf,inf,inf,1,1,1,1,2,0,2,2,1,1,0
2469512383,24016975,37.1022701,-76.3875065,27.190847,-83.321625,-6.210026,-0.0051764916,-0.00053137715,0.0,0.22456034,-0.61873996,-0.94981337,-1.0477159,-0.12507585,0.013086374,0.06673187,-1.1668357,-0.39421108,-3.8166358,-0.07994651,-2.3111293,0.6319642,0.94981337,0.27003306,0.23589829,0.1488392,0.09495026,inf,inf,inf,inf,1,1,1,1,2,0,2,2,1,1,0
2469612501,24016975,37.1022701,-76.3875065,27.21287,-83.37523,-6.3538876,-0.0051764916,-0.00053137715,0.0,0.16653489,-0.5730423,-0.9408056,-1.075842,-0.12507585,0.013086374,0.06673187,0.2195686,0.70679927,-0.83177954,-0.07751383,-2.3111293,0.775826,0.9408056,0.25875852,0.23516996,0.14412259,0.09452303,inf,inf,inf,inf,1,1,1,1,2,0,2,2,1,1,0
2469716349,24016975,37.1022701,-76.3875065,27.228329,-83.422714,-6.4906907,-0.0051764916,-0.00053137715,0.0,0.08319863,-0.5028352,-0.94800687,-1.1043724,-0.12507585,0.013086374,0.06673187,-2.9452984,2.3706198,-1.8205135,-0.0750579,-2.3111293,0.9126291,0.94800687,0.27025512,0.23612179,0.14877908,0.0950077,inf,inf,inf,inf,1,1,1,1,2,0,2,2,1,1,0
2469816326,24016975,37.1022701,-76.3875065,27.237556,-83.46192,-6.611022,-0.0051764916,-0.00053137715,0.0,-0.0015805804,-0.3987515,-0.93468404,-1.0976946,-0.12507585,0.013086374,0.06673187,-1.6810884,-0.08256387,-2.0256376,-0.07530034,-2.3111293,1.0329604,0.93468404,0.2598043,0.23436219,0.1440818,0.09434555,inf,inf,inf,inf,1,1,1,1,2,0,2,2,1,1,0
2469916387,24016975,37.1022701,-76.3875065,27.240795,-83.49327,-6.7182827,-0.0051764916,-0.00053137715,0.0,-0.06911388,-0.30639714,-0.9267115,-1.0859139,-0.12507585,0.013086374,0.06673187,-0.74431473,1.4352007,0.06850243,-0.07673035,-2.3111293,1.1402211,0.9267115,0.2704276,0.23474996,0.1482306,0.094668575,inf,inf,inf,inf,1,1,1,1,2,0,2,2,1,1,0
2470020390,24016975,37.1022701,-76.3875065,27.236843,-83.51673,-6.826301,-0.0051764916,-0.00053137715,0.0,-0.14369543,-0.20888142,-0.9057686,-1.0585315,-0.12507585,0.013086374,0.06673187,-1.5471739,-1.228988,-2.0121715,-0.07819163,-2.3111293,1.2482395,0.9057686,0.25993648,0.23464277,0.14359978,0.09439082,inf,inf,inf,inf,1,1,1,1,2,0,2,2,1,1,0
2470120394,24016975,37.1022701,-76.3875065,27.227262,-83.53178,-6.9236474,-0.0051764916,-0.00053137715,0.0,-0.20367296,-0.115052395,-0.9075234,-1.0483277,-0.12507585,0.013086374,0.06673187,-2.752346,1.8601465,-2.283583,-0.07930882,-2.3111293,1.3455858,0.9075234,0.27144608,0.23562405,0.14813583,0.094877355,inf,inf,inf,inf,1,1,1,1,2,0,2,2,1,1,0
2470220207,24016975,37.1022701,-76.3875065,27.211597,-83.53819,-7.0115685,-0.0051764916,-0.00053137715,0.0,-0.250921,-0.04386721,-0.88082236,-1.0046577,-0.12507585,0.013086374,0.06673187,-0.72710294,1.0866817,1.9822491,-0.079767406,-2.3111293,1.433507,0.88082236,0.26001778,0.23494375,0.14322379,0.094455846,inf,inf,inf,inf,1,1,1,1,2,0,2,2,1,1,0
2470324178,24016975,37.1022701,-76.3875065,27.190903,-83.53702,-7.098881,-0.0051764916,-0.00053137715,0.0,-0.289639,0.033150386,-0.88100606,-0.9860636,-0.12507585,0.013086374,0.06673187,-2.4251046,1.5199826,-4.0618486,-0.08008529,-2.3111293,1.5208192,0.88100606,0.27150643,0.23590885,0.14778872,0.094942704,inf,inf,inf,inf,1,1,1,1,2,0,2,2,1,1,0
2470424377,24016975,37.1022701,-76.3875065,27.16617,-83.53065,-7.178259,-0.0051764916,-0.00053137715,0.0,-0.30943877,0.08913674,-0.8691863,-0.9539646,-0.12507585,0.013086374,0.06673187,1.4602247,-0.15311916,1.2501405,-0.07975382,-2.3111293,1.6001973,0.8691863,0.26091778,0.23417035,0.14330424,0.094299555,inf,inf,inf,inf,1,1,1,1,2,0,2,2,1,1,0
2470528411,24016975,37.1022701,-76.3875065,27.136917,-83.51894,-7.2587366,-0.0051764916,-0.00053137715,0.0,-0.32001078,0.1395528,-0.8817455,-0.9468968,-0.12507585,0.013086374,0.06673187,-0.22206645,1.339607,1.3896397,-0.07936611,-2.3111293,1.680675,0.8817455,0.2724347,0.23514731,0.147871,0.094794504,inf,inf,inf,inf,1,1,1,1,2,0,2,2,1,1,0
2470632411,24016975,37.1022701,-76.3875065,27.104528,-83.50586,-7.336357,-0.0051764916,-0.00053137715,0.0,-0.33320817,0.18614942,-0.8581004,-0.9036775,-0.12507585,0.013086374,0.06673187,-3.566284,0.6552973,-6.625608,-0.078726664,-2.3111293,1.7582955,0.8581004,0.2617936,0.23502168,0.14346772,0.09452928,inf,inf,inf,inf,1,1,1,1,2,0,2,2,1,1,0
2470732620,24016975,37.1022701,-76.3875065,27.072742,-83.49105,-7.4091477,-0.0051764916,-0.00053137715,0.0,-0.3090364,0.20590723,-0.8705891,-0.89811665,-0.12507585,0.013086374,0.06673187,2.9952304,0.32476786,0.55395705,-0.07839952,-2.3111293,1.8310862,0.8705891,0.2724328,0.2354118,0.14766875,0.09486498,inf,inf,inf,inf,1,1,1,1,2,0,2,2,1,1,0
2470836175,24016975,37.1022701,-76.3875065,27.040556,-83.47553,-7.4858837,-0.0051764916,-0.00053137715,0.0,-0.293126,0.21576153,-0.8656628,-0.87750477,-0.12507585,0.013086374,0.06673187,-0.26099867,0.14574693,-2.0648708,-0.0786881,-2.3111293,1.9078221,0.8656628,0.261787,0.23530087,0.14321156,0.09460294,inf,inf,inf,inf,1,1,1,1,2,0,2,2,1,1,0
2470936197,24016975,37.1022701,-76.3875065,27.011415,-83.45998,-7.556573,-0.0051764916,-0.00053137715,0.0,-0.27615103,0.21840712,-0.8576784,-0.8536465,-0.12507585,0.013086374,0.06673187,-2.555141,2.1101484,0.56970763,-0.07910877,-2.3111293,1.9785113,0.8576784,0.27332693,0.23465788,0.1478508,0.094718345,inf,inf,inf,inf,1,1,1,1,2,0,2,2,1,1,0
2471040111,24016975,37.1022701,-76.3875065,26.982458,-83.44626,-7.6313343,-0.0051764916,-0.00053137715,0.0,-0.23488764,0.2126789,-0.8526257,-0.8360786,-0.12507585,0.013086374,0.06673187,3.6182446,0.86104107,4.673321,-0.08014695,-2.3111293,2.0532727,0.8526257,0.26263395,0.2345662,0.14339048,0.09446342,inf,inf,inf,inf,1,1,1,1,2,0,2,2,1,1,0
2471144461,24016975,37.1022701,-76.3875065,26.95634,-83.43274,-7.7097683,-0.0051764916,-0.00053137715,0.0,-0.20542888,0.1951061,-0.8649989,-0.84123355,-0.12507585,0.013086374,0.06673187,1.663784,-0.051602382,1.637101,-0.08134266,-2.3111293,2.1317067,0.8649989,0.2742041,0.23555449,0.14796966,0.09495664,inf,inf,inf,inf,1,1,1,1,2,0,2,2,1,1,0
2471248329,24016975,37.1022701,-76.3875065,26.933352,-83.42297,-7.791191,-0.0051764916,-0.00053137715,0.0,-0.18083893,0.19577697,-0.8478889,-0.8202056,-0.12507585,0.013086374,0.06673187,1.5776882,1.4844133,-1.0619546,-0.08316915,-2.3111293,2.2131295,0.8478889,0.26347053,0.23544367,0.14354818,0.094692945,inf,inf,inf,inf,1,1,1,1,2,0,2,2,1,1,0
2471348369,24016975,37.1022701,-76.3875065,26.914574,-83.413445,-7.8726716,-0.0051764916,-0.00053137715,0.0,-0.15279156,0.17831354,-0.8549226,-0.8263303,-0.12507585,0.013086374,0.06673187,1.4404595,0.75347227,-1.7894406,-0.08478595,-2.3111293,2.29461,0.8549226,0.27415812,0.23585023,0.14776856,0.09502728,inf,inf,inf,inf,1,1,1,1,2,0,2,2,1,1,0
2471448314,24016975,37.1022701,-76.3875065,26.898115,-83.40853,-7.95328,-0.0051764916,-0.00053137715,0.0,-0.1163492,0.15207608,-0.8737585,-0.8429937,-0.12507585,0.013086374,0.06673187,1.7634441,-0.70427537,4.1280155,-0.08622791,-2.3111293,2.3752184,0.8737585,0.26343247,0.23413353,0.14334862,0.09438942,inf,inf,inf,inf,1,1,1,1,2,0,2,2,1,1,0
2471552556,24016975,37.1022701,-76.3875065,26.884321,-83.40302,-8.036628,-0.0051764916,-0.00053137715,0.0,-0.09189157,0.1287072,-0.8789932,-0.84520024,-0.12507585,0.013086374,0.06673187,0.3355429,-1.3824801,-1.6560376,-0.0882429,-2.3111293,2.4585662,0.8789932,0.2750184,0.23512246,0.14797118,0.094880685,inf,inf,inf,inf,1,1,1,1,2,0,2,2,1,1,0
2471652174,24016975,37.1022701,-76.3875065,26.875025,-83.40082,-8.115854,-0.0051764916,-0.00053137715,0.0,-0.07031246,0.1194743,-0.8741282,-0.8362719,-0.12507585,0.013086374,0.06673187,-1.8790672,0.3618305,0.16709718,-0.09032342,-2.3111293,2.5377927,0.8741282,0.26338243,0.2344385,0.14320987,0.09446214,inf,inf,inf,inf,1,1,1,1,2,0,2,2,1,1,0
2471756439,24016975,37.1022701,-76.3875065,26.868774,-83.398605,-8.200014,-0.0051764916,-0.00053137715,0.0,-0.04005443,0.10267887,-0.8698484,-0.83005595,-0.12507585,0.013086374,0.06673187,-0.565353,0.10180923,0.4815989,-0.09252655,-2.3111293,2.6219525,0.8698484,0.27495885,0.23541412,0.14782354,0.094946705,inf,inf,inf,inf,1,1,1,1,2,0,2,2,1,1,0
2471860148,24016975,37.1022701,-76.3875065,26.866879,-83.398186,-8.2858095,-0.0051764916,-0.00053137715,0.0,-0.0062926016,0.08915392,-0.8646212,-0.82480407,-0.12507585,0.013086374,0.06673187,-0.31699198,-1.4736987,0.85681385,-0.09474055,-2.3111293,2.707748,0.8646212,0.26432353,0.2353195,0.14351785,0.094690375,inf,inf,inf,inf,1,1,1,1,2,0,2,2,1,1,0
2471960396,24016975,37.1022701,-76.3875065,26.867891,-83.39711,-8.3674,-0.0051764916,-0.00053137715,0.0,0.030734075,0.07023023,-0.874831,-0.8341008,-0.12507585,0.013086374,0.06673187,2.2552512,-3.080038,3.2252934,-0.09655754,-2.3111293,2.7893386,0.874831,0.27594322,0.23468414,0.14809214,0.094798595,inf,inf,inf,inf,1,1,1,1,2,0,2,2,1,1,0
2472064436,24016975,37.1022701,-76.3875065,26.867815,-83.397766,-8.45271,-0.0051764916,-0.00053137715,0.0,0.051476184,0.053110972,-0.8786305,-0.8374858,-0.12507585,0.013086374,0.06673187,1.0865178,-0.97992927,1.498577,-0.09818876,-2.3111293,2.8746486,0.8786305,0.26512545,0.23460636,0.14375895,0.09454859,inf,inf,inf,inf,1,1,1,1,2,0,2,2,1,1,0
2472168309,24016975,37.1022701,-76.3875065,26.870779,-83.39767,-8.540469,-0.0051764916,-0.00053137715,0.0,0.07202263,0.039652262,-0.8795738,-0.8404697,-0.12507585,0.013086374,0.06673187,0.9834647,0.5755356,0.1607611,-0.10005948,-2.3111293,2.9624076,0.8795738,0.27677882,0.23561244,0.14830583,0.09504096,inf,inf,inf,inf,1,1,1,1,2,0,2,2,1,1,0
2472268331,24016975,37.1022701,-76.3875065,26.87077,-83.40084,-8.625234,-0.0051764916,-0.00053137715,0.0,0.082635224,0.040907454,-0.86654365,-0.8292595,-0.12507585,0.013086374,0.06673187,0.01068809,1.6301084,-0.4427582,-0.10225981,-2.3111293,3.047172,0.86654365,0.26505208,0.2349648,0.1435772,0.09463826,inf,inf,inf,inf,1,1,1,1,2,0,2,2,1,1,0
2472370094,24016975,37.1022701,-76.3875065,26.873894,-83.40345,-8.7085495,-0.0051764916,-0.00053137715,0.0,0.1007594,0.029189548,-0.8706644,-0.8321215,-0.12507585,0.013086374,0.06673187,0.0019099922,0.91332316,1.3551298,-0.10390153,-2.3111293,3.130488,0.8706644,0.27669296,0.23436022,0.14819984,0.09475487,inf,inf,inf,inf,1,1,1,1,2,0,2,2,1,1,0
2472473770,24016975,37.1022701,-76.3875065,26.876837,-83.410194,-8.790807,-0.0051764916,-0.00053137715,0.0,0.10807122,0.02292113,-0.86609674,-0.8235829,-0.12507585,0.013086374,0.06673187,-1.602567,1.3207486,-2.6628363,-0.10551772,-2.3111293,3.2127452,0.86609674,0.265591,0.23413634,0.14377865,0.09449622,inf,inf,inf,inf,1,1,1,1,2,0,2,2,1,1,0
2472574073,24016975,37.1022701,-76.3875065,26.882362,-83.41524,-8.871249,-0.0051764916,-0.00053137715,0.0,0.124787085,0.013219638,-0.8762302,-0.83129966,-0.12507585,0.013086374,0.06673187,1.5286827,0.43395376,2.5847964,-0.10621513,-2.3111293,3.2931876,0.8762302,0.2553223,0.2340909,0.13951097,0.09424429,inf,inf,inf,inf,1,1,1,1,2,0,2,2,1,1,0
2472677780,24016975,37.1022701,-76.3875065,26.89118,-83.42038,-8.952944,-0.0051764916,-0.00053137715,0.0,0.1388274,-0.00016040867,-0.89933574,-0.849866,-0.12507585,0.013086374,0.06673187,2.716503,-1.4611661,3.0652103,-0.1065697,-2.3111293,3.3748822,0.89933574,0.26643366,0.23352765,0.14408623,0.09438617,inf,inf,inf,inf,1,1,1,1,2,0,2,2,1,1,0
2472782195,24016975,37.1022701,-76.3875065,26.901293,-83.42441,-9.033619,-0.0051764916,-0.00053137715,0.0,0.13513759,-0.00238718,-0.8820255,-0.8277722,-0.12507585,0.013086374,0.06673187,0.8317007,-0.7285004,-0.6724489,-0.106747255,-2.3111293,3.4555573,0.8820255,0.256128,0.23349443,0.1398188,0.09413902,inf,inf,inf,inf,1,1,1,1,2,0,2,2,1,1,0
2472885988,24016975,37.1022701,-76.3875065,26.910246,-83.429375,-9.113304,-0.0051764916,-0.00053137715,0.0,0.13845828,0.006786661,-0.88099355,-0.8214961,-0.12507585,0.013086374,0.06673187,1.7637938,0.70319456,-3.0789576,-0.10708859,-2.3111293,3.5352426,0.88099355,0.2672833,0.23454484,0.14436166,0.09465501,inf,inf,inf,inf,1,1,1,1,2,0,2,2,1,1,0
2472986073,24016975,37.1022701,-76.3875065,26.919931,-83.43303,-9.192904,-0.0051764916,-0.00053137715,0.0,0.13390644,0.0038679682,-0.8801132,-0.8188782,-0.12507585,0.013086374,0.06673187,1.3718381,1.2872779,2.63538,-0.10725227,-2.3111293,3.614843,0.8801132,0.2561009,0.23392384,0.1397873,0.094246395,inf,inf,inf,inf,1,1,1,1,2,0,2,2,1,1,0
2473090017,24016975,37.1022701,-76.3875065,26.928608,-83.4386,-9.276284,-0.0051764916,-0.00053137715,0.0,0.13592918,0.0009495397,-0.8807213,-0.8188468,-0.12507585,0.013086374,0.06673187,0.3668011,1.8066372,0.39995733,-0.10777123,-2.3111293,3.6982226,0.8807213,0.26725337,0.2349554,0.14431706,0.094752796,inf,inf,inf,inf,1,1,1,1,2,0,2,2,1,1,0
2473190152,24016975,37.1022701,-76.3875065,26.936226,-83.44305,-9.358227,-0.0051764916,-0.00053137715,0.0,0.13411915,-0.00021410431,-0.8746685,-0.8144041,-0.12507585,0.013086374,0.06673187,-0.13119377,2.665889,2.1500473,-0.10841801,-2.3111293,3.7801652,0.8746685,0.25691053,0.23329373,0.14006113,0.09411994,inf,inf,inf,inf,1,1,1,1,2,0,2,2,1,1,0
2473290163,24016975,37.1022701,-76.3875065,26.940674,-83.44707,-9.442714,-0.0051764916,-0.00053137715,0.0,0.13413045,-0.013706359,-0.88142747,-0.82428414,-0.12507585,0.013086374,0.06673187,3.3873403,1.3940701,3.5465057,-0.10886114,-2.3111293,3.8646522,0.88142747,0.2672211,0.23375314,0.14428726,0.09447135,inf,inf,inf,inf,1,1,1,1,2,0,2,2,1,1,0
2473394046,24016975,37.1022701,-76.3875065,26.946041,-83.45068,-9.530951,-0.0051764916,-0.00053137715,0.0,0.13253666,-0.005456156,-0.88906157,-0.835201,-0.12507585,0.013086374,0.06673187,0.717846,-0.5126875,-2.6584945,-0.11017731,-2.3111293,3.952889,0.88906157,0.25688294,0.23371013,0.14007306,0.09421742,inf,inf,inf,inf,1,1,1,1,2,0,2,2,1,1,0
2473493972,24016975,37.1022701,-76.3875065,26.950428,-83.454506,-9.613113,-0.0051764916,-0.00053137715,0.0,0.121826194,-0.0016713301,-0.87219954,-0.81851774,-0.12507585,0.013086374,0.06673187,-1.6700549,0.88265646,-3.7870598,-0.11107723,-2.3111293,4.035052,0.87219954,0.2680763,0.23474322,0.1446169,0.09472026,inf,inf,inf,inf,1,1,1,1,2,0,2,2,1,1,0
2473597958,24016975,37.1022701,-76.3875065,26.95686,-83.45782,-9.703185,-0.0051764916,-0.00053137715,0.0,0.12814748,-0.017871147,-0.87397337,-0.8247771,-0.12507585,0.013086374,0.06673187,1.0681764,-3.408015,-1.4365224,-0.1116359,-2.3111293,4.1251235,0.87397337,0.25769943,0.23467119,0.1403914,0.094454564,inf,inf,inf,inf,1,1,1,1,2,0,2,2,1,1,0
2473702050,24016975,37.1022701,-76.3875065,26.96353,-83.460945,-9.793523,-0.0051764916,-0.00053137715,0.0,0.13804029,-0.012898968,-0.88138884,-0.8363512,-0.12507585,0.013086374,0.06673187,1.528865,-0.26084453,-3.0545244,-0.11242342,-2.3111293,4.2154613,0.88138884,0.2689259,0.23407917,0.14493132,0.094575316,inf,inf,inf,inf,1,1,1,1,2,0,2,2,1,1,0
2473805757,24016975,37.1022701,-76.3875065,26.972494,-83.462845,-9.883755,-0.0051764916,-0.00053137715,0.0,0.15038174,-0.017662417,-0.8881914,-0.84684944,-0.12507585,0.013086374,0.06673187,2.645287,0.024378205,4.5365276,-0.11274919,-2.3111293,4.305693,0.8881914,0.25851923,0.234026,0.14071713,0.09431738,inf,inf,inf,inf,1,1,1,1,2,0,2,2,1,1,0
2473905967,24016975,37.1022701,-76.3875065,26.98301,-83.463264,-9.973532,-0.0051764916,-0.00053137715,0.0,0.15500991,-0.017956255,-0.8856652,-0.85009676,-0.12507585,0.013086374,0.06673187,1.666551,-0.37808588,3.1564085,-0.11336913,-2.3111293,4.39547,0.8856652,0.26889998,0.23447134,0.1448856,0.09465944,inf,inf,inf,inf,1,1,1,1,2,0,2,2,1,1,0
2474010015,24016975,37.1022701,-76.3875065,26.993452,-83.464905,-10.0702715,-0.0051764916,-0.00053137715,0.0,0.1609407,-0.0023334564,-0.8881138,-0.8607755,-0.12507585,0.013086374,0.06673187,-0.02362504,1.0543865,-3.305104,-0.113811344,-2.3111293,4.49221,0.8881138,0.2585006,0.23439503,0.14071153,0.09439123,inf,inf,inf,inf,1,1,1,1,2,0,2,2,1,1,0
2474110049,24016975,37.1022701,-76.3875065,27.001894,-83.468155,-10.161307,-0.0051764916,-0.00053137715,0.0,0.15936555,-0.005804628,-0.87781906,-0.8555122,-0.12507585,0.013086374,0.06673187,-0.78526247,0.7518267,-0.62809604,-0.11375631,-2.3111293,4.5832458,0.87781906,0.26976722,0.23540561,0.14530621,0.09488335,inf,inf,inf,inf,1,1,1,1,2,0,2,2,1,1,0
2474213948,24016975,37.1022701,-76.3875065,27.013504,-83.470215,-10.256662,-0.0051764916,-0.00053137715,0.0,0.1642665,-0.003964811,-0.8738886,-0.85677695,-0.12507585,0.013086374,0.06673187,0.6716984,-0.5264945,-2.060998,-0.11373002,-2.3111293,4.678601,0.8738886,0.25933003,0.23372206,0.14111212,0.09424177,inf,inf,inf,inf,1,1,1,1,2,0,2,2,1,1,0
2474318020,24016975,37.1022701,-76.3875065,27.026659,-83.471466,-10.34898,-0.0051764916,-0.00053137715,0.0,0.16432123,-0.00041890074,-0.87658364,-0.86130565,-0.12507585,0.013086374,0.06673187,1.2397223,-0.6263101,-1.7430171,-0.11321057,-2.3111293,4.7709184,0.87658364,0.27064133,0.2347359,0.1456548,0.09473458,inf,inf,inf,inf,1,1,1,1,2,0,2,2,1,1,0
2474422002,24016975,37.1022701,-76.3875065,27.040264,-83.47168,-10.440612,-0.0051764916,-0.00053137715,0.0,0.16061594,-0.0036062086,-0.88721174,-0.8732802,-0.12507585,0.013086374,0.06673187,2.0727446,-0.72148615,-1.4046288,-0.112591416,-2.3111293,4.8625503,0.88721174,0.26016033,0.23465325,0.14140533,0.094466425,inf,inf,inf,inf,1,1,1,1,2,0,2,2,1,1,0
2474522007,24016975,37.1022701,-76.3875065,27.053514,-83.47113,-10.528879,-0.0051764916,-0.00053137715,0.0,0.14868033,0.0012342571,-0.8837316,-0.8710572,-0.12507585,0.013086374,0.06673187,0.6706351,-0.26562566,-2.4958258,-0.11199395,-2.3111293,4.9508176,0.8837316,0.2706238,0.2350767,0.14562705,0.09479727,inf,inf,inf,inf,1,1,1,1,2,0,2,2,1,1,0
2474625755,24016975,37.1022701,-76.3875065,27.062801,-83.472534,-10.620036,-0.0051764916,-0.00053137715,0.0,0.13603246,-0.0052793543,-0.8754043,-0.86319524,-0.12507585,0.013086374,0.06673187,0.7579053,-0.3529027,3.3493304,-0.11115193,-2.3111293,5.0419745,0.8754043,0.2601442,0.23499493,0.14136077,0.09452966,inf,inf,inf,inf,1,1,1,1,2,0,2,2,1,1,0
2474726015,24016975,37.1022701,-76.3875065,27.068756,-83.474945,-10.706752,-0.0051764916,-0.00053137715,0.0,0.12020141,-0.0066584004,-0.87573665,-0.8631999,-0.12507585,0.013086374,0.06673187,0.85811627,0.72352266,2.7268946,-0.11065025,-2.3111293,5.1286902,0.87573665,0.27150464,0.23438635,0.14594755,0.09463928,inf,inf,inf,inf,1,1,1,1,2,0,2,2,1,1,0
2474829978,24016975,37.1022701,-76.3875065,27.07492,-83.477196,-10.795976,-0.0051764916,-0.00053137715,0.0,0.10726268,-0.0018705716,-0.8759281,-0.8624772,-0.12507585,0.013086374,0.06673187,-1.1268708,-0.6848234,-1.0471158,-0.110355414,-2.3111293,5.217914,0.8759281,0.26062146,0.23431137,0.14152893,0.09437032,inf,inf,inf,inf,1,1,1,1,2,0,2,2,1,1,0
2474934018,24016975,37.1022701,-76.3875065,27.080376,-83.47963,-10.887302,-0.0051764916,-0.00053137715,0.0,0.092223465,-0.015024508,-0.86712724,-0.85492015,-0.12507585,0.013086374,0.06673187,-0.88184214,-2.4353473,-3.0647233,-0.10970411,-2.3111293,5.309241,0.86712724,0.27199852,0.23530236,0.14609423,0.09485014,inf,inf,inf,inf,1,1,1,1,2,0,2,2,1,1,0
2475037766,24016975,37.1022701,-76.3875065,27.084305,-83.48122,-10.976094,-0.0051764916,-0.00053137715,0.0,0.09105263,-0.012411372,-0.8812565,-0.8670645,-0.12507585,0.013086374,0.06673187,2.5653145,0.65187484,-0.21311763,-0.108958706,-2.3111293,5.3980327,0.8812565,0.26150313,0.23520778,0.14189054,0.09458165,inf,inf,inf,inf,1,1,1,1,2,0,2,2,1,1,0
2475137995,24016975,37.1022701,-76.3875065,27.088428,-83.482254,-11.061523,-0.0051764916,-0.00053137715,0.0,0.081271544,-0.014688132,-0.8719169,-0.8562273,-0.12507585,0.013086374,0.06673187,1.7348008,0.50913984,1.5610999,-0.10814832,-2.3111293,5.483462,0.8719169,0.2720242,0.2356328,0.14615016,0.0949125,inf,inf,inf,inf,1,1,1,1,2,0,2,2,1,1,0
2475241765,24016975,37.1022701,-76.3875065,27.089092,-83.48384,-11.148271,-0.0051764916,-0.00053137715,0.0,0.085058674,-0.013921402,-0.88815403,-0.8691435,-0.12507585,0.013086374,0.06673187,2.1438143,-0.93037885,-0.0554359,-0.107575245,-2.3111293,5.570209,0.88815403,0.26153004,0.23552741,0.14193487,0.094639294,inf,inf,inf,inf,1,1,1,1,2,0,2,2,1,1,0
2475341780,24016975,37.1022701,-76.3875065,27.08974,-83.485535,-11.232201,-0.0051764916,-0.00053137715,0.0,0.07926315,-0.015293036,-0.8871228,-0.8655308,-0.12507585,0.013086374,0.06673187,1.2575359,-0.9038912,-1.6500322,-0.10698115,-2.3111293,5.654139,0.8871228,0.27295843,0.23488003,0.14653836,0.094734795,inf,inf,inf,inf,1,1,1,1,2,0,2,2,1,1,0
2475445938,24016975,37.1022701,-76.3875065,27.0886,-83.48621,-11.321149,-0.0051764916,-0.00053137715,0.0,0.08355354,-0.012679047,-0.89966977,-0.8766199,-0.12507585,0.013086374,0.06673187,1.8191507,0.12916715,0.48558664,-0.106312975,-2.3111293,5.7430873,0.89966977,0.26242173,0.2347869,0.14234199,0.094469085,inf,inf,inf,inf,1,1,1,1,2,0,2,2,1,1,0
2475549766,24016975,37.1022701,-76.3875065,27.089226,-83.48663,-11.405514,-0.0051764916,-0.00053137715,0.0,0.08160341,-0.005546728,-0.90030926,-0.8708964,-0.12507585,0.013086374,0.06673187,-1.4860964,-0.63256323,0.48298195,-0.1060845,-2.3111293,5.827452,0.90030926,0.27389395,0.23577698,0.14698759,0.09495043,inf,inf,inf,inf,1,1,1,1,2,0,2,2,1,1,0
2475649751,24016975,37.1022701,-76.3875065,27.091444,-83.49,-11.4864235,-0.0051764916,-0.00053137715,0.0,0.08931362,-0.01757891,-0.9125998,-0.8770095,-0.12507585,0.013086374,0.06673187,0.10065247,-2.1482832,3.5303097,-0.105288155,-2.3111293,5.908362,0.9125998,0.26245126,0.23508433,0.14244431,0.09452258,inf,inf,inf,inf,1,1,1,1,2,0,2,2,1,1,0
2475754049,24016975,37.1022701,-76.3875065,27.095816,-83.49361,-11.566863,-0.0051764916,-0.00053137715,0.0,0.08900234,-0.019506264,-0.9054458,-0.8602605,-0.12507585,0.013086374,0.06673187,-2.1999128,0.43051544,-2.0769806,-0.10461292,-2.3111293,5.9888015,0.9054458,0.27393577,0.23606008,0.14708167,0.09499858,inf,inf,inf,inf,1,1,1,1,2,0,2,2,1,1,0
2475854000,24016975,37.1022701,-76.3875065,27.098993,-83.498344,-11.643589,-0.0051764916,-0.00053137715,0.0,0.09334116,-0.01957609,-0.9204899,-0.86601925,-0.12507585,0.013086374,0.06673187,-0.9823173,0.9358715,1.000117,-0.103522494,-2.3111293,6.0655274,0.9204899,0.26297697,0.23591521,0.14266331,0.09470861,inf,inf,inf,inf,1,1,1,1,2,0,2,2,1,1,0
2475953988,24016975,37.1022701,-76.3875065,27.10317,-83.50281,-11.721077,-0.0051764916,-0.00053137715,0.0,0.10250351,-0.02349413,-0.9289805,-0.86596966,-0.12507585,0.013086374,0.06673187,1.9640379,-0.14739448,6.150498,-0.102241226,-2.3111293,6.1430154,0.9289805,0.27358124,0.23629972,0.14695275,0.09502561,inf,inf,inf,inf,1,1,1,1,2,0,2,2,1,1,0
2476057992,24016975,37.1022701,-76.3875065,27.10347,-83.505196,-11.80241,-0.0051764916,-0.00053137715,0.0,0.09729837,-0.01946238,-0.94162047,-0.87093556,-0.12507585,0.013086374,0.06673187,-1.4403816,-1.1338289,-1.0972958,-0.10082505,-2.3111293,6.2243485,0.94162047,0.26305458,0.2345456,0.1428119,0.094372034,inf,inf,inf,inf,1,1,1,1,2,0,2,2,1,1,0
2476159564,24016975,37.1022701,-76.3875065,27.105444,-83.506454,-11.882008,-0.0051764916,-0.00053137715,0.0,0.09433046,-0.011654982,-0.9406451,-0.8631506,-0.12507585,0.013086374,0.06673187,-0.82723117,-0.022460397,-0.20298761,-0.09898529,-2.3111293,6.303946,0.9406451,0.27457783,0.23549104,0.14747365,0.09483785,inf,inf,inf,inf,1,1,1,1,2,0,2,2,1,1,0
2476263334,24016975,37.1022701,-76.3875065,27.104683,-83.50909,-11.965527,-0.0051764916,-0.00053137715,0.0,0.091913536,0.005420819,-0.9458713,-0.86325663,-0.12507585,0.013086374,0.06673187,-2.1749527,0.9942649,-2.481131,-0.097167015,-2.3111293,6.387465,0.9458713,0.2639976,0.23535796,0.14332016,0.09456396,inf,inf,inf,inf,1,1,1,1,2,0,2,2,1,1,0
2476363547,24016975,37.1022701,-76.3875065,27.10614,-83.51042,-12.050608,-0.0051764916,-0.00053137715,0.0,0.09163595,-0.004304015,-0.9714936,-0.88763916,-0.12507585,0.013086374,0.06673187,1.4200158,-2.4671543,2.9061244,-0.09517267,-2.3111293,6.472546,0.9714936,0.27484953,0.2358496,0.14767398,0.094896816,inf,inf,inf,inf,1,1,1,1,2,0,2,2,1,1,0
2476467613,24016975,37.1022701,-76.3875065,27.10813,-83.51166,-12.139939,-0.0051764916,-0.00053137715,0.0,0.0809389,0.005600214,-0.9768796,-0.8923743,-0.12507585,0.013086374,0.06673187,0.73049843,1.6047776,0.7734203,-0.093029864,-2.3111293,6.5618777,0.9768796,0.2642255,0.23572312,0.1434982,0.09462693,inf,inf,inf,inf,1,1,1,1,2,0,2,2,1,1,0
2476567685,24016975,37.1022701,-76.3875065,27.11154,-83.51171,-12.230574,-0.0051764916,-0.00053137715,0.0,0.07830846,0.016164703,-0.9606248,-0.880045,-0.12507585,0.013086374,0.06673187,0.978713,-0.7637516,0.5522705,-0.09153853,-2.3111293,6.652512,0.9606248,0.27583236,0.23668799,0.14816768,0.09510057,inf,inf,inf,inf,1,1,1,1,2,0,2,2,1,1,0
2476667698,24016975,37.1022701,-76.3875065,27.110634,-83.50776,-12.321323,-0.0051764916,-0.00053137715,0.0,0.07310283,0.020258645,-0.96824604,-0.889903,-0.12507585,0.013086374,0.06673187,1.4716446,-1.9054213,1.9976786,-0.09016367,-2.3111293,6.743262,0.96824604,0.2642859,0.235964,0.14358489,0.09467034,inf,inf,inf,inf,1,1,1,1,2,0,2,2,1,1,0
2476771616,24016975,37.1022701,-76.3875065,27.111336,-83.50308,-12.413066,-0.0051764916,-0.00053137715,0.0,0.06070307,0.030507963,-0.97607726,-0.8970432,-0.12507585,0.013086374,0.06673187,0.65462714,1.3099687,3.423164,-0.088848166,-2.3111293,6.8350043,0.97607726,0.27588993,0.23527148,0.14820455,0.09475643,inf,inf,inf,inf,1,1,1,1,2,0,2,2,1,1,0
2476871409,24016975,37.1022701,-76.3875065,27.112982,-83.49924,-12.501866,-0.0051764916,-0.00053137715,0.0,0.05906551,0.04615907,-0.9741325,-0.8951555,-0.12507585,0.013086374,0.06673187,-0.8762912,1.505702,-2.3045366,-0.08821091,-2.3111293,6.9238048,0.9741325,0.26520565,0.23515132,0.14397083,0.09449308,inf,inf,inf,inf,1,1,1,1,2,0,2,2,1,1,0
2476971599,24016975,37.1022701,-76.3875065,27.115923,-83.4949,-12.594721,-0.0051764916,-0.00053137715,0.0,0.060793832,0.03463409,-0.99968743,-0.92319405,-0.12507585,0.013086374,0.06673187,2.910244,-1.1724323,4.7170978,-0.08712434,-2.3111293,7.0166593,0.99968743,0.27594978,0.23553924,0.14823943,0.09481539,inf,inf,inf,inf,1,1,1,1,2,0,2,2,1,1,0
2477075376,24016975,37.1022701,-76.3875065,27.110243,-83.49061,-12.694064,-0.0051764916,-0.00053137715,0.0,0.05002017,0.03964914,-1.0145733,-0.9424056,-0.12507585,0.013086374,0.06673187,2.4131289,2.4021318,1.9450289,-0.086593196,-2.3111293,7.1160026,1.0145733,0.26525533,0.23543243,0.14398658,0.09455783,inf,inf,inf,inf,1,1,1,1,2,0,2,2,1,1,0
2477175381,24016975,37.1022701,-76.3875065,27.106747,-83.48612,-12.793821,-0.0051764916,-0.00053137715,0.0,0.03799587,0.046858724,-0.9972147,-0.93197334,-0.12507585,0.013086374,0.06673187,2.086582,-0.097275026,1.3664386,-0.086848415,-2.3111293,7.2157598,0.9972147,0.2550543,0.23529182,0.1398008,0.09427501,inf,inf,inf,inf,1,1,1,1,2,0,2,2,1,1,0
2477279707,24016975,37.1022701,-76.3875065,27.104929,-83.48044,-12.901278,-0.0051764916,-0.00053137715,0.0,0.033185102,0.03537663,-1.0226748,-0.9658312,-0.12507585,0.013086374,0.06673187,0.24909951,0.866324,-1.1865474,-0.08696845,-2.3111293,7.323216,1.0226748,0.26618084,0.23625857,0.14441845,0.094764836,inf,inf,inf,inf,1,1,1,1,2,0,2,2,1,1,0
2477383395,24016975,37.1022701,-76.3875065,27.104132,-83.47492,-13.006708,-0.0051764916,-0.00053137715,0.0,0.03775676,0.03592761,-1.0219519,-0.96956795,-0.12507585,0.013086374,0.06673187,3.4708474,-1.6047317,1.3737907,-0.08758552,-2.3111293,7.4286466,1.0219519,0.25581443,0.23447056,0.140182,0.09409536,inf,inf,inf,inf,1,1,1,1,2,0,2,2,1,1,0
2477487626,24016975,37.1022701,-76.3875065,27.0986,-83.46715,-13.111269,-0.0051764916,-0.00053137715,0.0,0.029367859,0.032368198,-1.0354358,-0.985431,-0.12507585,0.013086374,0.06673187,-0.07607143,2.0892208,-3.7157915,-0.088267155,-2.3111293,7.5332074,1.0354358,0.26697826,0.2354139,0.14477532,0.09457727,inf,inf,inf,inf,1,1,1,1,2,0,2,2,1,1,0
2477591739,24016975,37.1022701,-76.3875065,27.095781,-83.4607,-13.213977,-0.0051764916,-0.00053137715,0.0,0.03948292,0.023733897,-1.0434288,-0.9931566,-0.12507585,0.013086374,0.06673187,3.4309068,-0.9251627,0.4582935,-0.08906776,-2.3111293,7.6359153,1.0434288,0.25670052,0.23527202,0.14054134,0.09429802,inf,inf,inf,inf,1,1,1,1,2,0,2,2,1,1,0
2477695679,24016975,37.1022701,-76.3875065,27.09542,-83.455284,-13.319222,-0.0051764916,-0.00053137715,0.0,0.036348213,0.017652407,-1.059547,-1.010822,-0.12507585,0.013086374,0.06673187,-0.117195465,1.2741909,0.15976271,-0.08981969,-2.3111293,7.741161,1.059547,0.26791584,0.23620792,0.14513667,0.094776206,inf,inf,inf,inf,1,1,1,1,2,0,2,2,1,1,0
2477799358,24016975,37.1022701,-76.3875065,27.096598,-83.45142,-13.427813,-0.0051764916,-0.00053137715,0.0,0.04546967,0.00061745616,-1.0776942,-1.032681,-0.12507585,0.013086374,0.06673187,2.3813667,-0.89873105,4.7447457,-0.09079491,-2.3111293,7.849751,1.0776942,0.25723365,0.2360279,0.14067736,0.09447642,inf,inf,inf,inf,1,1,1,1,2,0,2,2,1,1,0
2477899641,24016975,37.1022701,-76.3875065,27.096132,-83.448524,-13.53402,-0.0051764916,-0.00053137715,0.0,0.046284985,0.0014469251,-1.0635772,-1.022933,-0.12507585,0.013086374,0.06673187,1.4101408,0.99619436,-2.5512269,-0.091834195,-2.3111293,7.955959,1.0635772,0.26758462,0.23637779,0.14494957,0.09479759,inf,inf,inf,inf,1,1,1,1,2,0,2,2,1,1,0
2478003600,24016975,37.1022701,-76.3875065,27.096605,-83.447105,-13.640255,-0.0051764916,-0.00053137715,0.0,0.043851756,-0.0048804935,-1.06039,-1.0195227,-0.12507585,0.013086374,0.06673187,2.24547,-0.2723178,-0.7601537,-0.09280188,-2.3111293,8.062193,1.06039,0.25731492,0.23619919,0.14076807,0.094506934,inf,inf,inf,inf,1,1,1,1,2,0,2,2,1,1,0
2478103381,24016975,37.1022701,-76.3875065,27.097206,-83.44739,-13.740915,-0.0051764916,-0.00053137715,0.0,0.04457972,-0.0139120845,-1.063958,-1.021314,-0.12507585,0.013086374,0.06673187,2.7641413,-0.20001698,-0.6912455,-0.093768604,-2.3111293,8.162853,1.063958,0.26855806,0.23546791,0.14534628,0.09459481,inf,inf,inf,inf,1,1,1,1,2,0,2,2,1,1,0
2478203597,24016975,37.1022701,-76.3875065,27.098957,-83.44757,-13.839505,-0.0051764916,-0.00053137715,0.0,0.04305687,-0.01727092,-1.0713311,-1.0239981,-0.12507585,0.013086374,0.06673187,0.3647808,-0.23038132,1.1099566,-0.094570756,-2.3111293,8.261444,1.0713311,0.25726616,0.2363598,0.14070691,0.09453438,inf,inf,inf,inf,1,1,1,1,2,0,2,2,1,1,0
2478307650,24016975,37.1022701,-76.3875065,27.100615,-83.44599,-13.941657,-0.0051764916,-0.00053137715,0.0,0.03705369,-0.014451062,-1.0669887,-1.0144503,-0.12507585,0.013086374,0.06673187,0.1272129,0.03605854,-3.3358579,-0.09534626,-2.3111293,8.363596,1.0669887,0.26850614,0.23561612,0.14527127,0.09461907,inf,inf,inf,inf,1,1,1,1,2,0,2,2,1,1,0
2478407579,24016975,37.1022701,-76.3875065,27.10322,-83.44483,-14.04387,-0.0051764916,-0.00053137715,0.0,0.03881277,-0.020129142,-1.0835952,-1.0299661,-0.12507585,0.013086374,0.06673187,1.5631257,-0.5992905,2.2420104,-0.09599002,-2.3111293,8.465809,1.0835952,0.25818616,0.2354387,0.14113821,0.094333805,inf,inf,inf,inf,1,1,1,1,2,0,2,2,1,1,0
2478511617,24016975,37.1022701,-76.3875065,27.106815,-83.44387,-14.154642,-0.0051764916,-0.00053137715,0.0,0.03428516,-0.027928427,-1.0971441,-1.0457916,-0.12507585,0.013086374,0.06673187,-0.67927885,0.28443527,1.4773777,-0.09637871,-2.3111293,8.57658,1.0971441,0.26948047,0.23636279,0.14573269,0.09481095,inf,inf,inf,inf,1,1,1,1,2,0,2,2,1,1,0
2478611698,24016975,37.1022701,-76.3875065,27.110672,-83.444695,-14.261315,-0.0051764916,-0.00053137715,0.0,0.027920904,-0.020257223,-1.0986791,-1.0486042,-0.12507585,0.013086374,0.06673187,-2.8260717,-0.46899846,-2.4046931,-0.09715607,-2.3111293,8.683254,1.0986791,0.25825986,0.2356288,0.14117698,0.094380036,inf,inf,inf,inf,1,1,1,1,2,0,2,2,1,1,0
2478711371,24016975,37.1022701,-76.3875065,27.114904,-83.44673,-14.370967,-0.0051764916,-0.00053137715,0.0,0.029326353,-0.031211456,-1.1128689,-1.0666157,-0.12507585,0.013086374,0.06673187,-1.2756339,-0.4130145,-0.8824486,-0.09738565,-2.3111293,8.792906,1.1128689,0.26956016,0.23657359,0.14583692,0.09486597,inf,inf,inf,inf,1,1,1,1,2,0,2,2,1,1,0
2478815619,24016975,37.1022701,-76.3875065,27.11922,-83.448746,-14.48477,-0.0051764916,-0.00053137715,0.0,0.029803852,-0.023800947,-1.1187251,-1.0749931,-0.12507585,0.013086374,0.06673187,-2.0960548,1.4048939,-0.4178401,-0.09777052,-2.3111293,8.906708,1.1187251,0.25881293,0.23476018,0.1413378,0.09419541,inf,inf,inf,inf,1,1,1,1,2,0,2,2,1,1,0
2478915372,24016975,37.1022701,-76.3875065,27.123167,-83.44914,-14.594577,-0.0051764916,-0.00053137715,0.0,0.028418578,-0.02525252,-1.1203561,-1.0789803,-0.12507585,0.013086374,0.06673187,-1.9734349,0.10213341,-1.7584955,-0.098081164,-2.3111293,9.016516,1.1203561,0.26924378,0.23511277,0.145551,0.09452054,inf,inf,inf,inf,1,1,1,1,2,0,2,2,1,1,0
2479015385,24016975,37.1022701,-76.3875065,27.127026,-83.448586,-14.7065115,-0.0051764916,-0.00053137715,0.0,0.02941003,-0.0384007,-1.1320959,-1.0947448,-0.12507585,0.013086374,0.06673187,0.95998865,-1.1933298,0.41269317,-0.098595574,-2.3111293,9.12845,1.1320959,0.2589078,0.23494582,0.14136337,0.09424266,inf,inf,inf,inf,1,1,1,1,2,0,2,2,1,1,0
2479119551,24016975,37.1022701,-76.3875065,27.130682,-83.44761,-14.826748,-0.0051764916,-0.00053137715,0.0,0.023310564,-0.01729466,-1.1427795,-1.1115638,-0.12507585,0.013086374,0.06673187,-1.4154098,2.1301916,-1.9520695,-0.09928255,-2.3111293,9.248686,1.1427795,0.2702376,0.23586464,0.1459725,0.09471848,inf,inf,inf,inf,1,1,1,1,2,0,2,2,1,1,0
2479219768,24016975,37.1022701,-76.3875065,27.133446,-83.44701,-14.939319,-0.0051764916,-0.00053137715,0.0,0.020437395,-0.027179623,-1.1432136,-1.1133689,-0.12507585,0.013086374,0.06673187,0.8943642,-0.9014191,0.7040835,-0.0997031,-2.3111293,9.361258,1.1432136,0.2589936,0.23512548,0.1414389,0.09428806,inf,inf,inf,inf,1,1,1,1,2,0,2,2,1,1,0
2479323539,24016975,37.1022701,-76.3875065,27.135475,-83.44636,-15.057693,-0.0051764916,-0.00053137715,0.0,0.010874197,-0.025909808,-1.1580651,-1.1301656,-0.12507585,0.013086374,0.06673187,0.16000007,1.4063807,-1.1021965,-0.10040935,-2.3111293,9.479631,1.1580651,0.27033123,0.23603411,0.14603004,0.09476053,inf,inf,inf,inf,1,1,1,1,2,0,2,2,1,1,0
2479423354,24016975,37.1022701,-76.3875065,27.137732,-83.4447,-15.172364,-0.0051764916,-0.00053137715,0.0,0.0033672345,-0.021284854,-1.1565331,-1.1306201,-0.12507585,0.013086374,0.06673187,1.1235855,2.2166078,-0.7400592,-0.101137266,-2.3111293,9.594303,1.1565331,0.25992268,0.23585835,0.14182796,0.0944801,inf,inf,inf,inf,1,1,1,1,2,0,2,2,1,1,0
2479523583,24016975,37.1022701,-76.3875065,27.139612,-83.44292,-15.286571,-0.0051764916,-0.00053137715,0.0,-0.004583445,-0.023830693,-1.1555337,-1.129979,-0.12507585,0.013086374,0.06673187,1.4428366,-1.4403548,-0.21646573,-0.10231699,-2.3111293,9.708509,1.1555337,0.2704148,0.23618406,0.1461097,0.09479549,inf,inf,inf,inf,1,1,1,1,2,0,2,2,1,1,0
2479627783,24016975,37.1022701,-76.3875065,27.142918,-83.43912,-15.405464,-0.0051764916,-0.00053137715,0.0,-0.010360234,-0.022223879,-1.1757776,-1.1502753,-0.12507585,0.013086374,0.06673187,-0.27420506,0.6148206,-1.8668846,-0.10375889,-2.3111293,9.827402,1.1757776,0.25999147,0.23599821,0.14184016,0.094511814,inf,inf,inf,inf,1,1,1,1,2,0,2,2,1,1,0
2479727612,24016975,37.1022701,-76.3875065,27.146475,-83.434494,-15.522369,-0.0051764916,-0.00053137715,0.0,-0.015538001,-0.013967854,-1.1717541,-1.1483072,-0.12507585,0.013086374,0.06673187,0.95179856,1.4896153,-1.0053515,-0.105391465,-2.3111293,9.944307,1.1717541,0.27138513,0.23689428,0.14649136,0.09497918,inf,inf,inf,inf,1,1,1,1,2,0,2,2,1,1,0
2479827566,24016975,37.1022701,-76.3875065,27.150137,-83.43135,-15.640459,-0.0051764916,-0.00053137715,0.0,-0.015203035,-0.011816083,-1.1806209,-1.1590666,-0.12507585,0.013086374,0.06673187,1.9820445,-0.7399134,0.6295918,-0.10725232,-2.3111293,10.062397,1.1806209,0.25968996,0.23612252,0.14167857,0.094532155,inf,inf,inf,inf,1,1,1,1,2,0,2,2,1,1,0
2479931551,24016975,37.1022701,-76.3875065,27.156075,-83.42889,-15.763323,-0.0051764916,-0.00053137715,0.0,-0.015314975,-0.018701611,-1.216378,-1.1954188,-0.12507585,0.013086374,0.06673187,-0.87682056,-0.7523633,-0.67357975,-0.10947669,-2.3111293,10.185261,1.216378,0.2710594,0.23701969,0.14625746,0.09500058,inf,inf,inf,inf,1,1,1,1,2,0,2,2,1,1,0
2480032369,24016975,37.1022701,-76.3875065,27.161701,-83.42725,-15.887649,-0.0051764916,-0.00053137715,0.0,-0.020489307,-0.012345383,-1.2121745,-1.1961694,-0.12507585,0.013086374,0.06673187,-2.848418,1.1738197,-3.8079631,-0.11181512,-2.3111293,10.3095875,1.2121745,0.2607562,0.2351796,0.14217626,0.094336115,inf,inf,inf,inf,1,1,1,1,2,0,2,2,1,1,0
2480133156,24016975,37.1022701,-76.3875065,27.165705,-83.426765,-16.014189,-0.0051764916,-0.00053137715,0.0,-0.024121301,-0.010667127,-1.2115816,-1.2008897,-0.12507585,0.013086374,0.06673187,-2.1033328,2.1539516,-1.7341093,-0.11391938,-2.3111293,10.436127,1.2115816,0.27128795,0.23550895,0.14641938,0.09465435,inf,inf,inf,inf,1,1,1,1,2,0,2,2,1,1,0
2480236938,24016975,37.1022701,-76.3875065,27.171446,-83.42569,-16.142662,-0.0051764916,-0.00053137715,0.0,-0.018329343,-0.007999906,-1.2081516,-1.2000402,-0.12507585,0.013086374,0.06673187,1.4152579,-0.36706856,0.94127923,-0.11578236,-2.3111293,10.5646,1.2081516,0.26099923,0.23545673,0.14229853,0.094399,inf,inf,inf,inf,1,1,1,1,2,0,2,2,1,1,0
2480337276,24016975,37.1022701,-76.3875065,27.176804,-83.4247,-16.264046,-0.0051764916,-0.00053137715,0.0,-0.01600072,-0.009227456,-1.2079549,-1.1999729,-0.12507585,0.013086374,0.06673187,1.5353119,-0.12747185,2.0511718,-0.11717745,-2.3111293,10.685984,1.2079549,0.27244768,0.23638031,0.14686875,0.09487851,inf,inf,inf,inf,1,1,1,1,2,0,2,2,1,1,0
2480437258,24016975,37.1022701,-76.3875065,27.181767,-83.42263,-16.384417,-0.0051764916,-0.00053137715,0.0,-0.018996876,-0.008307161,-1.216381,-1.2076293,-0.12507585,0.013086374,0.06673187,1.8530338,-0.40024292,3.7349117,-0.118036285,-2.3111293,10.8063545,1.216381,0.26103833,0.23561928,0.14225316,0.094444595,inf,inf,inf,inf,1,1,1,1,2,0,2,2,1,1,0
2480540968,24016975,37.1022701,-76.3875065,27.186014,-83.42008,-16.51299,-0.0051764916,-0.00053137715,0.0,-0.02105877,-0.00014633755,-1.2148156,-1.2084192,-0.12507585,0.013086374,0.06673187,0.2755102,-0.40493286,-1.7254415,-0.11870977,-2.3111293,10.934929,1.2148156,0.27248427,0.23653449,0.14683752,0.09492069,inf,inf,inf,inf,1,1,1,1,2,0,2,2,1,1,0
2480640970,24016975,37.1022701,-76.3875065,27.191074,-83.4133,-16.638596,-0.0051764916,-0.00053137715,0.0,-0.023511166,0.0032439805,-1.2182417,-1.2152203,-0.12507585,0.013086374,0.06673187,0.69124675,-0.7583791,-0.12434893,-0.11861621,-2.3111293,11.060534,1.2182417,0.26192796,0.23473683,0.142542,0.09427048,inf,inf,inf,inf,1,1,1,1,2,0,2,2,1,1,0
2480741299,24016975,37.1022701,-76.3875065,27.194218,-83.406235,-16.75828,-0.0051764916,-0.00053137715,0.0,-0.029143307,0.012466506,-1.2129194,-1.2071869,-0.12507585,0.013086374,0.06673187,0.9739655,-1.3615448,1.425272,-0.11822569,-2.3111293,11.180218,1.2129194,0.27251408,0.23509233,0.14683089,0.09459768,inf,inf,inf,inf,1,1,1,1,2,0,2,2,1,1,0
2480844966,24016975,37.1022701,-76.3875065,27.198254,-83.39725,-16.88589,-0.0051764916,-0.00053137715,0.0,-0.036648378,0.020013573,-1.2293452,-1.2242616,-0.12507585,0.013086374,0.06673187,1.0670221,0.60941505,0.6309519,-0.11723585,-2.3111293,11.307827,1.2293452,0.26170573,0.23495454,0.14238216,0.09433239,inf,inf,inf,inf,1,1,1,1,2,0,2,2,1,1,0
2480945206,24016975,37.1022701,-76.3875065,27.201649,-83.38758,-17.012283,-0.0051764916,-0.00053137715,0.0,-0.04507878,0.030681022,-1.2286971,-1.2276022,-0.12507585,0.013086374,0.06673187,1.7096709,0.87116873,0.9136292,-0.11623338,-2.3111293,11.434221,1.2286971,0.27317598,0.23590785,0.14699258,0.09482176,inf,inf,inf,inf,1,1,1,1,2,0,2,2,1,1,0
2481049224,24016975,37.1022701,-76.3875065,27.207317,-83.37637,-17.141624,-0.0051764916,-0.00053137715,0.0,-0.051602133,0.040035762,-1.2402763,-1.2404892,-0.12507585,0.013086374,0.06673187,1.3488669,-1.8242713,1.0554184,-0.11490072,-2.3111293,11.563562,1.2402763,0.26261064,0.2341678,0.14269936,0.09419191,inf,inf,inf,inf,1,1,1,1,2,0,2,2,1,1,0
2481153156,24016975,37.1022701,-76.3875065,27.21023,-83.36567,-17.273243,-0.0051764916,-0.00053137715,0.0,-0.072823144,0.05510019,-1.237916,-1.241324,-0.12507585,0.013086374,0.06673187,-2.8504195,0.14009683,-0.19816966,-0.11317454,-2.3111293,11.695181,1.237916,0.27412596,0.2351332,0.14734398,0.094684534,inf,inf,inf,inf,1,1,1,1,2,0,2,2,1,1,0
2481253208,24016975,37.1022701,-76.3875065,27.214891,-83.35451,-17.40139,-0.0051764916,-0.00053137715,0.0,-0.08039905,0.05926273,-1.2397695,-1.2471482,-0.12507585,0.013086374,0.06673187,-1.3758448,0.34749934,-1.5946591,-0.111002326,-2.3111293,11.823328,1.2397695,0.2626463,0.23443395,0.14271697,0.094273314,inf,inf,inf,inf,1,1,1,1,2,0,2,2,1,1,0
2481357299,24016975,37.1022701,-76.3875065,27.21681,-83.34347,-17.531164,-0.0051764916,-0.00053137715,0.0,-0.08435847,0.062080063,-1.2401086,-1.2473367,-0.12507585,0.013086374,0.06673187,1.0441262,-0.8060419,3.679123,-0.108868554,-2.3111293,11.953102,1.2401086,0.27416372,0.23538905,0.14731146,0.09476012,inf,inf,inf,inf,1,1,1,1,2,0,2,2,1,1,0
2481457211,24016975,37.1022701,-76.3875065,27.222046,-83.33261,-17.65504,-0.0051764916,-0.00053137715,0.0,-0.09126021,0.06793825,-1.2358955,-1.2421066,-0.12507585,0.013086374,0.06673187,1.9663618,-1.4759098,-0.63015074,-0.106996596,-2.3111293,12.076979,1.2358955,0.263666,0.23528205,0.14313155,0.094511345,inf,inf,inf,inf,1,1,1,1,2,0,2,2,1,1,0
2481556950,24016975,37.1022701,-76.3875065,27.222044,-83.32329,-17.780201,-0.0051764916,-0.00053137715,0.0,-0.10947966,0.06294712,-1.230943,-1.23764,-0.12507585,0.013086374,0.06673187,0.027944038,-1.7796822,0.39712238,-0.10508641,-2.3111293,12.202139,1.230943,0.27432474,0.23568086,0.14737923,0.09485014,inf,inf,inf,inf,1,1,1,1,2,0,2,2,1,1,0
2481661010,24016975,37.1022701,-76.3875065,27.224525,-83.31398,-17.91184,-0.0051764916,-0.00053137715,0.0,-0.1175148,0.051530596,-1.233496,-1.2418603,-0.12507585,0.013086374,0.06673187,-0.61485326,-1.5463109,-1.9210222,-0.10322332,-2.3111293,12.333778,1.233496,0.263675,0.23396869,0.14307167,0.09422676,inf,inf,inf,inf,1,1,1,1,2,0,2,2,1,1,0
2481761152,24016975,37.1022701,-76.3875065,27.223564,-83.30626,-18.035576,-0.0051764916,-0.00053137715,0.0,-0.12979637,0.05749657,-1.2389476,-1.2453384,-0.12507585,0.013086374,0.06673187,-0.7367778,1.063901,-1.3898484,-0.10167426,-2.3111293,12.457514,1.2389476,0.2752439,0.23495273,0.14769001,0.094722144,inf,inf,inf,inf,1,1,1,1,2,0,2,2,1,1,0
2481861198,24016975,37.1022701,-76.3875065,27.221296,-83.297615,-18.155825,-0.0051764916,-0.00053137715,0.0,-0.13508713,0.05243823,-1.2388564,-1.2399753,-0.12507585,0.013086374,0.06673187,-1.2053397,2.5749865,-1.4877157,-0.099963605,-2.3111293,12.577763,1.2388564,0.26343095,0.23429923,0.14295316,0.094321355,inf,inf,inf,inf,1,1,1,1,2,0,2,2,1,1,0
2481965235,24016975,37.1022701,-76.3875065,27.216269,-83.289764,-18.280245,-0.0051764916,-0.00053137715,0.0,-0.13914473,0.04312836,-1.245888,-1.241417,-0.12507585,0.013086374,0.06673187,-1.4249376,-0.0362173,-1.6346798,-0.09850349,-2.3111293,12.702183,1.245888,0.27498314,0.23530273,0.14755407,0.09482181,inf,inf,inf,inf,1,1,1,1,2,0,2,2,1,1,0
2482065287,24016975,37.1022701,-76.3875065,27.212967,-83.2816,-18.40329,-0.0051764916,-0.00053137715,0.0,-0.14152819,0.017001437,-1.2570821,-1.2512715,-0.12507585,0.013086374,0.06673187,1.68073,-0.83912486,2.1682632,-0.09673269,-2.3111293,12.825228,1.2570821,0.26432922,0.23362613,0.1433283,0.094209254,inf,inf,inf,inf,1,1,1,1,2,0,2,2,1,1,0
2482168975,24016975,37.1022701,-76.3875065,27.205675,-83.27561,-18.530943,-0.0051764916,-0.00053137715,0.0,-0.14325462,0.011851678,-1.2582318,-1.2510774,-0.12507585,0.013086374,0.06673187,3.0863433,1.6909847,2.300267,-0.095295854,-2.3111293,12.952881,1.2582318,0.27592936,0.23463753,0.14795387,0.09471033,inf,inf,inf,inf,1,1,1,1,2,0,2,2,1,1,0
2482273321,24016975,37.1022701,-76.3875065,27.19888,-83.26985,-18.657429,-0.0051764916,-0.00053137715,0.0,-0.14041725,0.0024240469,-1.2484509,-1.239235,-0.12507585,0.013086374,0.06673187,2.9708052,-3.0015588,4.0826893,-0.094355226,-2.3111293,13.079367,1.2484509,0.26522714,0.23455675,0.14368068,0.094465576,inf,inf,inf,inf,1,1,1,1,2,0,2,2,1,1,0
2482373159,24016975,37.1022701,-76.3875065,27.189672,-83.26687,-18.777803,-0.0051764916,-0.00053137715,0.0,-0.15170917,-0.01011055,-1.2360207,-1.2240708,-0.12507585,0.013086374,0.06673187,-0.75918216,-0.99216664,-4.472734,-0.093198314,-2.3111293,13.199741,1.2360207,0.27595308,0.23497775,0.14789522,0.09480403,inf,inf,inf,inf,1,1,1,1,2,0,2,2,1,1,0
2482477282,24016975,37.1022701,-76.3875065,27.182549,-83.263245,-18.903934,-0.0051764916,-0.00053137715,0.0,-0.13890204,-0.010785102,-1.2342684,-1.2207683,-0.12507585,0.013086374,0.06673187,1.057275,0.68147254,-0.8208798,-0.09165454,-2.3111293,13.325872,1.2342684,0.26524773,0.2349101,0.14365974,0.09456242,inf,inf,inf,inf,1,1,1,1,2,0,2,2,1,1,0
2482581267,24016975,37.1022701,-76.3875065,27.173908,-83.26194,-19.02832,-0.0051764916,-0.00053137715,0.0,-0.13803574,-0.023297701,-1.2349951,-1.2182335,-0.12507585,0.013086374,0.06673187,-0.57115275,-0.533971,-5.611303,-0.09008401,-2.3111293,13.450258,1.2349951,0.2550405,0.23323503,0.13942263,0.09393442,inf,inf,inf,inf,1,1,1,1,2,0,2,2,1,1,0
2482681131,24016975,37.1022701,-76.3875065,27.16843,-83.2613,-19.145763,-0.0051764916,-0.00053137715,0.0,-0.123048276,-0.038622957,-1.238349,-1.2167376,-0.12507585,0.013086374,0.06673187,1.3953559,0.5310599,3.0508976,-0.088329256,-2.3111293,13.567701,1.238349,0.26614,0.2342253,0.14403,0.094435394,inf,inf,inf,inf,1,1,1,1,2,0,2,2,1,1,0
2482785105,24016975,37.1022701,-76.3875065,27.162436,-83.263275,-19.269009,-0.0051764916,-0.00053137715,0.0,-0.12012574,-0.03567115,-1.2320486,-1.2070352,-0.12507585,0.013086374,0.06673187,-3.3828516,1.7745287,-2.8258905,-0.08698269,-2.3111293,13.690947,1.2320486,0.2560052,0.23414107,0.13987269,0.09417643,inf,inf,inf,inf,1,1,1,1,2,0,2,2,1,1,0
2482888969,24016975,37.1022701,-76.3875065,27.159271,-83.26799,-19.395601,-0.0051764916,-0.00053137715,0.0,-0.09331834,-0.05150459,-1.242569,-1.2183647,-0.12507585,0.013086374,0.06673187,-0.43702942,2.0016458,-0.89651716,-0.08559842,-2.3111293,13.817539,1.242569,0.26716337,0.23514558,0.14443222,0.09467994,inf,inf,inf,inf,1,1,1,1,2,0,2,2,1,1,0
2482989099,24016975,37.1022701,-76.3875065,27.155499,-83.2739,-19.521446,-0.0051764916,-0.00053137715,0.0,-0.085733086,-0.071223944,-1.2501959,-1.2301674,-0.12507585,0.013086374,0.06673187,-1.53547,1.5170594,2.5423737,-0.08431696,-2.3111293,13.943384,1.2501959,0.2558893,0.23449042,0.139772,0.09426314,inf,inf,inf,inf,1,1,1,1,2,0,2,2,1,1,0
2483092977,24016975,37.1022701,-76.3875065,27.155104,-83.282104,-19.648937,-0.0051764916,-0.00053137715,0.0,-0.062877215,-0.07922683,-1.2524838,-1.2328912,-0.12507585,0.013086374,0.06673187,3.1861987,-0.3657511,3.4798615,-0.083511814,-2.3111293,14.070875,1.2524838,0.2670328,0.23389228,0.14433771,0.09439422,inf,inf,inf,inf,1,1,1,1,2,0,2,2,1,1,0
2483193218,24016975,37.1022701,-76.3875065,27.154333,-83.29151,-19.772394,-0.0051764916,-0.00053137715,0.0,-0.064710446,-0.08847429,-1.2438363,-1.2255285,-0.12507585,0.013086374,0.06673187,-0.9637193,-1.8285085,0.43822247,-0.08298646,-2.3111293,14.194332,1.2438363,0.25661865,0.23383065,0.14005518,0.09413895,inf,inf,inf,inf,1,1,1,1,2,0,2,2,1,1,0
2483293144,24016975,37.1022701,-76.3875065,27.15482,-83.30443,-19.895164,-0.0051764916,-0.00053137715,0.0,-0.056714553,-0.08562147,-1.245929,-1.2276235,-0.12507585,0.013086374,0.06673187,-2.1174636,2.0165794,-0.8187121,-0.08252668,-2.3111293,14.317102,1.245929,0.26691803,0.23424765,0.14429834,0.09448072,inf,inf,inf,inf,1,1,1,1,2,0,2,2,1,1,0
2483397345,24016975,37.1022701,-76.3875065,27.154884,-83.31884,-20.026564,-0.0051764916,-0.00053137715,0.0,-0.04440309,-0.103763014,-1.2591723,-1.2437876,-0.12507585,0.013086374,0.06673187,-1.0632622,-1.7096585,2.8914294,-0.08203406,-2.3111293,14.448502,1.2591723,0.25664246,0.23416796,0.14012578,0.09421931,inf,inf,inf,inf,1,1,1,1,2,0,2,2,1,1,0
2483497165,24016975,37.1022701,-76.3875065,27.15546,-83.33504,-20.153536,-0.0051764916,-0.00053137715,0.0,-0.039143942,-0.11230383,-1.2645054,-1.2520584,-0.12507585,0.013086374,0.06673187,0.08948182,1.4390998,-0.67521065,-0.08182551,-2.3111293,14.575474,1.2645054,0.26782286,0.23517329,0.14466356,0.094720714,inf,inf,inf,inf,1,1,1,1,2,0,2,2,1,1,0
2483597194,24016975,37.1022701,-76.3875065,27.155203,-83.351295,-20.281334,-0.0051764916,-0.00053137715,0.0,-0.035338543,-0.10987351,-1.2334219,-1.2246033,-0.12507585,0.013086374,0.06673187,0.907751,0.79115975,-1.5462406,-0.08230799,-2.3111293,14.703272,1.2334219,0.2566615,0.23452583,0.14012247,0.09430748,inf,inf,inf,inf,1,1,1,1,2,0,2,2,1,1,0
2483700979,24016975,37.1022701,-76.3875065,27.15587,-83.37077,-20.41409,-0.0051764916,-0.00053137715,0.0,-0.03300815,-0.12721725,-1.246654,-1.241316,-0.12507585,0.013086374,0.06673187,-1.6798383,1.5554473,-3.130092,-0.082649656,-2.3111293,14.836027,1.246654,0.26784632,0.23392999,0.14469486,0.094435975,inf,inf,inf,inf,1,1,1,1,2,0,2,2,1,1,0
2483800932,24016975,37.1022701,-76.3875065,27.156263,-83.389984,-20.543463,-0.0051764916,-0.00053137715,0.0,-0.022225179,-0.12463801,-1.2384357,-1.2376438,-0.12507585,0.013086374,0.06673187,-0.06393901,1.7253755,0.74251974,-0.083295,-2.3111293,14.965401,1.2384357,0.25728464,0.23386943,0.1403302,0.09417807,inf,inf,inf,inf,1,1,1,1,2,0,2,2,1,1,0
2483902153,24016975,37.1022701,-76.3875065,27.15768,-83.41313,-20.672373,-0.0051764916,-0.00053137715,0.0,-0.011246964,-0.14570421,-1.2562605,-1.2578888,-0.12507585,0.013086374,0.06673187,-1.2340223,-2.582322,-1.6049104,-0.08424832,-2.3111293,15.094311,1.2562605,0.2676123,0.23431985,0.14451326,0.09453025,inf,inf,inf,inf,1,1,1,1,2,0,2,2,1,1,0
2484006800,24016975,37.1022701,-76.3875065,27.158794,-83.43676,-20.802347,-0.0051764916,-0.00053137715,0.0,-0.0008349443,-0.14259022,-1.2468137,-1.2463933,-0.12507585,0.013086374,0.06673187,-1.3522782,0.36380327,-1.0058117,-0.085453406,-2.3111293,15.224285,1.2468137,0.2573242,0.23427002,0.1403281,0.094280176,inf,inf,inf,inf,1,1,1,1,2,0,2,2,1,1,0
2484106776,24016975,37.1022701,-76.3875065,27.160189,-83.45969,-20.920723,-0.0051764916,-0.00053137715,0.0,0.015852777,-0.16630642,-1.2474489,-1.2404732,-0.12507585,0.013086374,0.06673187,-0.3377397,-0.9118235,-1.9472628,-0.08715651,-2.3111293,15.342661,1.2474489,0.2687164,0.23380804,0.14499399,0.0944309,inf,inf,inf,inf,1,1,1,1,2,0,2,2,1,1,0
2484206753,24016975,37.1022701,-76.3875065,27.162497,-83.48177,-21.041462,-0.0051764916,-0.00053137715,0.0,0.023502486,-0.17177214,-1.2523999,-1.2422872,-0.12507585,0.013086374,0.06673187,0.71674854,0.719764,2.0810163,-0.08880752,-2.3111293,15.4634,1.2523999,0.25750682,0.233193,0.14041358,0.09402942,inf,inf,inf,inf,1,1,1,1,2,0,2,2,1,1,0
2484310743,24016975,37.1022701,-76.3875065,27.165915,-83.50493,-21.166405,-0.0051764916,-0.00053137715,0.0,0.026701426,-0.16795944,-1.2514665,-1.2374147,-0.12507585,0.013086374,0.06673187,-1.6100127,0.079372704,-1.4379574,-0.09058346,-2.3111293,15.588343,1.2514665,0.26873168,0.23422357,0.14497793,0.09453677,inf,inf,inf,inf,1,1,1,1,2,0,2,2,1,1,0
2484410756,24016975,37.1022701,-76.3875065,27.167538,-83.52654,-21.287573,-0.0051764916,-0.00053137715,0.0,0.026540557,-0.16781601,-1.2579489,-1.2414511,-0.12507585,0.013086374,0.06673187,-0.9290251,0.07148619,2.7529912,-0.09182584,-2.3111293,15.709511,1.2579489,0.25847918,0.23415612,0.14088038,0.094281174,inf,inf,inf,inf,1,1,1,1,2,0,2,2,1,1,0
2484510552,24016975,37.1022701,-76.3875065,27.167799,-83.54655,-21.409044,-0.0051764916,-0.00053137715,0.0,0.034758918,-0.15456195,-1.246548,-1.2279881,-0.12507585,0.013086374,0.06673187,3.1299932,-1.3627825,0.9685054,-0.09322738,-2.3111293,15.830982,1.246548,0.268874,0.23459657,0.14510687,0.09462598,inf,inf,inf,inf,1,1,1,1,2,0,2,2,1,1,0
2484614942,24016975,37.1022701,-76.3875065,27.16687,-83.56512,-21.536669,-0.0051764916,-0.00053137715,0.0,0.024909703,-0.14077218,-1.2618761,-1.2424419,-0.12507585,0.013086374,0.06673187,-0.042377204,0.05063124,2.6503565,-0.094313115,-2.3111293,15.958607,1.2618761,0.25860444,0.23454058,0.14094669,0.09437289,inf,inf,inf,inf,1,1,1,1,2,0,2,2,1,1,0
2484714548,24016975,37.1022701,-76.3875065,27.164946,-83.580376,-21.664541,-0.0051764916,-0.00053137715,0.0,0.021521244,-0.110776044,-1.2505611,-1.2351589,-0.12507585,0.013086374,0.06673187,1.1828729,0.7371335,-2.1477714,-0.095198184,-2.3111293,16.08648,1.2505611,0.26989532,0.23556817,0.14552896,0.094875574,inf,inf,inf,inf,1,1,1,1,2,0,2,2,1,1,0
2484818900,24016975,37.1022701,-76.3875065,27.16294,-83.5933,-21.798819,-0.0051764916,-0.00053137715,0.0,0.016791433,-0.09303206,-1.2741343,-1.263352,-0.12507585,0.013086374,0.06673187,-1.7661881,0.603638,-1.8366212,-0.09584266,-2.3111293,16.220757,1.2741343,0.25919682,0.2338606,0.14113131,0.09422566,inf,inf,inf,inf,1,1,1,1,2,0,2,2,1,1,0
2484922779,24016975,37.1022701,-76.3875065,27.159952,-83.60331,-21.934944,-0.0051764916,-0.00053137715,0.0,0.01806316,-0.061196502,-1.2680123,-1.2626824,-0.12507585,0.013086374,0.06673187,0.6255206,-0.3523288,2.7165575,-0.0963323,-2.3111293,16.356882,1.2680123,0.27051514,0.23486294,0.14575288,0.09471709,inf,inf,inf,inf,1,1,1,1,2,0,2,2,1,1,0
2485022801,24016975,37.1022701,-76.3875065,27.15487,-83.610016,-22.067463,-0.0051764916,-0.00053137715,0.0,0.014900274,-0.04431622,-1.2783376,-1.2788779,-0.12507585,0.013086374,0.06673187,2.8661816,-1.9183308,2.4878595,-0.09715421,-2.3111293,16.4894,1.2783376,0.2593341,0.23422068,0.14126594,0.094307,inf,inf,inf,inf,1,1,1,1,2,0,2,2,1,1,0
2485126855,24016975,37.1022701,-76.3875065,27.148499,-83.61394,-22.206823,-0.0051764916,-0.00053137715,0.0,0.010794639,-0.009493653,-1.2796657,-1.2864457,-0.12507585,0.013086374,0.06673187,3.854755,0.7715242,6.417389,-0.09783882,-2.3111293,16.628761,1.2796657,0.27066663,0.23523723,0.14584512,0.094803944,inf,inf,inf,inf,1,1,1,1,2,0,2,2,1,1,0
2485226543,24016975,37.1022701,-76.3875065,27.138975,-83.6128,-22.3399,-0.0051764916,-0.00053137715,0.0,-0.00040955236,0.013020552,-1.2595464,-1.2706114,-0.12507585,0.013086374,0.06673187,-0.0016004809,-2.0590417,-1.6768938,-0.098884225,-2.3111293,16.761837,1.2595464,0.26030532,0.23356399,0.1416618,0.09417555,inf,inf,inf,inf,1,1,1,1,2,0,2,2,1,1,0
2485327016,24016975,37.1022701,-76.3875065,27.129793,-83.608505,-22.4719,-0.0051764916,-0.00053137715,0.0,-0.006876777,0.033906437,-1.2686214,-1.2826616,-0.12507585,0.013086374,0.06673187,0.37872955,-1.584219,-2.0718708,-0.10012944,-2.3111293,16.893839,1.2686214,0.270796,0.23400865,0.14594631,0.094519,inf,inf,inf,inf,1,1,1,1,2,0,2,2,1,1,0
2485430551,24016975,37.1022701,-76.3875065,27.116343,-83.601135,-22.609951,-0.0051764916,-0.00053137715,0.0,-0.006657076,0.06345436,-1.2640312,-1.2817212,-0.12507585,0.013086374,0.06673187,1.7150409,-0.37136394,2.6428208,-0.10137177,-2.3111293,17.031889,1.2640312,0.26029527,0.23396021,0.1417238,0.09426978,inf,inf,inf,inf,1,1,1,1,2,0,2,2,1,1,0
2485530782,24016975,37.1022701,-76.3875065,27.101692,-83.59171,-22.742332,-0.0051764916,-0.00053137715,0.0,-0.017459316,0.087022245,-1.2632388,-1.2835417,-0.12507585,0.013086374,0.06673187,-0.4996279,-2.0511837,-2.108627,-0.102824986,-2.3111293,17.16427,1.2632388,0.27167976,0.2349924,0.14626375,0.094772115,inf,inf,inf,inf,1,1,1,1,2,0,2,2,1,1,0
2485630774,24016975,37.1022701,-76.3875065,27.085289,-83.58011,-22.876518,-0.0051764916,-0.00053137715,0.0,-0.021674717,0.10225209,-1.2679936,-1.2925421,-0.12507585,0.013086374,0.06673187,-1.5147318,-0.08507395,-1.130306,-0.103704594,-2.3111293,17.298456,1.2679936,0.26029083,0.23434737,0.1416024,0.09435888,inf,inf,inf,inf,1,1,1,1,2,0,2,2,1,1,0
