timestamp,time_utc_usec,lat,lon,alt,alt_ellipsoid,s_variance_m_s,c_variance_rad,eph,epv,hdop,vdop,noise_per_ms,jamming_indicator,vel_m_s,vel_n_m_s,vel_e_m_s,vel_d_m_s,cog_rad,timestamp_time_relative,fix_type,vel_ned_valid,satellites_used
2468117469,1686676621999803,371025144,-763884477,2565,-33205,0.18200001,0.7160864,0.44700003,1.1270001,0.55,1.01,109,34,0.032,-0.004,-0.031000001,0.018000001,0.91857547,0,4,1,20
2468318047,1686676622199801,371025145,-763884474,2531,-33239,0.254,0.71609616,0.44500002,1.1240001,0.55,1.01,109,34,0.006,-0.003,-0.0050000004,0.040000003,0.91857547,0,4,1,20
2468522257,1686676622399801,371025146,-763884471,2494,-33276,0.266,0.7161063,0.44400004,1.1220001,0.55,1.01,109,34,0.023000002,-0.016,0.017,-0.07,0.91857547,0,4,1,20
2468738473,1686676622599801,371025147,-763884469,2461,-33309,0.27,0.71611655,0.44200003,1.12,0.55,1.01,109,23,0.007,0.001,-0.007,0.069000006,0.91857547,0,4,1,20
2468914394,1686676622799801,371025148,-763884467,2434,-33336,0.23300001,0.71612567,0.44000003,1.1170001,0.55,1.01,109,23,0.024,-0.012,-0.020000001,0.040000003,0.91857547,0,4,1,20
2469122510,1686676622999802,371025151,-763884467,2483,-33287,0.164,0.47675952,0.439,1.113,0.55,1.01,109,23,0.31800002,0.22500001,-0.224,-0.067,6.0230117,0,4,1,20
2469317580,1686676623199801,371025156,-763884473,2533,-33237,0.23400001,0.4990704,0.437,1.1110001,0.55,1.01,109,23,0.35000002,0.143,-0.32000002,-0.67600006,5.5988493,0,4,1,20
2469517650,1686676623399801,371025161,-763884481,2739,-33031,0.24100001,0.31668,0.43600002,1.1090001,0.55,1.01,109,23,0.518,0.23500001,-0.46100003,-1.056,5.3028994,0,4,1,20
2469718790,1686676623599801,371025166,-763884492,2976,-32794,0.23500001,0.21434073,0.43500003,1.1060001,0.55,1.01,109,22,0.72,0.27400002,-0.666,-1.1570001,5.165454,0,4,1,20
2469917354,1686676623799801,371025170,-763884504,3157,-32613,0.23300001,0.28020892,0.43300003,1.098,0.55,1.01,109,22,0.57100004,0.086,-0.565,-0.92600006,5.0538573,0,4,1,20
2470117194,1686676623999802,371025171,-763884512,3275,-32495,0.24700001,0.4686153,0.432,1.092,0.55,1.01,109,22,0.31800002,-0.132,-0.29000002,-0.78000003,4.8513694,0,4,1,20
2470317306,1686676624199801,371025168,-763884516,3349,-32421,0.246,0.34444436,0.43,1.088,0.55,1.01,109,22,0.418,-0.365,-0.20300001,-0.606,4.070495,0,4,1,20
2470517756,1686676624399801,371025162,-763884519,3442,-32328,0.254,0.26195455,0.42900002,1.082,0.55,1.01,109,22,0.52900004,-0.492,-0.192,-0.80200005,3.7176404,0,4,1,20
2470718151,1686676624599801,371025154,-763884521,3588,-32182,0.261,0.3460581,0.42800003,1.08,0.55,1.01,109,25,0.41400003,-0.41400003,-0.015000001,-0.80700004,3.5212567,0,4,1,20
2470917779,1686676624799801,371025148,-763884521,3701,-32069,0.256,0.31240326,0.42700002,1.0730001,0.55,1.01,109,25,0.43600002,-0.43600002,-0.012,-0.98100007,3.327213,0,4,1,20
2471118120,1686676624999802,371025142,-763884521,3880,-31890,0.25500003,0.39611256,0.42600003,1.067,0.55,1.01,109,25,0.34800002,-0.34600002,0.038000003,-1.018,3.213755,0,4,1,20
2471319009,1686676625199801,371025137,-763884519,4010,-31760,0.252,0.4848685,0.425,1.0610001,0.55,1.01,109,25,0.3,-0.298,0.034,-0.809,3.1399922,0,4,1,20
2471517371,1686676625399801,371025133,-763884518,4171,-31599,0.27400002,0.4849191,0.42400002,1.0600001,0.55,1.01,109,25,0.15100001,-0.14400001,0.045,-0.883,3.1399922,0,4,1,20
2471713673,1686676625599801,371025132,-763884517,4325,-31445,0.27,0.484965,0.42400002,1.0580001,0.55,1.01,109,10,0.13900001,-0.087000005,0.108,-0.8,3.1399922,0,4,1,20
2471917428,1686676625799801,371025130,-763884516,4489,-31281,0.263,0.6290992,0.42400002,1.052,0.55,1.01,109,10,0.24100001,-0.224,0.087000005,-0.90000004,3.0023787,0,4,1,20
2472121662,1686676625999802,371025127,-763884515,4645,-31125,0.26000002,0.65395284,0.42400002,1.049,0.56,1.02,109,10,0.223,-0.223,-0.002,-0.91300005,3.0732782,0,4,1,19
2472316491,1686676626199801,371025125,-763884516,4777,-30992,0.24700001,0.65398514,0.42400002,1.044,0.56,1.02,109,10,0.082,-0.068,-0.044000003,-0.76600003,3.0732782,0,4,1,19
2472516519,1686676626399801,371025126,-763884516,4948,-30822,0.26000002,0.65402335,0.423,1.042,0.55,1.01,109,10,0.156,0.14600001,0.056,-0.89800006,3.0732782,0,4,1,20
2472716597,1686676626599801,371025128,-763884516,5123,-30647,0.263,0.6540563,0.423,1.041,0.55,1.01,109,12,0.022000002,0.020000001,-0.007,-0.78400004,3.0732782,0,4,1,20
2472919888,1686676626799800,371025129,-763884517,5307,-30463,0.257,0.6540925,0.42200002,1.0380001,0.56,1.02,109,12,0.045,0.035,-0.028,-0.86100006,3.0732782,0,4,1,19
2473115293,1686676626999801,371025129,-763884517,5463,-30307,0.266,0.65413123,0.42100003,1.036,0.55,1.01,109,12,0.102000006,-0.095000006,0.037,-0.919,3.0732782,0,4,1,20
2473316489,1686676627199800,371025129,-763884517,5644,-30126,0.26500002,0.6541651,0.42000002,1.0350001,0.55,1.01,109,12,0.063,0.052,0.035,-0.80500007,3.0732782,0,4,1,20
2473519697,1686676627399800,371025131,-763884517,5757,-30013,0.26000002,0.6541954,0.42000002,1.0320001,0.55,1.01,109,12,0.061000004,0.049000002,0.037,-0.721,3.0732782,0,4,1,20
2473716687,1686676627599800,371025133,-763884516,5929,-29841,0.268,0.65423596,0.42000002,1.0320001,0.55,1.01,109,14,0.163,0.125,0.105000004,-0.95300007,3.0732782,0,4,1,20
2473916479,1686676627799800,371025135,-763884517,6103,-29667,0.273,0.65427256,0.41900003,1.029,0.55,1.01,109,14,0.124000005,-0.07300001,-0.1,-0.86700004,3.0732782,0,4,1,20
2474116525,1686676627999801,371025137,-763884518,6261,-29509,0.26900002,0.654312,0.418,1.0270001,0.55,1.01,109,14,0.19000001,0.18100001,0.056,-0.919,3.0732782,0,4,1,20
2474312489,1686676628199800,371025141,-763884518,6433,-29337,0.27100003,0.654352,0.418,1.0250001,0.55,1.01,109,14,0.17,0.14400001,0.091000006,-0.93900007,3.0732782,0,4,1,20
2474516568,1686676628399800,371025142,-763884518,6620,-29149,0.277,0.6543916,0.418,1.023,0.56,1.02,109,14,0.14600001,-0.13000001,-0.066,-0.934,3.0732782,0,4,1,19
2474740481,1686676628599800,371025143,-763884519,6796,-28974,0.277,0.6544305,0.418,1.0220001,0.55,1.01,109,11,0.108,0.102000006,0.037,-0.9250001,3.0732782,0,4,1,20
2474915655,1686676628799800,371025145,-763884519,6946,-28823,0.264,0.65446997,0.41700003,1.0200001,0.55,1.01,109,11,0.087000005,0.016,0.085,-0.938,3.0732782,0,4,1,20
2475116566,1686676628999801,371025144,-763884519,7124,-28646,0.26900002,0.65450716,0.41700003,1.018,0.55,1.01,109,11,0.12100001,-0.120000005,0.018000001,-0.88000005,3.0732782,0,4,1,20
2475316518,1686676629199800,371025143,-763884519,7267,-28503,0.273,0.654544,0.416,1.018,0.55,1.01,109,11,0.115,-0.069000006,0.09200001,-0.869,3.0732782,0,4,1,20
2475516513,1686676629399800,371025143,-763884520,7476,-28293,0.259,0.65458816,0.41500002,1.014,0.55,1.01,109,11,0.14500001,0.11800001,-0.085,-1.044,3.0732782,0,4,1,20
2475739624,1686676629599800,371025144,-763884522,7647,-28123,0.264,0.65462357,0.41500002,1.013,0.55,1.01,109,19,0.031000001,-0.013,-0.029000001,-0.846,3.0732782,0,4,1,20
2475916507,1686676629799800,371025143,-763884522,7827,-27942,0.26500002,0.6546623,0.41400003,1.011,0.55,1.01,109,19,0.14500001,-0.072000004,0.126,-0.91300005,3.0732782,0,4,1,20
2476119603,1686676629999801,371025142,-763884523,8002,-27768,0.263,0.6546979,0.41400003,1.0090001,0.55,1.01,109,19,0.029000001,-0.013,-0.026,-0.85400003,3.0732782,0,4,1,20
2476314507,1686676630199800,371025143,-763884523,8171,-27599,0.263,0.77626413,0.41400003,1.008,0.55,1.01,109,19,0.18200001,0.179,0.035,-0.94100004,1.8753556,0,4,1,20
2476518491,1686676630399800,371025144,-763884521,8347,-27422,0.273,0.77629954,0.41400003,1.008,0.55,1.01,109,19,0.18400002,-0.026,0.18200001,-0.98300004,1.8753556,0,4,1,20
2476718535,1686676630599800,371025145,-763884519,8567,-27202,0.25500003,0.77633774,0.41400003,1.005,0.55,1.01,109,23,0.171,0.171,0.004,-1.069,1.8753556,0,4,1,20
2476917489,1686676630799800,371025145,-763884519,8750,-27020,0.272,0.75742626,0.41300002,1.005,0.55,1.01,109,23,0.186,-0.18300001,0.033,-1.011,2.4332235,0,4,1,20
2477116791,1686676630999801,371025145,-763884517,8949,-26821,0.25,0.73752373,0.41200003,0.998,0.55,1.01,109,23,0.18,0.148,0.102000006,-1.217,1.494041,0,4,1,20
2477326480,1686676631199800,371025145,-763884514,9199,-26570,0.259,0.67715245,0.41200003,0.998,0.56,1.02,109,23,0.22900002,-0.14,0.18,-1.149,1.8939323,0,4,1,19
2477518524,1686676631399799,371025145,-763884511,9411,-26358,0.259,0.67720413,0.411,0.99600005,0.55,1.01,109,23,0.133,0.128,0.034,-1.2670001,1.8939323,0,4,1,20
2477737362,1686676631599799,371025146,-763884510,9653,-26117,0.263,0.67724895,0.411,0.994,0.55,1.01,109,19,0.05,-0.042000003,0.026,-1.1090001,1.8939323,0,4,1,20
2477914494,1686676631799799,371025147,-763884510,9832,-25938,0.266,0.6772924,0.41000003,0.99500006,0.55,1.01,109,19,0.051000003,-0.002,-0.051000003,-1.07,1.8939323,0,4,1,20
2478124437,1686676631999800,371025148,-763884510,10005,-25765,0.25800002,0.67733765,0.41000003,0.99000007,0.55,1.01,109,19,0.115,0.0050000004,0.115,-1.113,1.8939323,0,4,1,20
2478317495,1686676632199799,371025149,-763884508,10214,-25556,0.263,0.67737967,0.41000003,0.989,0.55,1.01,109,19,0.10300001,0.102000006,0.016,-1.033,1.8939323,0,4,1,20
2478516504,1686676632399799,371025151,-763884509,10435,-25335,0.26500002,0.6774249,0.409,0.989,0.55,1.01,109,19,0.108,0.053000003,-0.094000004,-1.1090001,1.8939323,0,4,1,20
2478740446,1686676632599799,371025152,-763884510,10669,-25101,0.27100003,0.67746437,0.409,0.99000007,0.55,1.01,109,19,0.074,0.029000001,0.068,-0.97200006,1.8939323,0,4,1,20
2478914495,1686676632799799,371025153,-763884509,10900,-24870,0.26200002,0.67750937,0.409,0.98700005,0.56,1.02,109,19,0.059000004,0.013,0.057000004,-1.11,1.8939323,0,4,1,19
2479117502,1686676632999800,371025154,-763884509,11126,-24644,0.261,0.6775539,0.40800002,0.984,0.55,1.01,109,19,0.0050000004,-0.001,0.0050000004,-1.1010001,1.8939323,0,4,1,20
2479317502,1686676633199799,371025156,-763884508,11316,-24454,0.26000002,0.6776026,0.40800002,0.984,0.55,1.01,109,19,0.080000006,0.053000003,0.060000002,-1.2010001,1.8939323,0,4,1,20
2479514512,1686676633399799,371025158,-763884506,11590,-24180,0.264,0.67765284,0.40800002,0.98300004,0.55,1.01,109,19,0.14,0.094000004,0.104,-1.2320001,1.8939323,0,4,1,20
2479737718,1686676633599799,371025160,-763884506,11839,-23931,0.27,0.6777036,0.40800002,0.984,0.55,1.01,109,15,0.12100001,0.10700001,-0.056,-1.25,1.8939323,0,4,1,20
2479910503,1686676633799799,371025162,-763884506,12131,-23639,0.259,0.6777611,0.407,0.98,0.57,1.02,109,15,0.072000004,-0.033,-0.064,-1.4200001,1.8939323,0,4,1,19
2480115611,1686676633999800,371025163,-763884507,12369,-23401,0.26700002,0.6778117,0.407,0.98,0.57,1.02,109,15,0.042000003,0.041,0.009000001,-1.2470001,1.8939323,0,4,1,19
2480318549,1686676634199799,371025164,-763884506,12622,-23148,0.27100003,0.6778616,0.407,0.97900003,0.55,1.01,109,15,0.052,-0.037,0.037,-1.233,1.8939323,0,4,1,20
2480515630,1686676634399799,371025165,-763884503,12905,-22865,0.27,0.6779157,0.407,0.97800004,0.55,1.01,109,15,0.16800001,-0.0050000004,0.16800001,-1.3280001,1.8939323,0,4,1,20
2480739062,1686676634599799,371025166,-763884500,13171,-22599,0.27600002,0.67797256,0.407,0.97700006,0.55,1.01,109,10,0.063,0.024,0.058000002,-1.406,1.8939323,0,4,1,20
2480918171,1686676634799799,371025168,-763884499,13447,-22322,0.28100002,0.6780235,0.407,0.97700006,0.55,1.01,109,10,0.097,0.089,0.041,-1.2570001,1.8939323,0,4,1,20
2481119590,1686676634999800,371025171,-763884498,13688,-22082,0.27,0.678078,0.407,0.9760001,0.55,1.01,109,10,0.067,0.052,0.042000003,-1.343,1.8939323,0,4,1,20
2481314267,1686676635199799,371025173,-763884497,13958,-21812,0.26900002,0.67812985,0.40600002,0.975,0.55,1.01,109,10,0.05,0.018000001,0.047000002,-1.279,1.8939323,0,4,1,20
2481515623,1686676635399799,371025174,-763884496,14216,-21554,0.27100003,0.6781827,0.40500003,0.975,0.55,1.01,109,10,0.060000002,-0.023000002,0.056,-1.3050001,1.8939323,0,4,1,20
2481738756,1686676635599799,371025173,-763884493,14485,-21285,0.268,0.77552044,0.40500003,0.97400004,0.55,1.01,109,13,0.194,-0.134,0.14,-1.194,2.084925,0,4,1,20
2481919862,1686676635799799,371025172,-763884491,14767,-21003,0.268,0.7755637,0.40500003,0.97400004,0.55,1.01,109,13,0.162,-0.127,0.101,-1.218,2.084925,0,4,1,20
2482118098,1686676635999800,371025170,-763884489,15030,-20740,0.273,0.7787479,0.40500003,0.97300005,0.55,1.01,109,13,0.185,-0.18,0.044000003,-1.2870001,2.4923663,0,4,1,20
2482318128,1686676636199798,371025168,-763884489,15299,-20471,0.27100003,0.77892536,0.404,0.97300005,0.55,1.01,109,13,0.18800001,-0.17400001,0.071,-1.279,2.6248324,0,4,1,20
2482518100,1686676636399798,371025166,-763884489,15560,-20210,0.264,0.77896905,0.40300003,0.9710001,0.55,1.01,109,13,0.13100001,-0.128,0.028,-1.2340001,2.6248324,0,4,1,20
2482714956,1686676636599798,371025165,-763884491,15838,-19932,0.266,0.7790182,0.402,0.9710001,0.57,1.02,110,19,0.108,-0.081,-0.072000004,-1.393,2.6248324,0,4,1,19
2482923600,1686676636799798,371025164,-763884494,16090,-19680,0.268,0.779065,0.402,0.97,0.55,1.01,110,19,0.11800001,-0.106000006,-0.051000003,-1.325,2.6248324,0,4,1,20
2483127999,1686676636999799,371025163,-763884498,16371,-19399,0.268,0.779112,0.40100002,0.96900004,0.55,1.01,110,19,0.19100001,-0.096,-0.165,-1.3160001,2.6248324,0,4,1,20
2483319603,1686676637199798,371025161,-763884502,16668,-19102,0.26000002,0.7791594,0.4,0.96700007,0.55,1.01,110,19,0.16700001,-0.10300001,-0.13100001,-1.3390001,2.6248324,0,4,1,20
2483518136,1686676637399798,371025160,-763884506,16916,-18854,0.256,0.77920693,0.39900002,0.96400005,0.55,1.01,110,19,0.178,-0.057000004,-0.16800001,-1.342,2.6248324,0,4,1,20
2483735552,1686676637599798,371025159,-763884511,17201,-18569,0.263,0.6022576,0.39800003,0.96300006,0.55,1.01,110,13,0.28,-0.065000005,-0.272,-1.422,3.7853973,0,4,1,20
2483916688,1686676637799798,371025157,-763884516,17487,-18283,0.27,0.6023192,0.39800003,0.96400005,0.57,1.02,110,13,0.132,-0.089,-0.097,-1.3440001,3.7853973,0,4,1,19
2484120515,1686676637999799,371025156,-763884519,17769,-18001,0.266,0.6023836,0.397,0.96400005,0.55,1.01,110,13,0.147,-0.003,-0.147,-1.4100001,3.7853973,0,4,1,20
2484316511,1686676638199798,371025154,-763884523,18067,-17703,0.26500002,0.60244644,0.397,0.96300006,0.55,1.01,110,13,0.186,-0.11400001,-0.147,-1.3670001,3.7853973,0,4,1,20
2484516487,1686676638399798,371025152,-763884527,18329,-17441,0.26700002,0.6025096,0.39600003,0.9620001,0.55,1.01,110,13,0.105000004,-0.060000002,-0.085,-1.3870001,3.7853973,0,4,1,20
2484736490,1686676638599798,371025151,-763884529,18636,-17134,0.263,0.6025826,0.39600003,0.961,0.55,1.01,110,17,0.115,0.0,-0.115,-1.598,3.7853973,0,4,1,20
2484913486,1686676638799798,371025149,-763884531,18976,-16794,0.264,0.6026524,0.395,0.961,0.55,1.01,110,17,0.13100001,-0.101,-0.083000004,-1.5270001,3.7853973,0,4,1,20
2485116645,1686676638999799,371025146,-763884531,19316,-16454,0.26900002,0.72087485,0.395,0.961,0.55,1.01,110,17,0.19900002,-0.17400001,0.096,-1.5280001,3.3123739,0,4,1,20
2485317501,1686676639199798,371025142,-763884529,19656,-16114,0.26200002,0.54873794,0.39400002,0.95800006,0.55,1.01,110,17,0.263,-0.254,0.068,-1.5660001,3.039213,0,4,1,20
2485517179,1686676639399798,371025137,-763884528,19937,-15833,0.259,0.5418259,0.393,0.95500004,0.55,1.01,110,17,0.263,-0.23900001,0.11100001,-1.5560001,2.8698885,0,4,1,20
2485721563,1686676639599798,371025135,-763884526,20224,-15546,0.263,0.5419027,0.39200002,0.95400006,0.57,1.02,110,18,0.11000001,-0.048,0.09900001,-1.514,2.8698885,0,4,1,19
2485917481,1686676639799798,371025132,-763884523,20531,-15239,0.27,0.54197705,0.39200002,0.95400006,0.57,1.02,110,18,0.19500001,-0.15,0.125,-1.455,2.8698885,0,4,1,19
2486117670,1686676639999799,371025129,-763884519,20856,-14914,0.263,0.72763556,0.39100003,0.95100003,0.55,1.01,110,18,0.21900001,-0.13900001,0.17,-1.524,2.6506524,0,4,1,20
2486316518,1686676640199798,371025126,-763884515,21155,-14615,0.27100003,0.7802707,0.39100003,0.952,0.55,1.01,110,18,0.21100001,-0.09,0.19100001,-1.4590001,2.3535948,0,4,1,20
2486516823,1686676640399798,371025124,-763884512,21431,-14339,0.272,0.78032076,0.39100003,0.95300007,0.55,1.01,110,18,0.117000006,-0.044000003,0.108,-1.416,2.3535948,0,4,1,20
2486716771,1686676640599798,371025124,-763884508,21720,-14050,0.264,0.623682,0.39100003,0.952,0.55,1.01,110,15,0.259,0.016,0.25800002,-1.251,1.8370576,0,4,1,20
2486916526,1686676640799797,371025124,-763884503,21973,-13797,0.26700002,0.6237405,0.39100003,0.95300007,0.57,1.02,110,15,0.17,0.045,0.164,-1.3180001,1.8370576,0,4,1,19
2487120523,1686676640999798,371025124,-763884500,22223,-13547,0.268,0.62380123,0.39100003,0.95300007,0.55,1.01,110,15,0.133,-0.053000003,0.12200001,-1.376,1.8370576,0,4,1,20
2487316497,1686676641199797,371025124,-763884498,22503,-13267,0.26900002,0.6238639,0.39000002,0.95400006,0.55,1.01,110,15,0.083000004,0.051000003,0.065000005,-1.424,1.8370576,0,4,1,20
2487516716,1686676641399797,371025124,-763884496,22811,-12959,0.26900002,0.623925,0.39000002,0.95500004,0.55,1.01,110,15,0.11000001,0.060000002,0.09200001,-1.388,1.8370576,0,4,1,20
2487737491,1686676641599797,371025126,-763884494,23074,-12696,0.266,0.6239857,0.39000002,0.95500004,0.55,1.01,110,13,0.14600001,0.108,0.09900001,-1.371,1.8370576,0,4,1,20
2487914814,1686676641799797,371025128,-763884493,23319,-12450,0.264,0.6240419,0.39000002,0.95500004,0.57,1.02,110,13,0.11000001,0.10700001,0.027,-1.276,1.8370576,0,4,1,19
2488115067,1686676641999798,371025129,-763884493,23615,-12155,0.26200002,0.6241051,0.39000002,0.95500004,0.55,1.01,110,13,0.13100001,0.13000001,-0.014,-1.432,1.8370576,0,4,1,20
2488318857,1686676642199797,371025132,-763884492,23921,-11849,0.26500002,0.6241735,0.39000002,0.95500004,0.55,1.01,110,13,0.124000005,0.123,-0.010000001,-1.5510001,1.8370576,0,4,1,20
2488521934,1686676642399797,371025134,-763884492,24194,-11576,0.263,0.7124217,0.39100003,0.957,0.55,1.01,110,13,0.20300001,0.202,0.020000001,-1.194,1.0830525,0,4,1,20
2488737267,1686676642599797,371025137,-763884492,24438,-11332,0.266,0.71247303,0.39100003,0.95800006,0.55,1.01,110,9,0.112,0.096,-0.058000002,-1.3290001,1.0830525,0,4,1,20
2488918489,1686676642799797,371025140,-763884493,24720,-11050,0.26500002,0.71252364,0.39100003,0.96000004,0.55,1.01,110,9,0.18800001,0.178,-0.059000004,-1.302,1.0830525,0,4,1,20
2489121342,1686676642999798,371025142,-763884494,24994,-10776,0.264,0.71257496,0.39100003,0.96000004,0.55,1.01,110,9,0.117000006,0.101,-0.059000004,-1.3290001,1.0830525,0,4,1,20
2489318368,1686676643199797,371025145,-763884496,25268,-10502,0.263,0.71262646,0.39100003,0.961,0.55,1.01,110,9,0.165,0.119,-0.11400001,-1.3280001,1.0830525,0,4,1,20
2489519077,1686676643399797,371025148,-763884499,25535,-10235,0.257,0.55191094,0.39100003,0.961,0.55,1.01,110,9,0.27800003,0.23900001,-0.142,-1.1750001,0.06992696,0,4,1,20
2489738468,1686676643599797,371025150,-763884501,25799,-9970,0.264,0.55197394,0.39100003,0.961,0.55,1.01,110,17,0.10300001,-0.083000004,-0.060000002,-1.2650001,0.06992696,0,4,1,20
2489918288,1686676643799797,371025150,-763884501,26087,-9683,0.266,0.5520359,0.39100003,0.961,0.55,1.01,110,17,0.024,0.021000002,0.013,-1.248,0.06992696,0,4,1,20
2490121645,1686676643999798,371025151,-763884501,26365,-9405,0.26500002,0.5521024,0.39000002,0.961,0.55,1.01,110,17,0.044000003,0.004,-0.044000003,-1.337,0.06992696,0,4,1,20
2490322924,1686676644199797,371025152,-763884502,26659,-9111,0.26500002,0.552168,0.39000002,0.9620001,0.55,1.01,110,17,0.062000003,0.008,-0.061000004,-1.3230001,0.06992696,0,4,1,20
2490518264,1686676644399797,371025152,-763884504,26987,-8783,0.266,0.5522358,0.39000002,0.9620001,0.55,1.01,110,17,0.15100001,-0.032,-0.147,-1.3540001,0.06992696,0,4,1,20
2490738468,1686676644599797,371025152,-763884507,27241,-8529,0.26500002,0.55230033,0.39000002,0.9620001,0.55,1.01,110,14,0.17600001,-0.07,-0.162,-1.286,0.06992696,0,4,1,20
2490914121,1686676644799797,371025153,-763884510,27513,-8256,0.26200002,0.5523695,0.39000002,0.9620001,0.55,1.01,110,14,0.18400002,0.034,-0.18100001,-1.3800001,0.06992696,0,4,1,20
2491117720,1686676644999798,371025155,-763884513,27822,-7948,0.26500002,0.55243856,0.39000002,0.96400005,0.55,1.01,110,14,0.12100001,0.078,-0.09200001,-1.389,0.06992696,0,4,1,20
2491318431,1686676645199797,371025156,-763884514,28122,-7648,0.264,0.55250263,0.39000002,0.96300006,0.55,1.01,110,14,0.044000003,-0.039,-0.022000002,-1.2880001,0.06992696,0,4,1,20
2491518271,1686676645399796,371025156,-763884513,28411,-7358,0.26900002,0.5525698,0.39000002,0.96400005,0.55,1.01,110,14,0.056,-0.051000003,-0.022000002,-1.353,0.06992696,0,4,1,20
2491736477,1686676645599796,371025157,-763884512,28668,-7102,0.266,0.55263335,0.39100003,0.96400005,0.55,1.01,110,17,0.053000003,0.024,0.048,-1.2820001,0.06992696,0,4,1,20
2491920595,1686676645799796,371025158,-763884510,28937,-6833,0.261,0.55269754,0.39000002,0.96300006,0.55,1.01,110,17,0.087000005,0.05,0.072000004,-1.289,0.06992696,0,4,1,20
2492116483,1686676645999797,371025160,-763884508,29218,-6551,0.261,0.55276513,0.39000002,0.961,0.55,1.01,110,17,0.080000006,0.019000001,0.07700001,-1.36,0.06992696,0,4,1,20
2492312540,1686676646199796,371025160,-763884506,29485,-6285,0.26500002,0.55283266,0.38900003,0.9620001,0.55,1.01,110,17,0.051000003,-0.044000003,0.025,-1.3620001,0.06992696,0,4,1,20
2492516035,1686676646399796,371025162,-763884504,29771,-5999,0.263,0.5528964,0.38900003,0.96300006,0.55,1.01,110,17,0.128,0.075,0.10300001,-1.276,0.06992696,0,4,1,20
2492715687,1686676646599796,371025163,-763884501,30072,-5698,0.26200002,0.5529669,0.38900003,0.961,0.55,1.01,110,20,0.097,-0.012,0.097,-1.4180001,0.06992696,0,4,1,20
2492918986,1686676646799796,371025163,-763884498,30374,-5396,0.25800002,0.5530395,0.38900003,0.95900005,0.55,1.01,110,20,0.095000006,-0.058000002,0.075,-1.4610001,0.06992696,0,4,1,20
2493119669,1686676646999797,371025163,-763884496,30654,-5116,0.264,0.5531042,0.388,0.96000004,0.55,1.01,110,20,0.14500001,-0.080000006,0.12100001,-1.2980001,0.06992696,0,4,1,20
2493323636,1686676647199796,371025162,-763884493,30903,-4867,0.263,0.5531756,0.388,0.96000004,0.55,1.01,110,20,0.125,-0.096,0.081,-1.437,0.06992696,0,4,1,20
2493520560,1686676647399796,371025160,-763884492,31194,-4576,0.26900002,0.55323917,0.38900003,0.961,0.55,1.01,110,20,0.16000001,-0.16000001,0.009000001,-1.271,0.06992696,0,4,1,20
2493712531,1686676647599796,371025158,-763884491,31457,-4313,0.272,0.5533037,0.38900003,0.96400005,0.55,1.01,110,14,0.158,-0.158,-0.006,-1.292,0.06992696,0,4,1,20
2493928653,1686676647799796,371025156,-763884493,31717,-4053,0.27400002,0.55336916,0.38900003,0.96500003,0.55,1.01,110,14,0.13800001,-0.126,-0.057000004,-1.3130001,0.06992696,0,4,1,20
2494116547,1686676647999797,371025155,-763884495,31938,-3832,0.27,0.5534327,0.39000002,0.96700007,0.55,1.01,110,14,0.081,-0.044000003,-0.068,-1.281,0.06992696,0,4,1,20
2494316487,1686676648199796,371025153,-763884497,32174,-3596,0.27100003,0.7125912,0.39000002,0.96800005,0.55,1.01,110,14,0.22100002,-0.177,-0.132,-1.3310001,5.3859043,0,4,1,20
2494518862,1686676648399796,371025151,-763884501,32437,-3333,0.27,0.7497936,0.39100003,0.97,0.55,1.01,110,14,0.22500001,-0.11400001,-0.194,-1.238,4.814052,0,4,1,20
2494736547,1686676648599796,371025151,-763884505,32677,-3093,0.26900002,0.7498421,0.39100003,0.97200006,0.55,1.01,110,24,0.10300001,0.032,-0.098000005,-1.322,4.814052,0,4,1,20
2494920482,1686676648799796,371025152,-763884508,32936,-2834,0.272,0.7498918,0.39200002,0.975,0.55,1.01,110,24,0.155,0.042000003,-0.149,-1.3520001,4.814052,0,4,1,20
2495112577,1686676648999797,371025153,-763884512,33220,-2550,0.268,0.74994475,0.393,0.9760001,0.55,1.01,110,24,0.19600001,0.082,-0.177,-1.434,4.814052,0,4,1,20
2495318995,1686676649199796,371025155,-763884516,33438,-2332,0.266,0.7499882,0.393,0.9760001,0.55,1.01,110,24,0.13800001,0.018000001,-0.13700001,-1.182,4.814052,0,4,1,20
2495516488,1686676649399796,371025154,-763884519,33692,-2078,0.27100003,0.75002605,0.393,0.97700006,0.55,1.01,110,24,0.075,-0.058000002,-0.048,-1.0320001,4.814052,0,4,1,20
2495717536,1686676649599796,371025153,-763884517,33893,-1877,0.272,0.68285495,0.393,0.97900003,0.55,1.01,110,21,0.23200001,-0.14600001,0.18,-1.1090001,3.4132738,0,4,1,20
2495914494,1686676649799796,371025148,-763884513,34129,-1641,0.254,0.25264704,0.393,0.9760001,0.55,1.01,110,21,0.558,-0.485,0.27600002,-0.94200003,2.7183518,0,4,1,20
2496118555,1686676649999796,371025138,-763884502,34236,-1534,0.208,0.14377603,0.393,0.97400004,0.55,1.01,110,21,1.0430001,-0.72700006,0.74700004,-0.70000005,2.43423,0,4,1,20
2496318522,1686676650199795,371025123,-763884483,34269,-1501,0.16900001,0.09727714,0.39100003,0.96700007,0.55,1.01,110,21,1.44,-1.0990001,0.93100005,-0.37,2.437178,0,4,1,20
2496514492,1686676650399795,371025101,-763884459,34323,-1447,0.15300001,0.07645606,0.39000002,0.96000004,0.55,1.01,110,21,1.8600001,-1.437,1.1810001,-0.20700002,2.4474688,0,4,1,20
2496718529,1686676650599795,371025074,-763884431,34293,-1477,0.15300001,0.06953129,0.38900003,0.957,0.55,1.01,110,14,2.0900002,-1.654,1.2770001,-0.109000005,2.4677935,0,4,1,20
2496924921,1686676650799795,371025046,-763884400,34231,-1539,0.15400001,0.06415568,0.38900003,0.95100003,0.55,1.01,110,14,2.164,-1.6530001,1.3970001,0.013,2.4526873,0,4,1,20
2497122478,1686676650999796,371025018,-763884370,34199,-1570,0.157,0.07483727,0.388,0.94900006,0.55,1.01,110,14,1.9620001,-1.5050001,1.258,0.010000001,2.4496615,0,4,1,20
2497318575,1686676651199795,371024992,-763884344,34186,-1584,0.17600001,0.1071564,0.39000002,0.9480001,0.55,1.01,110,14,1.7220001,-1.2880001,1.1420001,-0.106000006,2.4385562,0,4,1,20
2497518484,1686676651399795,371024972,-763884320,34162,-1608,0.16000001,0.14522326,0.39200002,0.947,0.55,1.01,110,14,1.3980001,-0.864,1.0990001,-0.051000003,2.367203,0,4,1,20
2497741469,1686676651599795,371024959,-763884296,34143,-1627,0.14500001,0.1704752,0.39400002,0.947,0.55,1.01,110,10,1.243,-0.56600004,1.1060001,-0.068,2.2307782,0,4,1,20
2497914562,1686676651799795,371024953,-763884271,34117,-1653,0.134,0.17995478,0.395,0.947,0.55,1.01,110,10,1.217,-0.091000006,1.2140001,0.0,1.9535602,0,4,1,20
2498118480,1686676651999796,371024955,-763884241,34129,-1641,0.158,0.1413919,0.397,0.9480001,0.55,1.01,110,10,1.48,0.33800003,1.44,-0.052,1.5740703,0,4,1,20
2498318215,1686676652199795,371024962,-763884205,34130,-1640,0.16100001,0.11553416,0.4,0.94900006,0.55,1.01,110,10,1.7300001,0.517,1.651,-0.017,1.389854,0,4,1,20
2498518482,1686676652399795,371024975,-763884166,34119,-1651,0.163,0.08688388,0.402,0.95000005,0.55,1.01,110,10,2.131,0.882,1.9390001,0.046000004,1.2321976,0,4,1,20
2498718536,1686676652599795,371024992,-763884121,34094,-1676,0.172,0.07740639,0.404,0.952,0.55,1.01,110,19,2.318,1.07,2.0570002,0.123,1.1530555,0,4,1,20
2498918484,1686676652799795,371025012,-763884076,34017,-1753,0.165,0.07647788,0.40600002,0.95400006,0.55,1.01,110,19,2.3620002,1.1120001,2.084,0.007,1.116065,0,4,1,20
2499120973,1686676652999796,371025035,-763884030,33959,-1811,0.172,0.06758455,0.40800002,0.95500004,0.55,1.01,110,19,2.5660002,1.3460001,2.1850002,0.13900001,1.0608275,0,4,1,20
2499316688,1686676653199795,371025059,-763883982,33964,-1806,0.18300001,0.07150195,0.41000003,0.95600003,0.55,1.01,110,19,2.483,1.327,2.098,0.038000003,1.0350411,0,4,1,20
2499519629,1686676653399795,371025083,-763883934,33983,-1787,0.178,0.06673493,0.41200003,0.957,0.55,1.01,110,19,2.562,1.3570001,2.174,-0.026,1.0229889,0,4,1,20
2499719617,1686676653599795,371025108,-763883887,33913,-1857,0.18300001,0.068989545,0.41400003,0.957,0.55,1.01,110,15,2.5700002,1.437,2.131,0.035,1.0007145,0,4,1,20
2499918476,1686676653799795,371025135,-763883841,33884,-1886,0.17300001,0.06564166,0.41700003,0.95900005,0.55,1.01,110,15,2.6220002,1.5250001,2.1330001,-0.09,0.97387165,0,4,1,20
2500119636,1686676653999796,371025163,-763883796,33810,-1960,0.16600001,0.062108237,0.41900003,0.96000004,0.55,1.01,110,15,2.638,1.5890001,2.1060002,0.013,0.9473617,0,4,1,20
2500319830,1686676654199795,371025192,-763883750,33750,-2020,0.165,0.059162643,0.42000002,0.961,0.55,1.01,110,15,2.736,1.687,2.1550002,-0.013,0.9255496,0,4,1,20
2500502500,1686676654399795,371025222,-763883703,33744,-2026,0.186,0.060839556,0.42200002,0.96300006,0.55,1.01,110,15,2.7440002,1.7010001,2.1520002,-0.015000001,0.9138292,0,4,1,20
2500718299,1686676654599794,371025253,-763883657,33671,-2099,0.172,0.06059835,0.423,0.961,0.55,1.01,110,15,2.6920002,1.7090001,2.0800002,-0.015000001,0.89806277,0,4,1,20
2500919614,1686676654799794,371025285,-763883613,33573,-2197,0.172,0.059950486,0.425,0.96000004,0.55,1.01,110,15,2.7110002,1.7370001,2.081,-0.036000002,0.88634515,0,4,1,20
2501118327,1686676654999795,371025317,-763883568,33495,-2275,0.179,0.05903855,0.42600003,0.96000004,0.55,1.01,110,15,2.786,1.789,2.1360002,0.067,0.87964433,0,4,1,20
2501315992,1686676655199794,371025349,-763883520,33480,-2290,0.18300001,0.059712246,0.42800003,0.961,0.55,1.01,110,15,2.8240001,1.8010001,2.174,0.020000001,0.8792455,0,4,1,20
2501518514,1686676655399794,371025381,-763883474,33407,-2363,0.18100001,0.05799362,0.43,0.961,0.55,1.01,110,15,2.8370001,1.8080001,2.1850002,0.061000004,0.87941605,0,4,1,20
2501723568,1686676655599794,371025414,-763883427,33344,-2426,0.18300001,0.05634411,0.432,0.96400005,0.55,1.01,110,16,2.867,1.8030001,2.23,0.017,0.88544947,0,4,1,20
2501894897,1686676655799794,371025447,-763883380,33331,-2439,0.18100001,0.058381435,0.43400002,0.96700007,0.55,1.01,110,16,2.8400002,1.843,2.16,-0.001,0.8751307,0,4,1,20
2502115629,1686676655999795,371025480,-763883333,33327,-2443,0.18100001,0.055118192,0.43500003,0.97,0.55,1.01,110,16,2.8370001,1.815,2.18,-0.094000004,0.87591106,0,4,1,20
2502318336,1686676656199794,371025514,-763883287,33311,-2459,0.18200001,0.055295344,0.437,0.9710001,0.55,1.01,110,16,2.8960001,1.8790001,2.204,-0.009000001,0.87016755,0,4,1,20
2502515920,1686676656399794,371025546,-763883241,33318,-2452,0.17500001,0.054664407,0.437,0.97,0.55,1.01,110,16,2.795,1.769,2.163,-0.045,0.8780161,0,4,1,20
2502739590,1686676656599794,371025578,-763883195,33300,-2470,0.17300001,0.05535521,0.43800002,0.96900004,0.55,1.01,110,22,2.7710001,1.7370001,2.1590002,-0.127,0.8857441,0,4,1,20
2502918767,1686676656799794,371025610,-763883147,33277,-2493,0.18,0.055788573,0.439,0.97,0.55,1.01,110,22,2.8030002,1.7210001,2.213,-0.016,0.8979535,0,4,1,20
2503131807,1686676656999795,371025642,-763883100,33260,-2510,0.18300001,0.056216005,0.441,0.97200006,0.55,1.01,110,22,2.782,1.7490001,2.163,0.051000003,0.8943548,0,4,1,20
2503319861,1686676657199794,371025674,-763883052,33252,-2518,0.179,0.054465964,0.44300002,0.97400004,0.55,1.01,110,22,2.8630002,1.7930001,2.232,0.025,0.89415306,0,4,1,20
2503517489,1686676657399794,371025706,-763883003,33238,-2532,0.18,0.05486093,0.44500002,0.97700006,0.55,1.01,110,22,2.858,1.7680001,2.2450001,0.068,0.8990859,0,4,1,20
2503736503,1686676657599794,371025738,-763882954,33227,-2543,0.17400001,0.05632439,0.44700003,0.98,0.55,1.01,110,14,2.844,1.72,2.2640002,0.029000001,0.91008145,0,4,1,20
2503913498,1686676657799794,371025768,-763882905,33235,-2535,0.17500001,0.058399063,0.44900003,0.98300004,0.55,1.01,110,14,2.7640002,1.651,2.217,-0.012,0.92023563,0,4,1,20
2504124160,1686676657999795,371025798,-763882855,33210,-2560,0.177,0.055456962,0.45100003,0.98600006,0.55,1.01,110,14,2.811,1.6910001,2.2450001,0.071,0.9229011,0,4,1,20
2504321778,1686676658199794,371025828,-763882806,33185,-2585,0.171,0.056351792,0.45200002,0.99000007,0.55,1.01,110,14,2.7830002,1.644,2.2450001,0.010000001,0.93080896,0,4,1,20
2504517156,1686676658399794,371025858,-763882758,33130,-2640,0.16800001,0.056713946,0.453,0.99200004,0.55,1.01,110,14,2.7700002,1.608,2.256,-0.033,0.941349,0,4,1,20
2504713543,1686676658599794,371025887,-763882710,33081,-2689,0.16600001,0.05824338,0.45400003,0.994,0.55,1.01,110,15,2.7410002,1.5430001,2.265,-0.031000001,0.95707095,0,4,1,20
2504916940,1686676658799794,371025916,-763882662,33037,-2733,0.163,0.057274897,0.455,0.994,0.55,1.01,110,15,2.762,1.572,2.2710001,0.014,0.9612768,0,4,1,20
2505119915,1686676658999795,371025943,-763882613,32973,-2797,0.157,0.057100885,0.455,0.99300003,0.55,1.01,110,15,2.732,1.526,2.2670002,0.017,0.9699365,0,4,1,20
2505317724,1686676659199793,371025971,-763882564,32944,-2826,0.158,0.054789197,0.45600003,0.99500006,0.55,1.01,110,15,2.831,1.621,2.321,0.063,0.96529895,0,4,1,20
2505521489,1686676659399793,371025999,-763882515,32867,-2903,0.155,0.05641218,0.45700002,0.99500006,0.55,1.01,110,15,2.749,1.5200001,2.2900002,0.039,0.9750278,0,4,1,20
2505721657,1686676659599793,371026027,-763882466,32829,-2941,0.163,0.05619,0.45800003,0.99700004,0.55,1.01,110,23,2.8000002,1.577,2.3130002,0.05,0.97360986,0,4,1,20
2505921484,1686676659799793,371026054,-763882415,32805,-2965,0.165,0.055778276,0.45900002,0.9990001,0.55,1.01,110,23,2.7440002,1.547,2.266,0.014,0.9726262,0,4,1,20
2506117483,1686676659999794,371026082,-763882364,32790,-2980,0.164,0.05554353,0.46,1.0020001,0.55,1.01,110,23,2.7600002,1.5450001,2.286,0.043,0.9745717,0,4,1,20
2506317513,1686676660199793,371026110,-763882312,32749,-3021,0.164,0.057027757,0.46,1.0040001,0.55,1.01,110,23,2.8200002,1.5790001,2.3360002,0.0,0.97546846,0,4,1,20
2506517505,1686676660399793,371026136,-763882260,32727,-3043,0.163,0.056530688,0.46100003,1.005,0.55,1.01,110,23,2.72,1.488,2.2770002,0.021000002,0.98392826,0,4,1,20
2506719959,1686676660599793,371026163,-763882209,32679,-3091,0.163,0.060173888,0.462,1.0070001,0.55,1.01,110,20,2.693,1.4810001,2.249,-0.108,0.9860921,0,4,1,20
2506921478,1686676660799793,371026189,-763882159,32617,-3153,0.16100001,0.059775952,0.462,1.0090001,0.55,1.01,110,20,2.7140002,1.4610001,2.2870002,-0.004,0.9943997,0,4,1,20
2507117489,1686676660999794,371026215,-763882108,32540,-3230,0.163,0.058246173,0.46300003,1.0120001,0.55,1.01,110,20,2.782,1.519,2.3300002,0.026,0.993722,0,4,1,20
2507318482,1686676661199793,371026242,-763882057,32442,-3328,0.162,0.059038725,0.46400002,1.014,0.55,1.01,110,20,2.8070002,1.547,2.342,-0.063,0.99032456,0,4,1,20
2507517539,1686676661399793,371026269,-763882004,32377,-3393,0.17,0.061214976,0.46400002,1.0150001,0.55,1.01,110,20,2.778,1.4860001,2.3470001,0.011000001,0.9981389,0,4,1,20
2507722265,1686676661599793,371026296,-763881951,32305,-3465,0.16600001,0.060619645,0.46500003,1.0170001,0.55,1.01,111,20,2.7470002,1.4560001,2.329,-0.041,1.0053641,0,4,1,20
2507917371,1686676661799793,371026322,-763881897,32190,-3580,0.16700001,0.059738252,0.46500003,1.016,0.55,1.01,111,20,2.785,1.4970001,2.3490002,0.035,1.0044063,0,4,1,20
2508126496,1686676661999794,371026349,-763881844,32090,-3680,0.16700001,0.06112195,0.46500003,1.0150001,0.55,1.01,111,20,2.6980002,1.5120001,2.2340002,-0.033,0.99022925,0,4,1,20
2508318517,1686676662199793,371026376,-763881794,31982,-3788,0.16600001,0.058946222,0.46500003,1.014,0.55,1.01,111,20,2.683,1.5230001,2.209,0.013,0.97805834,0,4,1,20
2508522566,1686676662399793,371026404,-763881746,31886,-3884,0.16800001,0.059612416,0.46600002,1.014,0.55,1.01,111,20,2.7240002,1.5610001,2.232,0.007,0.9692584,0,4,1,20
2508717828,1686676662599793,371026432,-763881697,31763,-4007,0.177,0.060270928,0.46600002,1.014,0.55,1.01,111,18,2.7150002,1.5940001,2.1980002,0.11100001,0.9561561,0,4,1,20
2508918471,1686676662799793,371026460,-763881648,31674,-4096,0.17,0.057857662,0.46600002,1.013,0.55,1.01,111,18,2.663,1.57,2.15,0.023000002,0.94768804,0,4,1,20
2509122963,1686676662999794,371026488,-763881598,31642,-4128,0.17500001,0.060894534,0.46600002,1.013,0.55,1.01,111,18,2.686,1.559,2.187,-0.001,0.9494311,0,4,1,20
2509321800,1686676663199793,371026515,-763881548,31579,-4191,0.172,0.061414294,0.46600002,1.013,0.55,1.01,111,18,2.6710002,1.5200001,2.196,0.008,0.9573684,0,4,1,20
2509518506,1686676663399793,371026543,-763881500,31512,-4258,0.17400001,0.05609645,0.467,1.014,0.55,1.01,111,18,2.7310002,1.6560001,2.1720002,-0.087000005,0.936282,0,4,1,20
2509722296,1686676663599793,371026572,-763881453,31476,-4294,0.177,0.058030624,0.46800002,1.0150001,0.55,1.01,110,20,2.6580002,1.6220001,2.1060002,0.067,0.92554283,0,4,1,20
2509922265,1686676663799792,371026600,-763881406,31443,-4328,0.18,0.061592143,0.46800002,1.016,0.55,1.01,110,20,2.6260002,1.6380001,2.052,-0.10300001,0.91180253,0,4,1,20
2510118487,1686676663999793,371026628,-763881359,31395,-4375,0.17600001,0.061370835,0.469,1.0170001,0.55,1.01,110,20,2.6620002,1.5870001,2.137,-0.048,0.92212844,0,4,1,20
2510317724,1686676664199792,371026656,-763881311,31425,-4345,0.17400001,0.059940014,0.47000003,1.0170001,0.55,1.01,110,20,2.6890001,1.6500001,2.1230001,-0.064,0.9159018,0,4,1,20
2510521576,1686676664399792,371026684,-763881264,31417,-4353,0.17300001,0.06451225,0.47100002,1.0170001,0.55,1.01,110,20,2.6230001,1.5810001,2.0930002,-0.08800001,0.9196181,0,4,1,20
2510722129,1686676664599792,371026712,-763881215,31429,-4341,0.16700001,0.061563343,0.47100002,1.0150001,0.55,1.01,111,11,2.6660001,1.631,2.1090002,0.0,0.915858,0,4,1,20
2510917373,1686676664799792,371026739,-763881166,31432,-4338,0.165,0.060630813,0.47200003,1.0150001,0.55,1.01,111,11,2.6250002,1.5510001,2.118,-0.038000003,0.92756283,0,4,1,20
2511119205,1686676664999793,371026767,-763881117,31451,-4319,0.16700001,0.060833447,0.47200003,1.014,0.55,1.01,111,11,2.677,1.672,2.091,-0.094000004,0.9117395,0,4,1,20
2511319022,1686676665199792,371026796,-763881068,31494,-4276,0.16600001,0.058171123,0.47200003,1.011,0.55,1.01,111,11,2.6520002,1.6730001,2.058,-0.069000006,0.8991913,0,4,1,20
2511520484,1686676665399792,371026823,-763881019,31485,-4285,0.16900001,0.059644006,0.47100002,1.01,0.55,1.01,111,11,2.654,1.588,2.1260002,0.016,0.9142619,0,4,1,20
2511720591,1686676665599792,371026851,-763880970,31462,-4308,0.17300001,0.06384204,0.47200003,1.01,0.55,1.01,111,12,2.6690001,1.6350001,2.1100001,-0.008,0.91293246,0,4,1,20
2511920511,1686676665799792,371026880,-763880921,31424,-4346,0.16900001,0.05881323,0.47200003,1.01,0.55,1.01,111,12,2.6950002,1.6420001,2.137,-0.043,0.9144715,0,4,1,20
2512119283,1686676665999793,371026908,-763880871,31404,-4366,0.171,0.059043262,0.47300002,1.01,0.55,1.01,111,12,2.6980002,1.6220001,2.1560001,0.069000006,0.9202021,0,4,1,20
2512316484,1686676666199792,371026935,-763880820,31381,-4389,0.17,0.05665059,0.47200003,1.01,0.55,1.01,111,12,2.7500002,1.6100001,2.229,0.016,0.93358356,0,4,1,20
2512519623,1686676666399792,371026963,-763880769,31378,-4392,0.17300001,0.059720103,0.47300002,1.011,0.55,1.01,111,12,2.634,1.6040001,2.0900002,0.046000004,0.92521745,0,4,1,20
2512739608,1686676666599792,371026990,-763880720,31332,-4438,0.17500001,0.059236646,0.47300002,1.0120001,0.55,1.01,111,20,2.6120002,1.5760001,2.084,0.07300001,0.9242455,0,4,1,20
2512919008,1686676666799792,371027018,-763880671,31320,-4450,0.19800001,0.062754706,0.47300002,1.013,0.55,1.01,111,20,2.7080002,1.664,2.137,0.13900001,0.91696733,0,4,1,20
2513115828,1686676666999793,371027045,-763880622,31314,-4456,0.192,0.064474724,0.47500002,1.0150001,0.55,1.01,111,20,2.6550002,1.5840001,2.131,0.047000002,0.92429227,0,4,1,20
2513323906,1686676667199792,371027074,-763880575,31265,-4505,0.178,0.061388984,0.476,1.016,0.55,1.01,111,20,2.7020001,1.664,2.128,-0.045,0.9151255,0,4,1,20
2513528735,1686676667399792,371027104,-763880528,31205,-4565,0.18400002,0.061393175,0.47800002,1.018,0.55,1.01,111,20,2.6910002,1.7010001,2.085,0.001,0.90048337,0,4,1,20
2513719734,1686676667599792,371027133,-763880482,31152,-4618,0.18200001,0.062233202,0.47900003,1.021,0.55,1.01,111,15,2.674,1.654,2.101,0.026,0.9022297,0,4,1,20
2513932532,1686676667799792,371027163,-763880436,31118,-4652,0.18100001,0.05946511,0.48000002,1.023,0.55,1.01,111,15,2.6260002,1.6400001,2.051,-0.052,0.8991726,0,4,1,20
2514120510,1686676667999793,371027191,-763880388,31130,-4640,0.18,0.058480393,0.48100004,1.0250001,0.55,1.01,111,15,2.72,1.6600001,2.154,-0.059000004,0.90694404,0,4,1,20
2514316491,1686676668199792,371027221,-763880339,31120,-4650,0.172,0.057720654,0.48200002,1.0270001,0.55,1.01,111,15,2.6780002,1.705,2.065,-0.046000004,0.8932689,0,4,1,20
2514519148,1686676668399791,371027251,-763880291,31085,-4685,0.16600001,0.06033097,0.48200002,1.0270001,0.55,1.01,111,15,2.6550002,1.623,2.101,-0.056,0.9029589,0,4,1,20
2514720530,1686676668599791,371027279,-763880243,31061,-4709,0.17300001,0.06026831,0.483,1.029,0.55,1.01,111,10,2.673,1.598,2.1420002,-0.025,0.91663325,0,4,1,20
2514916546,1686676668799791,371027308,-763880195,31060,-4710,0.17300001,0.0589354,0.483,1.029,0.55,1.01,111,10,2.651,1.5830001,2.1260002,0.017,0.9240488,0,4,1,20
2515118488,1686676668999792,371027336,-763880147,31040,-4730,0.17600001,0.05934154,0.48400003,1.029,0.55,1.01,111,10,2.6320002,1.5740001,2.1100001,0.069000006,0.92693263,0,4,1,20
2515318188,1686676669199791,371027364,-763880099,31042,-4728,0.17300001,0.060097266,0.48400003,1.028,0.55,1.01,111,10,2.621,1.526,2.131,-0.056,0.9382814,0,4,1,20
2515514523,1686676669399791,371027391,-763880051,31056,-4714,0.178,0.059862345,0.48400003,1.028,0.55,1.01,111,10,2.628,1.559,2.115,0.05,0.9368459,0,4,1,20
2515710571,1686676669599791,371027420,-763880004,31046,-4724,0.17500001,0.060915127,0.485,1.028,0.55,1.01,111,21,2.6810002,1.672,2.095,-0.029000001,0.91693276,0,4,1,20
2515914480,1686676669799791,371027449,-763879957,31029,-4741,0.17400001,0.063605204,0.485,1.0270001,0.55,1.01,111,21,2.6220002,1.549,2.1160002,-0.045,0.9276109,0,4,1,20
2516120857,1686676669999792,371027477,-763879911,31025,-4745,0.172,0.06443511,0.485,1.0250001,0.55,1.01,111,21,2.535,1.5550001,2.002,-0.008,0.9189544,0,4,1,20
2516318486,1686676670199791,371027505,-763879867,31003,-4767,0.16000001,0.058478825,0.485,1.023,0.55,1.01,111,21,2.591,1.5660001,2.0640001,-0.046000004,0.92055154,0,4,1,20
2516521487,1686676670399791,371027534,-763879823,30946,-4824,0.163,0.06023794,0.48400003,1.023,0.55,1.01,111,21,2.5430002,1.529,2.0310001,-0.071,0.9230344,0,4,1,20
2516718528,1686676670599791,371027563,-763879779,30898,-4872,0.158,0.06049625,0.483,1.0220001,0.55,1.01,111,18,2.526,1.5680001,1.9800001,-0.07700001,0.9119268,0,4,1,20
2516918484,1686676670799791,371027592,-763879737,30859,-4912,0.16100001,0.058573246,0.48200002,1.023,0.55,1.01,111,18,2.532,1.5660001,1.9900001,-0.028,0.9078836,0,4,1,20
2517122486,1686676670999792,371027620,-763879693,30798,-4972,0.158,0.059669137,0.48000002,1.0220001,0.55,1.01,111,18,2.48,1.491,1.9820001,-0.042000003,0.9168598,0,4,1,20
2517325514,1686676671199791,371027648,-763879649,30760,-5011,0.15400001,0.058025386,0.47800002,1.0200001,0.55,1.01,111,18,2.5180001,1.4870001,2.0310001,-0.134,0.92834723,0,4,1,20
2517521483,1686676671399791,371027676,-763879604,30734,-5036,0.15400001,0.058770817,0.476,1.018,0.55,1.01,111,18,2.486,1.4510001,2.019,-0.143,0.9380706,0,4,1,20
2517741509,1686676671599791,371027702,-763879559,30717,-5053,0.15,0.060101807,0.47400004,1.014,0.55,1.01,111,14,2.46,1.3410001,2.0630002,0.049000002,0.9662521,0,4,1,20
2517918531,1686676671799791,371027728,-763879513,30693,-5077,0.155,0.06133942,0.47300002,1.0090001,0.55,1.01,111,14,2.414,1.3360001,2.0110002,-0.059000004,0.9753657,0,4,1,20
2518118482,1686676671999792,371027753,-763879466,30692,-5078,0.15300001,0.06084462,0.47100002,1.0040001,0.55,1.01,111,14,2.46,1.2950001,2.092,-0.041,0.9964407,0,4,1,20
2518317539,1686676672199791,371027778,-763879421,30669,-5101,0.15100001,0.059659887,0.469,0.9990001,0.55,1.01,111,14,2.4750001,1.363,2.0670002,-0.07300001,0.9920093,0,4,1,20
2518514494,1686676672399791,371027803,-763879376,30657,-5113,0.15100001,0.06246027,0.46800002,0.994,0.55,1.01,111,14,2.384,1.263,2.022,0.016,1.0019348,0,4,1,20
2518741738,1686676672599791,371027826,-763879331,30638,-5133,0.15400001,0.06544216,0.467,0.99100006,0.55,1.01,111,11,2.332,1.1980001,2.0010002,-0.010000001,1.0161273,0,4,1,20
2518919836,1686676672799791,371027850,-763879287,30644,-5126,0.155,0.064895526,0.46600002,0.989,0.55,1.01,111,11,2.423,1.3010001,2.045,-0.14600001,1.010029,0,4,1,20
2519119897,1686676672999791,371027874,-763879242,30665,-5106,0.15400001,0.06637748,0.46500003,0.9850001,0.55,1.01,111,11,2.3830001,1.243,2.033,-0.11400001,1.0159925,0,4,1,20
2519319644,1686676673199790,371027897,-763879197,30681,-5089,0.158,0.06885917,0.46500003,0.98200005,0.55,1.01,111,11,2.3460002,1.179,2.028,-0.127,1.0297372,0,4,1,20
2519519633,1686676673399790,371027920,-763879150,30705,-5065,0.158,0.06621395,0.46300003,0.97800004,0.55,1.01,111,11,2.4490001,1.2010001,2.135,-0.081,1.0448314,0,4,1,20
2519718538,1686676673599790,371027942,-763879102,30762,-5009,0.162,0.065633625,0.462,0.97300005,0.55,1.01,111,18,2.4060001,1.2040001,2.0830002,-0.060000002,1.0458857,0,4,1,20
2519918363,1686676673799790,371027963,-763879055,30808,-4962,0.162,0.065802574,0.462,0.96900004,0.55,1.01,111,18,2.4060001,1.1860001,2.0930002,-0.125,1.0505756,0,4,1,20
2520127631,1686676673999791,371027985,-763879008,30817,-4953,0.16100001,0.06502939,0.462,0.96700007,0.55,1.01,111,18,2.47,1.2570001,2.1260002,0.0,1.0435863,0,4,1,20
2520323569,1686676674199790,371028008,-763878961,30777,-4993,0.156,0.06424103,0.462,0.96500003,0.55,1.01,111,18,2.515,1.268,2.1720002,-0.018000001,1.0429289,0,4,1,20
2520519630,1686676674399790,371028031,-763878913,30747,-5023,0.15900001,0.06772558,0.462,0.96400005,0.55,1.01,111,18,2.5080001,1.291,2.15,0.016,1.036762,0,4,1,20
2520738956,1686676674599790,371028056,-763878864,30730,-5040,0.16600001,0.06658745,0.462,0.96300006,0.55,1.01,111,19,2.5700002,1.393,2.1590002,-0.026,1.0166712,0,4,1,20
2520919615,1686676674799790,371028081,-763878815,30711,-5059,0.163,0.067461856,0.46300003,0.96300006,0.55,1.01,111,19,2.505,1.315,2.1320002,-0.27600002,1.0174655,0,4,1,20
2521119884,1686676674999791,371028105,-763878767,30702,-5068,0.16700001,0.067374066,0.46300003,0.96300006,0.55,1.01,111,19,2.483,1.36,2.078,-0.016,1.0041509,0,4,1,20
2521311682,1686676675199790,371028130,-763878721,30689,-5081,0.165,0.06628795,0.462,0.9620001,0.55,1.01,111,19,2.4450002,1.3620001,2.0310001,0.060000002,0.9916253,0,4,1,20
2521518321,1686676675399790,371028157,-763878674,30637,-5133,0.149,0.0586373,0.46100003,0.96000004,0.55,1.01,111,19,2.5830002,1.4530001,2.1360002,0.011000001,0.9811853,0,4,1,20
2521718412,1686676675599790,371028184,-763878627,30598,-5172,0.16800001,0.06288613,0.46,0.95900005,0.55,1.01,111,16,2.5700002,1.473,2.1060002,0.081,0.9713741,0,4,1,20
2521919105,1686676675799790,371028211,-763878581,30564,-5207,0.16700001,0.062180493,0.45900002,0.957,0.55,1.01,111,16,2.555,1.521,2.0540001,0.038000003,0.9518901,0,4,1,20
2522118418,1686676675999791,371028238,-763878534,30563,-5208,0.16600001,0.06051353,0.45900002,0.95600003,0.55,1.01,111,16,2.624,1.5610001,2.1090002,0.031000001,0.9422667,0,4,1,20
2522318503,1686676676199790,371028265,-763878487,30520,-5251,0.16800001,0.06318144,0.45900002,0.95400006,0.55,1.01,111,16,2.5870001,1.5510001,2.0700002,-0.0050000004,0.9351554,0,4,1,20
2522518943,1686676676399790,371028293,-763878441,30487,-5283,0.16700001,0.062474057,0.45900002,0.952,0.55,1.01,111,16,2.6160002,1.5660001,2.095,0.010000001,0.9319319,0,4,1,20
2522712655,1686676676599790,371028321,-763878392,30454,-5316,0.17500001,0.06540988,0.45900002,0.95100003,0.55,1.01,111,20,2.607,1.5500001,2.0960002,0.002,0.93296415,0,4,1,20
2522917486,1686676676799790,371028349,-763878344,30426,-5344,0.16700001,0.06408569,0.45900002,0.94900006,0.55,1.01,111,20,2.634,1.536,2.14,-0.135,0.9409666,0,4,1,20
2523121217,1686676676999791,371028376,-763878295,30419,-5351,0.16900001,0.06558511,0.45900002,0.9480001,0.55,1.01,111,20,2.5500002,1.5330001,2.038,-0.028,0.9334029,0,4,1,20
2523325487,1686676677199790,371028403,-763878248,30399,-5371,0.16600001,0.05818753,0.45900002,0.94500005,0.55,1.01,111,20,2.5990002,1.5300001,2.101,0.117000006,0.93789417,0,4,1,20
2523525546,1686676677399790,371028432,-763878201,30346,-5424,0.16000001,0.057166338,0.45700002,0.94200003,0.55,1.01,111,20,2.5790002,1.5710001,2.045,0.0050000004,0.92637724,0,4,1,20
2523720761,1686676677599790,371028460,-763878154,30340,-5430,0.163,0.055779148,0.45600003,0.94000006,0.55,1.01,111,22,2.6460001,1.6100001,2.1000001,0.05,0.92128754,0,4,1,20
2523917494,1686676677799789,371028489,-763878107,30335,-5435,0.15,0.05480648,0.455,0.934,0.55,1.01,111,22,2.604,1.5630001,2.0830002,0.057000004,0.9242839,0,4,1,20
2524121495,1686676677999790,371028517,-763878060,30316,-5454,0.15300001,0.05472218,0.453,0.929,0.55,1.01,111,22,2.611,1.5920001,2.069,0.025,0.919483,0,4,1,20
2524317487,1686676678199789,371028545,-763878014,30310,-5460,0.15400001,0.05708553,0.45100003,0.924,0.55,1.01,111,22,2.5600002,1.559,2.0310001,0.046000004,0.9177963,0,4,1,20
2524517483,1686676678399789,371028573,-763877969,30296,-5474,0.15,0.05559327,0.45000002,0.919,0.55,1.01,111,22,2.6020002,1.6020001,2.0500002,0.013,0.9123315,0,4,1,20
2524739943,1686676678599789,371028601,-763877924,30282,-5488,0.149,0.058657896,0.448,0.91400003,0.55,1.01,111,11,2.536,1.5400001,2.015,-0.066,0.91530716,0,4,1,20
2524917637,1686676678799789,371028629,-763877879,30281,-5489,0.149,0.056952707,0.44700003,0.90900004,0.55,1.01,111,11,2.5890002,1.5680001,2.061,-0.10300001,0.918015,0,4,1,20
2525117569,1686676678999790,371028656,-763877834,30301,-5469,0.15,0.05775172,0.446,0.90500003,0.55,1.01,111,11,2.565,1.5480001,2.046,-0.158,0.9205437,0,4,1,20
2525317498,1686676679199789,371028684,-763877789,30332,-5438,0.148,0.05835927,0.44500002,0.901,0.55,1.01,111,11,2.526,1.536,2.006,-0.026,0.91886765,0,4,1,20
2525521446,1686676679399789,371028712,-763877744,30329,-5441,0.156,0.058883913,0.44400004,0.90000004,0.55,1.01,111,11,2.5340002,1.452,2.0770001,-0.002,0.9399212,0,4,1,20
2525741480,1686676679599789,371028739,-763877699,30336,-5434,0.157,0.05829766,0.44400004,0.89900005,0.55,1.01,111,12,2.5200002,1.534,1.9990001,-0.095000006,0.9277198,0,4,1,20
2525917515,1686676679799789,371028767,-763877655,30356,-5415,0.16600001,0.059669137,0.44400004,0.89900005,0.55,1.01,111,12,2.5300002,1.4970001,2.0400002,-0.008,0.93263894,0,4,1,20
2526125512,1686676679999790,371028794,-763877611,30381,-5389,0.164,0.059203137,0.44400004,0.90000004,0.55,1.01,111,12,2.555,1.5180001,2.055,-0.15100001,0.9336987,0,4,1,20
2526317665,1686676680199789,371028822,-763877567,30416,-5354,0.163,0.059628647,0.44400004,0.901,0.55,1.01,111,12,2.5500002,1.5320001,2.038,-0.127,0.9298712,0,4,1,20
2526517583,1686676680399789,371028850,-763877522,30440,-5331,0.163,0.059485182,0.44500002,0.90300006,0.55,1.01,111,12,2.555,1.4990001,2.069,-0.133,0.9369271,0,4,1,20
2526722276,1686676680599789,371028878,-763877476,30477,-5293,0.17,0.059368942,0.44500002,0.906,0.55,1.01,111,17,2.595,1.5510001,2.081,-0.094000004,0.9334336,0,4,1,20
2526917681,1686676680799789,371028906,-763877431,30539,-5231,0.171,0.060911812,0.446,0.90800005,0.55,1.01,111,17,2.5170002,1.493,2.026,-0.11800001,0.93445516,0,4,1,20
2527122018,1686676680999790,371028935,-763877385,30604,-5167,0.172,0.05942776,0.44700003,0.91,0.55,1.01,111,17,2.585,1.5200001,2.0900002,-0.009000001,0.9383495,0,4,1,20
2527321630,1686676681199789,371028963,-763877339,30635,-5135,0.16900001,0.05896996,0.44700003,0.91200006,0.55,1.01,111,17,2.598,1.526,2.1030002,-0.155,0.94078666,0,4,1,20
2527522206,1686676681399789,371028992,-763877292,30654,-5116,0.16900001,0.058085077,0.44700003,0.91300005,0.55,1.01,111,17,2.6100001,1.562,2.091,-0.09900001,0.93475014,0,4,1,20
2527722452,1686676681599789,371029021,-763877246,30699,-5071,0.177,0.05725081,0.44700003,0.915,0.55,1.01,111,18,2.6330001,1.631,2.068,0.075,0.91825676,0,4,1,20
2527922321,1686676681799789,371029049,-763877200,30745,-5025,0.16600001,0.05851338,0.448,0.91700006,0.55,1.01,111,18,2.5640001,1.5530001,2.0400002,-0.23500001,0.9192347,0,4,1,20
2528122242,1686676681999790,371029077,-763877155,30830,-4940,0.164,0.057351515,0.44700003,0.92,0.55,1.01,111,18,2.5640001,1.5860001,2.015,-0.079,0.91138506,0,4,1,20
2528325366,1686676682199789,371029106,-763877111,30855,-4915,0.163,0.058226973,0.44700003,0.92200005,0.55,1.01,111,18,2.5430002,1.562,2.006,-0.15100001,0.9102726,0,4,1,20
2528521750,1686676682399788,371029134,-763877066,30888,-4882,0.165,0.056145668,0.44700003,0.924,0.55,1.01,111,18,2.631,1.631,2.0640001,-0.10300001,0.90595394,0,4,1,20
2528721654,1686676682599788,371029163,-763877021,30889,-4881,0.16600001,0.058360666,0.44700003,0.92700005,0.55,1.01,111,14,2.601,1.5890001,2.059,-0.016,0.90978336,0,4,1,20
2528922791,1686676682799788,371029191,-763876976,30920,-4850,0.165,0.058193464,0.448,0.93000007,0.55,1.01,111,14,2.628,1.618,2.0700002,-0.07300001,0.9085681,0,4,1,20
2529121974,1686676682999789,371029219,-763876930,30933,-4837,0.163,0.05908009,0.448,0.93100005,0.55,1.01,111,14,2.631,1.529,2.141,-0.012,0.9296496,0,4,1,20
2529321977,1686676683199788,371029246,-763876883,30935,-4835,0.16600001,0.05995345,0.448,0.933,0.55,1.01,111,14,2.598,1.4920001,2.127,0.010000001,0.94445014,0,4,1,20
2529517678,1686676683399788,371029271,-763876837,30960,-4810,0.157,0.059434567,0.448,0.933,0.55,1.01,111,14,2.6030002,1.4740001,2.1460001,-0.10300001,0.9569671,0,4,1,20
2529717765,1686676683599788,371029297,-763876790,30962,-4808,0.16000001,0.060140204,0.44900003,0.934,0.55,1.01,111,23,2.591,1.4280001,2.1620002,-0.030000001,0.9721288,0,4,1,20
2529922349,1686676683799788,371029323,-763876743,30948,-4822,0.157,0.059577856,0.44900003,0.93600005,0.55,1.01,111,23,2.5800002,1.4610001,2.127,-0.074,0.9704805,0,4,1,20
2530122508,1686676683999789,371029349,-763876698,30961,-4810,0.157,0.06028402,0.45000002,0.938,0.55,1.01,111,23,2.4910002,1.414,2.051,-0.055000003,0.9688399,0,4,1,20
2530322047,1686676684199788,371029375,-763876654,30932,-4838,0.162,0.059970032,0.45100003,0.94000006,0.55,1.01,111,23,2.493,1.4790001,2.0070002,-0.060000002,0.95192885,0,4,1,20
2530519621,1686676684399788,371029402,-763876611,30924,-4846,0.164,0.061428256,0.45100003,0.94100004,0.55,1.01,111,23,2.4180002,1.4660001,1.9230001,-0.010000001,0.93568826,0,4,1,20
2530739664,1686676684599788,371029428,-763876570,30918,-4853,0.16000001,0.062182937,0.45200002,0.943,0.55,1.01,111,13,2.3960001,1.4030001,1.9420002,-0.061000004,0.9405769,0,4,1,20
2530920488,1686676684799788,371029454,-763876527,30912,-4858,0.16000001,0.0607104,0.453,0.94600004,0.55,1.01,111,13,2.437,1.4670001,1.9460001,-0.13800001,0.932354,0,4,1,20
2531116489,1686676684999789,371029480,-763876485,30925,-4845,0.16000001,0.064464256,0.45400003,0.94900006,0.55,1.01,111,13,2.367,1.3840001,1.9200001,-0.113000005,0.93898463,0,4,1,20
2531320476,1686676685199788,371029505,-763876443,30923,-4847,0.162,0.064675964,0.455,0.952,0.55,1.01,111,13,2.3990002,1.383,1.96,-0.07700001,0.947838,0,4,1,20
2531520488,1686676685399788,371029530,-763876401,30914,-4856,0.165,0.06513673,0.45600003,0.95500004,0.55,1.01,111,13,2.4080002,1.3980001,1.9610001,-0.089,0.94970655,0,4,1,20
2531720576,1686676685599788,371029554,-763876357,30940,-4830,0.17300001,0.06598793,0.45700002,0.957,0.55,1.01,111,24,2.411,1.3770001,1.9790001,0.010000001,0.956281,0,4,1,20
2531920490,1686676685799788,371029578,-763876314,30946,-4824,0.17400001,0.06717283,0.45700002,0.95800006,0.55,1.01,111,24,2.301,1.312,1.8900001,0.054,0.96023315,0,4,1,20
2532120647,1686676685999789,371029601,-763876272,30978,-4793,0.16900001,0.06866177,0.45800003,0.96000004,0.55,1.01,111,24,2.295,1.3280001,1.8720001,-0.19800001,0.9571183,0,4,1,20
2532315344,1686676686199788,371029624,-763876229,31024,-4746,0.16100001,0.067513,0.45800003,0.95900005,0.55,1.01,111,24,2.301,1.2490001,1.932,-0.1,0.97759813,0,4,1,20
2532520570,1686676686399788,371029647,-763876186,31045,-4725,0.164,0.06570169,0.45800003,0.95800006,0.55,1.01,111,24,2.328,1.3410001,1.9030001,-0.072000004,0.966827,0,4,1,20
2532719699,1686676686599788,371029673,-763876142,31033,-4737,0.163,0.06476881,0.45800003,0.95800006,0.55,1.01,111,21,2.3790002,1.3770001,1.94,-0.116000004,0.95989156,0,4,1,20
2532919275,1686676686799788,371029698,-763876098,31080,-4690,0.16800001,0.06815301,0.45800003,0.95800006,0.55,1.01,111,21,2.368,1.3610001,1.937,-0.067,0.95907706,0,4,1,20
2533120518,1686676686999788,371029724,-763876054,31103,-4667,0.16700001,0.064957134,0.45800003,0.957,0.55,1.01,111,21,2.401,1.3840001,1.9620001,-0.023000002,0.9578103,0,4,1,20
2533320479,1686676687199787,371029750,-763876010,31115,-4655,0.16900001,0.06584935,0.45800003,0.957,0.55,1.01,111,21,2.378,1.401,1.922,0.015000001,0.9492662,0,4,1,20
2533523674,1686676687399787,371029777,-763875966,31096,-4674,0.17,0.067343526,0.45800003,0.95800006,0.55,1.01,111,21,2.43,1.4050001,1.9820001,-0.035,0.9516562,0,4,1,20
2533719684,1686676687599787,371029803,-763875920,31103,-4667,0.16600001,0.06480023,0.45900002,0.95800006,0.55,1.01,111,16,2.49,1.4180001,2.0470002,-0.080000006,0.95860773,0,4,1,20
2533924494,1686676687799787,371029829,-763875872,31114,-4656,0.16700001,0.062080137,0.45900002,0.95800006,0.55,1.01,111,16,2.713,1.4640001,2.2840002,-0.273,0.98094445,0,4,1,20
2534119167,1686676687999788,371029857,-763875812,31261,-4510,0.17300001,0.051813588,0.45900002,0.952,0.55,1.01,111,16,3.19,1.6570001,2.726,-0.836,1.0072185,0,4,1,20
2534324620,1686676688199787,371029892,-763875742,31457,-4313,0.18100001,0.043943547,0.45900002,0.94500005,0.55,1.01,111,16,3.9930003,2.1420002,3.3700001,-1.2620001,1.0057119,0,4,1,20
2534518519,1686676688399787,371029934,-763875658,31651,-4119,0.171,0.036499195,0.45900002,0.93700004,0.55,1.01,111,16,4.7650003,2.398,4.117,-1.24,1.0292337,0,4,1,20
2534741772,1686676688599787,371029979,-763875558,31851,-3919,0.17,0.032347407,0.45900002,0.934,0.55,1.01,111,22,5.366,2.592,4.6980004,-1.2620001,1.0520909,0,4,1,20
2534918480,1686676688799787,371030027,-763875448,32053,-3718,0.21200001,0.035837717,0.45800003,0.92800003,0.55,1.01,111,22,5.589,2.6390002,4.927,-1.0960001,1.0659055,0,4,1,20
2535117544,1686676688999788,371030075,-763875335,32276,-3494,0.26700002,0.043502502,0.45600003,0.92300004,0.55,1.01,111,22,5.5950003,2.571,4.9690003,-1.289,1.0784419,0,4,1,20
2535318496,1686676689199787,371030122,-763875220,32574,-3197,0.21300001,0.035135396,0.45400003,0.91800004,0.57,1.03,111,22,5.6590004,2.545,5.0540004,-1.2270001,1.0950532,0,4,1,19
2535517480,1686676689399787,371030167,-763875103,32856,-2914,0.17500001,0.029740931,0.45100003,0.91300005,0.57,1.03,111,22,5.591,2.357,5.0690002,-1.256,1.120863,0,4,1,19
2535738487,1686676689599787,371030210,-763874985,33138,-2632,0.155,0.025498735,0.45000002,0.90800005,0.57,1.03,111,20,5.7530003,2.306,5.2700005,-1.3640001,1.1452677,0,4,1,19
2535901363,1686676689799787,371030252,-763874862,33402,-2368,0.15300001,0.024475275,0.44700003,0.90300006,0.57,1.03,111,20,5.9700003,2.266,5.5230002,-1.368,1.167744,0,4,1,19
2536118481,1686676689999788,371030295,-763874732,33654,-2116,0.15200001,0.023442388,0.44500002,0.896,0.59,1.04,111,20,6.2640004,2.305,5.8240004,-1.363,1.184394,0,4,1,18
2536325188,1686676690199787,371030338,-763874596,33933,-1838,0.15100001,0.02264739,0.44300002,0.89000005,0.59,1.04,111,20,6.5290003,2.2940001,6.1130004,-1.3840001,1.20197,0,4,1,18
2536516877,1686676690399787,371030382,-763874456,34164,-1606,0.15100001,0.022098659,0.441,0.88500005,0.59,1.04,111,20,6.7030005,2.375,6.268,-1.373,1.2062898,0,4,1,18
2536701519,1686676690599787,371030426,-763874312,34427,-1343,0.15200001,0.021712244,0.44000003,0.88000005,0.59,1.04,111,23,6.7960005,2.3500001,6.3770003,-1.3340001,1.2137096,0,4,1,18
2536917484,1686676690799787,371030469,-763874167,34695,-1076,0.15300001,0.021510135,0.43800002,0.87600005,0.59,1.04,111,23,6.886,2.3530002,6.472,-1.3620001,1.2191455,0,4,1,18
2537120845,1686676690999788,371030513,-763874020,34971,-799,0.15400001,0.021706134,0.437,0.87200004,0.59,1.04,111,23,6.926,2.3270001,6.5230002,-1.4200001,1.2249588,0,4,1,18
2537322559,1686676691199787,371030556,-763873873,35240,-530,0.15400001,0.021546436,0.43600002,0.869,0.57,1.03,111,23,6.965,2.39,6.543,-1.4100001,1.2221367,0,4,1,19
2537521488,1686676691399787,371030601,-763873724,35526,-244,0.155,0.021531252,0.43500003,0.86600006,0.57,1.03,111,23,6.9940004,2.387,6.5740004,-1.445,1.222421,0,4,1,19
2537721573,1686676691599787,371030646,-763873575,35807,37,0.155,0.021299647,0.43400002,0.86200005,0.57,1.03,111,22,7.0540004,2.4380002,6.6200004,-1.5090001,1.2194253,0,4,1,19
2537901476,1686676691799786,371030691,-763873427,36063,293,0.15300001,0.021301044,0.432,0.85800004,0.55,1.01,111,22,7.0280004,2.4910002,6.571,-1.439,1.2123098,0,4,1,20
2538132714,1686676691999787,371030737,-763873279,36307,537,0.15200001,0.02122355,0.43100002,0.855,0.55,1.01,111,22,7.0410004,2.4910002,6.5860004,-1.4260001,1.2102878,0,4,1,20
