timestamp,states[0],states[1],states[2],states[3],states[4],states[5],states[6],states[7],states[8],states[9],states[10],states[11],states[12],states[13],states[14],states[15],states[16],states[17],states[18],states[19],states[20],states[21],states[22],states[23],n_states,vibe[0],vibe[1],vibe[2],covariances[0],covariances[1],covariances[2],covariances[3],covariances[4],covariances[5],covariances[6],covariances[7],covariances[8],covariances[9],covariances[10],covariances[11],covariances[12],covariances[13],covariances[14],covariances[15],covariances[16],covariances[17],covariances[18],covariances[19],covariances[20],covariances[21],covariances[22],covariances[23],control_mode_flags,pos_horiz_accuracy,pos_vert_accuracy,mag_test_ratio,vel_test_ratio,pos_test_ratio,hgt_test_ratio,tas_test_ratio,hagl_test_ratio,beta_test_ratio,time_slip,gps_check_fail_flags,filter_fault_flags,innovation_check_flags,solution_status_flags,nan_flags,health_flags,timeout_flags,pre_flt_fail
2467876178,0.99867475,-0.0013959657,0.0075224307,-0.050896123,-0.014009243,0.09057845,-0.007847395,27.09523,-83.220375,-5.67432,-0.00016670312,0.00021535243,-6.1159303e-06,-0.0003247845,0.00022290244,-0.00021940697,0.16166857,0.043318965,0.3703835,0.0,0.0,0.0,0.0,0.0,0.0,1.0004579e-09,1.00353145e-05,0.00045993066,9.3831494e-07,5.36862e-06,5.368668e-06,4.1532418e-05,0.010331662,0.010331253,0.009020449,0.03522446,0.035224233,0.0558667,1.0335134e-11,1.0333035e-11,1.8914606e-11,5.1618127e-08,5.1614933e-08,5.000007e-08,0.0,0.0,0.0,0.0,0.0,0.0,0.0,0.0,663,0.26542175,0.23636137,0.038286608,0.037100356,0.021883957,0.0072654383,0.0,0.0,0.0,-0.000278,0,0,0,831,0,0,0,0
2468080137,0.9986738,-0.0013936987,0.007448088,-0.05092313,-0.010984887,0.09327662,-0.0093044685,27.0945,-83.198875,-5.676334,-0.00016668861,0.00021535651,-6.097596e-06,-0.0003247842,0.00022290507,-0.00021878272,0.16166857,0.043318965,0.3703835,0.0,0.0,0.0,0.0,0.0,0.0,4.9744115e-09,4.095025e-05,0.00085466745,9.3833603e-07,5.378421e-06,5.3784797e-06,4.1557352e-05,0.010404774,0.010404346,0.008984569,0.035522435,0.03552219,0.055446897,1.0340832e-11,1.0338728e-11,1.8918572e-11,5.1619065e-08,5.161587e-08,5e-08,0.0,0.0,0.0,0.0,0.0,0.0,0.0,0.0,663,0.266542,0.23547165,0.04652503,0.033771213,0.021986218,0.011440261,0.0,0.0,0.0,-0.000318,0,0,0,831,0,0,0,0
2468284464,0.99866456,-0.0016970902,0.007318334,-0.05111443,-0.010737221,0.10196312,-0.0065445476,27.096027,-83.18193,-5.6791935,-0.00016665204,0.00021537293,-6.0853067e-06,-0.00032478618,0.00022290632,-0.00021877393,0.16166857,0.043318965,0.3703835,0.0,0.0,0.0,0.0,0.0,0.0,2.0647029e-08,0.00015833657,0.0032030598,9.390635e-07,5.3777107e-06,5.3778745e-06,4.1559775e-05,0.010399456,0.01039893,0.008993058,0.035514016,0.03551375,0.055540185,1.0339787e-11,1.0337679e-11,1.8918438e-11,5.1619967e-08,5.1616773e-08,5.0000036e-08,0.0,0.0,0.0,0.0,0.0,0.0,0.0,0.0,663,0.26651037,0.23566966,0.09743883,0.04878195,0.016890042,0.0026434415,0.0,0.0,0.0,9e-06,0,0,0,831,0,0,0,0
2468484373,0.9987061,-0.0033996212,0.0072551663,-0.050219648,-0.016833978,0.091272965,-0.005334956,27.099413,-83.16257,-5.665529,-0.00016662195,0.00021539004,-6.066759e-06,-0.00032479395,0.00022290119,-0.00022378466,0.16166857,0.043318965,0.3703835,0.0,0.0,0.0,0.0,0.0,0.0,1.7884195e-08,0.00013303563,0.0028854592,9.3524886e-07,5.3770505e-06,5.377696e-06,4.14904e-05,0.01039819,0.0103977425,0.009001035,0.03550644,0.035506163,0.055629943,1.0338819e-11,1.0336711e-11,1.890402e-11,5.1620866e-08,5.1617672e-08,5.0000036e-08,0.0,0.0,0.0,0.0,0.0,0.0,0.0,0.0,663,0.2664819,0.23586,0.019117126,0.04668805,0.020362148,0.0040173954,0.0,0.0,0.0,-8.3e-05,0,0,0,831,0,0,0,0
2468688059,0.9986734,-0.00036446488,0.007491471,-0.050944142,-0.011049461,0.09997829,-0.007891373,27.105509,-83.14094,-5.6707287,-0.00016660921,0.00021541161,-6.060967e-06,-0.0003247893,0.00022290295,-0.00022218352,0.16166857,0.043318965,0.3703835,0.0,0.0,0.0,0.0,0.0,0.0,1.7829537e-08,0.00012130902,0.0024839041,9.379093e-07,5.3835047e-06,5.383245e-06,4.1514104e-05,0.01044705,0.010446532,0.009036782,0.035733998,0.035733715,0.055981934,1.0341985e-11,1.0339881e-11,1.8908416e-11,5.1621797e-08,5.1618603e-08,5.000007e-08,0.0,0.0,0.0,0.0,0.0,0.0,0.0,0.0,663,0.26733446,0.23660502,0.07569025,0.034938972,0.023368375,0.02452045,0.0,0.0,0.0,-0.000399,0,0,0,831,0,0,0,0
2468888346,0.9986349,-0.0035914483,0.0073942756,-0.05158387,0.016068017,0.099261366,-0.0076172957,27.112728,-83.12004,-5.6564674,-0.00016658948,0.000215433,-6.0578877e-06,-0.00032479953,0.00022289656,-0.00022729956,0.16166857,0.043318965,0.3703835,0.0,0.0,0.0,0.0,0.0,0.0,6.4207916e-07,0.0004442231,0.010209597,9.4062256e-07,5.377863e-06,5.3785766e-06,4.143863e-05,0.0104141245,0.010413674,0.00897076,0.035626,0.035625704,0.055295523,1.0337832e-11,1.0335726e-11,1.8894143e-11,5.1622695e-08,5.16195e-08,5e-08,0.0,0.0,0.0,0.0,0.0,0.0,0.0,0.0,663,0.26693016,0.23515,0.034079514,0.038669467,0.021098742,0.01622692,0.0,0.0,0.0,-0.000113,0,0,0,831,0,0,0,0
2469092532,0.9968742,-0.0514775,-0.032555774,-0.050318193,0.048851676,0.029545322,-0.090233445,27.1182,-83.100426,-5.662116,-0.00016655885,0.00021543275,-6.040995e-06,-0.00032479156,0.00022290472,-0.00022433262,0.16166857,0.043318965,0.3703835,0.0,0.0,0.0,0.0,0.0,0.0,1.0547094e-06,0.00092174753,0.015581164,9.638766e-07,5.3985473e-06,5.465036e-06,4.1401523e-05,0.010462768,0.0104624005,0.0089817,0.035631005,0.035630703,0.055406626,1.0337784e-11,1.0335685e-11,1.8909234e-11,5.162359e-08,5.162039e-08,5.0000036e-08,0.0,0.0,0.0,0.0,0.0,0.0,0.0,0.0,663,0.26694888,0.23538612,0.039454177,0.046569016,0.021318942,0.00029738274,0.0,0.0,0.0,5.2e-05,0,0,0,831,0,0,0,0
2469292577,0.9963463,-0.07016385,-0.021740887,-0.04357158,0.22451949,-0.29290685,-0.7117826,27.166327,-83.13579,-5.8561993,-0.00016660066,0.0002154295,-6.116629e-06,-0.0003247275,0.00022281849,-0.00019660097,0.16166857,0.043318965,0.3703835,0.0,0.0,0.0,0.0,0.0,0.0,1.171183e-06,0.001032874,0.017131336,9.457379e-07,5.3615117e-06,5.54322e-06,4.1289495e-05,0.010809224,0.010795475,0.008990297,0.035668228,0.03566802,0.055508558,1.0335639e-11,1.03333895e-11,1.8893918e-11,5.162419e-08,5.1620816e-08,5.0000036e-08,0.0,0.0,0.0,0.0,0.0,0.0,0.0,0.0,663,0.26708847,0.23560254,0.0022665963,0.100399435,0.022679327,0.09886313,0.0,0.0,0.0,0.000121,0,0,0,831,0,0,0,0
2469492463,0.99823,-0.041815568,0.0116462475,-0.040653717,0.27462885,-0.5379385,-0.95527714,27.219206,-83.207306,-6.144549,-0.00016667783,0.00021539787,-6.152396e-06,-0.0003249087,0.00022305158,-0.00016680436,0.16166857,0.043318965,0.3703835,0.0,0.0,0.0,0.0,0.0,0.0,1.2691579e-06,0.0012102526,0.019595303,9.113398e-07,5.360478e-06,5.4244256e-06,4.1498013e-05,0.010940757,0.010895393,0.009000256,0.035731707,0.035730805,0.05560482,1.0331275e-11,1.0328785e-11,1.8907159e-11,5.162394e-08,5.1620514e-08,5.0000036e-08,0.0,0.0,0.0,0.0,0.0,0.0,0.0,0.0,663,0.26732475,0.23580675,0.016616365,0.08814446,0.023565974,0.15437491,0.0,0.0,0.0,7e-06,0,0,0,831,0,0,0,0
2469696419,0.99856484,0.0092590535,0.0345291,-0.039878864,0.2196968,-0.6060574,-1.0060602,27.279963,-83.31351,-6.3767924,-0.00016675986,0.00021541337,-6.1580645e-06,-0.00032490422,0.00022331908,-0.00016059774,0.16166857,0.043318965,0.3703835,0.0,0.0,0.0,0.0,0.0,0.0,1.1157639e-06,0.0011694838,0.018615391,8.9782225e-07,5.4099773e-06,5.3666236e-06,4.1529216e-05,0.01099335,0.010935276,0.00896798,0.036033534,0.03603006,0.055209756,1.03307606e-11,1.0328004e-11,1.8909102e-11,5.1623573e-08,5.162009e-08,5e-08,0.0,0.0,0.0,0.0,0.0,0.0,0.0,0.0,663,0.26844662,0.23496756,0.01517872,0.04339677,0.029276157,0.04233175,0.0,0.0,0.0,-3.7e-05,0,0,0,831,0,0,0,0
2469896391,0.99697274,0.042195775,0.051936142,-0.03959089,0.09333743,-0.49751705,-0.9576022,27.328775,-83.42329,-6.5637565,-0.00016673503,0.00021550836,-6.152451e-06,-0.00032452148,0.00022313587,-0.00016282858,0.16166857,0.043318965,0.3703835,0.0,0.0,0.0,0.0,0.0,0.0,7.9554474e-07,0.0012227168,0.019795772,9.052368e-07,5.4510388e-06,5.4223706e-06,4.132096e-05,0.010902911,0.010867541,0.008976245,0.036081932,0.036075562,0.055332314,1.032637e-11,1.0323457e-11,1.8893154e-11,5.1623115e-08,5.161973e-08,5.0000036e-08,0.0,0.0,0.0,0.0,0.0,0.0,0.0,0.0,663,0.26862147,0.23522821,0.028509669,0.054897513,0.02849182,0.006930788,0.0,0.0,0.0,-6.5e-05,0,0,0,831,0,0,0,0
2470100394,0.99738824,0.04144423,0.043373898,-0.040223517,-0.06801042,-0.29741177,-0.91426855,27.34343,-83.50301,-6.7434006,-0.0001667013,0.00021556637,-6.1169094e-06,-0.0003243656,0.00022295382,-0.00016439224,0.16166857,0.043318965,0.3703835,0.0,0.0,0.0,0.0,0.0,0.0,5.856413e-07,0.0012242369,0.0196585,9.0484207e-07,5.4085413e-06,5.412762e-06,4.1349176e-05,0.010815058,0.010810904,0.008985954,0.036113035,0.03610521,0.05546995,1.0322501e-11,1.0319584e-11,1.8892898e-11,5.1622713e-08,5.1619534e-08,5.000007e-08,0.0,0.0,0.0,0.0,0.0,0.0,0.0,0.0,663,0.2687345,0.23552059,0.017851647,0.056186102,0.026880192,0.07364754,0.0,0.0,0.0,-8.6e-05,0,0,0,831,0,0,0,0
2470304364,0.99807507,0.034314733,0.031747054,-0.040754117,-0.20593794,-0.107619196,-0.8878345,27.324686,-83.54079,-6.9068055,-0.00016670286,0.00021559573,-6.122065e-06,-0.00032427348,0.00022288425,-0.00017236845,0.16166857,0.043318965,0.3703835,0.0,0.0,0.0,0.0,0.0,0.0,4.584536e-07,0.0012665556,0.019853834,9.0322175e-07,5.37271e-06,5.390191e-06,4.1425003e-05,0.01081239,0.010826744,0.008955563,0.036372628,0.036365606,0.05511009,1.0323247e-11,1.0320472e-11,1.8897217e-11,5.162252e-08,5.16195e-08,5e-08,0.0,0.0,0.0,0.0,0.0,0.0,0.0,0.0,663,0.26970026,0.23475538,0.029519713,0.029332686,0.029434418,0.024261206,0.0,0.0,0.0,-9.2e-05,0,0,0,831,0,0,0,0
2470504453,0.9986116,0.027503671,0.019040313,-0.0406939,-0.2891991,0.026026066,-0.8510629,27.275805,-83.551094,-7.055085,-0.00016665131,0.0002155671,-6.0681427e-06,-0.00032428993,0.00022254023,-0.00018215859,0.16166857,0.043318965,0.3703835,0.0,0.0,0.0,0.0,0.0,0.0,4.42643e-07,0.0012907034,0.019767255,9.0093425e-07,5.3396966e-06,5.3643557e-06,4.13927e-05,0.010764959,0.010783395,0.008970054,0.03637774,0.03637326,0.055246748,1.0320324e-11,1.0317777e-11,1.888266e-11,5.1622546e-08,5.1619402e-08,5.0000036e-08,0.0,0.0,0.0,0.0,0.0,0.0,0.0,0.0,663,0.26972392,0.23504627,0.05113899,0.071881466,0.026208028,0.021743095,0.0,0.0,0.0,-3e-06,0,0,0,831,0,0,0,0
2470708183,0.99906504,0.016030768,0.0052446355,-0.03980794,-0.3232922,0.12644024,-0.83569413,27.208794,-83.546936,-7.196599,-0.00016653846,0.00021551627,-6.052287e-06,-0.00032426295,0.000222099,-0.00019029753,0.16166857,0.043318965,0.3703835,0.0,0.0,0.0,0.0,0.0,0.0,4.7137527e-07,0.0014725379,0.022610847,8.9796976e-07,5.3200497e-06,5.333914e-06,4.1354782e-05,0.010735197,0.0107472455,0.00898335,0.0363766,0.0363754,0.055372737,1.0317956e-11,1.0315701e-11,1.8868192e-11,5.1622663e-08,5.1619494e-08,5.0000036e-08,0.0,0.0,0.0,0.0,0.0,0.0,0.0,0.0,663,0.26972577,0.23531413,0.009643552,0.099471994,0.020659624,0.010464129,0.0,0.0,0.0,-0.000289,0,0,0,831,0,0,0,0
2470912475,0.99919313,0.005938624,-0.0061486172,-0.03924398,-0.3223825,0.19378008,-0.8526001,27.139563,-83.52352,-7.348456,-0.00016645942,0.00021549975,-6.0524144e-06,-0.0003241819,0.00022184121,-0.00019714267,0.16166857,0.043318965,0.3703835,0.0,0.0,0.0,0.0,0.0,0.0,4.377133e-07,0.0013644112,0.021129612,8.984075e-07,5.3202434e-06,5.320378e-06,4.131315e-05,0.0107751945,0.010777338,0.008955772,0.03661347,0.036615275,0.055016123,1.0320145e-11,1.0318187e-11,1.8858e-11,5.1622866e-08,5.161971e-08,5e-08,0.0,0.0,0.0,0.0,0.0,0.0,0.0,0.0,663,0.2706081,0.23455516,0.0382576,0.06484192,0.01228254,0.0139226485,0.0,0.0,0.0,1.9e-05,0,0,0,831,0,0,0,0
2471116455,0.99913293,-0.0027243728,-0.012249354,-0.039699193,-0.27703536,0.19710185,-0.842649,27.074158,-83.50014,-7.513597,-0.00016635287,0.00021545759,-6.0217167e-06,-0.00032408605,0.00022154288,-0.0001964427,0.16166857,0.043318965,0.3703835,0.0,0.0,0.0,0.0,0.0,0.0,4.2602136e-07,0.0013225726,0.0211434,9.0208454e-07,5.3184167e-06,5.309719e-06,4.1387808e-05,0.010739262,0.010733534,0.008972027,0.03660528,0.03660875,0.05516867,1.03187485e-11,1.031705e-11,1.8872827e-11,5.1623086e-08,5.1619956e-08,5.0000036e-08,0.0,0.0,0.0,0.0,0.0,0.0,0.0,0.0,663,0.2705809,0.23488012,0.00058600307,0.07813903,0.011185651,0.00047165944,0.0,0.0,0.0,-1.4e-05,0,0,0,831,0,0,0,0
2471316070,0.9990158,-0.0086155245,-0.014773323,-0.040926818,-0.21360166,0.1818999,-0.8417467,27.02213,-83.47711,-7.6820884,-0.00016626126,0.00021543932,-5.9731346e-06,-0.0003239327,0.00022133012,-0.00019453038,0.16166857,0.043318965,0.3703835,0.0,0.0,0.0,0.0,0.0,0.0,3.5166417e-07,0.0012289756,0.020090992,9.0711467e-07,5.3156614e-06,5.305288e-06,4.1305215e-05,0.010707402,0.010697099,0.008985006,0.036594216,0.03659801,0.055305526,1.0317823e-11,1.031636e-11,1.8858784e-11,5.1623346e-08,5.162026e-08,5.0000036e-08,0.0,0.0,0.0,0.0,0.0,0.0,0.0,0.0,663,0.27054062,0.23517127,0.07375402,0.059869718,0.01785692,0.007840398,0.0,0.0,0.0,-0.000386,0,0,0,831,0,0,0,0
2471520379,0.99894065,-0.009641724,-0.014462864,-0.042609323,-0.15570804,0.15453678,-0.8579481,26.979858,-83.457504,-7.843321,-0.00016617218,0.00021541526,-5.9591307e-06,-0.0003238224,0.00022111085,-0.00019954139,0.16166857,0.043318965,0.3703835,0.0,0.0,0.0,0.0,0.0,0.0,3.436912e-07,0.001245538,0.020301746,9.126593e-07,5.317674e-06,5.308558e-06,4.132324e-05,0.010741174,0.010730325,0.008957266,0.036824506,0.036827635,0.054963086,1.03213835e-11,1.0320109e-11,1.8863485e-11,5.1623676e-08,5.162065e-08,5e-08,0.0,0.0,0.0,0.0,0.0,0.0,0.0,0.0,663,0.27138928,0.23444207,0.025211608,0.05641859,0.019081552,0.034219466,0.0,0.0,0.0,-8.3e-05,0,0,0,831,0,0,0,0
2471724142,0.99887156,-0.010250011,-0.013735496,-0.044294424,-0.09499387,0.114524536,-0.8666073,26.956003,-83.44412,-8.00774,-0.00016610358,0.00021542708,-5.952437e-06,-0.00032368733,0.00022100395,-0.00020138858,0.16166857,0.043318965,0.3703835,0.0,0.0,0.0,0.0,0.0,0.0,3.19404e-07,0.0011964601,0.0201554,9.182366e-07,5.3133867e-06,5.3060753e-06,4.1320844e-05,0.010718519,0.010710106,0.00897005,0.0368101,0.03681202,0.055101395,1.0321178e-11,1.03200564e-11,1.8864153e-11,5.1624006e-08,5.1621043e-08,5e-08,0.0,0.0,0.0,0.0,0.0,0.0,0.0,0.0,663,0.27133396,0.23473686,0.0141304955,0.03917392,0.021766277,0.017251305,0.0,0.0,0.0,-0.000316,0,0,0,831,0,0,0,0
2471924475,0.9987743,-0.009845679,-0.014239193,-0.046372585,-0.037833273,0.09313676,-0.86953884,26.946018,-83.431046,-8.173888,-0.00016607916,0.00021544003,-5.9551844e-06,-0.0003236492,0.00022096185,-0.00020401135,0.16166857,0.043318965,0.3703835,0.0,0.0,0.0,0.0,0.0,0.0,2.7622497e-07,0.0011198341,0.01865754,9.2581894e-07,5.3128315e-06,5.3050294e-06,4.131752e-05,0.010708203,0.010702152,0.0089849355,0.036829796,0.03683038,0.05525067,1.0322348e-11,1.0321345e-11,1.8865109e-11,5.1624387e-08,5.1621495e-08,5.0000036e-08,0.0,0.0,0.0,0.0,0.0,0.0,0.0,0.0,663,0.2714041,0.23505461,0.0039963867,0.012841176,0.022316573,0.041795414,0.0,0.0,0.0,1.9e-05,0,0,0,831,0,0,0,0
2472124186,0.9987154,-0.00898637,-0.01223505,-0.04834401,0.0073623373,0.07188304,-0.8791381,26.931932,-83.42314,-8.3478155,-0.00016604796,0.0002153536,-5.9083673e-06,-0.00032364472,0.0002207669,-0.00020381411,0.16166857,0.043318965,0.3703835,0.0,0.0,0.0,0.0,0.0,0.0,2.6163394e-07,0.001091639,0.018436098,9.320423e-07,5.308473e-06,5.3032027e-06,4.131772e-05,0.010689573,0.010686699,0.009001004,0.03680932,0.036808733,0.05541155,1.0322478e-11,1.0321558e-11,1.8865956e-11,5.1624806e-08,5.1621996e-08,5.000007e-08,0.0,0.0,0.0,0.0,0.0,0.0,0.0,0.0,663,0.27132648,0.23539658,0.021055918,0.08012889,0.023584172,0.00046787265,0.0,0.0,0.0,-0.000281,0,0,0,831,0,0,0,0
2472325990,0.99863964,-0.00839378,-0.010698316,-0.050338313,0.05205696,0.043583695,-0.8693326,26.92208,-83.42352,-8.515069,-0.00016598757,0.00021524384,-5.841499e-06,-0.0003236074,0.00022052955,-0.00020733103,0.16166857,0.043318965,0.3703835,0.0,0.0,0.0,0.0,0.0,0.0,2.730634e-07,0.0011642379,0.018864544,9.3893544e-07,5.3119006e-06,5.3084605e-06,4.1414045e-05,0.010716692,0.010717908,0.008975962,0.03703214,0.03703067,0.055092312,1.0326966e-11,1.03260985e-11,1.8885036e-11,5.16253e-08,5.162259e-08,5.0000036e-08,0.0,0.0,0.0,0.0,0.0,0.0,0.0,0.0,663,0.27214482,0.23471752,0.0064463546,0.09513371,0.022684695,0.012957689,0.0,0.0,0.0,-7.2e-05,0,0,0,831,0,0,0,0
2472526108,0.9985957,-0.006677523,-0.00724818,-0.052054264,0.08657984,0.019434199,-0.86581814,26.926193,-83.431725,-8.672776,-0.00016592002,0.00021519122,-5.8056553e-06,-0.00032358093,0.0002204018,-0.00021271601,0.16166857,0.043318965,0.3703835,0.0,0.0,0.0,0.0,0.0,0.0,2.7571144e-07,0.0011703501,0.018825548,9.4433443e-07,5.3070603e-06,5.3064623e-06,4.1413034e-05,0.010683425,0.010687894,0.00899197,0.036938384,0.036936596,0.055198453,1.0325961e-11,1.0325124e-11,1.8883742e-11,5.1625786e-08,5.1623193e-08,5.0000075e-08,0.0,0.0,0.0,0.0,0.0,0.0,0.0,0.0,663,0.27179953,0.23494351,0.019841917,0.042418763,0.025162753,0.023887154,0.0,0.0,0.0,4.3e-05,0,0,0,831,0,0,0,0
2472725972,0.9985749,-0.0049236915,-0.00342922,-0.053029723,0.12074352,0.011170376,-0.8688459,26.948217,-83.43437,-8.819048,-0.0001659173,0.00021520906,-5.8093774e-06,-0.0003236391,0.00022037186,-0.0002205953,0.16166857,0.043318965,0.3703835,0.0,0.0,0.0,0.0,0.0,0.0,3.1792376e-07,0.0014639723,0.021770403,9.470303e-07,5.305732e-06,5.3072886e-06,4.1338895e-05,0.010678394,0.010685146,0.008941725,0.036928568,0.036926884,0.054644004,1.0327074e-11,1.0326245e-11,1.8869583e-11,5.162636e-08,5.162388e-08,5e-08,0.0,0.0,0.0,0.0,0.0,0.0,0.0,0.0,663,0.2717636,0.23376057,0.020374613,0.02140233,0.021737803,0.014867791,0.0,0.0,0.0,-8.4e-05,0,0,0,831,0,0,0,0
2472926220,0.99855447,-0.0031372814,-0.0015085366,-0.053637687,0.12764338,0.002909627,-0.87076455,26.963728,-83.44136,-8.9825,-0.00016588527,0.00021515602,-5.7083407e-06,-0.0003236406,0.0002203062,-0.00022469481,0.16166857,0.043318965,0.3703835,0.0,0.0,0.0,0.0,0.0,0.0,3.0684106e-07,0.0014201549,0.020987494,9.47826e-07,5.306334e-06,5.3082267e-06,4.126726e-05,0.010672362,0.010679602,0.00896359,0.036920022,0.036918737,0.05485333,1.03283215e-11,1.03274845e-11,1.885589e-11,5.1626973e-08,5.1624596e-08,5.000004e-08,0.0,0.0,0.0,0.0,0.0,0.0,0.0,0.0,663,0.27173287,0.23420788,0.08309121,0.042219933,0.020723846,0.0053426567,0.0,0.0,0.0,0.000124,0,0,0,831,0,0,0,0
2473130077,0.99854034,-0.0030889804,0.0005791454,-0.053918656,0.12900764,0.004638775,-0.87896776,26.981451,-83.450584,-9.152728,-0.00016584358,0.000215111,-5.6340123e-06,-0.0003236015,0.00022025844,-0.00022607022,0.16166857,0.043318965,0.3703835,0.0,0.0,0.0,0.0,0.0,0.0,3.640995e-07,0.0015710085,0.021961238,9.4769337e-07,5.3074127e-06,5.3097997e-06,4.119716e-05,0.010669711,0.010676562,0.008981175,0.036909815,0.03690913,0.055039275,1.03294335e-11,1.0328577e-11,1.8842464e-11,5.162761e-08,5.1625353e-08,5.000004e-08,0.0,0.0,0.0,0.0,0.0,0.0,0.0,0.0,663,0.27169642,0.23460451,0.015863445,0.034554034,0.021417506,0.019816464,0.0,0.0,0.0,2.2e-05,0,0,0,831,0,0,0,0
2473333995,0.9985085,-0.0041060527,0.0019083063,-0.054408144,0.119638674,0.0007791724,-0.8662022,26.987988,-83.45455,-9.334643,-0.00016583124,0.0002149922,-5.5666665e-06,-0.00032352578,0.00022016944,-0.00022597724,0.16166857,0.043318965,0.3703835,0.0,0.0,0.0,0.0,0.0,0.0,4.0870324e-07,0.0017634907,0.023554668,9.4909285e-07,5.315398e-06,5.3181666e-06,4.1223848e-05,0.010707277,0.0107136,0.008957006,0.03714433,0.037144337,0.054746214,1.0334602e-11,1.0333709e-11,1.8847816e-11,5.1628287e-08,5.162617e-08,5e-08,0.0,0.0,0.0,0.0,0.0,0.0,0.0,0.0,663,0.27255946,0.23397909,0.02431338,0.089581415,0.017900297,0.017556677,0.0,0.0,0.0,-6.1e-05,0,0,0,831,0,0,0,0
2473534035,0.9984689,-0.004175703,0.00053569843,-0.055155788,0.12233147,-0.0074628587,-0.87769765,27.001717,-83.45906,-9.504891,-0.00016582481,0.00021494486,-5.504337e-06,-0.00032352647,0.00022012624,-0.0002280693,0.16166857,0.043318965,0.3703835,0.0,0.0,0.0,0.0,0.0,0.0,3.2686458e-07,0.0015664841,0.022207694,9.520309e-07,5.3170124e-06,5.3196673e-06,4.1227824e-05,0.010709366,0.010715545,0.008973919,0.037135594,0.037136283,0.054934252,1.0335726e-11,1.03347894e-11,1.8848955e-11,5.162896e-08,5.1626973e-08,5e-08,0.0,0.0,0.0,0.0,0.0,0.0,0.0,0.0,663,0.27252868,0.23438057,0.05235289,0.026047928,0.016329326,0.038195528,0.0,0.0,0.0,-2.9e-05,0,0,0,831,0,0,0,0
2473738002,0.9984244,-0.0034799054,-0.0016208786,-0.05598186,0.11814086,-0.0021346705,-0.88126874,27.017086,-83.463394,-9.675976,-0.0001658233,0.0002149029,-5.436724e-06,-0.00032355476,0.00022011058,-0.00023137993,0.16166857,0.043318965,0.3703835,0.0,0.0,0.0,0.0,0.0,0.0,3.4013866e-07,0.0015171245,0.022364933,9.551868e-07,5.3191e-06,5.3210733e-06,4.1156618e-05,0.010708988,0.010714222,0.008989617,0.037127327,0.037128635,0.05511566,1.0336795e-11,1.0335807e-11,1.8835877e-11,5.162961e-08,5.1627765e-08,5.0000036e-08,0.0,0.0,0.0,0.0,0.0,0.0,0.0,0.0,663,0.27249947,0.23476724,0.070119664,0.048034117,0.014528126,0.034447283,0.0,0.0,0.0,-0.00011,0,0,0,831,0,0,0,0
2473938029,0.99838215,-0.002878328,-0.0034254275,-0.056684542,0.13349065,-0.0040449956,-0.8849436,27.039238,-83.460815,-9.868054,-0.00016586717,0.0002148885,-5.3492895e-06,-0.00032344228,0.0002200321,-0.00022577238,0.16166857,0.043318965,0.3703835,0.0,0.0,0.0,0.0,0.0,0.0,3.2325275e-07,0.0014208368,0.020275079,9.575984e-07,5.321659e-06,5.3228755e-06,4.108717e-05,0.010705277,0.010710648,0.009005213,0.037120566,0.037122454,0.055298857,1.0337852e-11,1.0336814e-11,1.8823155e-11,5.163024e-08,5.162856e-08,5.0000036e-08,0.0,0.0,0.0,0.0,0.0,0.0,0.0,0.0,663,0.27247572,0.23515709,0.047402598,0.04680815,0.010163179,0.019241119,0.0,0.0,0.0,-9.7e-05,0,0,0,831,0,0,0,0
2474141736,0.99835914,-0.00045198493,-0.0033284316,-0.057165194,0.1488808,-0.009123909,-0.90127254,27.050854,-83.47364,-10.054752,-0.00016579939,0.00021478064,-5.2899068e-06,-0.0003233353,0.00022014155,-0.00022555096,0.16166857,0.043318965,0.3703835,0.0,0.0,0.0,0.0,0.0,0.0,3.0835082e-07,0.0012744365,0.018746028,9.588723e-07,5.3309095e-06,5.3315525e-06,4.1041432e-05,0.010764305,0.010770166,0.008975353,0.03735964,0.037362073,0.054974534,1.0342884e-11,1.03417795e-11,1.8814832e-11,5.1630884e-08,5.162937e-08,5e-08,0.0,0.0,0.0,0.0,0.0,0.0,0.0,0.0,663,0.2733527,0.2344665,0.05293296,0.08831219,0.013872123,0.012361526,0.0,0.0,0.0,-0.000319,0,0,0,831,0,0,0,0
2474345945,0.99837685,-0.0010725488,0.0010944303,-0.05693353,0.16967387,-0.004427652,-0.89055455,27.082247,-83.474915,-10.224082,-0.00016581718,0.00021478783,-5.279342e-06,-0.00032335005,0.00022009028,-0.00022799103,0.16166857,0.043318965,0.3703835,0.0,0.0,0.0,0.0,0.0,0.0,3.1351627e-07,0.0011561771,0.01689491,9.569274e-07,5.334014e-06,5.3352423e-06,4.1051557e-05,0.010759109,0.010765068,0.008990359,0.037355773,0.037358653,0.055153914,1.0343835e-11,1.0342654e-11,1.8816943e-11,5.1631467e-08,5.163013e-08,5.0000036e-08,0.0,0.0,0.0,0.0,0.0,0.0,0.0,0.0,663,0.2733394,0.23484871,0.0049519166,0.026397113,0.012514011,0.00454082,0.0,0.0,0.0,-0.000111,0,0,0,831,0,0,0,0
2474546033,0.9983784,-0.0030011742,0.005646107,-0.056567024,0.15708944,0.0066588027,-0.8859649,27.113483,-83.47234,-10.403552,-0.00016584959,0.00021477553,-5.2111814e-06,-0.00032325732,0.00022003367,-0.00022682444,0.16166857,0.043318965,0.3703835,0.0,0.0,0.0,0.0,0.0,0.0,3.2217383e-07,0.0011883347,0.017552515,9.54314e-07,5.3387857e-06,5.339112e-06,4.1135147e-05,0.01075538,0.010759601,0.009001882,0.037349697,0.03735288,0.055310737,1.0344538e-11,1.0343272e-11,1.8832956e-11,5.1632018e-08,5.1630863e-08,5.0000036e-08,0.0,0.0,0.0,0.0,0.0,0.0,0.0,0.0,663,0.27331772,0.23518234,0.03871948,0.03932733,0.012124822,0.0052866586,0.0,0.0,0.0,-2.3e-05,0,0,0,831,0,0,0,0
2474746040,0.9983987,-0.0042960173,0.0076065105,-0.05589089,0.12893644,-0.0040016854,-0.87938136,27.122236,-83.48099,-10.569656,-0.00016579046,0.00021464528,-5.186722e-06,-0.0003231734,0.0002202456,-0.0002299227,0.16166857,0.043318965,0.3703835,0.0,0.0,0.0,0.0,0.0,0.0,2.8917674e-07,0.001169876,0.017573843,9.5109544e-07,5.3431077e-06,5.3426006e-06,4.114508e-05,0.010753588,0.010756417,0.009015087,0.03734478,0.037348017,0.055478726,1.0345215e-11,1.0343871e-11,1.8834706e-11,5.1632533e-08,5.163156e-08,5.000007e-08,0.0,0.0,0.0,0.0,0.0,0.0,0.0,0.0,663,0.27329984,0.23553923,0.03704801,0.10889817,0.01307401,0.046578888,0.0,0.0,0.0,-7e-05,0,0,0,831,0,0,0,0
2474950017,0.9984246,-0.0049902126,0.008193801,-0.055283893,0.10969773,-0.0019267576,-0.8784496,27.141642,-83.48341,-10.755287,-0.00016579393,0.0002146162,-5.1597026e-06,-0.00032308308,0.00022024452,-0.00022865793,0.16166857,0.043318965,0.3703835,0.0,0.0,0.0,0.0,0.0,0.0,2.586793e-07,0.0010993356,0.01701338,9.4839504e-07,5.3486274e-06,5.3477156e-06,4.1177387e-05,0.010771938,0.010773643,0.008982218,0.03748006,0.037483167,0.055141866,1.0346744e-11,1.0345333e-11,1.8840625e-11,5.1632984e-08,5.1632227e-08,5e-08,0.0,0.0,0.0,0.0,0.0,0.0,0.0,0.0,663,0.27379414,0.23482305,0.0050385324,0.017926648,0.012991429,0.024521746,0.0,0.0,0.0,-4.6e-05,0,0,0,831,0,0,0,0
2475154041,0.99847025,-0.0038184812,0.0070635355,-0.05470496,0.09491157,-0.005967513,-0.8802586,27.153667,-83.48306,-10.920027,-0.00016581923,0.00021456693,-5.1126804e-06,-0.00032298703,0.0002202525,-0.00023131592,0.16166857,0.043318965,0.3703835,0.0,0.0,0.0,0.0,0.0,0.0,2.5579317e-07,0.0010398999,0.016570766,9.4565894e-07,5.35241e-06,5.351344e-06,4.1190404e-05,0.010782355,0.010783495,0.008994447,0.037489463,0.037492253,0.05530055,1.034807e-11,1.0346611e-11,1.8842426e-11,5.1633386e-08,5.1632835e-08,5.0000036e-08,0.0,0.0,0.0,0.0,0.0,0.0,0.0,0.0,663,0.2738279,0.2351607,0.049259283,0.03655239,0.012104727,0.01924869,0.0,0.0,0.0,-4.1e-05,0,0,0,831,0,0,0,0
2475358028,0.9985148,-0.0026445747,0.004454966,-0.054236457,0.063383795,-0.0073376223,-0.88602126,27.152481,-83.48744,-11.093514,-0.00016580806,0.00021446434,-5.0361714e-06,-0.00032287632,0.0002204009,-0.0002342585,0.16166857,0.043318965,0.3703835,0.0,0.0,0.0,0.0,0.0,0.0,2.495183e-07,0.0011743209,0.016765838,9.434542e-07,5.3615026e-06,5.361019e-06,4.122446e-05,0.010846476,0.010847166,0.009033251,0.03774678,0.03774922,0.055712864,1.0353146e-11,1.03516605e-11,1.8847854e-11,5.1633787e-08,5.1633442e-08,5.000007e-08,0.0,0.0,0.0,0.0,0.0,0.0,0.0,0.0,663,0.27476537,0.23603572,0.047965378,0.075390354,0.014221249,0.018666467,0.0,0.0,0.0,-7.7e-05,0,0,0,831,0,0,0,0
2475558039,0.9985598,-0.0038587288,0.0017563336,-0.053482752,0.0705786,-0.007625013,-0.8820992,27.150831,-83.48602,-11.2447,-0.00016583722,0.00021437783,-5.0110993e-06,-0.00032279277,0.00022046985,-0.00024114567,0.16166857,0.043318965,0.3703835,0.0,0.0,0.0,0.0,0.0,0.0,2.4991607e-07,0.0010574759,0.014685852,9.408053e-07,5.364264e-06,5.364831e-06,4.1236814e-05,0.010855074,0.010855735,0.009044927,0.037756834,0.03775894,0.055864774,1.0353964e-11,1.0352462e-11,1.8849335e-11,5.1634117e-08,5.1633982e-08,5.0000107e-08,0.0,0.0,0.0,0.0,0.0,0.0,0.0,0.0,663,0.27480134,0.2363573,0.014357503,0.055009123,0.017885182,0.012740248,0.0,0.0,0.0,-8.1e-05,0,0,0,831,0,0,0,0
2475761988,0.9985846,-0.003973004,0.001202492,-0.05302326,0.08620986,-0.010341507,-0.89474666,27.162039,-83.49822,-11.393653,-0.00016579004,0.0002143812,-4.8993265e-06,-0.00032298308,0.00022053413,-0.00024739307,0.16166857,0.043318965,0.3703835,0.0,0.0,0.0,0.0,0.0,0.0,2.9604317e-07,0.0011998053,0.017436797,9.381187e-07,5.3680174e-06,5.3684307e-06,4.1248484e-05,0.010872206,0.010872839,0.009054037,0.037768204,0.03777003,0.05599845,1.0354548e-11,1.0353032e-11,1.8850966e-11,5.1634434e-08,5.16345e-08,5.0000107e-08,0.0,0.0,0.0,0.0,0.0,0.0,0.0,0.0,663,0.2748422,0.23663992,0.03607804,0.052494187,0.01757721,0.023462424,0.0,0.0,0.0,-0.000143,0,0,0,831,0,0,0,0
2475966013,0.99861676,-0.002653894,0.0020558548,-0.05247339,0.08697273,-0.020316536,-0.90373516,27.166634,-83.50885,-11.546559,-0.00016576053,0.00021431685,-4.797518e-06,-0.00032309815,0.00022069053,-0.00025740222,0.16166857,0.043318965,0.3703835,0.0,0.0,0.0,0.0,0.0,0.0,2.6196594e-07,0.0011701185,0.017652271,9.3472295e-07,5.3736526e-06,5.3730537e-06,4.1205996e-05,0.010906394,0.010906887,0.009015273,0.03792148,0.037923094,0.05560931,1.0355732e-11,1.0354204e-11,1.8842278e-11,5.1634753e-08,5.1635038e-08,5.0000036e-08,0.0,0.0,0.0,0.0,0.0,0.0,0.0,0.0,663,0.27539894,0.23581626,0.032120667,0.038929835,0.01855107,0.044536576,0.0,0.0,0.0,-4.3e-05,0,0,0,831,0,0,0,0
2476167613,0.99867785,-0.0001225294,0.0032969636,-0.05130079,0.0937811,-0.016037649,-0.90919936,27.165281,-83.5077,-11.711732,-0.00016580318,0.00021420923,-4.6892815e-06,-0.00032294786,0.00022078006,-0.00026235526,0.16166857,0.043318965,0.3703835,0.0,0.0,0.0,0.0,0.0,0.0,3.133858e-07,0.0012490723,0.019534845,9.2877104e-07,5.378716e-06,5.376804e-06,4.1145053e-05,0.010922125,0.010922592,0.0090236245,0.03794822,0.03794967,0.0557312,1.0356634e-11,1.0355089e-11,1.8829787e-11,5.163509e-08,5.163557e-08,5.000004e-08,0.0,0.0,0.0,0.0,0.0,0.0,0.0,0.0,663,0.2754957,0.23607457,0.010750164,0.0659941,0.023546897,0.0023539634,0.0,0.0,0.0,-4.2e-05,0,0,0,831,0,0,0,0
2476371346,0.99877363,0.0013182525,0.0049632755,-0.04924376,0.0886605,-0.007919976,-0.9333759,27.16711,-83.51671,-11.8885765,-0.00016576977,0.00021413894,-4.6820014e-06,-0.0003229554,0.00022092828,-0.00026588302,0.16166857,0.043318965,0.3703835,0.0,0.0,0.0,0.0,0.0,0.0,2.9619383e-07,0.0011619037,0.017922685,9.206147e-07,5.384849e-06,5.38176e-06,4.108816e-05,0.010956695,0.01095707,0.009034759,0.03802256,0.038023874,0.055899754,1.03607635e-11,1.0359213e-11,1.882126e-11,5.1635478e-08,5.1636153e-08,5.0000075e-08,0.0,0.0,0.0,0.0,0.0,0.0,0.0,0.0,663,0.27576518,0.23643129,0.045740407,0.037235647,0.027384404,0.0058811978,0.0,0.0,0.0,-0.000323,0,0,0,831,0,0,0,0
2476575615,0.99885356,0.0010279913,0.0066267103,-0.04739827,0.07870484,0.0062875543,-0.9588542,27.16611,-83.51009,-12.07809,-0.0001658401,0.00021406364,-4.5943507e-06,-0.0003228057,0.00022093498,-0.00026776647,0.16166857,0.043318965,0.3703835,0.0,0.0,0.0,0.0,0.0,0.0,2.8512343e-07,0.0011051972,0.017209273,9.130626e-07,5.2360892e-06,5.2316072e-06,4.105134e-05,0.009757041,0.009757239,0.0088579925,0.032491833,0.032492664,0.055005625,1.0262038e-11,1.0260462e-11,1.8813331e-11,5.1635546e-08,5.1636466e-08,5e-08,0.0,0.0,0.0,0.0,0.0,0.0,0.0,0.0,663,0.25492057,0.23453277,0.08560348,0.06957148,0.025880124,0.022934496,0.0,0.0,0.0,-4.1e-05,0,0,0,831,0,0,0,0
2476779728,0.9989376,0.00023548726,0.0071003367,-0.045532376,0.06942182,0.031955574,-0.9637403,27.179768,-83.50914,-12.243702,-0.00016582532,0.00021409149,-4.618032e-06,-0.00032295843,0.00022094956,-0.00027432505,0.16166857,0.043318965,0.3703835,0.0,0.0,0.0,0.0,0.0,0.0,2.6352197e-07,0.0011101062,0.017424673,9.070562e-07,5.238467e-06,5.2334603e-06,4.1143343e-05,0.009763119,0.00976327,0.0088661,0.03250415,0.032504868,0.055114895,1.0261566e-11,1.0260009e-11,1.8830016e-11,5.1636015e-08,5.1637105e-08,5e-08,0.0,0.0,0.0,0.0,0.0,0.0,0.0,0.0,663,0.25496864,0.23476562,0.012389435,0.04254637,0.021579012,0.034387488,0.0,0.0,0.0,5.1e-05,0,0,0,831,0,0,0,0
2476983688,0.9989899,0.0011322366,0.0075090304,-0.044291284,0.050117794,0.039139133,-0.97152907,27.168823,-83.50477,-12.445059,-0.00016580598,0.00021394624,-4.603565e-06,-0.00032283497,0.00022109594,-0.00027411882,0.16166857,0.043318965,0.3703835,0.0,0.0,0.0,0.0,0.0,0.0,2.8831207e-07,0.0012207453,0.018943284,9.027746e-07,5.246766e-06,5.241289e-06,4.1103456e-05,0.009814324,0.009814487,0.008835205,0.03272843,0.032729026,0.054749083,1.0265029e-11,1.0263506e-11,1.8821757e-11,5.1636555e-08,5.1637805e-08,5e-08,0.0,0.0,0.0,0.0,0.0,0.0,0.0,0.0,663,0.25584656,0.23398522,0.08741708,0.10028385,0.026600376,0.0011077577,0.0,0.0,0.0,3.2e-05,0,0,0,831,0,0,0,0
2477187618,0.9990287,-0.00020897957,0.007443206,-0.043431133,0.050139114,0.039609022,-0.995606,27.177189,-83.493576,-12.653694,-0.00016583427,0.00021396912,-4.597057e-06,-0.00032277012,0.00022104573,-0.0002683028,0.16166857,0.043318965,0.3703835,0.0,0.0,0.0,0.0,0.0,0.0,3.0839075e-07,0.0012671788,0.019991087,9.000072e-07,5.248071e-06,5.242686e-06,4.104183e-05,0.009821651,0.009821853,0.00884578,0.03273932,0.032739796,0.054869782,1.0264321e-11,1.0262851e-11,1.8809732e-11,5.163711e-08,5.163851e-08,5e-08,0.0,0.0,0.0,0.0,0.0,0.0,0.0,0.0,663,0.25588888,0.234243,0.041806556,0.067550525,0.020946283,0.045463588,0.0,0.0,0.0,-4.4e-05,0,0,0,831,0,0,0,0
2477387839,0.999024,-0.0026663344,0.006634431,-0.043589257,0.02064985,0.059815582,-1.0261569,27.166834,-83.47499,-12.84106,-0.00016588735,0.00021386243,-4.5394536e-06,-0.00032270956,0.00022107289,-0.00027146982,0.16166857,0.043318965,0.3703835,0.0,0.0,0.0,0.0,0.0,0.0,2.96812e-07,0.0012297524,0.020082215,9.006137e-07,5.2464684e-06,5.2424048e-06,4.112757e-05,0.009825263,0.009825733,0.008853936,0.032720324,0.032720704,0.05497644,1.0262393e-11,1.0260984e-11,1.8826198e-11,5.1637716e-08,5.163925e-08,5e-08,0.0,0.0,0.0,0.0,0.0,0.0,0.0,0.0,663,0.25581443,0.23447056,0.04697849,0.063210234,0.023732662,0.04886749,0.0,0.0,0.0,0.000183,0,0,0,831,0,0,0,0
2477587592,0.9990046,-0.0053024255,0.004359261,-0.04407512,0.03638821,0.04087119,-1.0311314,27.172722,-83.46341,-13.035853,-0.0001658948,0.00021389568,-4.478481e-06,-0.00032274786,0.00022108013,-0.0002721788,0.16166857,0.043318965,0.3703835,0.0,0.0,0.0,0.0,0.0,0.0,2.971467e-07,0.001252866,0.02039714,9.0241315e-07,5.245726e-06,5.2441374e-06,4.1136944e-05,0.009825243,0.009825559,0.008863078,0.03273237,0.032732666,0.055083327,1.0261626e-11,1.0260279e-11,1.8828127e-11,5.1638374e-08,5.1640015e-08,5e-08,0.0,0.0,0.0,0.0,0.0,0.0,0.0,0.0,663,0.25586134,0.23469837,0.07086132,0.06296788,0.018729392,0.010045163,0.0,0.0,0.0,-6.4e-05,0,0,0,831,0,0,0,0
2477791567,0.9989704,-0.0062404177,0.0027426034,-0.04485313,0.04010685,0.026805941,-1.0429806,27.179087,-83.455864,-13.256555,-0.00016589586,0.00021389518,-4.415102e-06,-0.00032273505,0.00022106762,-0.00027096266,0.16166857,0.043318965,0.3703835,0.0,0.0,0.0,0.0,0.0,0.0,2.733341e-07,0.0012242025,0.019534754,9.0488356e-07,5.4129932e-06,5.412558e-06,4.1092204e-05,0.01116199,0.011162278,0.009040282,0.03886352,0.038863868,0.055954814,1.03680875e-11,1.0366766e-11,1.8820081e-11,5.163922e-08,5.1640946e-08,5.0000036e-08,0.0,0.0,0.0,0.0,0.0,0.0,0.0,0.0,663,0.27879632,0.2365477,0.0016190008,0.06296788,0.018729392,0.010612611,0.0,0.0,0.0,-0.000101,0,0,0,831,0,0,0,0
2477995622,0.9989287,-0.0056526884,0.0040263603,-0.045753714,0.03300555,0.0070619597,-1.0652416,27.171648,-83.452126,-13.446126,-0.0001658718,0.00021383366,-4.3928317e-06,-0.00032274966,0.00022111762,-0.00027713398,0.16166857,0.043318965,0.3703835,0.0,0.0,0.0,0.0,0.0,0.0,2.716709e-07,0.0012749363,0.018994683,9.0755265e-07,5.2497185e-06,5.2483865e-06,4.1099713e-05,0.0098598525,0.009859986,0.008902462,0.032889117,0.032889336,0.055518318,1.0261734e-11,1.0260489e-11,1.8822315e-11,5.1639805e-08,5.1641642e-08,5.0000036e-08,0.0,0.0,0.0,0.0,0.0,0.0,0.0,0.0,663,0.2564731,0.23562326,0.048953917,0.025930459,0.0117988065,0.025226032,0.0,0.0,0.0,-3.4e-05,0,0,0,831,0,0,0,0
2478199379,0.9988886,-0.0043592337,0.0045113787,-0.046716068,0.04383815,-0.0043357685,-1.0615137,27.175732,-83.44319,-13.643404,-0.00016593073,0.00021380938,-4.3187233e-06,-0.00032281593,0.00022109848,-0.00028368516,0.16166857,0.043318965,0.3703835,0.0,0.0,0.0,0.0,0.0,0.0,3.011141e-07,0.0013350894,0.019045085,9.1021565e-07,5.2563173e-06,5.2540463e-06,4.112946e-05,0.009899382,0.009899054,0.00893675,0.03309285,0.033093035,0.055865955,1.026457e-11,1.0263358e-11,1.8828574e-11,5.1640594e-08,5.1642495e-08,5.000007e-08,0.0,0.0,0.0,0.0,0.0,0.0,0.0,0.0,663,0.25726616,0.2363598,0.020333812,0.045910727,0.008473747,0.051580418,0.0,0.0,0.0,-0.000277,0,0,0,831,0,0,0,0
2478399594,0.9988543,-0.0030080064,0.004925019,-0.047506947,0.045899957,-0.0120024355,-1.0702181,27.185474,-83.440025,-13.859721,-0.00016595476,0.00021382405,-4.298793e-06,-0.0003228084,0.00022109292,-0.00028330035,0.16166857,0.043318965,0.3703835,0.0,0.0,0.0,0.0,0.0,0.0,2.8210928e-07,0.0012013435,0.01754257,9.125981e-07,5.2582236e-06,5.255145e-06,4.10622e-05,0.009903599,0.009903094,0.008869894,0.033112865,0.033113018,0.055162434,1.02645635e-11,1.02633865e-11,1.8816348e-11,5.1641358e-08,5.1643323e-08,5e-08,0.0,0.0,0.0,0.0,0.0,0.0,0.0,0.0,663,0.25734392,0.23486684,0.02777627,0.020056896,0.009341681,0.024997113,0.0,0.0,0.0,-0.000111,0,0,0,831,0,0,0,0
2478599620,0.9988116,-0.0037965083,0.006757509,-0.048117463,0.04126268,-0.019381704,-1.1039413,27.19607,-83.445656,-14.069104,-0.00016592916,0.0002138391,-4.2663046e-06,-0.00032282108,0.00022111757,-0.0002855888,0.16166857,0.043318965,0.3703835,0.0,0.0,0.0,0.0,0.0,0.0,2.8855868e-07,0.0011498425,0.017278405,9.144061e-07,5.2605374e-06,5.256883e-06,4.1069503e-05,0.009920711,0.009920246,0.008878529,0.033130907,0.03313102,0.055250656,1.0264345e-11,1.0263198e-11,1.8818525e-11,5.164214e-08,5.164416e-08,5.0000033e-08,0.0,0.0,0.0,0.0,0.0,0.0,0.0,0.0,663,0.25741392,0.23505458,0.031653605,0.028672094,0.005345582,0.03845404,0.0,0.0,0.0,-3.6e-05,0,0,0,831,0,0,0,0
2478799362,0.99878335,-0.0030732406,0.007217108,-0.048686516,0.045781005,-0.027143583,-1.1132532,27.20427,-83.443016,-14.282535,-0.0001659807,0.00021383115,-4.202288e-06,-0.00032283552,0.00022109784,-0.00028947004,0.16166857,0.043318965,0.3703835,0.0,0.0,0.0,0.0,0.0,0.0,2.5636388e-07,0.001123018,0.017012604,9.159238e-07,5.256798e-06,5.25262e-06,4.107842e-05,0.009892325,0.009891543,0.008886167,0.033056192,0.03305626,0.055340208,1.0260719e-11,1.0259602e-11,1.8820664e-11,5.164296e-08,5.1645003e-08,5e-08,0.0,0.0,0.0,0.0,0.0,0.0,0.0,0.0,663,0.2571234,0.23524499,0.014555352,0.042445302,0.005150915,0.012908335,0.0,0.0,0.0,-0.000294,0,0,0,831,0,0,0,0
2479003363,0.99876976,-0.0014763818,0.006450859,-0.0491443,0.031988658,-0.022400258,-1.1192557,27.211851,-83.44078,-14.518032,-0.00016602779,0.0002138242,-4.1404805e-06,-0.00032281346,0.00022106916,-0.00028642177,0.16166857,0.043318965,0.3703835,0.0,0.0,0.0,0.0,0.0,0.0,2.9344685e-07,0.0011972622,0.01757247,9.1718647e-07,5.25799e-06,5.2537775e-06,4.1088566e-05,0.009894727,0.009894312,0.008895235,0.03308041,0.03308042,0.055429015,1.0261061e-11,1.0259976e-11,1.8822777e-11,5.1643788e-08,5.1645852e-08,5.0000036e-08,0.0,0.0,0.0,0.0,0.0,0.0,0.0,0.0,663,0.25721747,0.23543367,0.023610543,0.033115204,0.007224925,0.031182664,0.0,0.0,0.0,-0.000293,0,0,0,831,0,0,0,0
2479207602,0.99874556,-0.0005501655,0.007914355,-0.049440783,0.028699607,-0.02482952,-1.1359981,27.218239,-83.44204,-14.741273,-0.00016604706,0.00021381192,-4.1671833e-06,-0.00032283558,0.00022105603,-0.00028970026,0.16166857,0.043318965,0.3703835,0.0,0.0,0.0,0.0,0.0,0.0,3.07643e-07,0.0012113464,0.017335122,9.1841355e-07,5.266997e-06,5.261791e-06,4.111844e-05,0.009954508,0.009954098,0.008933104,0.033319887,0.033319846,0.055786446,1.0265408e-11,1.0264354e-11,1.8829065e-11,5.1644644e-08,5.1646737e-08,5.0000107e-08,0.0,0.0,0.0,0.0,0.0,0.0,0.0,0.0,663,0.25814673,0.23619154,0.06783868,0.012140754,0.006258249,0.0020949806,0.0,0.0,0.0,-7.3e-05,0,0,0,831,0,0,0,0
2479407699,0.99869996,-0.0011328202,0.009421173,-0.050083704,0.02048145,-0.021235079,-1.1472849,27.228529,-83.43807,-14.969669,-0.00016610092,0.00021383044,-4.0937057e-06,-0.0003228658,0.00022104946,-0.00028924595,0.16166857,0.043318965,0.3703835,0.0,0.0,0.0,0.0,0.0,0.0,2.5629734e-07,0.0010631387,0.01581864,9.199868e-07,5.269225e-06,5.263243e-06,4.10506e-05,0.009958459,0.009958311,0.008940447,0.033339933,0.03333986,0.055862978,1.026544e-11,1.0264422e-11,1.8816877e-11,5.1645475e-08,5.1647593e-08,5.0000104e-08,0.0,0.0,0.0,0.0,0.0,0.0,0.0,0.0,663,0.2582243,0.2363535,0.05033763,0.03405821,0.009892798,0.0040391446,0.0,0.0,0.0,3.2e-05,0,0,0,831,0,0,0,0
2479607695,0.99864787,-0.00023505352,0.010440097,-0.05092546,0.015855491,-0.009462701,-1.1597642,27.242136,-83.42908,-15.193741,-0.00016618136,0.00021387935,-4.03026e-06,-0.00032292912,0.00022106028,-0.00029037026,0.16166857,0.043318965,0.3703835,0.0,0.0,0.0,0.0,0.0,0.0,2.2298154e-07,0.0010117297,0.016023442,9.225384e-07,5.270868e-06,5.264079e-06,4.1057763e-05,0.009962397,0.0099626025,0.008946517,0.033357214,0.033357132,0.0559299,1.0265284e-11,1.0264312e-11,1.8819047e-11,5.1646317e-08,5.1648446e-08,5.0000104e-08,0.0,0.0,0.0,0.0,0.0,0.0,0.0,0.0,663,0.2582912,0.23649503,0.06514996,0.04964613,0.014935914,0.011343756,0.0,0.0,0.0,3.9e-05,0,0,0,831,0,0,0,0
2479811618,0.99860215,-8.601827e-05,0.008770848,-0.052122723,0.0055560553,-0.016536707,-1.1788073,27.256945,-83.43034,-15.430668,-0.00016618246,0.00021395356,-4.022772e-06,-0.00032295284,0.00022109457,-0.0002883391,0.16166857,0.043318965,0.3703835,0.0,0.0,0.0,0.0,0.0,0.0,2.1728e-07,0.0009772746,0.015810724,9.273222e-07,5.265042e-06,5.25971e-06,4.1065377e-05,0.00993545,0.009936024,0.008878181,0.033280365,0.033280313,0.055213127,1.0261817e-11,1.0260899e-11,1.8821243e-11,5.164718e-08,5.164931e-08,5e-08,0.0,0.0,0.0,0.0,0.0,0.0,0.0,0.0,663,0.25799355,0.23497474,0.054160092,0.04468036,0.018980725,0.006940504,0.0,0.0,0.0,-3.8e-05,0,0,0,831,0,0,0,0
2480015688,0.99851847,-0.001696559,0.007407858,-0.053880546,-0.0021158142,-0.017052094,-1.1980587,27.263186,-83.43208,-15.684017,-0.00016617308,0.00021396764,-4.007439e-06,-0.00032297292,0.00022110718,-0.0002838914,0.16166857,0.043318965,0.3703835,0.0,0.0,0.0,0.0,0.0,0.0,2.566431e-07,0.001041302,0.016570562,9.3453053e-07,5.273347e-06,5.2694736e-06,4.1091324e-05,0.010004333,0.0100051835,0.008913145,0.03355448,0.033554494,0.055542216,1.0267564e-11,1.0266707e-11,1.8827521e-11,5.1648094e-08,5.1650215e-08,5.000004e-08,0.0,0.0,0.0,0.0,0.0,0.0,0.0,0.0,663,0.259054,0.23567396,0.012010324,0.061474442,0.022332268,0.0062043965,0.0,0.0,0.0,3e-06,0,0,0,831,0,0,0,0
2480217159,0.9983976,-0.0024779823,0.0071647656,-0.056078877,-0.008010188,-0.009111953,-1.2201355,27.27479,-83.43033,-15.925312,-0.0001661997,0.00021402095,-3.9843644e-06,-0.00032299792,0.00022112146,-0.00028406555,0.16166857,0.043318965,0.3703835,0.0,0.0,0.0,0.0,0.0,0.0,2.8172641e-07,0.0010632096,0.016733939,9.435e-07,5.275282e-06,5.2720516e-06,4.1094198e-05,0.010024645,0.010025931,0.008924678,0.03361658,0.033616673,0.05567098,1.027134e-11,1.0270552e-11,1.8833289e-11,5.164901e-08,5.1651124e-08,5.0000093e-08,0.0,0.0,0.0,0.0,0.0,0.0,0.0,0.0,663,0.25929376,0.23594698,0.012868988,0.024403237,0.024953661,0.0043785525,0.0,0.0,0.0,-0.00011,0,0,0,831,0,0,0,0
2480420950,0.99829537,-0.00082676386,0.008236955,-0.057775516,-0.010939073,-0.006224567,-1.220897,27.281992,-83.42607,-16.161997,-0.00016623519,0.00021404188,-4.067228e-06,-0.0003230192,0.0002211208,-0.00028621554,0.16166857,0.043318965,0.3703835,0.0,0.0,0.0,0.0,0.0,0.0,2.4229945e-07,0.0010046209,0.0150355315,9.5137796e-07,5.276186e-06,5.272224e-06,4.109578e-05,0.010019722,0.01002107,0.008933403,0.033625882,0.033626065,0.055747967,1.0271013e-11,1.0270288e-11,1.8835235e-11,5.164989e-08,5.1652e-08,5.0000068e-08,0.0,0.0,0.0,0.0,0.0,0.0,0.0,0.0,663,0.2593298,0.23611008,0.092541136,0.018499639,0.025349017,0.00572485,0.0,0.0,0.0,-0.000306,0,0,0,831,0,0,0,0
2480625247,0.9982311,-0.00042943057,0.008432523,-0.058850788,-0.006224575,0.0025678459,-1.2183394,27.290737,-83.40986,-16.4253,-0.00016633916,0.00021407042,-4.097218e-06,-0.00032303398,0.0002211209,-0.000282392,0.16166857,0.043318965,0.3703835,0.0,0.0,0.0,0.0,0.0,0.0,2.9248022e-07,0.0013176751,0.0171146,9.563144e-07,5.283005e-06,5.2791306e-06,4.1046394e-05,0.010059829,0.010060962,0.008900227,0.033855207,0.03385549,0.05532889,1.027494e-11,1.0274278e-11,1.8826832e-11,5.1650815e-08,5.1652922e-08,5.0000033e-08,0.0,0.0,0.0,0.0,0.0,0.0,0.0,0.0,663,0.26021278,0.23522094,0.090825275,0.068049274,0.02730279,0.030281808,0.0,0.0,0.0,-9e-06,0,0,0,831,0,0,0,0
2480824975,0.99819803,-0.000571501,0.009599468,-0.059232026,-0.0103655085,0.01455642,-1.2210883,27.301805,-83.39721,-16.668594,-0.00016639158,0.00021412439,-4.0319223e-06,-0.00032306198,0.00022112454,-0.00028126704,0.16166857,0.043318965,0.3703835,0.0,0.0,0.0,0.0,0.0,0.0,2.7849993e-07,0.00122923,0.015470111,9.576008e-07,5.280755e-06,5.276367e-06,4.112913e-05,0.010032896,0.010034272,0.008911558,0.033798374,0.033798754,0.055429384,1.0272561e-11,1.0271964e-11,1.8843002e-11,5.1651693e-08,5.16538e-08,5.0000068e-08,0.0,0.0,0.0,0.0,0.0,0.0,0.0,0.0,663,0.25999448,0.23543446,0.046720266,0.042142767,0.028732331,0.026162911,0.0,0.0,0.0,-0.000281,0,0,0,831,0,0,0,0
2481028957,0.99819297,0.0007089375,0.01213668,-0.058847267,-0.021845227,0.03275387,-1.2327851,27.316875,-83.3844,-16.918266,-0.00016642801,0.00021421359,-3.9816823e-06,-0.00032308153,0.000221104,-0.00028011377,0.16166857,0.043318965,0.3703835,0.0,0.0,0.0,0.0,0.0,0.0,2.5304647e-07,0.0011441612,0.015046431,9.552261e-07,5.2841087e-06,5.277787e-06,4.1137726e-05,0.010035862,0.010037871,0.0088558495,0.033809174,0.03380968,0.054788783,1.0272929e-11,1.02724045e-11,1.8844554e-11,5.1652574e-08,5.1654688e-08,5e-08,0.0,0.0,0.0,0.0,0.0,0.0,0.0,0.0,663,0.26003626,0.23407003,0.012829312,0.048301853,0.033249848,0.020200942,0.0,0.0,0.0,-0.000299,0,0,0,831,0,0,0,0
2481233169,0.99825615,0.0005440818,0.013726879,-0.057410445,-0.037414555,0.048968494,-1.2386969,27.32966,-83.36903,-17.186468,-0.00016645581,0.00021429476,-3.9950205e-06,-0.00032311637,0.00022109238,-0.00027556418,0.16166857,0.043318965,0.3703835,0.0,0.0,0.0,0.0,0.0,0.0,3.0477122e-07,0.0011212645,0.015670454,9.4924326e-07,5.293166e-06,5.2855894e-06,4.1172258e-05,0.010084122,0.010086807,0.008900607,0.03404236,0.03404307,0.055185255,1.0277473e-11,1.0277029e-11,1.8850269e-11,5.1653473e-08,5.1655597e-08,5.0000036e-08,0.0,0.0,0.0,0.0,0.0,0.0,0.0,0.0,663,0.26093185,0.23491542,0.06545115,0.033881515,0.040440846,0.0058042393,0.0,0.0,0.0,-0.000113,0,0,0,831,0,0,0,0
2481432970,0.9983619,-0.0024754817,0.014188882,-0.055371765,-0.05931904,0.06408568,-1.2442209,27.33982,-83.35283,-17.421247,-0.00016647305,0.00021437823,-3.9653596e-06,-0.0003231402,0.00022105928,-0.00027868958,0.16166857,0.043318965,0.3703835,0.0,0.0,0.0,0.0,0.0,0.0,2.6047564e-07,0.0010043717,0.015422829,9.405743e-07,5.295903e-06,5.288713e-06,4.1113555e-05,0.010096502,0.010100097,0.008915995,0.034079965,0.034080945,0.05530991,1.0278741e-11,1.0278386e-11,1.8837433e-11,5.1654325e-08,5.1656468e-08,5.0000065e-08,0.0,0.0,0.0,0.0,0.0,0.0,0.0,0.0,663,0.26107645,0.23518059,0.0011077072,0.031677686,0.044386104,0.045217138,0.0,0.0,0.0,-0.000286,0,0,0,831,0,0,0,0
2481633301,0.9984587,-0.0050401217,0.014219516,-0.053410526,-0.08415528,0.07042383,-1.2444527,27.34516,-83.336075,-17.682552,-0.0001664884,0.00021445399,-3.9366714e-06,-0.00032317117,0.00022104113,-0.00027423253,0.16166857,0.043318965,0.3703835,0.0,0.0,0.0,0.0,0.0,0.0,2.4879978e-07,0.0009991605,0.016600454,9.3283853e-07,5.2961377e-06,5.290275e-06,4.1129704e-05,0.010089409,0.010094084,0.0088622635,0.0340825,0.03408379,0.054692946,1.0278738e-11,1.0278473e-11,1.8839125e-11,5.1655164e-08,5.1657324e-08,5e-08,0.0,0.0,0.0,0.0,0.0,0.0,0.0,0.0,663,0.26108673,0.23386523,0.019228067,0.02302203,0.045373224,0.014718431,0.0,0.0,0.0,3.9e-05,0,0,0,831,0,0,0,0
2481832946,0.99855024,-0.0075690574,0.013638069,-0.051519576,-0.09556032,0.06485247,-1.232181,27.339102,-83.31312,-17.907318,-0.00016654345,0.0002144786,-3.9174583e-06,-0.0003231202,0.00022101605,-0.00028103884,0.16166857,0.043318965,0.3703835,0.0,0.0,0.0,0.0,0.0,0.0,2.8241334e-07,0.0011926428,0.019529728,9.258862e-07,5.2924656e-06,5.289105e-06,4.114491e-05,0.010060707,0.010065386,0.008879808,0.034020502,0.034022108,0.05484635,1.027661e-11,1.0276439e-11,1.8840653e-11,5.1656002e-08,5.1658176e-08,5.0000036e-08,0.0,0.0,0.0,0.0,0.0,0.0,0.0,0.0,663,0.26084977,0.23419298,0.021365805,0.03029459,0.04039802,0.0025709318,0.0,0.0,0.0,-0.000316,0,0,0,831,0,0,0,0
2482037318,0.9986234,-0.008892012,0.013244701,-0.04996942,-0.12194262,0.05167539,-1.2372015,27.330147,-83.29415,-18.156347,-0.00016658391,0.00021451844,-3.8657545e-06,-0.00032308823,0.00022099346,-0.00028150776,0.16166857,0.043318965,0.3703835,0.0,0.0,0.0,0.0,0.0,0.0,2.743395e-07,0.0012803557,0.019359203,9.202078e-07,5.2931646e-06,5.2914916e-06,4.123402e-05,0.010063123,0.01006871,0.008900017,0.03402876,0.034030728,0.05501534,1.0277196e-11,1.0277107e-11,1.885643e-11,5.165684e-08,5.1659036e-08,5.000007e-08,0.0,0.0,0.0,0.0,0.0,0.0,0.0,0.0,663,0.26088214,0.23455349,0.018179595,0.01774497,0.038821496,0.0028967867,0.0,0.0,0.0,5.2e-05,0,0,0,831,0,0,0,0
2482240945,0.99871475,-0.009919302,0.011727912,-0.048300397,-0.13753477,0.032280926,-1.2377849,27.311739,-83.28022,-18.40882,-0.00016660565,0.00021453122,-3.8499047e-06,-0.00032307638,0.0002209875,-0.00028274386,0.16166857,0.043318965,0.3703835,0.0,0.0,0.0,0.0,0.0,0.0,2.8797783e-07,0.0013192489,0.019164972,9.145633e-07,5.299325e-06,5.299945e-06,4.1269435e-05,0.010113305,0.010118719,0.008878288,0.034258768,0.034261122,0.05469935,1.0281707e-11,1.0281698e-11,1.8861647e-11,5.1657707e-08,5.1659928e-08,5e-08,0.0,0.0,0.0,0.0,0.0,0.0,0.0,0.0,663,0.26176304,0.23387893,0.01725655,0.019569699,0.034354404,0.020268608,0.0,0.0,0.0,-0.000311,0,0,0,831,0,0,0,0
2482444980,0.9988044,-0.009834699,0.008706473,-0.04708837,-0.13523664,0.007678059,-1.2289294,27.293226,-83.268906,-18.651531,-0.00016664677,0.00021455345,-3.854529e-06,-0.00032305566,0.00022097066,-0.00028382792,0.16166857,0.043318965,0.3703835,0.0,0.0,0.0,0.0,0.0,0.0,3.2549335e-07,0.0013590615,0.02000131,9.109686e-07,5.298669e-06,5.3009585e-06,4.135837e-05,0.01010891,0.0101128705,0.008896292,0.034264013,0.034266636,0.05486237,1.0282133e-11,1.0282183e-11,1.8877145e-11,5.1658557e-08,5.1660795e-08,5.0000036e-08,0.0,0.0,0.0,0.0,0.0,0.0,0.0,0.0,663,0.2617836,0.23422718,0.015141153,0.023829786,0.032778922,0.023597896,0.0,0.0,0.0,-0.000276,0,0,0,831,0,0,0,0
2482645221,0.99887836,-0.010874999,0.0051237345,-0.04579953,-0.13781512,-0.0072042285,-1.2344257,27.276312,-83.26445,-18.876287,-0.00016667304,0.00021458832,-3.8586963e-06,-0.00032302737,0.0002209324,-0.0002901635,0.16166857,0.043318965,0.3703835,0.0,0.0,0.0,0.0,0.0,0.0,3.2942452e-07,0.0013670078,0.020302406,9.074328e-07,5.2987493e-06,5.302797e-06,4.1368865e-05,0.010115329,0.010118434,0.008914996,0.034268588,0.034271363,0.055033438,1.02826124e-11,1.0282704e-11,1.8877776e-11,5.16594e-08,5.166166e-08,5.0000036e-08,0.0,0.0,0.0,0.0,0.0,0.0,0.0,0.0,663,0.26180136,0.23459207,0.028389744,0.013084497,0.030886112,0.03282729,0.0,0.0,0.0,-3.4e-05,0,0,0,831,0,0,0,0
2482845104,0.99897116,-0.009324399,0.0045862724,-0.044142805,-0.11481969,-0.03897566,-1.2359601,27.2637,-83.271935,-19.127115,-0.00016665705,0.0002146406,-3.8513017e-06,-0.00032308258,0.00022092335,-0.00028757105,0.16166857,0.043318965,0.3703835,0.0,0.0,0.0,0.0,0.0,0.0,3.170935e-07,0.0013955918,0.021039486,9.0188246e-07,5.3021954e-06,5.30467e-06,4.1381933e-05,0.010126311,0.010127091,0.008931601,0.034306042,0.034308787,0.055193063,1.0284219e-11,1.0284335e-11,1.8878697e-11,5.166023e-08,5.1662536e-08,5.0000075e-08,0.0,0.0,0.0,0.0,0.0,0.0,0.0,0.0,663,0.26194432,0.23493204,0.014579185,0.044581026,0.0315753,0.01875785,0.0,0.0,0.0,-0.000152,0,0,0,831,0,0,0,0
2483049192,0.99905145,-0.007929057,0.0028470461,-0.042722046,-0.09764219,-0.059223216,-1.2492229,27.253172,-83.284424,-19.389408,-0.00016665123,0.0002146807,-3.9040133e-06,-0.00032311172,0.00022092105,-0.00028582037,0.16166857,0.043318965,0.3703835,0.0,0.0,0.0,0.0,0.0,0.0,3.1361523e-07,0.0013676081,0.021547867,8.97771e-07,5.308228e-06,5.3093618e-06,4.126336e-05,0.010169496,0.010168855,0.008906678,0.034498487,0.034500927,0.054871768,1.0287268e-11,1.0287398e-11,1.8854729e-11,5.1661075e-08,5.1663445e-08,5.0000025e-08,0.0,0.0,0.0,0.0,0.0,0.0,0.0,0.0,663,0.2626774,0.23424724,0.007408989,0.013775832,0.03132219,0.004118176,0.0,0.0,0.0,-6.4e-05,0,0,0,831,0,0,0,0
2483253183,0.9991012,-0.0074750525,0.0035854867,-0.041568696,-0.06372733,-0.07967005,-1.2427092,27.246035,-83.30898,-19.62745,-0.00016659618,0.00021470817,-3.975724e-06,-0.00032310843,0.00022093441,-0.0002880117,0.16166857,0.043318965,0.3703835,0.0,0.0,0.0,0.0,0.0,0.0,3.2739212e-07,0.0013328192,0.020707252,8.9465556e-07,5.308271e-06,5.3090266e-06,4.127454e-05,0.010156631,0.010154704,0.008923731,0.034469347,0.034471255,0.055043112,1.028655e-11,1.0286677e-11,1.8856012e-11,5.1661893e-08,5.1664315e-08,5.0000036e-08,0.0,0.0,0.0,0.0,0.0,0.0,0.0,0.0,663,0.26256543,0.23461269,0.06923793,0.035857987,0.029042011,0.0054213265,0.0,0.0,0.0,-7.3e-05,0,0,0,831,0,0,0,0
2483457178,0.99911666,-0.0059364764,0.0063282633,-0.04111937,-0.046467766,-0.106859684,-1.2497338,27.2396,-83.3368,-19.897194,-0.00016655959,0.00021472185,-3.964757e-06,-0.0003231278,0.00022094474,-0.0002846701,0.16166857,0.043318965,0.3703835,0.0,0.0,0.0,0.0,0.0,0.0,2.8851946e-07,0.0012114256,0.019772528,8.926093e-07,5.317156e-06,5.31698e-06,4.1229923e-05,0.010210815,0.0102080675,0.008897432,0.034702845,0.03470409,0.054716595,1.0291196e-11,1.0291309e-11,1.8846954e-11,5.166274e-08,5.166522e-08,5e-08,0.0,0.0,0.0,0.0,0.0,0.0,0.0,0.0,663,0.26345196,0.23391579,0.0013805659,0.016487943,0.022198623,0.043757368,0.0,0.0,0.0,-7.8e-05,0,0,0,831,0,0,0,0
2483656943,0.999118,-0.005803386,0.0070103263,-0.04099279,-0.040012524,-0.11735797,-1.2531232,27.236452,-83.36915,-20.159262,-0.00016651575,0.00021474031,-3.9620095e-06,-0.0003231597,0.0002209601,-0.00028071422,0.16166857,0.043318965,0.3703835,0.0,0.0,0.0,0.0,0.0,0.0,2.8876167e-07,0.0012363124,0.020548653,8.9229667e-07,5.3190556e-06,5.3187364e-06,4.1313604e-05,0.010211666,0.010209126,0.008914735,0.03470911,0.034709707,0.054888994,1.0291674e-11,1.0291761e-11,1.8862502e-11,5.166354e-08,5.166608e-08,5.0000036e-08,0.0,0.0,0.0,0.0,0.0,0.0,0.0,0.0,663,0.26347452,0.234284,0.041548602,0.022738054,0.019576766,0.02345537,0.0,0.0,0.0,-0.000313,0,0,0,831,0,0,0,0
2483860976,0.99912083,-0.0045140665,0.007553717,-0.040989522,-0.030589592,-0.13782401,-1.2648597,27.234238,-83.412544,-20.415642,-0.00016642176,0.00021476143,-4.0704554e-06,-0.00032316177,0.00022100545,-0.00027778378,0.16166857,0.043318965,0.3703835,0.0,0.0,0.0,0.0,0.0,0.0,2.6767623e-07,0.0012140395,0.02077098,8.927781e-07,5.3178665e-06,5.317019e-06,4.124506e-05,0.010196668,0.01019424,0.00893217,0.034650605,0.03465059,0.055070322,1.0290019e-11,1.0290081e-11,1.884929e-11,5.166432e-08,5.1666923e-08,5.0000065e-08,0.0,0.0,0.0,0.0,0.0,0.0,0.0,0.0,663,0.26325122,0.23467067,0.05334448,0.06002759,0.022492094,0.0013445759,0.0,0.0,0.0,-0.00028,0,0,0,831,0,0,0,0
2484062984,0.99910784,-0.003217124,0.0052894354,-0.04177695,-0.018846726,-0.16057663,-1.2474016,27.22825,-83.44642,-20.63786,-0.00016642206,0.00021473694,-4.1021567e-06,-0.0003231261,0.00022096156,-0.00028459978,0.16166857,0.043318965,0.3703835,0.0,0.0,0.0,0.0,0.0,0.0,2.703535e-07,0.0011946787,0.020530922,8.956857e-07,5.3197077e-06,5.3189005e-06,4.1251442e-05,0.010196587,0.010194011,0.008881103,0.03466106,0.034660507,0.05450789,1.0290829e-11,1.0290866e-11,1.8850537e-11,5.166507e-08,5.166774e-08,5e-08,0.0,0.0,0.0,0.0,0.0,0.0,0.0,0.0,663,0.2632899,0.23346925,0.022705868,0.030919738,0.022671044,0.0045955917,0.0,0.0,0.0,0.000129,0,0,0,831,0,0,0,0
2484262743,0.99905014,-0.0028927,0.005551559,-0.04312437,0.015167059,-0.17303112,-1.2361856,27.23076,-83.48495,-20.88663,-0.00016640947,0.00021475597,-4.182358e-06,-0.0003231586,0.00022098003,-0.0002842698,0.16166857,0.043318965,0.3703835,0.0,0.0,0.0,0.0,0.0,0.0,2.7140624e-07,0.0012236872,0.020423176,9.006304e-07,5.3231292e-06,5.322468e-06,4.1331594e-05,0.010204468,0.010202731,0.008904201,0.034710888,0.03470987,0.054753236,1.0295757e-11,1.0295764e-11,1.887044e-11,5.1665843e-08,5.166858e-08,5.0000036e-08,0.0,0.0,0.0,0.0,0.0,0.0,0.0,0.0,663,0.2634782,0.2339941,0.13287687,0.029770117,0.019360757,0.0117477765,0.0,0.0,0.0,-0.000136,0,0,0,831,0,0,0,0
2484466757,0.9989449,0.0006143692,0.00867988,-0.045092873,0.014180206,-0.17439052,-1.2457093,27.225504,-83.52599,-21.13975,-0.00016639553,0.00021470083,-4.1426074e-06,-0.00032312665,0.0002209207,-0.0002852984,0.16166857,0.043318965,0.3703835,0.0,0.0,0.0,0.0,0.0,0.0,2.6589436e-07,0.0012388087,0.019365257,9.061606e-07,5.333969e-06,5.3331873e-06,4.1352814e-05,0.010272679,0.010271721,0.008950942,0.03497601,0.034974605,0.055202298,1.0301354e-11,1.0301325e-11,1.8875372e-11,5.1666575e-08,5.1669403e-08,5.000006e-08,0.0,0.0,0.0,0.0,0.0,0.0,0.0,0.0,663,0.26448178,0.23495169,0.015681377,0.04493906,0.01816942,0.03636242,0.0,0.0,0.0,-9.9e-05,0,0,0,831,0,0,0,0
2484666737,0.9988287,0.0065368004,0.011545768,-0.04653207,0.027043337,-0.16183057,-1.2487588,27.222158,-83.560745,-21.40259,-0.00016640847,0.00021466274,-4.1943326e-06,-0.00032318375,0.00022087475,-0.0002806584,0.16166857,0.043318965,0.3703835,0.0,0.0,0.0,0.0,0.0,0.0,2.8682837e-07,0.0013585147,0.02064108,9.109591e-07,5.338451e-06,5.3393046e-06,4.1349747e-05,0.010281701,0.010282061,0.008897514,0.035009477,0.03500792,0.054628354,1.0302571e-11,1.0302504e-11,1.8875991e-11,5.1667236e-08,5.1670177e-08,5e-08,0.0,0.0,0.0,0.0,0.0,0.0,0.0,0.0,663,0.264608,0.2337271,0.031589545,0.030507032,0.01692011,0.023628484,0.0,0.0,0.0,-0.000119,0,0,0,831,0,0,0,0
2484866857,0.9987264,0.011374668,0.012110658,-0.047639705,0.009492734,-0.115971096,-1.2740985,27.219658,-83.59141,-21.666632,-0.00016640419,0.00021464187,-4.186171e-06,-0.00032328066,0.00022086981,-0.00027397368,0.16166857,0.043318965,0.3703835,0.0,0.0,0.0,0.0,0.0,0.0,2.8640136e-07,0.0012855423,0.019666974,9.1484816e-07,5.3361164e-06,5.341088e-06,4.1347826e-05,0.010267113,0.010267996,0.008910539,0.034940835,0.034939367,0.05479102,1.030022e-11,1.0300112e-11,1.8876655e-11,5.166789e-08,5.1670952e-08,5e-08,0.0,0.0,0.0,0.0,0.0,0.0,0.0,0.0,663,0.26434863,0.23407482,0.0031213623,0.085088655,0.012198288,0.013803708,0.0,0.0,0.0,-4.9e-05,0,0,0,831,0,0,0,0
2485070570,0.9986511,0.013744594,0.012552763,-0.048472807,-0.0040601995,-0.07627958,-1.2780099,27.206993,-83.61289,-21.93309,-0.00016639465,0.00021456859,-4.1408125e-06,-0.00032334964,0.00022080753,-0.0002679298,0.16166857,0.043318965,0.3703835,0.0,0.0,0.0,0.0,0.0,0.0,2.921935e-07,0.0012978866,0.02061438,9.1762314e-07,5.3394347e-06,5.3470617e-06,4.1348198e-05,0.010278882,0.010279542,0.00892639,0.034977738,0.034976576,0.054961525,1.0301641e-11,1.0301492e-11,1.8877084e-11,5.1668522e-08,5.1671723e-08,5.0000022e-08,0.0,0.0,0.0,0.0,0.0,0.0,0.0,0.0,663,0.2644888,0.23443875,0.020062964,0.067286916,0.019050628,0.011994858,0.0,0.0,0.0,-0.000286,0,0,0,831,0,0,0,0
2485270822,0.9986231,0.013198834,0.0131138405,-0.049050413,-0.008670031,-0.006861645,-1.2814801,27.187237,-83.614105,-22.194138,-0.00016644203,0.00021446648,-4.1530825e-06,-0.00032341902,0.00022069228,-0.00026393446,0.16166857,0.043318965,0.3703835,0.0,0.0,0.0,0.0,0.0,0.0,2.9357278e-07,0.0013170302,0.02166902,9.2003853e-07,5.3423987e-06,5.349005e-06,4.1428815e-05,0.010290702,0.010290081,0.008943723,0.035011016,0.035010245,0.05514232,1.0302722e-11,1.0302538e-11,1.8892131e-11,5.1669165e-08,5.16725e-08,5.000007e-08,0.0,0.0,0.0,0.0,0.0,0.0,0.0,0.0,663,0.2646153,0.23482402,0.073000945,0.06163945,0.026018215,0.030330917,0.0,0.0,0.0,-0.000103,0,0,0,831,0,0,0,0
2485474587,0.9985906,0.011991831,0.012546399,-0.050157044,-0.02898996,0.045634158,-1.2741073,27.156975,-83.60762,-22.469084,-0.00016644891,0.00021432526,-4.1077815e-06,-0.00032346003,0.00022056205,-0.0002588838,0.16166857,0.043318965,0.3703835,0.0,0.0,0.0,0.0,0.0,0.0,2.8301199e-07,0.0012422332,0.02074734,9.239921e-07,5.3491435e-06,5.3547296e-06,4.1452888e-05,0.010334844,0.01033198,0.0089199245,0.035239305,0.035238903,0.054844297,1.03066175e-11,1.0306397e-11,1.8896178e-11,5.16698e-08,5.1673318e-08,5.0000036e-08,0.0,0.0,0.0,0.0,0.0,0.0,0.0,0.0,663,0.26547733,0.23418859,0.026753047,0.08760321,0.03448069,0.0069028,0.0,0.0,0.0,-0.000269,0,0,0,831,0,0,0,0
2485674755,0.9985759,0.00873304,0.010872683,-0.051494397,-0.039493397,0.07508267,-1.2806205,27.122643,-83.591125,-22.739082,-0.00016646292,0.00021418688,-4.043838e-06,-0.00032354513,0.00022045213,-0.0002516193,0.16166857,0.043318965,0.3703835,0.0,0.0,0.0,0.0,0.0,0.0,2.860868e-07,0.0012705126,0.02079781,9.286854e-07,5.348903e-06,5.3522726e-06,4.1380667e-05,0.010334199,0.010330212,0.008935855,0.035235416,0.035235196,0.05501845,1.030644e-11,1.03061865e-11,1.8881705e-11,5.1670423e-08,5.167411e-08,5.0000022e-08,0.0,0.0,0.0,0.0,0.0,0.0,0.0,0.0,663,0.26546302,0.23456012,0.08260319,0.07977311,0.043109328,0.00880978,0.0,0.0,0.0,-0.000101,0,0,0,831,0,0,0,0
