timestamp,roll_body,pitch_body,yaw_body,yaw_sp_move_rate,q_d[0],q_d[1],q_d[2],q_d[3],thrust,landing_gear,q_d_valid,roll_reset_integral,pitch_reset_integral,yaw_reset_integral,fw_control_yaw,disable_mc_yaw_control,apply_flaps
2467876902,-0.0618215,-0.017949931,-0.101808734,0.0,0.9981733,-0.031320997,-0.00738644,-0.051133044,0.50482106,-1.0,1,0,0,0,0,0,0
2468081751,-0.06543007,-0.012521583,-0.101808734,0.0,0.9981403,-0.032984585,-0.004585006,-0.051058684,0.5465606,-1.0,1,0,0,0,0,0,0
2468181434,-0.068555474,-0.022725927,-0.101808734,0.0,0.99803376,-0.034802243,-0.009597654,-0.051238116,0.5682278,-1.0,1,0,0,0,0,0,0
2468285246,-0.08596561,-0.0025326095,-0.101808734,0.0,0.99777865,-0.042978246,0.00092289643,-0.050889693,0.58858925,-1.0,1,0,0,0,0,0,0
2468385651,-0.07030612,-0.02630834,-0.101808734,0.0,0.99797773,-0.035766143,-0.011340487,-0.051308252,0.6097514,-1.0,1,0,0,0,0,0,0
2468485185,-0.06335204,-0.007332173,-0.101808734,0.0,0.99819106,-0.031815927,-0.0020480216,-0.050972473,0.63139796,-1.0,1,0,0,0,0,0,0
2468589160,-0.063931614,-0.012447379,-0.101808734,0.0,0.998165,-0.03223486,-0.0045862235,-0.051054064,0.65431994,-1.0,1,0,0,0,0,0,0
2468689393,-0.06458981,-0.014429356,-0.101808734,0.0,0.99814606,-0.032613534,-0.0055585993,-0.051087186,0.6753885,-1.0,1,0,0,0,0,0,0
2468793942,-0.06594025,-0.011022279,-0.101808734,0.0,0.9981375,-0.033201214,-0.0038237122,-0.051035397,0.69631076,-1.0,1,0,0,0,0,0,0
2468897918,-0.055487912,0.0017522264,-0.101808734,0.0,0.9983211,-0.027659893,0.0022861387,-0.05083851,0.6876444,-1.0,1,0,0,0,0,0,0
2469001408,0.021556227,0.07285318,-0.101808734,0.0,0.9979642,0.012609757,0.035821203,-0.05123768,0.61307794,-1.0,1,0,0,0,0,0,0
2469100978,-0.013451383,0.02893562,-0.101808734,0.0,0.9985825,-0.0059801117,0.0147904195,-0.05077874,0.5697492,-1.0,1,0,0,0,0,0,0
2469205310,0.048135065,0.06308842,-0.101808734,0.0,0.9978801,0.025626393,0.030265115,-0.05160036,0.53532803,-1.0,1,0,0,0,0,0,0
2469306070,0.044257402,0.06460744,-0.101808734,0.0,0.99790287,0.023729706,0.031123089,-0.051557124,0.5277993,-1.0,1,0,0,0,0,0,0
2469409994,0.06603304,0.07962326,-0.101808734,0.0,0.99730253,0.03496571,0.03804957,-0.05212651,0.52246636,-1.0,1,0,0,0,0,0,0
2469513429,0.06835526,0.06523688,-0.101808734,0.0,0.99753374,0.035767,0.030813616,-0.05193859,0.5151206,-1.0,1,0,0,0,0,0,0
2469613333,0.060913656,0.053689037,-0.101808734,0.0,0.99784017,0.031766832,0.025245177,-0.05165678,0.5169361,-1.0,1,0,0,0,0,0,0
2469716924,0.058526356,0.040125176,-0.101808734,0.0,0.99804634,0.03023555,0.018538212,-0.05143658,0.5143449,-1.0,1,0,0,0,0,0,0
2469817621,0.04320149,0.024738224,-0.101808734,0.0,0.9983817,0.022198645,0.011250966,-0.05113343,0.51574636,-1.0,1,0,0,0,0,0,0
2469917194,0.034823127,0.015090625,-0.101808734,0.0,0.99851817,0.017771497,0.0066484525,-0.051004417,0.5172019,-1.0,1,0,0,0,0,0,0
2470021145,0.0280384,0.0023784726,-0.101808734,0.0,0.99860495,0.014061077,0.0004742723,-0.050893996,0.5212388,-1.0,1,0,0,0,0,0,0
2470122126,0.012078013,-0.009807349,-0.101808734,0.0,0.99867594,0.0057815704,-0.005204487,-0.050851274,0.520699,-1.0,1,0,0,0,0,0,0
2470220924,0.008786138,-0.01921006,-0.101808734,0.0,0.9986511,0.0038984474,-0.009815867,-0.050837412,0.526485,-1.0,1,0,0,0,0,0,0
2470325290,-0.0035591281,-0.029692385,-0.101808734,0.0,0.99859166,-0.0025324433,-0.014735855,-0.05090309,0.52679384,-1.0,1,0,0,0,0,0,0
2470425560,-0.009320658,-0.032735948,-0.101808734,0.0,0.99855614,-0.0054864474,-0.01610877,-0.0509512,0.52995527,-1.0,1,0,0,0,0,0,0
2470529425,-0.017093929,-0.038567267,-0.101808734,0.0,0.99847406,-0.009515303,-0.018821955,-0.05103566,0.52828586,-1.0,1,0,0,0,0,0,0
2470633388,-0.027903188,-0.051248264,-0.101808734,0.0,0.99826145,-0.015232043,-0.024876013,-0.051217712,0.5336837,-1.0,1,0,0,0,0,0,0
2470733318,-0.031257372,-0.044551093,-0.101808734,0.0,0.9983173,-0.016737137,-0.021447139,-0.051211197,0.5318939,-1.0,1,0,0,0,0,0,0
2470836946,-0.03171166,-0.048302315,-0.101808734,0.0,0.9982684,-0.017058607,-0.023307983,-0.051243544,0.5335146,-1.0,1,0,0,0,0,0,0
2470938414,-0.031981066,-0.053901494,-0.101808734,0.0,0.9981924,-0.017334316,-0.02609583,-0.05128773,0.53569233,-1.0,1,0,0,0,0,0,0
2471041304,-0.032488827,-0.0450222,-0.101808734,0.0,0.99830127,-0.017363714,-0.021650767,-0.051227942,0.53701484,-1.0,1,0,0,0,0,0,0
2471145719,-0.02752139,-0.045252126,-0.101808734,0.0,0.99833864,-0.01488998,-0.021892713,-0.05117546,0.5348806,-1.0,1,0,0,0,0,0,0
2471249358,-0.036467247,-0.050523937,-0.101808734,0.0,0.9981966,-0.019488223,-0.024294946,-0.05131764,0.53878427,-1.0,1,0,0,0,0,0,0
2471349159,-0.035361774,-0.05017641,-0.101808734,0.0,0.99821174,-0.018927727,-0.02414985,-0.051301364,0.537651,-1.0,1,0,0,0,0,0,0
2471450263,-0.028374022,-0.0439802,-0.101808734,0.0,0.99834687,-0.015283439,-0.021235963,-0.051176492,0.53398657,-1.0,1,0,0,0,0,0,0
2471554258,-0.023343017,-0.044614837,-0.101808734,0.0,0.99837494,-0.012788109,-0.021681443,-0.051126257,0.53316945,-1.0,1,0,0,0,0,0,0
2471652924,-0.026808409,-0.04773518,-0.101808734,0.0,0.99831426,-0.014596843,-0.023150446,-0.051182795,0.5344895,-1.0,1,0,0,0,0,0,0
2471757322,-0.025252849,-0.04454235,-0.101808734,0.0,0.9983631,-0.013739633,-0.02159643,-0.051146522,0.53554636,-1.0,1,0,0,0,0,0,0
2471857359,-0.026118174,-0.0361267,-0.101808734,0.0,0.9984446,-0.01395865,-0.017373081,-0.051105313,0.5341359,-1.0,1,0,0,0,0,0,0
2471957304,-0.025865426,-0.033103928,-0.101808734,0.0,0.99847347,-0.013755926,-0.015870448,-0.051084932,0.53715044,-1.0,1,0,0,0,0,0,0
2472060969,-0.02335581,-0.028905312,-0.101808734,0.0,0.9985237,-0.012396604,-0.013838322,-0.05104215,0.5375055,-1.0,1,0,0,0,0,0,0
2472161335,-0.023741359,-0.02688604,-0.101808734,0.0,0.99853593,-0.012537898,-0.012820317,-0.051033568,0.5360975,-1.0,1,0,0,0,0,0,0
2472265496,-0.015194427,-0.026376694,-0.101808734,0.0,0.9985839,-0.008257655,-0.012783974,-0.05097656,0.53509486,-1.0,1,0,0,0,0,0,0
2472367701,-0.016733604,-0.022443783,-0.101808734,0.0,0.99860203,-0.008926304,-0.010781035,-0.05097116,0.53566206,-1.0,1,0,0,0,0,0,0
2472471009,-0.011874199,-0.019642705,-0.101808734,0.0,0.99863595,-0.0064288042,-0.009506222,-0.05093727,0.53373116,-1.0,1,0,0,0,0,0,0
2472570860,-0.015392615,-0.020047804,-0.101808734,0.0,0.998621,-0.008195893,-0.009618871,-0.05095537,0.53573316,-1.0,1,0,0,0,0,0,0
2472674563,-0.013632282,-0.015518225,-0.101808734,0.0,0.99864876,-0.0072018425,-0.0074019944,-0.050932486,0.5401985,-1.0,1,0,0,0,0,0,0
2472776099,-0.011453291,-0.014664921,-0.101808734,0.0,0.9986593,-0.0060921265,-0.007031401,-0.05092212,0.5348797,-1.0,1,0,0,0,0,0,0
2472878954,-0.017496048,-0.012607036,-0.101808734,0.0,0.9986438,-0.009057132,-0.0058499635,-0.050934497,0.5377658,-1.0,1,0,0,0,0,0,0
2472979131,-0.009557285,-0.0029414701,-0.101808734,0.0,0.9986918,-0.0048472625,-0.0012256651,-0.050888773,0.53471816,-1.0,1,0,0,0,0,0,0
2473082773,-0.0025928586,-0.009586063,-0.101808734,0.0,0.9986921,-0.0015386145,-0.004720836,-0.050887965,0.5357531,-1.0,1,0,0,0,0,0,0
2473183021,-0.0024971354,-0.011067657,-0.101808734,0.0,0.9986882,-0.0015285035,-0.0054630977,-0.050888468,0.53837246,-1.0,1,0,0,0,0,0,0
2473287875,-0.008991896,-0.013695469,-0.101808734,0.0,0.9986696,-0.004838426,-0.0066099833,-0.050911434,0.5390403,-1.0,1,0,0,0,0,0,0
2473391646,-0.0030880072,-0.005752603,-0.101808734,0.0,0.9986991,-0.0016883494,-0.0027940061,-0.050886557,0.5381662,-1.0,1,0,0,0,0,0,0
2473490551,-0.005657975,-0.00537102,-0.101808734,0.0,0.9986967,-0.0029619532,-0.0025380724,-0.050889593,0.53634125,-1.0,1,0,0,0,0,0,0
2473594580,-0.009241684,-0.009445739,-0.101808734,0.0,0.9986817,-0.004855097,-0.0044815675,-0.050903074,0.53929514,-1.0,1,0,0,0,0,0,0
2473695023,-0.010161131,-0.0054792794,-0.101808734,0.0,0.9986873,-0.0052133407,-0.0024775427,-0.050895438,0.5389398,-1.0,1,0,0,0,0,0,0
2473794879,-0.0059651895,0.0020721313,-0.101808734,0.0,0.99869984,-0.0029260083,0.0011864802,-0.050879046,0.53820795,-1.0,1,0,0,0,0,0,0
2473898779,-0.004736594,0.0011807382,-0.101808734,0.0,0.99870175,-0.0023351873,0.00071010715,-0.050880842,0.5365814,-1.0,1,0,0,0,0,0,0
2473999299,-0.004151459,0.0071451757,-0.101808734,0.0,0.9986965,-0.001891245,0.003673562,-0.050874554,0.5361896,-1.0,1,0,0,0,0,0,0
2474103253,-0.0012051726,0.011298888,-0.101808734,0.0,0.99868876,-0.00031434046,0.0056727557,-0.050878167,0.5368515,-1.0,1,0,0,0,0,0,0
2474206888,-0.007171357,0.011332181,-0.101808734,0.0,0.9986832,-0.003292668,0.0058411295,-0.050860956,0.53553027,-1.0,1,0,0,0,0,0,0
2474306560,-0.0022333136,0.018323664,-0.101808734,0.0,0.99866265,-0.00064899446,0.009206646,-0.050870012,0.5350746,-1.0,1,0,0,0,0,0,0
2474407289,-0.003424908,0.015901925,-0.101808734,0.0,0.9986723,-0.0013056218,0.008027698,-0.050867107,0.54006064,-1.0,1,0,0,0,0,0,0
2474511263,-0.0040170136,0.018758757,-0.101808734,0.0,0.9986597,-0.0015285783,0.009469265,-0.05086124,0.53939235,-1.0,1,0,0,0,0,0,0
2474610595,-0.0034093177,0.014979508,-0.101808734,0.0,0.9986758,-0.0013213098,0.0075667063,-0.05086814,0.5400457,-1.0,1,0,0,0,0,0,0
2474714576,-0.0038012452,0.0149199655,-0.101808734,0.0,0.99867576,-0.001518529,0.007546942,-0.05086672,0.54255706,-1.0,1,0,0,0,0,0,0
2474814913,-0.0045815874,0.013860158,-0.101808734,0.0,0.9986788,-0.0019351543,0.007037587,-0.05086518,0.5422618,-1.0,1,0,0,0,0,0,0
2474914909,-0.008493733,0.0118605485,-0.101808734,0.0,0.9986794,-0.003939536,0.00613859,-0.050855886,0.54342586,-1.0,1,0,0,0,0,0,0
2475018803,0.003732483,0.008536314,-0.101808734,0.0,0.9986934,0.002080979,0.00416765,-0.050889794,0.544348,-1.0,1,0,0,0,0,0,0
2475119273,0.0011826195,0.008663989,-0.101808734,0.0,0.998695,0.00081095967,0.0042962814,-0.050884467,0.5449981,-1.0,1,0,0,0,0,0,0
2475223101,0.004497849,0.01179551,-0.101808734,0.0,0.99868405,0.00254606,0.0057756384,-0.05089462,0.5465326,-1.0,1,0,0,0,0,0,0
2475327858,0.0010769466,0.015469023,-0.101808734,0.0,0.9986744,0.0009313061,0.007697017,-0.050885018,0.54867136,-1.0,1,0,0,0,0,0,0
2475431047,0.0033206746,0.017089503,-0.101808734,0.0,0.9986661,0.0020928965,0.008449088,-0.05089463,0.5471515,-1.0,1,0,0,0,0,0,0
2475530565,0.0025105458,0.01806751,-0.101808734,0.0,0.99866253,0.0017132481,0.008958056,-0.0508916,0.5477751,-1.0,1,0,0,0,0,0,0
2475634532,-0.002141346,0.021758446,-0.101808734,0.0,0.9986456,-0.00051567296,0.010919386,-0.050867714,0.54620886,-1.0,1,0,0,0,0,0,0
2475735249,0.0022153663,0.024697183,-0.101808734,0.0,0.9986272,0.0017344733,0.012275917,-0.050892137,0.54738826,-1.0,1,0,0,0,0,0,0
2475839199,0.009799115,0.023239825,-0.101808734,0.0,0.99862236,0.005484089,0.011355176,-0.050935194,0.54558855,-1.0,1,0,0,0,0,0,0
2475943100,0.0032244872,0.02414598,-0.101808734,0.0,0.99862957,0.002224324,0.011975014,-0.050898056,0.54848415,-1.0,1,0,0,0,0,0,0
2476042787,0.009693983,0.028143905,-0.101808734,0.0,0.9985906,0.0055561974,0.013806495,-0.050944872,0.5451994,-1.0,1,0,0,0,0,0,0
2476146730,0.00492288,0.02221471,-0.101808734,0.0,0.99863863,0.0030232528,0.01096747,-0.05090641,0.5469146,-1.0,1,0,0,0,0,0,0
2476248688,0.0060398793,0.026195008,-0.101808734,0.0,0.9986124,0.0036821747,0.0129264565,-0.050917294,0.54488283,-1.0,1,0,0,0,0,0,0
2476352895,0.009825247,0.020695837,-0.101808734,0.0,0.99863654,0.0054324884,0.010084254,-0.05092982,0.54371196,-1.0,1,0,0,0,0,0,0
2476456790,0.000903927,0.019312693,-0.101808734,0.0,0.99865776,0.0009426872,0.009620691,-0.050884377,0.5450946,-1.0,1,0,0,0,0,0,0
2476556186,0.0053467057,0.027593145,-0.101808734,0.0,0.99860424,0.00337161,0.013642201,-0.0509142,0.545124,-1.0,1,0,0,0,0,0,0
2476660172,0.002298841,0.02249712,-0.101808734,0.0,0.9986401,0.0017201998,0.011175264,-0.050892048,0.5451507,-1.0,1,0,0,0,0,0,0
2476760580,0.0012751704,0.020138416,-0.101808734,0.0,0.99865353,0.0011490635,0.010023552,-0.050886206,0.54842955,-1.0,1,0,0,0,0,0,0
2476860169,-0.0045999093,0.022939123,-0.101808734,0.0,0.9986377,-0.0017132378,0.011571442,-0.050852563,0.54611,-1.0,1,0,0,0,0,0,0
2476964500,-0.0008899206,0.01786526,-0.101808734,0.0,0.9986649,1.0141264e-05,0.008943578,-0.05087639,0.5469706,-1.0,1,0,0,0,0,0,0
2477064646,-0.008296047,0.018136319,-0.101808734,0.0,0.9986569,-0.0036810695,0.009267264,-0.050842296,0.5441315,-1.0,1,0,0,0,0,0,0
2477168697,0.0008726331,0.016691105,-0.101808734,0.0,0.9986696,0.00086037285,0.008312444,-0.050884247,0.5422154,-1.0,1,0,0,0,0,0,0
2477272914,-0.0068671852,0.016005768,-0.101808734,0.0,0.9986682,-0.0030218295,0.008167088,-0.05085302,0.54339266,-1.0,1,0,0,0,0,0,0
2477372354,-5.8368023e-05,0.025787223,-0.101808734,0.0,0.9986217,0.0006268958,0.012878038,-0.050877787,0.54155266,-1.0,1,0,0,0,0,0,0
2477476394,-0.0057753217,0.018241577,-0.101808734,0.0,0.99866027,-0.0024197174,0.009255734,-0.05085376,0.54331285,-1.0,1,0,0,0,0,0,0
2477577620,-0.004917327,0.021204766,-0.101808734,0.0,0.99864686,-0.0019158749,0.010713513,-0.050853338,0.54584223,-1.0,1,0,0,0,0,0,0
2477676356,0.004536287,0.02056411,-0.101808734,0.0,0.9986481,0.0027882487,0.010153126,-0.05090286,0.5439582,-1.0,1,0,0,0,0,0,0
2477780124,0.00035156452,0.016636813,-0.101808734,0.0,0.99867004,0.00059880386,0.008298591,-0.050882086,0.5462513,-1.0,1,0,0,0,0,0,0
2477880708,-0.001758893,0.017278448,-0.101808734,0.0,0.9986674,-0.0004386957,0.008672669,-0.050872877,0.5471702,-1.0,1,0,0,0,0,0,0
2477980147,-3.8655005e-05,0.020338785,-0.101808734,0.0,0.99865305,0.00049813255,0.010157028,-0.050879557,0.54376656,-1.0,1,0,0,0,0,0,0
2478084166,0.001168984,0.015292685,-0.101808734,0.0,0.99867505,0.000972778,0.0076066223,-0.050885357,0.5472888,-1.0,1,0,0,0,0,0,0
2478185580,-0.001961023,0.019835254,-0.101808734,0.0,0.99865556,-0.00047456913,0.009954501,-0.050870154,0.54633534,-1.0,1,0,0,0,0,0,0
2478288674,0.0014203289,0.022693777,-0.101808734,0.0,0.9986397,0.001286543,0.011295811,-0.050887153,0.5441966,-1.0,1,0,0,0,0,0,0
2478392780,-0.0029541631,0.018340498,-0.101808734,0.0,0.99866223,-0.0010085085,0.009233386,-0.050866667,0.54746616,-1.0,1,0,0,0,0,0,0
2478492186,0.0056965193,0.025909845,-0.101808734,0.0,0.9986149,0.0035034837,0.012792813,-0.050914764,0.5429785,-1.0,1,0,0,0,0,0,0
2478596165,-0.0001232551,0.020150643,-0.101808734,0.0,0.998654,0.00045110306,0.010065234,-0.050879184,0.5444365,-1.0,1,0,0,0,0,0,0
2478696595,0.0053117224,0.021769417,-0.101808734,0.0,0.9986405,0.003206088,0.010735229,-0.05090807,0.5444077,-1.0,1,0,0,0,0,0,0
2478796392,0.008874858,0.029288638,-0.101808734,0.0,0.99858445,0.005176295,0.01439892,-0.05094132,0.5455266,-1.0,1,0,0,0,0,0,0
2478900181,0.0012335235,0.026950669,-0.101808734,0.0,0.99861336,0.0013015431,0.01342609,-0.050886054,0.54543734,-1.0,1,0,0,0,0,0,0
2479000836,0.009792822,0.028321749,-0.101808734,0.0,0.99858904,0.005610065,0.013892774,-0.050945915,0.54677045,-1.0,1,0,0,0,0,0,0
2479100186,0.00884148,0.026804443,-0.101808734,0.0,0.99860215,0.005096512,0.013159413,-0.050936483,0.5487067,-1.0,1,0,0,0,0,0,0
2479204111,0.004457342,0.02667571,-0.101808734,0.0,0.9986118,0.0029042244,0.01320676,-0.050907426,0.54716134,-1.0,1,0,0,0,0,0,0
2479304814,0.007849691,0.026446797,-0.101808734,0.0,0.99860704,0.0045922217,0.013006094,-0.05092937,0.5482262,-1.0,1,0,0,0,0,0,0
2479409174,0.0036563978,0.023925666,-0.101808734,0.0,0.9986304,0.002434381,0.011854016,-0.05090051,0.5471577,-1.0,1,0,0,0,0,0,0
2479513323,0.00736447,0.027348457,-0.101808734,0.0,0.998602,0.004372864,0.013468654,-0.050927572,0.5471611,-1.0,1,0,0,0,0,0,0
2479612143,0.0063684345,0.026126795,-0.101808734,0.0,0.9986123,0.0038444903,0.012884031,-0.05091933,0.5468229,-1.0,1,0,0,0,0,0,0
2479716149,0.001971138,0.027015813,-0.101808734,0.0,0.9986124,0.0016714955,0.013439847,-0.05089102,0.5473485,-1.0,1,0,0,0,0,0,0
2479816742,0.004446363,0.028781664,-0.101808734,0.0,0.99859715,0.002952283,0.0142585505,-0.050908953,0.5465851,-1.0,1,0,0,0,0,0,0
2479916515,0.0059672203,0.03222663,-0.101808734,0.0,0.9985681,0.0037991984,0.015939882,-0.050923564,0.54389024,-1.0,1,0,0,0,0,0,0
2480020181,-0.0024721625,0.022511061,-0.101808734,0.0,0.9986414,-0.0006617059,0.011303595,-0.050865233,0.54506737,-1.0,1,0,0,0,0,0,0
2480122874,-0.0030772886,0.025483785,-0.101808734,0.0,0.99862343,-0.00088820624,0.0128033105,-0.050858613,0.54515606,-1.0,1,0,0,0,0,0,0
2480226575,0.0014099086,0.03131006,-0.101808734,0.0,0.99858147,0.0015004872,0.015598241,-0.050887156,0.5427094,-1.0,1,0,0,0,0,0,0
2480326029,0.0025668677,0.03295818,-0.101808734,0.0,0.99856716,0.0021200536,0.01639169,-0.050896563,0.5429015,-1.0,1,0,0,0,0,0,0
2480429743,0.0021334153,0.03284475,-0.101808734,0.0,0.99856853,0.0019007537,0.016346086,-0.050892994,0.54185677,-1.0,1,0,0,0,0,0,0
2480530451,0.003432478,0.033697356,-0.101808734,0.0,0.99856,0.002571031,0.016738718,-0.050903972,0.540431,-1.0,1,0,0,0,0,0,0
2480629675,0.0023059887,0.03422153,-0.101808734,0.0,0.99855685,0.0020219255,0.017029094,-0.050894607,0.54013056,-1.0,1,0,0,0,0,0,0
2480734007,-0.012903365,0.030579904,-0.101808734,0.0,0.9985722,-0.005664585,0.01559747,-0.05077687,0.5421028,-1.0,1,0,0,0,0,0,0
2480834503,-0.014508869,0.030096225,-0.101808734,0.0,0.9985709,-0.0064785182,0.015396734,-0.050766267,0.5403417,-1.0,1,0,0,0,0,0,0
2480938310,-0.014903844,0.02951933,-0.101808734,0.0,0.9985737,-0.006690432,0.015118729,-0.0507656,0.54191715,-1.0,1,0,0,0,0,0,0
2481042455,-0.018436434,0.025819309,-0.101808734,0.0,0.9985851,-0.008548551,0.0133610265,-0.05075714,0.5426452,-1.0,1,0,0,0,0,0,0
2481141744,-0.024585191,0.022561982,-0.101808734,0.0,0.9985727,-0.011701632,0.0118907085,-0.05073682,0.5430215,-1.0,1,0,0,0,0,0,0
2481245755,-0.025586154,0.025649767,-0.101808734,0.0,0.99854916,-0.012122617,0.0134577425,-0.05071019,0.5419597,-1.0,1,0,0,0,0,0,0
2481347269,-0.03048189,0.026934426,-0.101808734,0.0,0.9985085,-0.014534091,0.014223197,-0.050666887,0.5410284,-1.0,1,0,0,0,0,0,0
2481445975,-0.027480526,0.027713148,-0.101808734,0.0,0.9985242,-0.013015748,0.0145359235,-0.050682563,0.5389838,-1.0,1,0,0,0,0,0,0
2481550003,-0.026764171,0.021557758,-0.101808734,0.0,0.9985646,-0.01281518,0.011444596,-0.05073083,0.54026693,-1.0,1,0,0,0,0,0,0
2481650178,-0.030699946,0.02545776,-0.101808734,0.0,0.998516,-0.014680665,0.013491501,-0.050677147,0.5394993,-1.0,1,0,0,0,0,0,0
2481749745,-0.031362414,0.01947941,-0.101808734,0.0,0.9985423,-0.015163998,0.010523567,-0.050721195,0.54092425,-1.0,1,0,0,0,0,0,0
2481853920,-0.030034767,0.021619655,-0.101808734,0.0,0.99854195,-0.014446533,0.011558445,-0.050711565,0.5405487,-1.0,1,0,0,0,0,0,0
2481954221,-0.03013331,0.017202595,-0.101808734,0.0,0.99856097,-0.014608413,0.009355644,-0.050745312,0.53834254,-1.0,1,0,0,0,0,0,0
2482058307,-0.030945463,0.01565965,-0.101808734,0.0,0.99856067,-0.01505325,0.008605901,-0.050753754,0.5398875,-1.0,1,0,0,0,0,0,0
2482162368,-0.03401592,0.015567338,-0.101808734,0.0,0.9985367,-0.016588606,0.008637722,-0.050741274,0.53992915,-1.0,1,0,0,0,0,0,0
2482261941,-0.0254679,0.01483641,-0.101808734,0.0,0.998601,-0.0123393405,0.008055826,-0.05078252,0.53889006,-1.0,1,0,0,0,0,0,0
2482366064,-0.030647622,0.013922625,-0.101808734,0.0,0.9985686,-0.014948826,0.0077310856,-0.05076866,0.5404733,-1.0,1,0,0,0,0,0,0
2482466131,-0.030727193,0.018332044,-0.101808734,0.0,0.998552,-0.01487612,0.0099346135,-0.050733607,0.54007,-1.0,1,0,0,0,0,0,0
2482565736,-0.027577536,0.010887101,-0.101808734,0.0,0.99859875,-0.0134933125,0.0061375285,-0.050801832,0.54044765,-1.0,1,0,0,0,0,0,0
2482670056,-0.028310576,0.015130439,-0.101808734,0.0,0.9985815,-0.013751183,0.008274801,-0.050768886,0.54071563,-1.0,1,0,0,0,0,0,0
2482771161,-0.029347558,0.013607149,-0.101808734,0.0,0.99857914,-0.014307763,0.0075405696,-0.050776035,0.5392848,-1.0,1,0,0,0,0,0,0
2482869660,-0.022401465,0.020692859,-0.101808734,0.0,0.99859446,-0.010658981,0.010902071,-0.05076074,0.54269236,-1.0,1,0,0,0,0,0,0
2482974215,-0.01808894,0.026235605,-0.101808734,0.0,0.9985839,-0.008364435,0.013560057,-0.05075745,0.53727674,-1.0,1,0,0,0,0,0,0
2483074496,-0.022306763,0.016474545,-0.101808734,0.0,0.99861336,-0.010719223,0.008793477,-0.050785746,0.54401684,-1.0,1,0,0,0,0,0,0
2483178435,-0.015986454,0.024418103,-0.101808734,0.0,0.9986033,-0.0073610027,0.012599223,-0.050779507,0.54088336,-1.0,1,0,0,0,0,0,0
2483282200,-0.019265087,0.023594748,-0.101808734,0.0,0.9985946,-0.009019012,0.012271358,-0.050763,0.54156053,-1.0,1,0,0,0,0,0,0
2483381593,-0.014018329,0.03041954,-0.101808734,0.0,0.99857,-0.0062253578,0.015545707,-0.050768793,0.53816175,-1.0,1,0,0,0,0,0,0
2483485741,-0.013932023,0.026869612,-0.101808734,0.0,0.99859506,-0.0062727453,0.013771085,-0.050783098,0.5385386,-1.0,1,0,0,0,0,0,0
2483586127,-0.003339529,0.035666436,-0.101808734,0.0,0.998546,-0.0007599882,0.017894099,-0.05084449,0.5398539,-1.0,1,0,0,0,0,0,0
2483686044,0.008532082,0.031306192,-0.101808734,0.0,0.99856985,0.005056406,0.015414999,-0.050942376,0.53948265,-1.0,1,0,0,0,0,0,0
2483789739,0.0035011237,0.035610266,-0.101808734,0.0,0.99854326,0.0026539348,0.017692044,-0.050905377,0.5413615,-1.0,1,0,0,0,0,0,0
2483890778,0.015093229,0.03610034,-0.101808734,0.0,0.9985066,0.008453899,0.017641371,-0.05100868,0.5396047,-1.0,1,0,0,0,0,0,0
2483991611,0.0077776955,0.03662543,-0.101808734,0.0,0.99852604,0.004814885,0.018089993,-0.05094459,0.5396058,-1.0,1,0,0,0,0,0,0
2484091820,0.023640035,0.04932736,-0.101808734,0.0,0.99831635,0.013055571,0.024026277,-0.051154472,0.5399037,-1.0,1,0,0,0,0,0,0
2484195782,0.023892501,0.045688774,-0.101808734,0.0,0.99835896,0.013089572,0.022203501,-0.051138006,0.5407802,-1.0,1,0,0,0,0,0,0
2484295592,0.028668726,0.049086105,-0.101808734,0.0,0.9982834,0.01555955,0.023777159,-0.051213145,0.5389545,-1.0,1,0,0,0,0,0,0
2484399375,0.0291317,0.043982442,-0.101808734,0.0,0.99834096,0.015661705,0.021217693,-0.051184557,0.5423433,-1.0,1,0,0,0,0,0,0
2484499887,0.03672282,0.056749113,-0.101808734,0.0,0.99810785,0.019772545,0.027395383,-0.051373556,0.5370812,-1.0,1,0,0,0,0,0,0
2484599278,0.040164996,0.051064674,-0.101808734,0.0,0.9981517,0.021347342,0.024469906,-0.05136754,0.5373411,-1.0,1,0,0,0,0,0,0
2484703595,0.03533628,0.051597368,-0.101808734,0.0,0.9981933,0.01895081,0.024859736,-0.05131267,0.5389077,-1.0,1,0,0,0,0,0,0
2484804067,0.036677558,0.053164516,-0.101808734,0.0,0.99815917,0.019659707,0.025607495,-0.05134262,0.53603977,-1.0,1,0,0,0,0,0,0
2484903807,0.033491828,0.04475994,-0.101808734,0.0,0.9982955,0.017857742,0.021494161,-0.051236752,0.5402867,-1.0,1,0,0,0,0,0,0
2485007587,0.03411656,0.04929939,-0.101808734,0.0,0.99823457,0.018284107,0.02374403,-0.051279403,0.53855735,-1.0,1,0,0,0,0,0,0
2485108025,0.029187413,0.04014801,-0.101808734,0.0,0.9983822,0.015592586,0.019302135,-0.051159263,0.5356008,-1.0,1,0,0,0,0,0,0
2485211801,0.021115083,0.0411286,-0.101808734,0.0,0.9984268,0.011587668,0.019998001,-0.0510856,0.5377152,-1.0,1,0,0,0,0,0,0
2485315836,0.025008636,0.038026758,-0.101808734,0.0,0.99843395,0.013452852,0.018350007,-0.05110664,0.5354959,-1.0,1,0,0,0,0,0,0
2485415568,0.0126040075,0.0364385,-0.101808734,0.0,0.9985132,0.0072197244,0.017873676,-0.050987594,0.53948545,-1.0,1,0,0,0,0,0,0
2485519355,0.016975446,0.032746024,-0.101808734,0.0,0.99852777,0.009308522,0.015918672,-0.051012516,0.53818387,-1.0,1,0,0,0,0,0,0
2485620368,0.01225965,0.028500494,-0.101808734,0.0,0.99858004,0.006846273,0.013919171,-0.050963502,0.53602624,-1.0,1,0,0,0,0,0,0
2485719769,-0.0009645442,0.028896319,-0.101808734,0.0,0.99860066,0.00025353403,0.014453475,-0.050870117,0.5356893,-1.0,1,0,0,0,0,0,0
2485823524,0.0023595013,0.023963396,-0.101808734,0.0,0.99863154,0.0017877799,0.011905858,-0.05089282,0.5371596,-1.0,1,0,0,0,0,0,0
2485924471,-0.0045023994,0.023136353,-0.101808734,0.0,0.9986366,-0.0016595294,0.011667444,-0.05085285,0.53593385,-1.0,1,0,0,0,0,0,0
2486023574,-0.0027506105,0.024541384,-0.101808734,0.0,0.9986294,-0.00074907416,0.01232445,-0.05086166,0.53133756,-1.0,1,0,0,0,0,0,0
2486127545,-0.0075707166,0.01901154,-0.101808734,0.0,0.9986542,-0.00329661,0.009685845,-0.05084379,0.53687257,-1.0,1,0,0,0,0,0,0
2486228169,-0.0017994663,0.019523144,-0.101808734,0.0,0.99865717,-0.00040184078,0.009794547,-0.05087118,0.53473246,-1.0,1,0,0,0,0,0,0
2486331772,-0.0084577445,0.011237416,-0.101808734,0.0,0.9986812,-0.003937426,0.005826521,-0.0508574,0.5361599,-1.0,1,0,0,0,0,0,0
2486436041,-0.005589427,0.0129791675,-0.101808734,0.0,0.99868065,-0.002460829,0.006623305,-0.050863,0.53740656,-1.0,1,0,0,0,0,0,0
2486535533,-0.003128747,0.012826407,-0.101808734,0.0,0.99868345,-0.001235998,0.006484442,-0.050871264,0.53523266,-1.0,1,0,0,0,0,0,0
2486639376,-0.0030828377,0.008069944,-0.101808734,0.0,0.9986957,-0.0013341008,0.00410816,-0.0508757,0.5379313,-1.0,1,0,0,0,0,0,0
2486739909,-0.00096277974,0.015943665,-0.101808734,0.0,0.998673,-7.5129516e-05,0.007985913,-0.050876938,0.53509706,-1.0,1,0,0,0,0,0,0
2486839668,-0.0020356828,0.009929645,-0.101808734,0.0,0.99869215,-0.0007638893,0.0050101574,-0.05087669,0.53759456,-1.0,1,0,0,0,0,0,0
2486943736,-0.0018037063,0.0136305,-0.101808734,0.0,0.99868137,-0.00055389054,0.006852254,-0.050875045,0.5377812,-1.0,1,0,0,0,0,0,0
2487043833,-0.005919464,0.013241242,-0.101808734,0.0,0.9986794,-0.0026189599,0.006762563,-0.050861485,0.53900963,-1.0,1,0,0,0,0,0,0
2487143588,-0.009931947,0.0066619464,-0.101808734,0.0,0.9986877,-0.004790007,0.003579289,-0.050864957,0.539487,-1.0,1,0,0,0,0,0,0
2487247608,-0.009718086,0.011995576,-0.101808734,0.0,0.9986764,-0.0045474665,0.006237147,-0.05085177,0.5409446,-1.0,1,0,0,0,0,0,0
2487347839,-0.01761611,0.0123144025,-0.101808734,0.0,0.9986497,-0.008483085,0.0065971087,-0.05082529,0.5403588,-1.0,1,0,0,0,0,0,0
2487452016,-0.015210116,0.01397904,-0.101808734,0.0,0.9986541,-0.007239317,0.0073671564,-0.050826587,0.5418537,-1.0,1,0,0,0,0,0,0
2487555949,-0.015484916,0.017515644,-0.101808734,0.0,0.9986398,-0.007286455,0.00914004,-0.050811198,0.54405916,-1.0,1,0,0,0,0,0,0
2487655297,-0.011563591,0.018348515,-0.101808734,0.0,0.99864864,-0.005307236,0.0094562685,-0.05082642,0.5423748,-1.0,1,0,0,0,0,0,0
2487759246,-0.012189167,0.023248943,-0.101808734,0.0,0.99862224,-0.005494783,0.01191902,-0.050807253,0.5418015,-1.0,1,0,0,0,0,0,0
2487862202,-0.008633351,0.02463031,-0.101808734,0.0,0.99862236,-0.0036841403,0.012518401,-0.05082496,0.5436267,-1.0,1,0,0,0,0,0,0
2487965482,-0.010740774,0.030288583,-0.101808734,0.0,0.99857986,-0.0045922524,0.015397104,-0.050794594,0.54048073,-1.0,1,0,0,0,0,0,0
2488065292,-0.0075931884,0.030603427,-0.101808734,0.0,0.9985835,-0.0030126711,0.015474341,-0.05081805,0.54308254,-1.0,1,0,0,0,0,0,0
2488169200,-0.003299232,0.039157577,-0.101808734,0.0,0.9985135,-0.00065101223,0.019636068,-0.05084031,0.5369954,-1.0,1,0,0,0,0,0,0
2488269336,-0.007175819,0.031661768,-0.101808734,0.0,0.998576,-0.002777331,0.015992155,-0.05081897,0.5411276,-1.0,1,0,0,0,0,0,0
2488368929,-0.0061032623,0.03585251,-0.101808734,0.0,0.9985423,-0.0021351061,0.018057242,-0.050819352,0.54360414,-1.0,1,0,0,0,0,0,0
2488473005,-0.00023614195,0.041495364,-0.101808734,0.0,0.99848986,0.00093772315,0.020725327,-0.050868988,0.5372651,-1.0,1,0,0,0,0,0,0
2488573448,-0.0057862024,0.036627196,-0.101808734,0.0,0.99853575,-0.0019570813,0.018435959,-0.050820727,0.5409408,-1.0,1,0,0,0,0,0,0
2488672973,-0.0069253356,0.037379116,-0.101808734,0.0,0.9985276,-0.0025066633,0.01884031,-0.05080857,0.54197496,-1.0,1,0,0,0,0,0,0
2488777213,-0.0034172256,0.040305164,-0.101808734,0.0,0.99850214,-0.0006807116,0.020212008,-0.050837595,0.5392884,-1.0,1,0,0,0,0,0,0
2488877347,-0.0018531412,0.03580401,-0.101808734,0.0,0.99854505,-1.4374166e-05,0.017924994,-0.050857645,0.540315,-1.0,1,0,0,0,0,0,0
2488982424,-0.0018554826,0.04041493,-0.101808734,0.0,0.9985013,0.00010178336,0.0202271,-0.05085326,0.5378863,-1.0,1,0,0,0,0,0,0
2489085365,-0.0047486494,0.028509447,-0.101808734,0.0,0.9986021,-0.0016457184,0.014356536,-0.050843272,0.5392811,-1.0,1,0,0,0,0,0,0
2489185187,-0.00642366,0.031866185,-0.101808734,0.0,0.9985753,-0.0023965815,0.016075103,-0.050824564,0.5401015,-1.0,1,0,0,0,0,0,0
2489288951,-0.003553735,0.030932948,-0.101808734,0.0,0.998585,-0.0009874143,0.0155362,-0.05084878,0.5363887,-1.0,1,0,0,0,0,0,0
2489389361,-0.0060809585,0.022783797,-0.101808734,0.0,0.998637,-0.002456707,0.011531539,-0.05084426,0.54056144,-1.0,1,0,0,0,0,0,0
2489489005,-0.019819448,0.018486546,-0.101808734,0.0,0.99861765,-0.009426013,0.0097349165,-0.05078624,0.5446773,-1.0,1,0,0,0,0,0,0
2489593262,-0.012358018,0.017185753,-0.101808734,0.0,0.9986514,-0.005733526,0.008895865,-0.050826512,0.5420896,-1.0,1,0,0,0,0,0,0
2489693527,-0.018879615,0.011084591,-0.101808734,0.0,0.99864745,-0.009145302,0.0060151466,-0.050827082,0.5434581,-1.0,1,0,0,0,0,0,0
2489793160,-0.015758164,0.017044341,-0.101808734,0.0,0.99864084,-0.007434899,0.0089116525,-0.0508119,0.5434759,-1.0,1,0,0,0,0,0,0
2489897206,-0.014565051,0.010066793,-0.101808734,0.0,0.99866736,-0.0070168315,0.005397266,-0.050843786,0.541556,-1.0,1,0,0,0,0,0,0
2489997548,-0.008570584,0.0096817175,-0.101808734,0.0,0.9986848,-0.004033366,0.0050525675,-0.050860606,0.5446623,-1.0,1,0,0,0,0,0,0
2490102138,-0.0069550206,0.012080052,-0.101808734,0.0,0.9986815,-0.003165608,0.0062090694,-0.05086018,0.54218256,-1.0,1,0,0,0,0,0,0
2490205972,-0.014581123,0.0057297964,-0.101808734,0.0,0.9986751,-0.0071352543,0.0032320637,-0.05085997,0.54676026,-1.0,1,0,0,0,0,0,0
2490310066,-0.014851678,0.004168275,-0.101808734,0.0,0.99867576,-0.0073100924,0.002459219,-0.05086542,0.54451394,-1.0,1,0,0,0,0,0,0
2490408965,-0.0040866686,0.0035574527,-0.101808734,0.0,0.99870116,-0.0019501772,0.0018803873,-0.050878577,0.54464805,-1.0,1,0,0,0,0,0,0
2490513181,-0.0068351733,0.0071108774,-0.101808734,0.0,0.99869317,-0.003232224,0.0037246984,-0.050869633,0.5432285,-1.0,1,0,0,0,0,0,0
2490613364,-0.004434437,0.007988429,-0.101808734,0.0,0.9986947,-0.0020110928,0.0041018366,-0.050873015,0.54355645,-1.0,1,0,0,0,0,0,0
2490717447,-0.008736827,0.01119411,-0.101808734,0.0,0.9986807,-0.0040778853,0.0058119935,-0.050856683,0.5430208,-1.0,1,0,0,0,0,0,0
2490822478,-0.0051955357,0.010174759,-0.101808734,0.0,0.99868906,-0.00233551,0.0052129286,-0.050868355,0.54179895,-1.0,1,0,0,0,0,0,0
2490925645,-0.0062450054,0.012296751,-0.101808734,0.0,0.99868184,-0.0028055531,0.0062992196,-0.050862003,0.54219985,-1.0,1,0,0,0,0,0,0
2491025296,-0.0015201044,0.016553245,-0.101808734,0.0,0.99867046,-0.00033791224,0.008304476,-0.05087435,0.5418934,-1.0,1,0,0,0,0,0,0
2491128977,-0.006338419,0.019581437,-0.101808734,0.0,0.99865335,-0.0026667828,0.00993908,-0.050848715,0.5417136,-1.0,1,0,0,0,0,0,0
2491229543,0.0005192591,0.02311999,-0.101808734,0.0,0.99863774,0.00084746286,0.011531552,-0.05088199,0.54324806,-1.0,1,0,0,0,0,0,0
2491334003,-0.004942571,0.027197227,-0.101808734,0.0,0.998611,-0.0017759469,0.013706271,-0.05084396,0.5422389,-1.0,1,0,0,0,0,0,0
2491437406,-0.0034037128,0.030768784,-0.101808734,0.0,0.99858636,-0.0009166871,0.015450419,-0.050850146,0.53978646,-1.0,1,0,0,0,0,0,0
2491537288,-0.0022777787,0.033613253,-0.101808734,0.0,0.99856395,-0.00028213285,0.016841995,-0.050856058,0.54082143,-1.0,1,0,0,0,0,0,0
2491640946,-0.003916896,0.032055877,-0.101808734,0.0,0.99857605,-0.0011401556,0.016106097,-0.05084441,0.54093945,-1.0,1,0,0,0,0,0,0
2491743000,-0.004919282,0.038437154,-0.101808734,0.0,0.99851966,-0.0014781748,0.019317571,-0.050825633,0.54110265,-1.0,1,0,0,0,0,0,0
2491843257,-0.009882692,0.036418658,-0.101808734,0.0,0.99853146,-0.004007635,0.018435897,-0.050783474,0.5415785,-1.0,1,0,0,0,0,0,0
2491942796,-0.0150997685,0.032093976,-0.101808734,0.0,0.99855375,-0.0067226114,0.01640916,-0.0507534,0.54110384,-1.0,1,0,0,0,0,0,0
2492046827,-0.022231705,0.037348572,-0.101808734,0.0,0.9984794,-0.010149211,0.019213349,-0.05066308,0.5398626,-1.0,1,0,0,0,0,0,0
2492147176,-0.022110159,0.03676609,-0.101808734,0.0,0.99848527,-0.010103406,0.01891948,-0.050667733,0.53889567,-1.0,1,0,0,0,0,0,0
2492246745,-0.028892167,0.033770353,-0.101808734,0.0,0.9984705,-0.013565785,0.017595666,-0.050626233,0.53919816,-1.0,1,0,0,0,0,0,0
2492350741,-0.026593016,0.03653552,-0.101808734,0.0,0.99846214,-0.012347302,0.018917894,-0.050626833,0.5370152,-1.0,1,0,0,0,0,0,0
2492451295,-0.036988042,0.030981217,-0.101808734,0.0,0.99842864,-0.017678764,0.016408132,-0.050581496,0.53773713,-1.0,1,0,0,0,0,0,0
2492555341,-0.038951967,0.035489522,-0.101808734,0.0,0.99837565,-0.018543785,0.01870825,-0.050519615,0.53816175,-1.0,1,0,0,0,0,0,0
2492658986,-0.0413318,0.029920723,-0.101808734,0.0,0.9983954,-0.019874325,0.015988573,-0.050557096,0.5394053,-1.0,1,0,0,0,0,0,0
2492758829,-0.041877747,0.032467093,-0.101808734,0.0,0.9983715,-0.020081682,0.017273454,-0.050525095,0.53942025,-1.0,1,0,0,0,0,0,0
2492862931,-0.04966858,0.027191842,-0.101808734,0.0,0.9983216,-0.024105722,0.014837086,-0.050524835,0.5426868,-1.0,1,0,0,0,0,0,0
2492963392,-0.03977755,0.03530541,-0.101808734,0.0,0.99836946,-0.018960621,0.018637199,-0.0505138,0.53963524,-1.0,1,0,0,0,0,0,0
2493062585,-0.037962615,0.03637504,-0.101808734,0.0,0.99837714,-0.018027242,0.019125286,-0.050520074,0.53822386,-1.0,1,0,0,0,0,0,0
2493166527,-0.043141436,0.03018305,-0.101808734,0.0,0.9983752,-0.020770967,0.016165258,-0.05053968,0.54164493,-1.0,1,0,0,0,0,0,0
2493267187,-0.04115321,0.031125821,-0.101808734,0.0,0.99838865,-0.019754333,0.016585618,-0.050545674,0.53919035,-1.0,1,0,0,0,0,0,0
2493366837,-0.03740028,0.025123257,-0.101808734,0.0,0.9984632,-0.018034315,0.013494209,-0.05063489,0.5404539,-1.0,1,0,0,0,0,0,0
2493470508,-0.031431206,0.031391334,-0.101808734,0.0,0.99847084,-0.014894166,0.016472273,-0.05062351,0.53824276,-1.0,1,0,0,0,0,0,0
2493571711,-0.04094368,0.022660118,-0.101808734,0.0,0.99844307,-0.019866213,0.012354285,-0.05063683,0.54271775,-1.0,1,0,0,0,0,0,0
2493675104,-0.028043719,0.030390237,-0.101808734,0.0,0.998502,-0.013228564,0.01588672,-0.050658744,0.5425643,-1.0,1,0,0,0,0,0,0
2493779209,-0.027154136,0.023816573,-0.101808734,0.0,0.99855,-0.012952252,0.012582247,-0.050712626,0.5458094,-1.0,1,0,0,0,0,0,0
2493878865,-0.022813123,0.028865168,-0.101808734,0.0,0.99854404,-0.010656061,0.01499277,-0.050709374,0.54371876,-1.0,1,0,0,0,0,0,0
2493982842,-0.01941882,0.026898514,-0.101808734,0.0,0.9985739,-0.009011528,0.013924784,-0.050744973,0.54315317,-1.0,1,0,0,0,0,0,0
2494083347,-0.017843124,0.03124829,-0.101808734,0.0,0.99855006,-0.008113871,0.01605654,-0.05073495,0.5431544,-1.0,1,0,0,0,0,0,0
2494182719,-0.013273115,0.032379914,-0.101808734,0.0,0.99855727,-0.005803314,0.01650556,-0.0507673,0.53802836,-1.0,1,0,0,0,0,0,0
2494286505,-0.009754968,0.033520695,-0.101808734,0.0,0.9985567,-0.0040177056,0.016985796,-0.050792996,0.5409986,-1.0,1,0,0,0,0,0,0
2494387100,-0.007557551,0.039943483,-0.101808734,0.0,0.9985022,-0.0027569837,0.020136636,-0.050796513,0.5420879,-1.0,1,0,0,0,0,0,0
2494486825,-0.0012429082,0.047949146,-0.101808734,0.0,0.9984182,0.0005992956,0.02397283,-0.05085287,0.54036516,-1.0,1,0,0,0,0,0,0
2494590790,-0.0021702389,0.045062046,-0.101808734,0.0,0.9984519,6.289587e-05,0.02255512,-0.050845034,0.5428223,-1.0,1,0,0,0,0,0,0
2494691027,0.008895741,0.048300803,-0.101808734,0.0,0.9983981,0.0056694974,0.023890283,-0.050974317,0.54098445,-1.0,1,0,0,0,0,0,0
2494796519,0.0059339833,0.047706734,-0.101808734,0.0,0.99841255,0.0041758968,0.023669181,-0.050938364,0.5416188,-1.0,1,0,0,0,0,0,0
2494899208,0.007802542,0.04394484,-0.101808734,0.0,0.99845165,0.005013178,0.02174357,-0.05095532,0.54314995,-1.0,1,0,0,0,0,0,0
2494998830,0.0042201774,0.047965117,-0.101808734,0.0,0.99841267,0.0033269178,0.023841808,-0.05091818,0.5305428,-1.0,1,0,0,0,0,0,0
2495102719,0.006448803,0.04983179,-0.101808734,0.0,0.9983854,0.004486862,0.024716903,-0.05094656,0.51141804,-1.0,1,0,0,0,0,0,0
2495203193,0.012512973,0.061893538,-0.101808734,0.0,0.9981971,0.007819712,0.030582953,-0.051050358,0.49509078,-1.0,1,0,0,0,0,0,0
2495302570,0.012944793,0.056752875,-0.101808734,0.0,0.9982723,0.007905003,0.028006088,-0.051044237,0.49159008,-1.0,1,0,0,0,0,0,0
2495406586,0.007861086,0.052204657,-0.101808734,0.0,0.9983515,0.0052520917,0.02586543,-0.05096711,0.4898383,-1.0,1,0,0,0,0,0,0
2495507368,0.21863605,0.3806877,-0.101808734,0.0,0.97376317,0.11656053,0.18237254,-0.07027985,0.4986862,1.0,1,0,0,0,0,0,0
2495608772,0.2125554,0.38399926,-0.101808734,0.0,0.97379184,0.113648355,0.18420142,-0.06988136,0.52797043,1.0,1,0,0,0,0,0,0
2495708493,0.21578789,0.38225475,-0.101808734,0.0,0.9737764,0.11519664,0.18323714,-0.07009529,0.5511649,1.0,1,0,0,0,0,0,0
2495812537,0.35348585,0.0013326188,0.9737121,0.0,0.87009436,0.15508793,0.08283896,0.4604576,0.5271686,1.0,1,0,0,0,0,0,0
2495913219,0.30218652,0.009720352,0.9735062,0.0,0.8741185,0.13078813,0.07465248,0.46177733,0.507869,1.0,1,0,0,0,0,0,0
2496020526,0.2578208,0.008322265,0.9725093,0.0,0.87699604,0.111723505,0.06372319,0.4629635,0.50834227,1.0,1,0,0,0,0,0,0
2496120825,0.21738616,0.020808551,0.97085935,0.0,0.879734,0.09111611,0.059760243,0.46281168,0.51088136,1.0,1,0,0,0,0,0,0
2496220596,0.18136501,0.010547879,0.97085935,0.0,0.88105094,0.07764473,0.04689833,0.4642424,0.5193755,1.0,1,0,0,0,0,0,0
2496324485,0.13362706,0.015335363,0.96853644,0.0,0.88325363,0.05552353,0.037852522,0.4640554,0.5215894,1.0,1,0,0,0,0,0,0
2496424796,0.087768555,0.008136612,0.9667817,0.0,0.8846472,0.036954343,0.023988703,0.46417484,0.524103,1.0,1,0,0,0,0,0,0
2496524494,0.049019963,-0.0009827521,0.9648607,0.0,0.88559824,0.021938374,0.0109346965,0.46380478,0.524123,1.0,1,0,0,0,0,0,0
2496625485,0.022413617,-0.014403573,0.96184033,0.0,0.8864537,0.013266422,-0.0012004566,0.46262565,0.51974976,1.0,1,0,0,0,0,0,0
2496732545,-0.010761919,-0.018100755,0.96184033,0.0,0.88654304,-0.00058383343,-0.010512656,0.46252632,0.5195466,1.0,1,0,0,0,0,0,0
2496832814,-0.023723768,-0.029034965,0.96184033,0.0,0.8864935,-0.0038000224,-0.018355945,0.46236122,0.5146987,1.0,1,0,0,0,0,0,0
2496936782,-0.04915129,-0.031787843,0.95603555,0.0,0.88770795,-0.014506964,-0.025410214,0.45947635,0.5148047,1.0,1,0,0,0,0,0,0
2497036745,-0.05012043,-0.031698167,0.95417273,0.0,0.8881285,-0.014981584,-0.025579134,0.45863822,0.51126665,1.0,1,0,0,0,0,0,0
2497136714,-0.051834185,-0.05963178,0.95417273,0.0,0.88799834,-0.009325676,-0.038368054,0.4581483,0.5115006,1.0,1,0,0,0,0,0,0
2497240659,-0.046368357,-0.11045754,0.9506798,0.0,0.88812864,0.004674653,-0.0596607,0.4556823,0.5066914,1.0,1,0,0,0,0,0,0
2497340696,-0.046175305,-0.14186959,0.94917285,0.0,0.88775617,0.011896728,-0.073548414,0.45424458,0.5093817,1.0,1,0,0,0,0,0,0
2497444397,-0.043583896,-0.18421027,0.94917285,0.0,0.8864171,0.022720024,-0.09170592,0.453143,0.5140379,1.0,1,0,0,0,0,0,0
2497544732,-0.034151785,-0.21447559,0.9466168,0.0,0.8856562,0.033671215,-0.10299055,0.45152223,0.518766,1.0,1,0,0,0,0,0,0
2497644508,-0.028935017,-0.23719339,0.9456051,0.0,0.8847288,0.04108536,-0.11186951,0.45061314,0.5244191,1.0,1,0,0,0,0,0,0
2497749262,-0.022374928,-0.2664597,0.9456051,0.0,0.8830273,0.050615836,-0.12330526,0.44999626,0.5303613,1.0,1,0,0,0,0,0,0
2497852596,-0.009128294,-0.2420215,0.943833,0.0,0.8844264,0.05084051,-0.10957979,0.45077428,0.5248455,1.0,1,0,0,0,0,0,0
2497952977,-0.0064404076,-0.2117301,0.9432286,0.0,0.8859987,0.04515448,-0.09558667,0.45147595,0.52761334,1.0,1,0,0,0,0,0,0
2498056671,-0.009119191,-0.19060814,0.9429632,0.0,0.8870413,0.03917812,-0.08683829,0.4517543,0.5309515,1.0,1,0,0,0,0,0,0
2498162260,-0.006398437,-0.16180362,0.9421863,0.0,0.888271,0.033836506,-0.07345766,0.4521435,0.5304832,1.0,1,0,0,0,0,0,0
2498264701,-0.0042553446,-0.1426442,0.94181406,0.0,0.88895833,0.030439699,-0.06446804,0.45240518,0.53004616,1.0,1,0,0,0,0,0,0
2498372651,-0.004921266,-0.12045939,0.94181406,0.0,0.88960576,0.025120465,-0.054755863,0.4527388,0.5331625,1.0,1,0,0,0,0,0,0
2498472793,-0.0027727124,-0.1048704,0.94181406,0.0,0.88996446,0.02254489,-0.047334667,0.453006,0.5344647,1.0,1,0,0,0,0,0,0
2498581587,-0.004315615,-0.09500239,0.94101536,0.0,0.8903772,0.019604823,-0.043300726,0.45273513,0.537592,1.0,1,0,0,0,0,0,0
2498684551,-0.007820881,-0.08753415,0.9407466,0.0,0.8906163,0.016347174,-0.040771767,0.45262906,0.5349406,1.0,1,0,0,0,0,0,0
2498784643,-0.0062162806,-0.07357928,0.9407466,0.0,0.8908436,0.0139012085,-0.034194406,0.45280832,0.53341496,1.0,1,0,0,0,0,0,0
2498889284,-0.0074944785,-0.07165401,0.9401996,0.0,0.8910056,0.01288656,-0.033629853,0.45256174,0.53341365,1.0,1,0,0,0,0,0,0
2498992852,-0.010761969,-0.07110871,0.93998253,0.0,0.8910825,0.011303696,-0.03412752,0.4524152,0.5379172,1.0,1,0,0,0,0,0,0
2499092677,-0.0200216,-0.07370689,0.9396629,0.0,0.8911615,0.0077604027,-0.03738019,0.45207703,0.53810114,1.0,1,0,0,0,0,0,0
2499196350,-0.019787904,-0.06397277,0.93947566,0.0,0.8913305,0.005657889,-0.032991745,0.4521167,0.5373702,1.0,1,0,0,0,0,0,0
2499296604,-0.012753388,-0.054917984,0.9393433,0.0,0.8914419,0.0067419233,-0.027367018,0.45225757,0.53441375,1.0,1,0,0,0,0,0,0
2499400934,-0.024230978,-0.05787307,0.93905604,0.0,0.8915018,0.0022904065,-0.031278998,0.45193025,0.5397098,1.0,1,0,0,0,0,0,0
2499502161,-0.016715301,-0.05976212,0.9389058,0.0,0.89149964,0.0060655894,-0.030422768,0.451958,0.53710157,1.0,1,0,0,0,0,0,0
2499602375,-0.025342207,-0.05772038,0.9389058,0.0,0.8915384,0.001758161,-0.03146219,0.4518476,0.53704596,1.0,1,0,0,0,0,0,0
2499702197,-0.011119088,-0.049229186,0.9386771,0.0,0.8916456,0.006174946,-0.024464192,0.4520304,0.53364915,1.0,1,0,0,0,0,0,0
2499806069,-0.018748125,-0.05548633,0.9385848,0.0,0.89162374,0.004187554,-0.028977325,0.4518295,0.5364273,1.0,1,0,0,0,0,0,0
2499906586,-0.018000277,-0.059555728,0.93847907,0.0,0.8916021,0.0054395874,-0.030622322,0.45175037,0.5367557,1.0,1,0,0,0,0,0,0
2500006272,-0.01721221,-0.051234122,0.9384283,0.0,0.8916979,0.0039085895,-0.026735356,0.45182374,0.5338957,1.0,1,0,0,0,0,0,0
2500110550,-0.01891581,-0.047916595,0.93837065,0.0,0.89174354,0.0023981498,-0.025641484,0.45180777,0.53183687,1.0,1,0,0,0,0,0,0
2500210423,-0.021324974,-0.053388987,0.9383664,0.0,0.8916981,0.0025612977,-0.028624969,0.45171726,0.53763235,1.0,1,0,0,0,0,0,0
2500314356,-0.010411243,-0.04496379,0.93836313,0.0,0.8917541,0.005522438,-0.022403656,0.45193166,0.53390497,1.0,1,0,0,0,0,0,0
2500420002,-0.017085861,-0.047897484,0.938394,0.0,0.89173585,0.003210044,-0.025219524,0.45184156,0.536302,1.0,1,0,0,0,0,0,0
2500526325,-0.011458121,-0.047905173,0.9384816,0.0,0.8917034,0.0057220464,-0.023951182,0.45194983,0.5366841,1.0,1,0,0,0,0,0,0
2500629982,-0.009445087,-0.04123588,0.938567,0.0,0.8917371,0.0051125535,-0.020522777,0.45205936,0.5328135,1.0,1,0,0,0,0,0,0
2500730302,-0.005884312,-0.036529668,0.938567,0.0,0.8917643,0.005636082,-0.017619649,0.45212206,0.53102124,1.0,1,0,0,0,0,0,0
2500834473,0.0016206639,-0.0365824,0.938567,0.0,0.8917363,0.008994291,-0.01594646,0.4521848,0.53031296,1.0,1,0,0,0,0,0,0
2500934244,-0.0060533863,-0.037715364,0.93895596,0.0,0.8916677,0.005832328,-0.018185388,0.45228747,0.5377815,1.0,1,0,0,0,0,0,0
2501038328,-0.0028465157,-0.034016274,0.939113,0.0,0.89165014,0.006426614,-0.0158105,0.45240337,0.5350464,1.0,1,0,0,0,0,0,0
2501142068,-0.0031284508,-0.037822317,0.939113,0.0,0.8916219,0.007161929,-0.01757103,0.45238307,0.5351711,1.0,1,0,0,0,0,0,0
2501246006,-0.0040165894,-0.030261809,0.939407,0.0,0.8916124,0.005057708,-0.014400616,0.4525421,0.5353284,1.0,1,0,0,0,0,0,0
2501346276,0.007602869,-0.024322074,0.93958837,0.0,0.8915682,0.008894493,-0.009122394,0.4527073,0.53298247,1.0,1,0,0,0,0,0,0
2501446016,0.0041894168,-0.024617432,0.9396855,0.0,0.8915583,0.007440151,-0.010026337,0.45273376,0.5343648,1.0,1,0,0,0,0,0,0
2501546304,0.011508499,-0.022176703,0.9399842,0.0,0.8914734,0.01015148,-0.00727989,0.45290083,0.53137904,1.0,1,0,0,0,0,0,0
2501654436,0.007674826,-0.025686163,0.9401614,0.0,0.89142936,0.0092380615,-0.009711576,0.45296144,0.53189206,1.0,1,0,0,0,0,0,0
2501758270,0.0070297006,-0.023123328,0.9401614,0.0,0.89144826,0.008370187,-0.008715327,0.45296144,0.53377056,1.0,1,0,0,0,0,0,0
2501858297,0.008257171,-0.02567075,0.9405471,0.0,0.89133936,0.009495976,-0.009570983,0.45313624,0.5377934,1.0,1,0,0,0,0,0,0
2501962903,0.014324551,-0.017227275,0.9407191,0.0,0.8913215,0.010287811,-0.0044321073,0.45323342,0.5316367,1.0,1,0,0,0,0,0,0
2502069976,0.023535604,-0.01976783,0.9407191,0.0,0.8912474,0.014968202,-0.0034769566,0.453257,0.52988696,1.0,1,0,0,0,0,0,0
2502170464,0.016047187,-0.022277463,0.9407191,0.0,0.8912809,0.012199637,-0.0062925173,0.45324385,0.5259905,1.0,1,0,0,0,0,0,0
2502274270,0.01609415,-0.016811585,0.94130206,0.0,0.89118224,0.01098339,-0.003842616,0.45349616,0.52939904,1.0,1,0,0,0,0,0,0
2502379287,0.018969923,-0.018069124,0.94148767,0.0,0.89111584,0.012550201,-0.0037497536,0.45358685,0.5247254,1.0,1,0,0,0,0,0,0
2502482493,0.018260686,-0.016729126,0.94169146,0.0,0.891082,0.011930726,-0.0033122874,0.45367345,0.5265427,1.0,1,0,0,0,0,0,0
2502582186,0.028260019,-0.011575168,0.94188553,0.0,0.8909999,0.015216904,0.0012538311,0.45374665,0.5231802,1.0,1,0,0,0,0,0,0
2502686030,0.020360291,-0.0177534,0.9420848,0.0,0.8909734,0.013099092,-0.003289831,0.4538545,0.52607423,1.0,1,0,0,0,0,0,0
2502786429,0.02123717,-0.017262615,0.9422678,0.0,0.89092916,0.013378659,-0.0028709606,0.4539361,0.52697283,1.0,1,0,0,0,0,0,0
2502890298,0.033976097,-0.012239583,0.94244146,0.0,0.89082235,0.0179134,0.0022596195,0.4539929,0.52394533,1.0,1,0,0,0,0,0,0
2502990238,0.029485794,-0.01675081,0.94244146,0.0,0.89083064,0.016936962,-0.00076929224,0.45401913,0.5285481,1.0,1,0,0,0,0,0,0
2503090364,0.027183048,-0.010901814,0.94283843,0.0,0.8907955,0.014583766,0.0013164498,0.45416847,0.5293109,1.0,1,0,0,0,0,0,0
2503195239,0.024619097,-0.00700609,0.9429757,0.0,0.89080095,0.012557156,0.0024703767,0.45421356,0.5308664,1.0,1,0,0,0,0,0,0
2503298375,0.027669195,-0.009961226,0.9431401,0.0,0.89072853,0.014586484,0.0018480122,0.4542978,0.53214437,1.0,1,0,0,0,0,0,0
2503399810,0.022157967,-0.010056314,0.9432615,0.0,0.89073735,0.0121534895,0.0005545228,0.4543556,0.5310087,1.0,1,0,0,0,0,0,0
2503499862,0.026466887,-0.0043610753,0.9433632,0.0,0.8907122,0.012778768,0.0040706242,0.45436975,0.53160715,1.0,1,0,0,0,0,0,0
2503604172,0.030888183,-0.0062005334,0.9435327,0.0,0.89063466,0.015165252,0.004257134,0.45444673,0.5278657,1.0,1,0,0,0,0,0,0
2503708370,0.027458357,-0.011785256,0.94369036,0.0,0.89059496,0.014906521,0.0009918051,0.454552,0.53109145,1.0,1,0,0,0,0,0,0
2503807724,0.028663103,-0.008391225,0.9437409,0.0,0.890593,0.014671771,0.0027774516,0.45455596,0.5314357,1.0,1,0,0,0,0,0,0
2503911822,0.027371077,0.0014499825,0.943919,0.0,0.8906,0.011859466,0.006867368,0.45458093,0.52739626,1.0,1,0,0,0,0,0,0
2504015908,0.024741648,-0.0026351423,0.9439934,0.0,0.8905859,0.011616943,0.0044510183,0.45464486,0.5333632,1.0,1,0,0,0,0,0,0
2504116111,0.029673558,-0.00558373,0.94409466,0.0,0.89051884,0.014483031,0.0042599,0.4546958,0.5308396,1.0,1,0,0,0,0,0,0
2504220063,0.019226132,-0.0052294536,0.9441286,0.0,0.8905759,0.009750467,0.0020425788,0.4547256,0.52969915,1.0,1,0,0,0,0,0,0
2504324424,0.029173609,0.0012070052,0.94417274,0.0,0.8905306,0.012716448,0.007170482,0.4546892,0.52710944,1.0,1,0,0,0,0,0,0
2504423693,0.028489256,-0.004259591,0.94424164,0.0,0.8904996,0.01365437,0.004581268,0.45475593,0.52779293,1.0,1,0,0,0,0,0,0
2504527995,0.022955908,-0.0052695894,0.9442889,0.0,0.89051956,0.011420165,0.0028736303,0.4547926,0.53049076,1.0,1,0,0,0,0,0,0
2504628450,0.026464673,-0.0020615489,0.94428027,0.0,0.89051235,0.012253077,0.005099875,0.4547654,0.527935,1.0,1,0,0,0,0,0,0
2504727982,0.025105195,-0.0058887554,0.94433576,0.0,0.8904935,0.012517854,0.0030869662,0.45481315,0.5269649,1.0,1,0,0,0,0,0,0
2504831707,0.021899806,-0.003691867,0.9443405,0.0,0.8905192,0.0105911065,0.0033362713,0.45481005,0.53103894,1.0,1,0,0,0,0,0,0
2504932479,0.019121606,-0.0025799703,0.9443545,0.0,0.8905331,0.009101216,0.003199652,0.4548162,0.5310537,1.0,1,0,0,0,0,0,0
2505036020,0.017984014,0.005835951,0.94433993,0.0,0.89055556,0.006680893,0.006688263,0.4547762,0.5280939,1.0,1,0,0,0,0,0,0
2505135970,0.019870102,-0.001910567,0.94436044,0.0,0.8905301,0.009282266,0.0036679604,0.45481485,0.53430825,1.0,1,0,0,0,0,0,0
2505235821,0.015500733,-5.0083334e-05,0.9443334,0.0,0.8905581,0.006913679,0.0035026614,0.4548035,0.53479373,1.0,1,0,0,0,0,0,0
2505340493,0.014844273,0.00371442,0.9443433,0.0,0.8905629,0.0057652793,0.005029662,0.4547958,0.5322115,1.0,1,0,0,0,0,0,0
2505443844,0.01770739,0.004704905,0.9443135,0.0,0.8905616,0.006815012,0.0061216545,0.45477054,0.5332249,1.0,1,0,0,0,0,0,0
2505543815,0.016659189,0.0053627826,0.9443303,0.0,0.8905617,0.006198609,0.006176294,0.45477828,0.5360289,1.0,1,0,0,0,0,0,0
2505647704,0.020898398,0.002200346,0.9442993,0.0,0.89054877,0.008805472,0.0057319775,0.45476642,0.53472215,1.0,1,0,0,0,0,0,0
2505748377,0.019424543,0.004080652,0.9442983,0.0,0.89055806,0.007721628,0.0062340894,0.4547613,0.5327583,1.0,1,0,0,0,0,0,0
2505847871,0.01882206,0.009761232,0.94425446,0.0,0.8905737,0.0061617587,0.008626332,0.4547154,0.5294824,1.0,1,0,0,0,0,0,0
2505951623,0.018211907,0.0026650636,0.9442637,0.0,0.89056855,0.007503659,0.0053279027,0.45475593,0.5356835,1.0,1,0,0,0,0,0,0
2506052060,0.020355197,-0.0017796373,0.9441985,0.0,0.890565,0.009468799,0.003835807,0.45474124,0.53386503,1.0,1,0,0,0,0,0,0
2506156655,0.014312537,-0.0042932867,0.94416326,0.0,0.8905918,0.0073496136,0.0013424137,0.45474222,0.53467625,1.0,1,0,0,0,0,0,0
2506259853,0.015473259,0.0021784396,0.94411933,0.0,0.8906103,0.0063951523,0.004488042,0.45470032,0.53213954,1.0,1,0,0,0,0,0,0
2506359631,0.015392332,0.0060267816,0.9440707,0.0,0.8906248,0.005484304,0.006183173,0.45466384,0.5300469,1.0,1,0,0,0,0,0,0
2506463618,0.01290894,0.007977036,0.94401485,0.0,0.8906434,0.0039351988,0.0064869625,0.45463914,0.5330415,1.0,1,0,0,0,0,0,0
2506563992,0.014765733,0.0016336745,0.94401485,0.0,0.8906355,0.0062041567,0.004084276,0.45465723,0.5327299,1.0,1,0,0,0,0,0,0
2506663672,0.0025858977,0.0011207148,0.943872,0.0,0.89068925,0.00089687115,0.0010868933,0.45461044,0.5345391,1.0,1,0,0,0,0,0,0
2506767744,0.010468581,0.008400608,0.94376606,0.0,0.8907039,0.0027529162,0.006120496,0.4545345,0.53094286,1.0,1,0,0,0,0,0,0
2506867988,0.010879793,0.004222207,0.94367886,0.0,0.89072376,0.0038859292,0.0043529556,0.45450756,0.53107625,1.0,1,0,0,0,0,0,0
2506967743,0.001607812,0.0020693275,0.9435593,0.0,0.89076054,0.00024586188,0.0012869902,0.45447117,0.5274451,1.0,1,0,0,0,0,0,0
2507071376,0.0061499104,0.0054936344,0.9434992,0.0,0.8907708,0.0014908061,0.0038441725,0.45443413,0.5278745,1.0,1,0,0,0,0,0,0
2507172472,-0.00022933487,-0.00030425127,0.9433036,0.0,0.890819,-3.302837e-05,-0.0001876165,0.45435837,0.5332069,1.0,1,0,0,0,0,0,0
2507274049,-0.0019759375,-0.0009722001,0.9431721,0.0,0.8908485,-0.0006592956,-0.0008818753,0.45429912,0.5266191,1.0,1,0,0,0,0,0,0
2507379122,0.0016126151,0.005929032,0.9431721,0.0,0.8908458,-0.0006284815,0.0030072343,0.45429555,0.5244998,1.0,1,0,0,0,0,0,0
2507481657,-0.005000617,0.007855654,0.94286215,0.0,0.89090514,-0.004011412,0.0023638217,0.45416555,0.52638507,1.0,1,0,0,0,0,0,0
2507581388,-0.005794761,0.0032123136,0.942701,0.0,0.89094883,-0.0033107668,0.000115340685,0.45409155,0.52843416,1.0,1,0,0,0,0,0,0
2507685393,-0.0071947216,0.00094494404,0.9425396,0.0,0.8909859,-0.0034197238,-0.0012122967,0.45401654,0.52767605,1.0,1,0,0,0,0,0,0
2507785666,-0.013412093,0.0067421026,0.9423617,0.0,0.8909975,-0.007505443,-4.0450323e-05,0.45394614,0.5302181,1.0,1,0,0,0,0,0,0
2507885193,-0.012994422,-1.2080988e-06,0.94228125,0.0,0.89103234,-0.005789032,-0.0029496204,0.45389336,0.5296136,1.0,1,0,0,0,0,0,0
2507989326,-0.009165719,0.0007043752,0.94228125,0.0,0.891041,-0.0042434046,-0.001766352,0.45389962,0.5273146,1.0,1,0,0,0,0,0,0
2508090023,-0.01378675,-0.0011493682,0.94188964,0.0,0.89112043,-0.0058821677,-0.003639807,0.4537141,0.5291144,1.0,1,0,0,0,0,0,0
2508188979,-0.025092151,-0.004972698,0.94171023,0.0,0.8911219,-0.010052654,-0.007906952,0.45358363,0.53105414,1.0,1,0,0,0,0,0,0
2508293491,-0.011150975,-0.0020697792,0.94154614,0.0,0.8912062,-0.004499553,-0.0034511872,0.45356292,0.5275758,1.0,1,0,0,0,0,0,0
2508393614,-0.018150328,-0.0052154735,0.9413965,0.0,0.8912228,-0.006905536,-0.006439647,0.45346737,0.5308981,1.0,1,0,0,0,0,0,0
2508498009,-0.016019547,-0.011246307,0.94133717,0.0,0.89124304,-0.0045887395,-0.008643728,0.45342043,0.5326953,1.0,1,0,0,0,0,0,0
2508601736,-0.020975843,-0.007005283,0.94113547,0.0,0.8912732,-0.007759791,-0.007876792,0.45333195,0.5311597,1.0,1,0,0,0,0,0,0
2508701436,-0.019620523,-0.0038535665,0.9410715,0.0,0.8912896,-0.007870488,-0.006164846,0.45332435,0.5329911,1.0,1,0,0,0,0,0,0
2508805211,-0.014087245,-0.0022930687,0.9410715,0.0,0.8913065,-0.00575832,-0.0042152056,0.45334518,0.53088886,1.0,1,0,0,0,0,0,0
2508905646,-0.015493645,-0.0075547462,0.9410001,0.0,0.8913219,-0.005192599,-0.006878644,0.4532891,0.5314585,1.0,1,0,0,0,0,0,0
2509005402,-0.01244568,-0.0012531355,0.940975,0.0,0.89133173,-0.0052626445,-0.0033794034,0.45330858,0.5319874,1.0,1,0,0,0,0,0,0
2509109317,-0.010379272,0.0012980308,0.940975,0.0,0.8913337,-0.0049199546,-0.0017740686,0.45331767,0.53243214,1.0,1,0,0,0,0,0,0
2509209609,-0.00899944,-0.00415081,0.94100416,0.0,0.89133406,-0.0030699202,-0.003889737,0.45332,0.5356608,1.0,1,0,0,0,0,0,0
2509309194,-0.0051173065,-0.00852443,0.94103897,0.0,0.89132684,-0.00034832835,-0.0049589803,0.45333406,0.5340498,1.0,1,0,0,0,0,0,0
2509413269,-0.00681781,-0.0016277019,0.9410672,0.0,0.89132226,-0.0026694734,-0.0022708671,0.45335674,0.5309442,1.0,1,0,0,0,0,0,0
2509513470,-0.008603252,-0.012092474,0.9410845,0.0,0.89130986,-0.0010929162,-0.0073392503,0.45333403,0.536628,1.0,1,0,0,0,0,0,0
2509617559,-0.0008575229,-0.0022403107,0.9410913,0.0,0.89132065,0.00012568381,-0.0011928064,0.453372,0.53175414,1.0,1,0,0,0,0,0,0
2509721694,-0.0048720166,-0.0075388355,0.9411583,0.0,0.89130104,-0.00046215634,-0.0044641695,0.45338985,0.53122646,1.0,1,0,0,0,0,0,0
2509821334,-0.0028731932,-0.0020382958,0.9412156,0.0,0.89129215,-0.0008183175,-0.0015597509,0.45342612,0.52799225,1.0,1,0,0,0,0,0,0
2509925549,0.002933135,-1.6100596e-05,0.9412156,0.0,0.8912919,0.0013107909,0.00065780745,0.45342758,0.52564716,1.0,1,0,0,0,0,0,0
2510025821,0.002984517,-0.0029554479,0.94137204,0.0,0.8912545,0.002000128,-0.0006402955,0.45349878,0.5280175,1.0,1,0,0,0,0,0,0
2510125545,0.0025401842,-0.0071393433,0.9414886,0.0,0.89122254,0.0027509567,-0.0026053465,0.45355058,0.529378,1.0,1,0,0,0,0,0,0
2510228945,0.0044358233,-0.00074562425,0.9416419,0.0,0.8911936,0.0021457062,0.0006738358,0.45361766,0.52703345,1.0,1,0,0,0,0,0,0
2510329713,0.0039770943,-0.00925504,0.9417402,0.0,0.8911584,0.0038714386,-0.0032217845,0.4536643,0.5338954,1.0,1,0,0,0,0,0,0
2510429230,0.0051418515,-0.010823545,0.9417906,0.0,0.89114016,0.0047462923,-0.0036563585,0.45368856,0.5331782,1.0,1,0,0,0,0,0,0
2510533445,0.009833129,4.53093e-05,0.9419466,0.0,0.8911164,0.0043709856,0.0022510884,0.4537483,0.5294055,1.0,1,0,0,0,0,0,0
2510633767,0.011004332,-0.007225835,0.9420412,0.0,0.8910773,0.0065424535,-0.0007226031,0.4538039,0.53330106,1.0,1,0,0,0,0,0,0
2510738153,0.014952848,-0.005104381,0.9420412,0.0,0.8910691,0.007820341,0.0011185238,0.45379886,0.529712,1.0,1,0,0,0,0,0,0
2510841786,0.014863537,-0.00075062795,0.94220376,0.0,0.8910428,0.0067924922,0.003038592,0.45385835,0.52864784,1.0,1,0,0,0,0,0,0
2510945636,0.0063958443,-0.0040084496,0.94227445,0.0,0.89104337,0.0037592188,-0.00033432854,0.45390242,0.5302869,1.0,1,0,0,0,0,0,0
2511045192,0.00980707,-2.8236465e-07,0.94227445,0.0,0.891042,0.0043693543,0.0022255792,0.45389447,0.53036666,1.0,1,0,0,0,0,0,0
2511147285,0.00879284,0.000506664,0.9423421,0.0,0.89102924,0.0038023677,0.0022213864,0.45392472,0.52835476,1.0,1,0,0,0,0,0,0
2511251361,0.010688994,-0.0031030364,0.94236547,0.0,0.89101446,0.0054663755,0.0010436365,0.45394087,0.52671194,1.0,1,0,0,0,0,0,0
2511350836,0.010941942,0.004249485,0.94236547,0.0,0.89102197,0.0039102836,0.004376661,0.45392233,0.5250989,1.0,1,0,0,0,0,0,0
2511451289,0.00891907,0.0025804196,0.942416,0.0,0.89101356,0.0033878186,0.0031740468,0.45395294,0.5272743,1.0,1,0,0,0,0,0,0
2511555371,0.0088786995,-0.0017333038,0.9424434,0.0,0.8910035,0.0043489444,0.0012431558,0.45397395,0.5304518,1.0,1,0,0,0,0,0,0
2511654980,0.010331078,0.002776791,0.9424459,0.0,0.89100426,0.003972252,0.0035820825,0.45396346,0.5286463,1.0,1,0,0,0,0,0,0
2511758962,0.0069138706,0.0016567396,0.942424,0.0,0.8910144,0.0027041372,0.002307418,0.4539612,0.5312675,1.0,1,0,0,0,0,0,0
2511859524,0.008123124,0.0019909411,0.94241136,0.0,0.8910157,0.003167027,0.0027307624,0.45395336,0.5283406,1.0,1,0,0,0,0,0,0
2511958978,0.005435906,0.0002235554,0.94235414,0.0,0.89103144,0.0023710476,0.0013333709,0.4539335,0.5324642,1.0,1,0,0,0,0,0,0
2512063044,0.0044323634,0.0009393,0.94231313,0.0,0.8910421,0.0017615317,0.0014244396,0.4539151,0.53098994,1.0,1,0,0,0,0,0,0
2512163800,-0.0007165546,0.0070223627,0.94231313,0.0,0.8910378,-0.0019130206,0.0029659828,0.45391545,0.53334,1.0,1,0,0,0,0,0,0
2512268027,0.006315247,0.01040234,0.9422087,0.0,0.89105856,0.00045297726,0.006067681,0.45384756,0.5304515,1.0,1,0,0,0,0,0,0
2512371124,0.00044709028,0.004053748,0.942147,0.0,0.89107996,-0.0007206857,0.0019075632,0.45384178,0.5365727,1.0,1,0,0,0,0,0,0
2512470728,-0.0007307946,0.007632272,0.9420531,0.0,0.8910957,-0.0020573675,0.003234745,0.4537992,0.5338044,1.0,1,0,0,0,0,0,0
2512572092,0.0028415993,0.011283017,0.94196486,0.0,0.8911115,-0.0012937993,0.0056719403,0.45374718,0.5311935,1.0,1,0,0,0,0,0,0
2512675063,-0.00042272866,0.0033813221,0.941925,0.0,0.89113057,-0.0009554804,0.001410696,0.45374385,0.5356662,1.0,1,0,0,0,0,0,0
2512774862,0.0033961711,0.0029583068,0.94181746,0.0,0.8911553,0.0008421721,0.0020885684,0.45369294,0.5322759,1.0,1,0,0,0,0,0,0
2512878945,0.004995434,0.009146422,0.9417507,0.0,0.8911646,0.00015116931,0.0052086064,0.45365024,0.5316881,1.0,1,0,0,0,0,0,0
2512980418,-0.002639088,0.010057467,0.9417204,0.0,0.8911633,-0.0034572233,0.003882869,0.45365286,0.53493065,1.0,1,0,0,0,0,0,0
2513083372,3.265169e-05,0.007258467,0.941648,0.0,0.891189,-0.0016317426,0.0032417523,0.45361775,0.5346365,1.0,1,0,0,0,0,0,0
2513187140,0.0065574422,0.008165528,0.9416279,0.0,0.8911933,0.0010699898,0.0051257783,0.45359364,0.5321054,1.0,1,0,0,0,0,0,0
2513287186,0.008936278,0.013464268,0.94158065,0.0,0.89119464,0.0009283666,0.008026294,0.4535492,0.52904075,1.0,1,0,0,0,0,0,0
2513387068,0.0047262684,0.007598973,0.9415534,0.0,0.89121145,0.00038268956,0.0044580046,0.4535661,0.53483987,1.0,1,0,0,0,0,0,0
2513491783,0.0015775473,0.01118197,0.9415459,0.0,0.8912057,-0.0018329604,0.005340521,0.45356414,0.5338139,1.0,1,0,0,0,0,0,0
2513595788,0.001381243,0.009339136,0.9415378,0.0,0.89121133,-0.0015024868,0.0044748383,0.45356375,0.53462046,1.0,1,0,0,0,0,0,0
2513694809,0.006236108,0.012303111,0.9415686,0.0,0.8912003,-1.1432394e-05,0.0068965587,0.4535575,0.53276944,1.0,1,0,0,0,0,0,0
2513798985,0.0047128554,0.0076346393,0.9415686,0.0,0.89120793,0.00036858986,0.004470859,0.45357278,0.5299669,1.0,1,0,0,0,0,0,0
2513899106,0.0066124364,0.009735042,0.9416546,0.0,0.89118516,0.0007384368,0.0058376202,0.4536016,0.52749354,1.0,1,0,0,0,0,0,0
2513999226,0.006245199,0.0071437885,0.9416971,0.0,0.89117867,0.001162435,0.004599725,0.45362768,0.5287348,1.0,1,0,0,0,0,0,0
2514102841,-0.0006573048,0.0055825226,0.9417797,0.0,0.891161,-0.0015592184,0.0023383687,0.45367852,0.5306158,1.0,1,0,0,0,0,0,0
2514203741,0.0068799444,0.014299528,0.9418383,0.0,0.89113474,-0.00017838858,0.007932123,0.45366937,0.53060454,1.0,1,0,0,0,0,0,0
2514307862,0.00034015032,0.011759652,0.94186836,0.0,0.89112985,-0.0025162145,0.0053169113,0.45371026,0.5322332,1.0,1,0,0,0,0,0,0
2514411078,0.0019468907,0.007890985,0.9419385,0.0,0.8911233,-0.00092280423,0.003957629,0.45374304,0.5335873,1.0,1,0,0,0,0,0,0
2514510915,-0.0035989187,0.012173822,0.9419799,0.0,0.89109665,-0.0043655303,0.0046075997,0.45376933,0.5340619,1.0,1,0,0,0,0,0,0
2514614961,-0.0012186065,0.014766851,0.9419885,0.0,0.89109105,-0.0038933111,0.006302962,0.45376408,0.5338027,1.0,1,0,0,0,0,0,0
2514715268,-0.009109938,0.008165603,0.942012,0.0,0.8910871,-0.0059116227,0.0015712433,0.45379114,0.5356598,1.0,1,0,0,0,0,0,0
2514814774,-0.006918805,0.016425358,0.94200414,0.0,0.8910658,-0.0068092924,0.0057485574,0.45378676,0.5357429,1.0,1,0,0,0,0,0,0
2514918918,-0.0030549555,0.010443988,0.94200414,0.0,0.89109725,-0.0037307579,0.0039602374,0.45377988,0.5370023,1.0,1,0,0,0,0,0,0
2515020793,-0.010859976,0.007411804,0.9419486,0.0,0.89109826,-0.006520291,0.0008385182,0.4537629,0.53966165,1.0,1,0,0,0,0,0,0
2515120617,-0.014177514,0.009447871,0.9419329,0.0,0.89108264,-0.008460295,0.0009930753,0.4537612,0.5413194,1.0,1,0,0,0,0,0,0
2515220645,-0.0069825007,0.018697897,0.9418921,0.0,0.89108026,-0.007352855,0.0067470334,0.45373607,0.53548867,1.0,1,0,0,0,0,0,0
2515325294,-0.011926261,0.013743886,0.9418792,0.0,0.8910869,-0.008431725,0.0034181878,0.45374158,0.53824335,1.0,1,0,0,0,0,0,0
