timestamp,noutputs,output[0],output[1],output[2],output[3],output[4],output[5],output[6],output[7],output[8],output[9],output[10],output[11],output[12],output[13],output[14],output[15]
2467875757,8,1450.0,1464.0,1472.0,1467.0,1455.0,1439.0,1433.0,1436.0,0.0,0.0,0.0,0.0,0.0,0.0,0.0,0.0
2468051753,8,1472.0,1488.0,1494.0,1490.0,1474.0,1460.0,1452.0,1459.0,0.0,0.0,0.0,0.0,0.0,0.0,0.0,0.0
2468091769,8,1476.0,1494.0,1497.0,1495.0,1478.0,1467.0,1457.0,1466.0,0.0,0.0,0.0,0.0,0.0,0.0,0.0,0.0
2468131781,8,1484.0,1496.0,1507.0,1498.0,1487.0,1468.0,1464.0,1465.0,0.0,0.0,0.0,0.0,0.0,0.0,0.0,0.0
2468175823,8,1485.0,1501.0,1506.0,1505.0,1491.0,1479.0,1470.0,1475.0,0.0,0.0,0.0,0.0,0.0,0.0,0.0,0.0
2468219741,8,1496.0,1509.0,1512.0,1506.0,1491.0,1480.0,1475.0,1483.0,0.0,0.0,0.0,0.0,0.0,0.0,0.0,0.0
2468259754,8,1492.0,1506.0,1525.0,1520.0,1513.0,1488.0,1480.0,1474.0,0.0,0.0,0.0,0.0,0.0,0.0,0.0,0.0
2468303811,8,1514.0,1508.0,1540.0,1512.0,1520.0,1479.0,1494.0,1475.0,0.0,0.0,0.0,0.0,0.0,0.0,0.0,0.0
2468343834,8,1508.0,1529.0,1528.0,1527.0,1506.0,1498.0,1486.0,1499.0,0.0,0.0,0.0,0.0,0.0,0.0,0.0,0.0
2468387754,8,1518.0,1532.0,1555.0,1536.0,1524.0,1488.0,1487.0,1484.0,0.0,0.0,0.0,0.0,0.0,0.0,0.0,0.0
2468427770,8,1520.0,1542.0,1543.0,1539.0,1517.0,1505.0,1494.0,1507.0,0.0,0.0,0.0,0.0,0.0,0.0,0.0,0.0
2468467772,8,1522.0,1544.0,1546.0,1546.0,1524.0,1512.0,1499.0,1511.0,0.0,0.0,0.0,0.0,0.0,0.0,0.0,0.0
2468511819,8,1528.0,1548.0,1553.0,1550.0,1532.0,1518.0,1508.0,1516.0,0.0,0.0,0.0,0.0,0.0,0.0,0.0,0.0
2468551823,8,1532.0,1552.0,1552.0,1554.0,1535.0,1528.0,1515.0,1526.0,0.0,0.0,0.0,0.0,0.0,0.0,0.0,0.0
2468595744,8,1538.0,1556.0,1563.0,1562.0,1546.0,1531.0,1520.0,1526.0,0.0,0.0,0.0,0.0,0.0,0.0,0.0,0.0
2468635775,8,1543.0,1563.0,1569.0,1568.0,1550.0,1536.0,1524.0,1531.0,0.0,0.0,0.0,0.0,0.0,0.0,0.0,0.0
2468679827,8,1550.0,1570.0,1577.0,1574.0,1555.0,1538.0,1527.0,1535.0,0.0,0.0,0.0,0.0,0.0,0.0,0.0,0.0
2468719812,8,1554.0,1576.0,1577.0,1578.0,1557.0,1547.0,1534.0,1545.0,0.0,0.0,0.0,0.0,0.0,0.0,0.0,0.0
2468763760,8,1565.0,1574.0,1560.0,1565.0,1553.0,1564.0,1558.0,1573.0,0.0,0.0,0.0,0.0,0.0,0.0,0.0,0.0
2468803927,8,1576.0,1562.0,1528.0,1535.0,1537.0,1575.0,1584.0,1602.0,0.0,0.0,0.0,0.0,0.0,0.0,0.0,0.0
2468847822,8,1598.0,1535.0,1496.0,1492.0,1537.0,1592.0,1638.0,1635.0,0.0,0.0,0.0,0.0,0.0,0.0,0.0,0.0
2468887809,8,1619.0,1527.0,1488.0,1466.0,1533.0,1591.0,1665.0,1652.0,0.0,0.0,0.0,0.0,0.0,0.0,0.0,0.0
2468931851,8,1588.0,1506.0,1499.0,1473.0,1541.0,1566.0,1630.0,1599.0,0.0,0.0,0.0,0.0,0.0,0.0,0.0,0.0
2468975804,8,1554.0,1476.0,1517.0,1476.0,1554.0,1528.0,1591.0,1528.0,0.0,0.0,0.0,0.0,0.0,0.0,0.0,0.0
2469019752,8,1531.0,1454.0,1504.0,1469.0,1552.0,1523.0,1580.0,1508.0,0.0,0.0,0.0,0.0,0.0,0.0,0.0,0.0
2469063778,8,1539.0,1453.0,1469.0,1441.0,1521.0,1526.0,1591.0,1539.0,0.0,0.0,0.0,0.0,0.0,0.0,0.0,0.0
2469103791,8,1505.0,1427.0,1454.0,1436.0,1517.0,1516.0,1568.0,1507.0,0.0,0.0,0.0,0.0,0.0,0.0,0.0,0.0
2469147743,8,1490.0,1422.0,1479.0,1449.0,1528.0,1492.0,1539.0,1465.0,0.0,0.0,0.0,0.0,0.0,0.0,0.0,0.0
2469187921,8,1486.0,1423.0,1486.0,1446.0,1518.0,1469.0,1518.0,1446.0,0.0,0.0,0.0,0.0,0.0,0.0,0.0,0.0
2469231791,8,1476.0,1439.0,1483.0,1455.0,1499.0,1461.0,1492.0,1445.0,0.0,0.0,0.0,0.0,0.0,0.0,0.0,0.0
2469271778,8,1472.0,1437.0,1473.0,1450.0,1491.0,1461.0,1490.0,1448.0,0.0,0.0,0.0,0.0,0.0,0.0,0.0,0.0
2469315748,8,1479.0,1442.0,1485.0,1452.0,1492.0,1453.0,1486.0,1443.0,0.0,0.0,0.0,0.0,0.0,0.0,0.0,0.0
2469355750,8,1480.0,1452.0,1486.0,1450.0,1478.0,1441.0,1473.0,1442.0,0.0,0.0,0.0,0.0,0.0,0.0,0.0,0.0
2469399787,8,1474.0,1448.0,1495.0,1458.0,1487.0,1438.0,1466.0,1428.0,0.0,0.0,0.0,0.0,0.0,0.0,0.0,0.0
2469439774,8,1471.0,1450.0,1500.0,1465.0,1493.0,1440.0,1464.0,1425.0,0.0,0.0,0.0,0.0,0.0,0.0,0.0,0.0
2469483736,8,1474.0,1448.0,1498.0,1459.0,1489.0,1435.0,1465.0,1425.0,0.0,0.0,0.0,0.0,0.0,0.0,0.0,0.0
2469523751,8,1466.0,1449.0,1505.0,1468.0,1493.0,1431.0,1454.0,1412.0,0.0,0.0,0.0,0.0,0.0,0.0,0.0,0.0
2469567780,8,1460.0,1453.0,1513.0,1479.0,1496.0,1430.0,1443.0,1404.0,0.0,0.0,0.0,0.0,0.0,0.0,0.0,0.0
2469607769,8,1462.0,1460.0,1517.0,1481.0,1493.0,1426.0,1439.0,1404.0,0.0,0.0,0.0,0.0,0.0,0.0,0.0,0.0
2469651729,8,1461.0,1449.0,1506.0,1471.0,1492.0,1430.0,1448.0,1408.0,0.0,0.0,0.0,0.0,0.0,0.0,0.0,0.0
2469691746,8,1458.0,1444.0,1502.0,1472.0,1497.0,1436.0,1452.0,1409.0,0.0,0.0,0.0,0.0,0.0,0.0,0.0,0.0
2469735795,8,1459.0,1446.0,1497.0,1469.0,1492.0,1439.0,1454.0,1416.0,0.0,0.0,0.0,0.0,0.0,0.0,0.0,0.0
2469775786,8,1466.0,1447.0,1496.0,1462.0,1488.0,1436.0,1459.0,1421.0,0.0,0.0,0.0,0.0,0.0,0.0,0.0,0.0
2469819757,8,1463.0,1444.0,1486.0,1460.0,1485.0,1443.0,1463.0,1427.0,0.0,0.0,0.0,0.0,0.0,0.0,0.0,0.0
2469859792,8,1465.0,1449.0,1487.0,1460.0,1481.0,1440.0,1459.0,1429.0,0.0,0.0,0.0,0.0,0.0,0.0,0.0,0.0
2469903770,8,1466.0,1449.0,1489.0,1461.0,1483.0,1440.0,1459.0,1428.0,0.0,0.0,0.0,0.0,0.0,0.0,0.0,0.0
2469943780,8,1464.0,1448.0,1491.0,1464.0,1487.0,1443.0,1460.0,1426.0,0.0,0.0,0.0,0.0,0.0,0.0,0.0,0.0
2469987761,8,1463.0,1444.0,1490.0,1464.0,1490.0,1444.0,1463.0,1425.0,0.0,0.0,0.0,0.0,0.0,0.0,0.0,0.0
2470027793,8,1463.0,1446.0,1489.0,1463.0,1487.0,1444.0,1461.0,1427.0,0.0,0.0,0.0,0.0,0.0,0.0,0.0,0.0
2470071769,8,1466.0,1447.0,1492.0,1464.0,1489.0,1444.0,1463.0,1427.0,0.0,0.0,0.0,0.0,0.0,0.0,0.0,0.0
2470111699,8,1468.0,1450.0,1494.0,1464.0,1489.0,1442.0,1462.0,1427.0,0.0,0.0,0.0,0.0,0.0,0.0,0.0,0.0
2470155791,8,1468.0,1451.0,1496.0,1466.0,1489.0,1442.0,1461.0,1426.0,0.0,0.0,0.0,0.0,0.0,0.0,0.0,0.0
2470195779,8,1474.0,1455.0,1503.0,1468.0,1492.0,1439.0,1463.0,1426.0,0.0,0.0,0.0,0.0,0.0,0.0,0.0,0.0
2470239709,8,1474.0,1456.0,1504.0,1470.0,1494.0,1442.0,1464.0,1427.0,0.0,0.0,0.0,0.0,0.0,0.0,0.0,0.0
2470279711,8,1476.0,1454.0,1501.0,1465.0,1492.0,1442.0,1467.0,1431.0,0.0,0.0,0.0,0.0,0.0,0.0,0.0,0.0
2470323724,8,1476.0,1452.0,1498.0,1463.0,1492.0,1443.0,1470.0,1432.0,0.0,0.0,0.0,0.0,0.0,0.0,0.0,0.0
2470363744,8,1479.0,1452.0,1502.0,1462.0,1493.0,1440.0,1470.0,1430.0,0.0,0.0,0.0,0.0,0.0,0.0,0.0,0.0
2470407714,8,1479.0,1451.0,1500.0,1461.0,1493.0,1441.0,1472.0,1431.0,0.0,0.0,0.0,0.0,0.0,0.0,0.0,0.0
2470447699,8,1484.0,1447.0,1499.0,1453.0,1492.0,1438.0,1477.0,1432.0,0.0,0.0,0.0,0.0,0.0,0.0,0.0,0.0
2470491752,8,1482.0,1447.0,1498.0,1454.0,1493.0,1439.0,1477.0,1432.0,0.0,0.0,0.0,0.0,0.0,0.0,0.0,0.0
2470531772,8,1486.0,1449.0,1500.0,1454.0,1492.0,1438.0,1478.0,1434.0,0.0,0.0,0.0,0.0,0.0,0.0,0.0,0.0
2470575711,8,1486.0,1448.0,1502.0,1455.0,1495.0,1438.0,1479.0,1431.0,0.0,0.0,0.0,0.0,0.0,0.0,0.0,0.0
2470619766,8,1487.0,1452.0,1504.0,1459.0,1496.0,1442.0,1479.0,1435.0,0.0,0.0,0.0,0.0,0.0,0.0,0.0,0.0
2470663772,8,1487.0,1455.0,1504.0,1460.0,1495.0,1441.0,1478.0,1436.0,0.0,0.0,0.0,0.0,0.0,0.0,0.0,0.0
2470703731,8,1489.0,1452.0,1506.0,1459.0,1499.0,1442.0,1482.0,1435.0,0.0,0.0,0.0,0.0,0.0,0.0,0.0,0.0
2470743746,8,1485.0,1450.0,1501.0,1458.0,1496.0,1444.0,1480.0,1436.0,0.0,0.0,0.0,0.0,0.0,0.0,0.0,0.0
2470783746,8,1485.0,1448.0,1497.0,1454.0,1493.0,1442.0,1481.0,1437.0,0.0,0.0,0.0,0.0,0.0,0.0,0.0,0.0
2470827777,8,1485.0,1449.0,1499.0,1456.0,1496.0,1444.0,1482.0,1437.0,0.0,0.0,0.0,0.0,0.0,0.0,0.0,0.0
2470867759,8,1485.0,1452.0,1499.0,1459.0,1495.0,1445.0,1481.0,1439.0,0.0,0.0,0.0,0.0,0.0,0.0,0.0,0.0
2470911738,8,1486.0,1453.0,1502.0,1461.0,1497.0,1446.0,1481.0,1438.0,0.0,0.0,0.0,0.0,0.0,0.0,0.0,0.0
2470951759,8,1485.0,1450.0,1497.0,1457.0,1495.0,1446.0,1482.0,1439.0,0.0,0.0,0.0,0.0,0.0,0.0,0.0,0.0
2470995778,8,1485.0,1452.0,1501.0,1462.0,1499.0,1449.0,1483.0,1440.0,0.0,0.0,0.0,0.0,0.0,0.0,0.0,0.0
2471035754,8,1483.0,1456.0,1501.0,1466.0,1498.0,1451.0,1480.0,1441.0,0.0,0.0,0.0,0.0,0.0,0.0,0.0,0.0
2471079723,8,1482.0,1455.0,1502.0,1468.0,1500.0,1452.0,1481.0,1440.0,0.0,0.0,0.0,0.0,0.0,0.0,0.0,0.0
2471119745,8,1483.0,1452.0,1499.0,1462.0,1497.0,1449.0,1481.0,1439.0,0.0,0.0,0.0,0.0,0.0,0.0,0.0,0.0
2471163789,8,1482.0,1454.0,1499.0,1464.0,1496.0,1450.0,1479.0,1440.0,0.0,0.0,0.0,0.0,0.0,0.0,0.0,0.0
2471203774,8,1483.0,1455.0,1500.0,1465.0,1497.0,1451.0,1480.0,1441.0,0.0,0.0,0.0,0.0,0.0,0.0,0.0,0.0
2471247724,8,1481.0,1455.0,1502.0,1469.0,1500.0,1452.0,1479.0,1439.0,0.0,0.0,0.0,0.0,0.0,0.0,0.0,0.0
2471287745,8,1481.0,1456.0,1499.0,1466.0,1495.0,1450.0,1477.0,1441.0,0.0,0.0,0.0,0.0,0.0,0.0,0.0,0.0
2471331759,8,1479.0,1456.0,1500.0,1468.0,1497.0,1451.0,1476.0,1439.0,0.0,0.0,0.0,0.0,0.0,0.0,0.0,0.0
2471371769,8,1481.0,1456.0,1501.0,1468.0,1497.0,1451.0,1477.0,1439.0,0.0,0.0,0.0,0.0,0.0,0.0,0.0,0.0
2471415748,8,1480.0,1456.0,1503.0,1471.0,1500.0,1453.0,1477.0,1438.0,0.0,0.0,0.0,0.0,0.0,0.0,0.0,0.0
2471455727,8,1478.0,1456.0,1498.0,1469.0,1496.0,1453.0,1475.0,1439.0,0.0,0.0,0.0,0.0,0.0,0.0,0.0,0.0
2471499772,8,1478.0,1455.0,1497.0,1467.0,1496.0,1453.0,1476.0,1440.0,0.0,0.0,0.0,0.0,0.0,0.0,0.0,0.0
2471539789,8,1478.0,1457.0,1497.0,1467.0,1493.0,1452.0,1475.0,1441.0,0.0,0.0,0.0,0.0,0.0,0.0,0.0,0.0
2471583733,8,1477.0,1456.0,1496.0,1468.0,1494.0,1453.0,1475.0,1441.0,0.0,0.0,0.0,0.0,0.0,0.0,0.0,0.0
2471623736,8,1478.0,1459.0,1494.0,1467.0,1489.0,1452.0,1473.0,1445.0,0.0,0.0,0.0,0.0,0.0,0.0,0.0,0.0
2471667782,8,1477.0,1460.0,1493.0,1467.0,1487.0,1451.0,1472.0,1444.0,0.0,0.0,0.0,0.0,0.0,0.0,0.0,0.0
2471707764,8,1479.0,1459.0,1491.0,1465.0,1487.0,1452.0,1474.0,1447.0,0.0,0.0,0.0,0.0,0.0,0.0,0.0,0.0
2471751741,8,1478.0,1459.0,1492.0,1466.0,1488.0,1453.0,1474.0,1445.0,0.0,0.0,0.0,0.0,0.0,0.0,0.0,0.0
2471791734,8,1476.0,1463.0,1497.0,1474.0,1492.0,1456.0,1471.0,1444.0,0.0,0.0,0.0,0.0,0.0,0.0,0.0,0.0
2471835773,8,1476.0,1463.0,1496.0,1473.0,1491.0,1456.0,1471.0,1445.0,0.0,0.0,0.0,0.0,0.0,0.0,0.0,0.0
2471875812,8,1475.0,1463.0,1496.0,1474.0,1491.0,1455.0,1469.0,1444.0,0.0,0.0,0.0,0.0,0.0,0.0,0.0,0.0
2471919745,8,1476.0,1463.0,1494.0,1471.0,1488.0,1455.0,1471.0,1447.0,0.0,0.0,0.0,0.0,0.0,0.0,0.0,0.0
2471959738,8,1476.0,1464.0,1496.0,1475.0,1491.0,1457.0,1470.0,1445.0,0.0,0.0,0.0,0.0,0.0,0.0,0.0,0.0
2472003781,8,1476.0,1464.0,1496.0,1475.0,1491.0,1457.0,1471.0,1447.0,0.0,0.0,0.0,0.0,0.0,0.0,0.0,0.0
2472043769,8,1476.0,1463.0,1494.0,1473.0,1490.0,1457.0,1471.0,1447.0,0.0,0.0,0.0,0.0,0.0,0.0,0.0,0.0
2472087743,8,1475.0,1463.0,1492.0,1473.0,1489.0,1458.0,1471.0,1448.0,0.0,0.0,0.0,0.0,0.0,0.0,0.0,0.0
2472127733,8,1475.0,1461.0,1490.0,1469.0,1488.0,1457.0,1473.0,1448.0,0.0,0.0,0.0,0.0,0.0,0.0,0.0,0.0
2472171785,8,1473.0,1462.0,1490.0,1472.0,1488.0,1458.0,1470.0,1448.0,0.0,0.0,0.0,0.0,0.0,0.0,0.0,0.0
2472211790,8,1472.0,1465.0,1492.0,1477.0,1489.0,1461.0,1469.0,1449.0,0.0,0.0,0.0,0.0,0.0,0.0,0.0,0.0
2472255737,8,1471.0,1464.0,1493.0,1478.0,1490.0,1461.0,1469.0,1447.0,0.0,0.0,0.0,0.0,0.0,0.0,0.0,0.0
2472297417,8,1470.0,1463.0,1491.0,1476.0,1488.0,1460.0,1468.0,1447.0,0.0,0.0,0.0,0.0,0.0,0.0,0.0,0.0
2472337384,8,1469.0,1461.0,1487.0,1472.0,1485.0,1458.0,1468.0,1447.0,0.0,0.0,0.0,0.0,0.0,0.0,0.0,0.0
2472381416,8,1470.0,1461.0,1488.0,1473.0,1487.0,1460.0,1469.0,1447.0,0.0,0.0,0.0,0.0,0.0,0.0,0.0,0.0
2472421439,8,1469.0,1466.0,1494.0,1482.0,1491.0,1462.0,1466.0,1446.0,0.0,0.0,0.0,0.0,0.0,0.0,0.0,0.0
2472465401,8,1471.0,1466.0,1495.0,1480.0,1491.0,1460.0,1467.0,1445.0,0.0,0.0,0.0,0.0,0.0,0.0,0.0,0.0
2472505404,8,1469.0,1466.0,1495.0,1481.0,1490.0,1459.0,1465.0,1445.0,0.0,0.0,0.0,0.0,0.0,0.0,0.0,0.0
2472549417,8,1472.0,1467.0,1497.0,1480.0,1490.0,1458.0,1466.0,1445.0,0.0,0.0,0.0,0.0,0.0,0.0,0.0,0.0
2472589398,8,1472.0,1464.0,1495.0,1477.0,1490.0,1457.0,1467.0,1444.0,0.0,0.0,0.0,0.0,0.0,0.0,0.0,0.0
2472633360,8,1472.0,1466.0,1497.0,1479.0,1492.0,1458.0,1467.0,1445.0,0.0,0.0,0.0,0.0,0.0,0.0,0.0,0.0
2472673331,8,1471.0,1462.0,1494.0,1476.0,1490.0,1457.0,1468.0,1443.0,0.0,0.0,0.0,0.0,0.0,0.0,0.0,0.0
2472717449,8,1471.0,1463.0,1493.0,1476.0,1490.0,1457.0,1467.0,1444.0,0.0,0.0,0.0,0.0,0.0,0.0,0.0,0.0
2472757423,8,1471.0,1462.0,1493.0,1475.0,1490.0,1458.0,1469.0,1445.0,0.0,0.0,0.0,0.0,0.0,0.0,0.0,0.0
2472801366,8,1472.0,1463.0,1493.0,1476.0,1490.0,1459.0,1469.0,1446.0,0.0,0.0,0.0,0.0,0.0,0.0,0.0,0.0
2472841374,8,1471.0,1464.0,1495.0,1479.0,1493.0,1460.0,1469.0,1445.0,0.0,0.0,0.0,0.0,0.0,0.0,0.0,0.0
2472885417,8,1469.0,1463.0,1493.0,1479.0,1492.0,1462.0,1469.0,1445.0,0.0,0.0,0.0,0.0,0.0,0.0,0.0,0.0
2472925444,8,1472.0,1463.0,1492.0,1476.0,1490.0,1460.0,1470.0,1447.0,0.0,0.0,0.0,0.0,0.0,0.0,0.0,0.0
2472969383,8,1469.0,1461.0,1489.0,1475.0,1488.0,1460.0,1469.0,1447.0,0.0,0.0,0.0,0.0,0.0,0.0,0.0,0.0
2473009366,8,1473.0,1464.0,1492.0,1475.0,1490.0,1460.0,1471.0,1448.0,0.0,0.0,0.0,0.0,0.0,0.0,0.0,0.0
2473053412,8,1470.0,1464.0,1492.0,1477.0,1490.0,1461.0,1469.0,1447.0,0.0,0.0,0.0,0.0,0.0,0.0,0.0,0.0
2473093418,8,1469.0,1463.0,1491.0,1478.0,1491.0,1463.0,1468.0,1447.0,0.0,0.0,0.0,0.0,0.0,0.0,0.0,0.0
2473137409,8,1471.0,1466.0,1492.0,1480.0,1490.0,1462.0,1468.0,1449.0,0.0,0.0,0.0,0.0,0.0,0.0,0.0,0.0
2473177601,8,1469.0,1461.0,1486.0,1474.0,1487.0,1462.0,1470.0,1449.0,0.0,0.0,0.0,0.0,0.0,0.0,0.0,0.0
2473221396,8,1470.0,1461.0,1486.0,1473.0,1487.0,1463.0,1471.0,1451.0,0.0,0.0,0.0,0.0,0.0,0.0,0.0,0.0
2473261421,8,1472.0,1465.0,1491.0,1479.0,1491.0,1464.0,1471.0,1451.0,0.0,0.0,0.0,0.0,0.0,0.0,0.0,0.0
2473305409,8,1472.0,1466.0,1492.0,1479.0,1491.0,1465.0,1471.0,1451.0,0.0,0.0,0.0,0.0,0.0,0.0,0.0,0.0
2473345378,8,1468.0,1467.0,1487.0,1481.0,1487.0,1467.0,1468.0,1454.0,0.0,0.0,0.0,0.0,0.0,0.0,0.0,0.0
2473389425,8,1470.0,1468.0,1488.0,1480.0,1487.0,1467.0,1469.0,1455.0,0.0,0.0,0.0,0.0,0.0,0.0,0.0,0.0
2473429418,8,1469.0,1465.0,1485.0,1476.0,1483.0,1464.0,1467.0,1453.0,0.0,0.0,0.0,0.0,0.0,0.0,0.0,0.0
2473473404,8,1471.0,1467.0,1484.0,1475.0,1482.0,1464.0,1469.0,1455.0,0.0,0.0,0.0,0.0,0.0,0.0,0.0,0.0
2473513403,8,1473.0,1469.0,1490.0,1478.0,1485.0,1463.0,1469.0,1455.0,0.0,0.0,0.0,0.0,0.0,0.0,0.0,0.0
2473557441,8,1473.0,1469.0,1489.0,1477.0,1485.0,1463.0,1469.0,1455.0,0.0,0.0,0.0,0.0,0.0,0.0,0.0,0.0
2473597396,8,1472.0,1471.0,1489.0,1479.0,1484.0,1464.0,1468.0,1456.0,0.0,0.0,0.0,0.0,0.0,0.0,0.0,0.0
2473641394,8,1472.0,1470.0,1488.0,1478.0,1483.0,1464.0,1468.0,1456.0,0.0,0.0,0.0,0.0,0.0,0.0,0.0,0.0
2473681376,8,1473.0,1469.0,1485.0,1476.0,1482.0,1465.0,1469.0,1458.0,0.0,0.0,0.0,0.0,0.0,0.0,0.0,0.0
2473725409,8,1475.0,1473.0,1487.0,1477.0,1480.0,1464.0,1468.0,1460.0,0.0,0.0,0.0,0.0,0.0,0.0,0.0,0.0
2473765363,8,1475.0,1470.0,1483.0,1471.0,1477.0,1462.0,1469.0,1460.0,0.0,0.0,0.0,0.0,0.0,0.0,0.0,0.0
2473809416,8,1475.0,1471.0,1484.0,1473.0,1477.0,1462.0,1468.0,1460.0,0.0,0.0,0.0,0.0,0.0,0.0,0.0,0.0
2473849395,8,1475.0,1474.0,1488.0,1478.0,1481.0,1464.0,1468.0,1459.0,0.0,0.0,0.0,0.0,0.0,0.0,0.0,0.0
2473893438,8,1476.0,1473.0,1487.0,1475.0,1479.0,1461.0,1467.0,1459.0,0.0,0.0,0.0,0.0,0.0,0.0,0.0,0.0
2473933375,8,1474.0,1474.0,1489.0,1479.0,1481.0,1463.0,1466.0,1458.0,0.0,0.0,0.0,0.0,0.0,0.0,0.0,0.0
2473973342,8,1471.0,1472.0,1486.0,1478.0,1480.0,1463.0,1465.0,1456.0,0.0,0.0,0.0,0.0,0.0,0.0,0.0,0.0
2474017408,8,1470.0,1471.0,1487.0,1480.0,1483.0,1465.0,1466.0,1456.0,0.0,0.0,0.0,0.0,0.0,0.0,0.0,0.0
2474057385,8,1471.0,1470.0,1488.0,1479.0,1483.0,1464.0,1467.0,1455.0,0.0,0.0,0.0,0.0,0.0,0.0,0.0,0.0
2474097407,8,1470.0,1469.0,1488.0,1480.0,1485.0,1465.0,1467.0,1454.0,0.0,0.0,0.0,0.0,0.0,0.0,0.0,0.0
2474141335,8,1469.0,1469.0,1488.0,1481.0,1486.0,1466.0,1467.0,1455.0,0.0,0.0,0.0,0.0,0.0,0.0,0.0,0.0
2474181350,8,1469.0,1468.0,1485.0,1478.0,1483.0,1466.0,1467.0,1456.0,0.0,0.0,0.0,0.0,0.0,0.0,0.0,0.0
2474225350,8,1470.0,1468.0,1485.0,1478.0,1484.0,1466.0,1468.0,1456.0,0.0,0.0,0.0,0.0,0.0,0.0,0.0,0.0
2474265360,8,1469.0,1465.0,1483.0,1475.0,1483.0,1465.0,1469.0,1455.0,0.0,0.0,0.0,0.0,0.0,0.0,0.0,0.0
2474309395,8,1469.0,1464.0,1483.0,1475.0,1484.0,1466.0,1470.0,1455.0,0.0,0.0,0.0,0.0,0.0,0.0,0.0,0.0
2474349334,8,1470.0,1466.0,1488.0,1481.0,1491.0,1470.0,1472.0,1455.0,0.0,0.0,0.0,0.0,0.0,0.0,0.0,0.0
2474393417,8,1470.0,1466.0,1488.0,1480.0,1490.0,1469.0,1472.0,1454.0,0.0,0.0,0.0,0.0,0.0,0.0,0.0,0.0
2474437391,8,1471.0,1466.0,1489.0,1480.0,1490.0,1468.0,1473.0,1455.0,0.0,0.0,0.0,0.0,0.0,0.0,0.0,0.0
2474481367,8,1471.0,1466.0,1488.0,1479.0,1489.0,1468.0,1472.0,1455.0,0.0,0.0,0.0,0.0,0.0,0.0,0.0,0.0
2474521451,8,1472.0,1468.0,1488.0,1479.0,1488.0,1468.0,1472.0,1456.0,0.0,0.0,0.0,0.0,0.0,0.0,0.0,0.0
2474565351,8,1472.0,1467.0,1487.0,1478.0,1487.0,1468.0,1472.0,1457.0,0.0,0.0,0.0,0.0,0.0,0.0,0.0,0.0
2474605347,8,1472.0,1465.0,1485.0,1475.0,1486.0,1467.0,1474.0,1457.0,0.0,0.0,0.0,0.0,0.0,0.0,0.0,0.0
2474649381,8,1469.0,1463.0,1483.0,1475.0,1486.0,1469.0,1473.0,1456.0,0.0,0.0,0.0,0.0,0.0,0.0,0.0,0.0
2474689391,8,1474.0,1468.0,1488.0,1477.0,1487.0,1467.0,1474.0,1458.0,0.0,0.0,0.0,0.0,0.0,0.0,0.0,0.0
2474733364,8,1474.0,1468.0,1488.0,1478.0,1487.0,1467.0,1473.0,1457.0,0.0,0.0,0.0,0.0,0.0,0.0,0.0,0.0
2474773358,8,1473.0,1468.0,1487.0,1479.0,1488.0,1469.0,1473.0,1458.0,0.0,0.0,0.0,0.0,0.0,0.0,0.0,0.0
2474817404,8,1474.0,1470.0,1489.0,1480.0,1487.0,1468.0,1472.0,1458.0,0.0,0.0,0.0,0.0,0.0,0.0,0.0,0.0
2474857431,8,1475.0,1468.0,1487.0,1476.0,1488.0,1468.0,1476.0,1460.0,0.0,0.0,0.0,0.0,0.0,0.0,0.0,0.0
2474901349,8,1476.0,1470.0,1489.0,1477.0,1486.0,1467.0,1474.0,1460.0,0.0,0.0,0.0,0.0,0.0,0.0,0.0,0.0
2474941345,8,1475.0,1465.0,1485.0,1474.0,1487.0,1468.0,1477.0,1460.0,0.0,0.0,0.0,0.0,0.0,0.0,0.0,0.0
2474985423,8,1476.0,1467.0,1487.0,1474.0,1486.0,1466.0,1476.0,1459.0,0.0,0.0,0.0,0.0,0.0,0.0,0.0,0.0
2475025406,8,1478.0,1469.0,1491.0,1478.0,1490.0,1468.0,1478.0,1460.0,0.0,0.0,0.0,0.0,0.0,0.0,0.0,0.0
2475069365,8,1478.0,1469.0,1490.0,1477.0,1490.0,1469.0,1478.0,1461.0,0.0,0.0,0.0,0.0,0.0,0.0,0.0,0.0
2475109372,8,1479.0,1472.0,1492.0,1479.0,1490.0,1469.0,1477.0,1462.0,0.0,0.0,0.0,0.0,0.0,0.0,0.0,0.0
2475153433,8,1480.0,1471.0,1491.0,1478.0,1490.0,1469.0,1479.0,1462.0,0.0,0.0,0.0,0.0,0.0,0.0,0.0,0.0
2475193422,8,1481.0,1472.0,1490.0,1477.0,1488.0,1469.0,1479.0,1464.0,0.0,0.0,0.0,0.0,0.0,0.0,0.0,0.0
2475237376,8,1481.0,1471.0,1489.0,1477.0,1488.0,1470.0,1479.0,1465.0,0.0,0.0,0.0,0.0,0.0,0.0,0.0,0.0
2475277380,8,1480.0,1469.0,1486.0,1473.0,1486.0,1470.0,1481.0,1465.0,0.0,0.0,0.0,0.0,0.0,0.0,0.0,0.0
2475317370,8,1482.0,1469.0,1488.0,1472.0,1488.0,1469.0,1483.0,1465.0,0.0,0.0,0.0,0.0,0.0,0.0,0.0,0.0
2475357376,8,1483.0,1472.0,1490.0,1476.0,1489.0,1470.0,1482.0,1466.0,0.0,0.0,0.0,0.0,0.0,0.0,0.0,0.0
2475401383,8,1482.0,1469.0,1490.0,1475.0,1490.0,1470.0,1482.0,1464.0,0.0,0.0,0.0,0.0,0.0,0.0,0.0,0.0
2475445334,8,1482.0,1468.0,1489.0,1475.0,1490.0,1471.0,1484.0,1465.0,0.0,0.0,0.0,0.0,0.0,0.0,0.0,0.0
2475485346,8,1482.0,1472.0,1490.0,1477.0,1488.0,1470.0,1480.0,1465.0,0.0,0.0,0.0,0.0,0.0,0.0,0.0,0.0
2475529418,8,1481.0,1470.0,1489.0,1477.0,1490.0,1472.0,1482.0,1465.0,0.0,0.0,0.0,0.0,0.0,0.0,0.0,0.0
2475569369,8,1483.0,1472.0,1490.0,1475.0,1487.0,1469.0,1481.0,1465.0,0.0,0.0,0.0,0.0,0.0,0.0,0.0,0.0
2475613368,8,1481.0,1470.0,1489.0,1476.0,1489.0,1470.0,1481.0,1465.0,0.0,0.0,0.0,0.0,0.0,0.0,0.0,0.0
2475657447,8,1483.0,1470.0,1490.0,1476.0,1491.0,1471.0,1483.0,1465.0,0.0,0.0,0.0,0.0,0.0,0.0,0.0,0.0
2475697436,8,1483.0,1469.0,1488.0,1472.0,1487.0,1468.0,1482.0,1465.0,0.0,0.0,0.0,0.0,0.0,0.0,0.0,0.0
2475741404,8,1483.0,1469.0,1489.0,1473.0,1488.0,1469.0,1483.0,1465.0,0.0,0.0,0.0,0.0,0.0,0.0,0.0,0.0
2475781355,8,1486.0,1469.0,1490.0,1470.0,1488.0,1466.0,1484.0,1464.0,0.0,0.0,0.0,0.0,0.0,0.0,0.0,0.0
2475825394,8,1487.0,1466.0,1490.0,1468.0,1489.0,1465.0,1486.0,1464.0,0.0,0.0,0.0,0.0,0.0,0.0,0.0,0.0
2475865432,8,1486.0,1469.0,1494.0,1473.0,1492.0,1466.0,1484.0,1462.0,0.0,0.0,0.0,0.0,0.0,0.0,0.0,0.0
2475909439,8,1486.0,1467.0,1493.0,1471.0,1493.0,1466.0,1486.0,1462.0,0.0,0.0,0.0,0.0,0.0,0.0,0.0,0.0
2475949445,8,1485.0,1468.0,1493.0,1472.0,1491.0,1465.0,1484.0,1461.0,0.0,0.0,0.0,0.0,0.0,0.0,0.0,0.0
2475993437,8,1486.0,1467.0,1495.0,1471.0,1493.0,1464.0,1484.0,1459.0,0.0,0.0,0.0,0.0,0.0,0.0,0.0,0.0
2476033402,8,1489.0,1466.0,1495.0,1467.0,1492.0,1461.0,1486.0,1459.0,0.0,0.0,0.0,0.0,0.0,0.0,0.0,0.0
2476077449,8,1490.0,1464.0,1496.0,1467.0,1494.0,1461.0,1487.0,1458.0,0.0,0.0,0.0,0.0,0.0,0.0,0.0,0.0
2476117434,8,1489.0,1464.0,1494.0,1465.0,1491.0,1460.0,1486.0,1458.0,0.0,0.0,0.0,0.0,0.0,0.0,0.0,0.0
2476158910,8,1489.0,1466.0,1498.0,1469.0,1494.0,1460.0,1486.0,1457.0,0.0,0.0,0.0,0.0,0.0,0.0,0.0,0.0
2476202945,8,1490.0,1463.0,1498.0,1468.0,1497.0,1462.0,1489.0,1456.0,0.0,0.0,0.0,0.0,0.0,0.0,0.0,0.0
2476242932,8,1488.0,1463.0,1500.0,1470.0,1499.0,1462.0,1488.0,1454.0,0.0,0.0,0.0,0.0,0.0,0.0,0.0,0.0
2476282975,8,1489.0,1462.0,1498.0,1467.0,1496.0,1460.0,1488.0,1455.0,0.0,0.0,0.0,0.0,0.0,0.0,0.0,0.0
2476326906,8,1489.0,1460.0,1497.0,1465.0,1497.0,1460.0,1489.0,1454.0,0.0,0.0,0.0,0.0,0.0,0.0,0.0,0.0
2476370941,8,1491.0,1458.0,1499.0,1464.0,1499.0,1460.0,1492.0,1453.0,0.0,0.0,0.0,0.0,0.0,0.0,0.0,0.0
2476410950,8,1489.0,1456.0,1495.0,1462.0,1497.0,1459.0,1491.0,1454.0,0.0,0.0,0.0,0.0,0.0,0.0,0.0,0.0
2476450983,8,1491.0,1459.0,1499.0,1464.0,1498.0,1458.0,1491.0,1453.0,0.0,0.0,0.0,0.0,0.0,0.0,0.0,0.0
2476495011,8,1491.0,1459.0,1499.0,1465.0,1500.0,1460.0,1492.0,1454.0,0.0,0.0,0.0,0.0,0.0,0.0,0.0,0.0
2476534990,8,1491.0,1459.0,1499.0,1465.0,1498.0,1459.0,1491.0,1454.0,0.0,0.0,0.0,0.0,0.0,0.0,0.0,0.0
2476574980,8,1493.0,1457.0,1498.0,1460.0,1497.0,1456.0,1492.0,1453.0,0.0,0.0,0.0,0.0,0.0,0.0,0.0,0.0
2476619028,8,1492.0,1456.0,1498.0,1461.0,1499.0,1456.0,1492.0,1451.0,0.0,0.0,0.0,0.0,0.0,0.0,0.0,0.0
2476663022,8,1493.0,1458.0,1502.0,1462.0,1500.0,1455.0,1492.0,1450.0,0.0,0.0,0.0,0.0,0.0,0.0,0.0,0.0
2476703030,8,1491.0,1459.0,1503.0,1466.0,1502.0,1457.0,1490.0,1450.0,0.0,0.0,0.0,0.0,0.0,0.0,0.0,0.0
2476747078,8,1493.0,1461.0,1505.0,1466.0,1501.0,1456.0,1490.0,1450.0,0.0,0.0,0.0,0.0,0.0,0.0,0.0,0.0
2476787073,8,1495.0,1462.0,1505.0,1466.0,1500.0,1456.0,1490.0,1452.0,0.0,0.0,0.0,0.0,0.0,0.0,0.0,0.0
2476831023,8,1494.0,1463.0,1505.0,1467.0,1500.0,1456.0,1489.0,1452.0,0.0,0.0,0.0,0.0,0.0,0.0,0.0,0.0
2476871012,8,1494.0,1457.0,1502.0,1462.0,1500.0,1455.0,1493.0,1451.0,0.0,0.0,0.0,0.0,0.0,0.0,0.0,0.0
2476910990,8,1493.0,1460.0,1506.0,1467.0,1504.0,1458.0,1492.0,1450.0,0.0,0.0,0.0,0.0,0.0,0.0,0.0,0.0
2476954981,8,1493.0,1459.0,1504.0,1466.0,1503.0,1457.0,1492.0,1450.0,0.0,0.0,0.0,0.0,0.0,0.0,0.0,0.0
2476999011,8,1493.0,1460.0,1505.0,1467.0,1502.0,1457.0,1491.0,1450.0,0.0,0.0,0.0,0.0,0.0,0.0,0.0,0.0
2477038988,8,1492.0,1460.0,1500.0,1464.0,1498.0,1457.0,1490.0,1452.0,0.0,0.0,0.0,0.0,0.0,0.0,0.0,0.0
2477082913,8,1495.0,1461.0,1501.0,1463.0,1498.0,1456.0,1491.0,1453.0,0.0,0.0,0.0,0.0,0.0,0.0,0.0,0.0
2477122968,8,1492.0,1458.0,1499.0,1462.0,1498.0,1457.0,1492.0,1453.0,0.0,0.0,0.0,0.0,0.0,0.0,0.0,0.0
2477167113,8,1493.0,1458.0,1497.0,1460.0,1496.0,1457.0,1493.0,1455.0,0.0,0.0,0.0,0.0,0.0,0.0,0.0,0.0
2477207092,8,1492.0,1459.0,1500.0,1465.0,1501.0,1460.0,1493.0,1453.0,0.0,0.0,0.0,0.0,0.0,0.0,0.0,0.0
2477250920,8,1492.0,1457.0,1496.0,1461.0,1498.0,1459.0,1493.0,1455.0,0.0,0.0,0.0,0.0,0.0,0.0,0.0,0.0
2477290963,8,1491.0,1460.0,1496.0,1463.0,1494.0,1458.0,1489.0,1455.0,0.0,0.0,0.0,0.0,0.0,0.0,0.0,0.0
2477335008,8,1491.0,1456.0,1493.0,1458.0,1494.0,1457.0,1492.0,1456.0,0.0,0.0,0.0,0.0,0.0,0.0,0.0,0.0
2477375001,8,1493.0,1456.0,1492.0,1456.0,1493.0,1456.0,1493.0,1456.0,0.0,0.0,0.0,0.0,0.0,0.0,0.0,0.0
2477418984,8,1492.0,1455.0,1491.0,1454.0,1492.0,1455.0,1492.0,1456.0,0.0,0.0,0.0,0.0,0.0,0.0,0.0,0.0
2477458964,8,1491.0,1457.0,1494.0,1460.0,1496.0,1460.0,1493.0,1456.0,0.0,0.0,0.0,0.0,0.0,0.0,0.0,0.0
2477503036,8,1491.0,1455.0,1494.0,1459.0,1497.0,1459.0,1494.0,1455.0,0.0,0.0,0.0,0.0,0.0,0.0,0.0,0.0
2477546931,8,1490.0,1458.0,1496.0,1464.0,1499.0,1462.0,1493.0,1456.0,0.0,0.0,0.0,0.0,0.0,0.0,0.0,0.0
2477587029,8,1492.0,1458.0,1495.0,1460.0,1495.0,1458.0,1492.0,1456.0,0.0,0.0,0.0,0.0,0.0,0.0,0.0,0.0
2477630979,8,1490.0,1460.0,1496.0,1465.0,1497.0,1461.0,1490.0,1456.0,0.0,0.0,0.0,0.0,0.0,0.0,0.0,0.0
2477671010,8,1490.0,1456.0,1493.0,1459.0,1495.0,1458.0,1491.0,1455.0,0.0,0.0,0.0,0.0,0.0,0.0,0.0,0.0
2477714942,8,1490.0,1457.0,1494.0,1461.0,1495.0,1458.0,1490.0,1454.0,0.0,0.0,0.0,0.0,0.0,0.0,0.0,0.0
2477754973,8,1491.0,1458.0,1496.0,1463.0,1497.0,1460.0,1492.0,1456.0,0.0,0.0,0.0,0.0,0.0,0.0,0.0,0.0
2477798962,8,1492.0,1461.0,1498.0,1465.0,1498.0,1461.0,1492.0,1456.0,0.0,0.0,0.0,0.0,0.0,0.0,0.0,0.0
2477839010,8,1488.0,1461.0,1497.0,1468.0,1498.0,1463.0,1490.0,1456.0,0.0,0.0,0.0,0.0,0.0,0.0,0.0,0.0
2477882915,8,1491.0,1463.0,1497.0,1467.0,1496.0,1462.0,1490.0,1458.0,0.0,0.0,0.0,0.0,0.0,0.0,0.0,0.0
2477922996,8,1490.0,1463.0,1497.0,1466.0,1496.0,1461.0,1489.0,1457.0,0.0,0.0,0.0,0.0,0.0,0.0,0.0,0.0
2477963009,8,1490.0,1460.0,1495.0,1463.0,1495.0,1460.0,1490.0,1456.0,0.0,0.0,0.0,0.0,0.0,0.0,0.0,0.0
2478007108,8,1492.0,1462.0,1496.0,1464.0,1495.0,1460.0,1491.0,1458.0,0.0,0.0,0.0,0.0,0.0,0.0,0.0,0.0
2478047079,8,1491.0,1464.0,1500.0,1470.0,1500.0,1464.0,1491.0,1458.0,0.0,0.0,0.0,0.0,0.0,0.0,0.0,0.0
2478090977,8,1491.0,1464.0,1498.0,1468.0,1497.0,1462.0,1490.0,1458.0,0.0,0.0,0.0,0.0,0.0,0.0,0.0,0.0
2478130982,8,1491.0,1463.0,1497.0,1467.0,1496.0,1462.0,1490.0,1458.0,0.0,0.0,0.0,0.0,0.0,0.0,0.0,0.0
2478175012,8,1489.0,1462.0,1494.0,1466.0,1495.0,1463.0,1489.0,1458.0,0.0,0.0,0.0,0.0,0.0,0.0,0.0,0.0
2478218928,8,1490.0,1461.0,1493.0,1464.0,1494.0,1462.0,1491.0,1459.0,0.0,0.0,0.0,0.0,0.0,0.0,0.0,0.0
2478258920,8,1489.0,1458.0,1491.0,1461.0,1494.0,1462.0,1492.0,1458.0,0.0,0.0,0.0,0.0,0.0,0.0,0.0,0.0
2478302986,8,1489.0,1457.0,1490.0,1460.0,1493.0,1462.0,1492.0,1458.0,0.0,0.0,0.0,0.0,0.0,0.0,0.0,0.0
2478343034,8,1489.0,1457.0,1492.0,1462.0,1496.0,1463.0,1493.0,1458.0,0.0,0.0,0.0,0.0,0.0,0.0,0.0,0.0
2478386934,8,1491.0,1456.0,1493.0,1459.0,1496.0,1461.0,1495.0,1457.0,0.0,0.0,0.0,0.0,0.0,0.0,0.0,0.0
2478427037,8,1488.0,1459.0,1492.0,1465.0,1496.0,1464.0,1491.0,1458.0,0.0,0.0,0.0,0.0,0.0,0.0,0.0,0.0
2478470967,8,1491.0,1459.0,1494.0,1463.0,1497.0,1463.0,1493.0,1459.0,0.0,0.0,0.0,0.0,0.0,0.0,0.0,0.0
2478511018,8,1490.0,1459.0,1492.0,1462.0,1494.0,1461.0,1492.0,1459.0,0.0,0.0,0.0,0.0,0.0,0.0,0.0,0.0
2478554982,8,1492.0,1461.0,1493.0,1461.0,1492.0,1461.0,1491.0,1460.0,0.0,0.0,0.0,0.0,0.0,0.0,0.0,0.0
2478594982,8,1492.0,1456.0,1491.0,1456.0,1493.0,1459.0,1494.0,1459.0,0.0,0.0,0.0,0.0,0.0,0.0,0.0,0.0
2478638985,8,1491.0,1458.0,1491.0,1459.0,1491.0,1459.0,1491.0,1459.0,0.0,0.0,0.0,0.0,0.0,0.0,0.0,0.0
2478678997,8,1493.0,1459.0,1495.0,1461.0,1495.0,1460.0,1494.0,1459.0,0.0,0.0,0.0,0.0,0.0,0.0,0.0,0.0
2478722939,8,1493.0,1462.0,1496.0,1463.0,1495.0,1460.0,1491.0,1459.0,0.0,0.0,0.0,0.0,0.0,0.0,0.0,0.0
2478762902,8,1493.0,1463.0,1495.0,1463.0,1493.0,1460.0,1491.0,1460.0,0.0,0.0,0.0,0.0,0.0,0.0,0.0,0.0
2478807014,8,1491.0,1464.0,1496.0,1466.0,1494.0,1461.0,1489.0,1459.0,0.0,0.0,0.0,0.0,0.0,0.0,0.0,0.0
2478847072,8,1492.0,1465.0,1495.0,1464.0,1491.0,1459.0,1489.0,1460.0,0.0,0.0,0.0,0.0,0.0,0.0,0.0,0.0
2478887046,8,1492.0,1460.0,1492.0,1460.0,1493.0,1461.0,1493.0,1460.0,0.0,0.0,0.0,0.0,0.0,0.0,0.0,0.0
2478930995,8,1492.0,1462.0,1494.0,1464.0,1494.0,1461.0,1491.0,1460.0,0.0,0.0,0.0,0.0,0.0,0.0,0.0,0.0
2478970979,8,1492.0,1463.0,1496.0,1466.0,1496.0,1463.0,1492.0,1460.0,0.0,0.0,0.0,0.0,0.0,0.0,0.0,0.0
2479014998,8,1491.0,1463.0,1497.0,1467.0,1497.0,1464.0,1492.0,1460.0,0.0,0.0,0.0,0.0,0.0,0.0,0.0,0.0
2479058938,8,1490.0,1461.0,1496.0,1467.0,1498.0,1465.0,1492.0,1459.0,0.0,0.0,0.0,0.0,0.0,0.0,0.0,0.0
2479098913,8,1488.0,1464.0,1494.0,1470.0,1496.0,1466.0,1489.0,1460.0,0.0,0.0,0.0,0.0,0.0,0.0,0.0,0.0
2479142938,8,1488.0,1462.0,1494.0,1469.0,1498.0,1467.0,1492.0,1460.0,0.0,0.0,0.0,0.0,0.0,0.0,0.0,0.0
2479182907,8,1489.0,1463.0,1493.0,1467.0,1494.0,1464.0,1489.0,1460.0,0.0,0.0,0.0,0.0,0.0,0.0,0.0,0.0
2479227021,8,1487.0,1461.0,1491.0,1467.0,1495.0,1467.0,1491.0,1461.0,0.0,0.0,0.0,0.0,0.0,0.0,0.0,0.0
2479267067,8,1487.0,1459.0,1491.0,1465.0,1495.0,1466.0,1492.0,1460.0,0.0,0.0,0.0,0.0,0.0,0.0,0.0,0.0
2479310969,8,1487.0,1459.0,1491.0,1465.0,1496.0,1466.0,1493.0,1460.0,0.0,0.0,0.0,0.0,0.0,0.0,0.0,0.0
2479351007,8,1487.0,1460.0,1492.0,1467.0,1497.0,1467.0,1492.0,1460.0,0.0,0.0,0.0,0.0,0.0,0.0,0.0,0.0
2479394976,8,1488.0,1462.0,1493.0,1467.0,1496.0,1466.0,1491.0,1460.0,0.0,0.0,0.0,0.0,0.0,0.0,0.0,0.0
2479435001,8,1488.0,1464.0,1492.0,1468.0,1494.0,1466.0,1490.0,1462.0,0.0,0.0,0.0,0.0,0.0,0.0,0.0,0.0
2479478939,8,1487.0,1466.0,1493.0,1471.0,1494.0,1467.0,1488.0,1462.0,0.0,0.0,0.0,0.0,0.0,0.0,0.0,0.0
2479518979,8,1486.0,1464.0,1488.0,1467.0,1490.0,1466.0,1488.0,1464.0,0.0,0.0,0.0,0.0,0.0,0.0,0.0,0.0
2479562960,8,1488.0,1467.0,1489.0,1469.0,1490.0,1468.0,1489.0,1466.0,0.0,0.0,0.0,0.0,0.0,0.0,0.0,0.0
2479603030,8,1487.0,1464.0,1487.0,1466.0,1489.0,1467.0,1489.0,1465.0,0.0,0.0,0.0,0.0,0.0,0.0,0.0,0.0
2479643007,8,1487.0,1465.0,1488.0,1467.0,1490.0,1469.0,1489.0,1466.0,0.0,0.0,0.0,0.0,0.0,0.0,0.0,0.0
2479687067,8,1486.0,1466.0,1488.0,1470.0,1491.0,1471.0,1489.0,1467.0,0.0,0.0,0.0,0.0,0.0,0.0,0.0,0.0
2479730988,8,1486.0,1468.0,1489.0,1471.0,1491.0,1470.0,1488.0,1467.0,0.0,0.0,0.0,0.0,0.0,0.0,0.0,0.0
2479771018,8,1485.0,1468.0,1489.0,1473.0,1492.0,1472.0,1488.0,1467.0,0.0,0.0,0.0,0.0,0.0,0.0,0.0,0.0
2479814948,8,1486.0,1471.0,1489.0,1474.0,1490.0,1472.0,1487.0,1469.0,0.0,0.0,0.0,0.0,0.0,0.0,0.0,0.0
2479854986,8,1483.0,1472.0,1486.0,1474.0,1487.0,1474.0,1484.0,1471.0,0.0,0.0,0.0,0.0,0.0,0.0,0.0,0.0
2479898966,8,1483.0,1472.0,1486.0,1475.0,1487.0,1473.0,1484.0,1471.0,0.0,0.0,0.0,0.0,0.0,0.0,0.0,0.0
2479939048,8,1481.0,1472.0,1483.0,1474.0,1484.0,1474.0,1483.0,1471.0,0.0,0.0,0.0,0.0,0.0,0.0,0.0,0.0
2479982958,8,1480.0,1473.0,1483.0,1476.0,1484.0,1474.0,1480.0,1471.0,0.0,0.0,0.0,0.0,0.0,0.0,0.0,0.0
2480023736,8,1479.0,1472.0,1482.0,1474.0,1483.0,1473.0,1480.0,1470.0,0.0,0.0,0.0,0.0,0.0,0.0,0.0,0.0
2480068544,8,1477.0,1475.0,1482.0,1478.0,1481.0,1474.0,1476.0,1471.0,0.0,0.0,0.0,0.0,0.0,0.0,0.0,0.0
2480108574,8,1477.0,1473.0,1480.0,1475.0,1480.0,1473.0,1477.0,1471.0,0.0,0.0,0.0,0.0,0.0,0.0,0.0,0.0
2480152583,8,1478.0,1475.0,1482.0,1477.0,1480.0,1472.0,1476.0,1471.0,0.0,0.0,0.0,0.0,0.0,0.0,0.0,0.0
2480196553,8,1477.0,1476.0,1483.0,1478.0,1479.0,1472.0,1474.0,1470.0,0.0,0.0,0.0,0.0,0.0,0.0,0.0,0.0
2480236542,8,1477.0,1475.0,1481.0,1476.0,1479.0,1471.0,1475.0,1470.0,0.0,0.0,0.0,0.0,0.0,0.0,0.0,0.0
2480280584,8,1478.0,1477.0,1480.0,1477.0,1478.0,1473.0,1475.0,1473.0,0.0,0.0,0.0,0.0,0.0,0.0,0.0,0.0
2480320609,8,1478.0,1473.0,1478.0,1473.0,1478.0,1472.0,1477.0,1472.0,0.0,0.0,0.0,0.0,0.0,0.0,0.0,0.0
2480364602,8,1477.0,1474.0,1479.0,1474.0,1478.0,1472.0,1476.0,1472.0,0.0,0.0,0.0,0.0,0.0,0.0,0.0,0.0
2480404537,8,1479.0,1472.0,1477.0,1470.0,1477.0,1471.0,1479.0,1472.0,0.0,0.0,0.0,0.0,0.0,0.0,0.0,0.0
2480448595,8,1477.0,1472.0,1477.0,1472.0,1478.0,1472.0,1477.0,1472.0,0.0,0.0,0.0,0.0,0.0,0.0,0.0,0.0
2480488595,8,1479.0,1473.0,1479.0,1472.0,1477.0,1471.0,1477.0,1472.0,0.0,0.0,0.0,0.0,0.0,0.0,0.0,0.0
2480532543,8,1479.0,1470.0,1478.0,1469.0,1477.0,1469.0,1478.0,1471.0,0.0,0.0,0.0,0.0,0.0,0.0,0.0,0.0
2480572546,8,1481.0,1474.0,1481.0,1473.0,1479.0,1470.0,1478.0,1472.0,0.0,0.0,0.0,0.0,0.0,0.0,0.0,0.0
2480612557,8,1477.0,1474.0,1480.0,1475.0,1477.0,1470.0,1474.0,1470.0,0.0,0.0,0.0,0.0,0.0,0.0,0.0,0.0
2480656535,8,1478.0,1475.0,1484.0,1476.0,1480.0,1470.0,1474.0,1469.0,0.0,0.0,0.0,0.0,0.0,0.0,0.0,0.0
2480696504,8,1477.0,1474.0,1482.0,1475.0,1478.0,1468.0,1473.0,1467.0,0.0,0.0,0.0,0.0,0.0,0.0,0.0,0.0
2480740572,8,1477.0,1474.0,1484.0,1476.0,1480.0,1468.0,1473.0,1466.0,0.0,0.0,0.0,0.0,0.0,0.0,0.0,0.0
2480780535,8,1479.0,1476.0,1486.0,1475.0,1479.0,1465.0,1472.0,1466.0,0.0,0.0,0.0,0.0,0.0,0.0,0.0,0.0
2480824514,8,1480.0,1475.0,1487.0,1475.0,1480.0,1464.0,1473.0,1465.0,0.0,0.0,0.0,0.0,0.0,0.0,0.0,0.0
2480864525,8,1478.0,1472.0,1485.0,1474.0,1480.0,1465.0,1472.0,1463.0,0.0,0.0,0.0,0.0,0.0,0.0,0.0,0.0
2480904538,8,1480.0,1472.0,1488.0,1474.0,1483.0,1465.0,1475.0,1463.0,0.0,0.0,0.0,0.0,0.0,0.0,0.0,0.0
2480944545,8,1481.0,1473.0,1490.0,1475.0,1484.0,1465.0,1475.0,1462.0,0.0,0.0,0.0,0.0,0.0,0.0,0.0,0.0
2480988596,8,1480.0,1473.0,1490.0,1476.0,1485.0,1465.0,1475.0,1462.0,0.0,0.0,0.0,0.0,0.0,0.0,0.0,0.0
2481028565,8,1480.0,1471.0,1488.0,1473.0,1484.0,1464.0,1476.0,1462.0,0.0,0.0,0.0,0.0,0.0,0.0,0.0,0.0
2481072532,8,1480.0,1470.0,1490.0,1474.0,1486.0,1463.0,1476.0,1460.0,0.0,0.0,0.0,0.0,0.0,0.0,0.0,0.0
2481112533,8,1481.0,1467.0,1487.0,1469.0,1483.0,1462.0,1477.0,1460.0,0.0,0.0,0.0,0.0,0.0,0.0,0.0,0.0
2481156580,8,1481.0,1466.0,1488.0,1469.0,1485.0,1462.0,1478.0,1459.0,0.0,0.0,0.0,0.0,0.0,0.0,0.0,0.0
2481196584,8,1482.0,1465.0,1487.0,1466.0,1483.0,1459.0,1478.0,1459.0,0.0,0.0,0.0,0.0,0.0,0.0,0.0,0.0
2481240543,8,1482.0,1464.0,1488.0,1466.0,1484.0,1459.0,1478.0,1457.0,0.0,0.0,0.0,0.0,0.0,0.0,0.0,0.0
2481280532,8,1484.0,1466.0,1491.0,1467.0,1486.0,1458.0,1479.0,1457.0,0.0,0.0,0.0,0.0,0.0,0.0,0.0,0.0
2481324593,8,1482.0,1464.0,1492.0,1469.0,1488.0,1459.0,1478.0,1454.0,0.0,0.0,0.0,0.0,0.0,0.0,0.0,0.0
2481364570,8,1484.0,1467.0,1492.0,1467.0,1485.0,1457.0,1478.0,1457.0,0.0,0.0,0.0,0.0,0.0,0.0,0.0,0.0
2481408566,8,1484.0,1465.0,1493.0,1468.0,1487.0,1458.0,1479.0,1455.0,0.0,0.0,0.0,0.0,0.0,0.0,0.0,0.0
2481448533,8,1484.0,1465.0,1490.0,1465.0,1485.0,1457.0,1479.0,1457.0,0.0,0.0,0.0,0.0,0.0,0.0,0.0,0.0
2481488564,8,1485.0,1465.0,1495.0,1468.0,1489.0,1457.0,1480.0,1455.0,0.0,0.0,0.0,0.0,0.0,0.0,0.0,0.0
2481528591,8,1483.0,1465.0,1495.0,1470.0,1490.0,1458.0,1478.0,1453.0,0.0,0.0,0.0,0.0,0.0,0.0,0.0,0.0
2481572592,8,1486.0,1466.0,1496.0,1469.0,1490.0,1457.0,1479.0,1454.0,0.0,0.0,0.0,0.0,0.0,0.0,0.0,0.0
2481612602,8,1484.0,1464.0,1493.0,1466.0,1488.0,1456.0,1479.0,1454.0,0.0,0.0,0.0,0.0,0.0,0.0,0.0,0.0
2481656558,8,1486.0,1465.0,1495.0,1467.0,1488.0,1455.0,1479.0,1454.0,0.0,0.0,0.0,0.0,0.0,0.0,0.0,0.0
2481696547,8,1486.0,1463.0,1494.0,1465.0,1489.0,1455.0,1481.0,1453.0,0.0,0.0,0.0,0.0,0.0,0.0,0.0,0.0
2481740590,8,1487.0,1462.0,1494.0,1464.0,1489.0,1455.0,1481.0,1453.0,0.0,0.0,0.0,0.0,0.0,0.0,0.0,0.0
2481780584,8,1485.0,1462.0,1497.0,1467.0,1492.0,1456.0,1480.0,1450.0,0.0,0.0,0.0,0.0,0.0,0.0,0.0,0.0
2481824588,8,1484.0,1463.0,1496.0,1469.0,1492.0,1457.0,1480.0,1451.0,0.0,0.0,0.0,0.0,0.0,0.0,0.0,0.0
2481864582,8,1486.0,1462.0,1496.0,1466.0,1492.0,1455.0,1482.0,1451.0,0.0,0.0,0.0,0.0,0.0,0.0,0.0,0.0
2481908572,8,1487.0,1462.0,1497.0,1465.0,1491.0,1454.0,1482.0,1451.0,0.0,0.0,0.0,0.0,0.0,0.0,0.0,0.0
2481948605,8,1486.0,1458.0,1494.0,1461.0,1491.0,1454.0,1483.0,1450.0,0.0,0.0,0.0,0.0,0.0,0.0,0.0,0.0
2481992570,8,1489.0,1459.0,1496.0,1462.0,1492.0,1453.0,1484.0,1451.0,0.0,0.0,0.0,0.0,0.0,0.0,0.0,0.0
2482036602,8,1490.0,1461.0,1498.0,1463.0,1491.0,1452.0,1483.0,1451.0,0.0,0.0,0.0,0.0,0.0,0.0,0.0,0.0
2482080566,8,1491.0,1463.0,1501.0,1463.0,1492.0,1450.0,1482.0,1449.0,0.0,0.0,0.0,0.0,0.0,0.0,0.0,0.0
2482120593,8,1489.0,1464.0,1499.0,1465.0,1489.0,1451.0,1480.0,1451.0,0.0,0.0,0.0,0.0,0.0,0.0,0.0,0.0
2482164590,8,1492.0,1464.0,1498.0,1462.0,1489.0,1450.0,1482.0,1452.0,0.0,0.0,0.0,0.0,0.0,0.0,0.0,0.0
2482204578,8,1492.0,1465.0,1499.0,1463.0,1489.0,1451.0,1482.0,1453.0,0.0,0.0,0.0,0.0,0.0,0.0,0.0,0.0
2482248565,8,1493.0,1462.0,1495.0,1458.0,1486.0,1450.0,1484.0,1454.0,0.0,0.0,0.0,0.0,0.0,0.0,0.0,0.0
2482288586,8,1495.0,1463.0,1499.0,1460.0,1491.0,1451.0,1486.0,1454.0,0.0,0.0,0.0,0.0,0.0,0.0,0.0,0.0
2482332591,8,1495.0,1461.0,1498.0,1459.0,1492.0,1452.0,1488.0,1454.0,0.0,0.0,0.0,0.0,0.0,0.0,0.0,0.0
2482372596,8,1497.0,1462.0,1499.0,1457.0,1490.0,1449.0,1488.0,1454.0,0.0,0.0,0.0,0.0,0.0,0.0,0.0,0.0
2482416552,8,1494.0,1461.0,1497.0,1457.0,1489.0,1450.0,1487.0,1454.0,0.0,0.0,0.0,0.0,0.0,0.0,0.0,0.0
2482456592,8,1495.0,1461.0,1498.0,1456.0,1489.0,1449.0,1487.0,1453.0,0.0,0.0,0.0,0.0,0.0,0.0,0.0,0.0
2482500600,8,1494.0,1458.0,1497.0,1456.0,1490.0,1448.0,1487.0,1451.0,0.0,0.0,0.0,0.0,0.0,0.0,0.0,0.0
2482540555,8,1496.0,1459.0,1502.0,1457.0,1494.0,1447.0,1488.0,1448.0,0.0,0.0,0.0,0.0,0.0,0.0,0.0,0.0
2482584595,8,1496.0,1457.0,1505.0,1459.0,1498.0,1447.0,1489.0,1446.0,0.0,0.0,0.0,0.0,0.0,0.0,0.0,0.0
2482624592,8,1495.0,1458.0,1504.0,1458.0,1496.0,1446.0,1487.0,1446.0,0.0,0.0,0.0,0.0,0.0,0.0,0.0,0.0
2482668530,8,1499.0,1457.0,1505.0,1455.0,1496.0,1445.0,1490.0,1447.0,0.0,0.0,0.0,0.0,0.0,0.0,0.0,0.0
2482708543,8,1498.0,1459.0,1502.0,1455.0,1493.0,1446.0,1489.0,1449.0,0.0,0.0,0.0,0.0,0.0,0.0,0.0,0.0
2482752605,8,1500.0,1457.0,1501.0,1451.0,1492.0,1444.0,1491.0,1450.0,0.0,0.0,0.0,0.0,0.0,0.0,0.0,0.0
2482796531,8,1504.0,1456.0,1500.0,1447.0,1491.0,1444.0,1495.0,1453.0,0.0,0.0,0.0,0.0,0.0,0.0,0.0,0.0
2482840550,8,1503.0,1457.0,1502.0,1449.0,1492.0,1443.0,1493.0,1451.0,0.0,0.0,0.0,0.0,0.0,0.0,0.0,0.0
2482880556,8,1503.0,1457.0,1503.0,1449.0,1491.0,1441.0,1492.0,1450.0,0.0,0.0,0.0,0.0,0.0,0.0,0.0,0.0
2482920608,8,1504.0,1456.0,1499.0,1446.0,1490.0,1443.0,1495.0,1453.0,0.0,0.0,0.0,0.0,0.0,0.0,0.0,0.0
2482964558,8,1501.0,1456.0,1501.0,1449.0,1492.0,1444.0,1493.0,1450.0,0.0,0.0,0.0,0.0,0.0,0.0,0.0,0.0
2483008594,8,1499.0,1457.0,1506.0,1456.0,1497.0,1445.0,1490.0,1447.0,0.0,0.0,0.0,0.0,0.0,0.0,0.0,0.0
2483048591,8,1499.0,1456.0,1507.0,1456.0,1499.0,1444.0,1491.0,1445.0,0.0,0.0,0.0,0.0,0.0,0.0,0.0,0.0
2483092533,8,1500.0,1458.0,1509.0,1459.0,1500.0,1445.0,1490.0,1445.0,0.0,0.0,0.0,0.0,0.0,0.0,0.0,0.0
2483132527,8,1499.0,1460.0,1509.0,1459.0,1499.0,1445.0,1489.0,1445.0,0.0,0.0,0.0,0.0,0.0,0.0,0.0,0.0
2483176594,8,1500.0,1459.0,1506.0,1455.0,1495.0,1443.0,1489.0,1447.0,0.0,0.0,0.0,0.0,0.0,0.0,0.0,0.0
2483216534,8,1500.0,1454.0,1503.0,1451.0,1495.0,1444.0,1493.0,1447.0,0.0,0.0,0.0,0.0,0.0,0.0,0.0,0.0
2483260514,8,1502.0,1453.0,1500.0,1447.0,1494.0,1444.0,1495.0,1450.0,0.0,0.0,0.0,0.0,0.0,0.0,0.0,0.0
2483300523,8,1503.0,1456.0,1505.0,1451.0,1496.0,1444.0,1494.0,1448.0,0.0,0.0,0.0,0.0,0.0,0.0,0.0,0.0
2483344558,8,1502.0,1453.0,1501.0,1448.0,1495.0,1444.0,1496.0,1449.0,0.0,0.0,0.0,0.0,0.0,0.0,0.0,0.0
2483388542,8,1499.0,1452.0,1499.0,1449.0,1495.0,1446.0,1495.0,1448.0,0.0,0.0,0.0,0.0,0.0,0.0,0.0,0.0
2483428511,8,1502.0,1451.0,1498.0,1444.0,1493.0,1443.0,1496.0,1449.0,0.0,0.0,0.0,0.0,0.0,0.0,0.0,0.0
2483472574,8,1499.0,1450.0,1498.0,1446.0,1494.0,1444.0,1495.0,1447.0,0.0,0.0,0.0,0.0,0.0,0.0,0.0,0.0
2483512567,8,1499.0,1449.0,1500.0,1447.0,1497.0,1445.0,1497.0,1447.0,0.0,0.0,0.0,0.0,0.0,0.0,0.0,0.0
2483556574,8,1501.0,1453.0,1504.0,1451.0,1497.0,1444.0,1494.0,1447.0,0.0,0.0,0.0,0.0,0.0,0.0,0.0,0.0
2483596571,8,1499.0,1452.0,1500.0,1449.0,1495.0,1445.0,1494.0,1448.0,0.0,0.0,0.0,0.0,0.0,0.0,0.0,0.0
2483640598,8,1503.0,1455.0,1501.0,1449.0,1494.0,1444.0,1496.0,1451.0,0.0,0.0,0.0,0.0,0.0,0.0,0.0,0.0
2483680558,8,1503.0,1452.0,1498.0,1445.0,1492.0,1444.0,1497.0,1452.0,0.0,0.0,0.0,0.0,0.0,0.0,0.0,0.0
2483724575,8,1505.0,1454.0,1497.0,1443.0,1490.0,1443.0,1497.0,1454.0,0.0,0.0,0.0,0.0,0.0,0.0,0.0,0.0
2483764558,8,1505.0,1456.0,1500.0,1447.0,1493.0,1446.0,1498.0,1454.0,0.0,0.0,0.0,0.0,0.0,0.0,0.0,0.0
2483808612,8,1504.0,1454.0,1495.0,1445.0,1490.0,1447.0,1499.0,1457.0,0.0,0.0,0.0,0.0,0.0,0.0,0.0,0.0
2483848575,8,1503.0,1456.0,1496.0,1446.0,1490.0,1447.0,1497.0,1457.0,0.0,0.0,0.0,0.0,0.0,0.0,0.0,0.0
2483892605,8,1500.0,1452.0,1491.0,1445.0,1490.0,1451.0,1499.0,1458.0,0.0,0.0,0.0,0.0,0.0,0.0,0.0,0.0
2483934258,8,1500.0,1450.0,1490.0,1442.0,1488.0,1448.0,1499.0,1457.0,0.0,0.0,0.0,0.0,0.0,0.0,0.0,0.0
2483978185,8,1498.0,1450.0,1488.0,1442.0,1487.0,1449.0,1497.0,1457.0,0.0,0.0,0.0,0.0,0.0,0.0,0.0,0.0
2484022214,8,1500.0,1454.0,1489.0,1445.0,1487.0,1451.0,1498.0,1461.0,0.0,0.0,0.0,0.0,0.0,0.0,0.0,0.0
2484062222,8,1501.0,1453.0,1488.0,1444.0,1489.0,1454.0,1502.0,1463.0,0.0,0.0,0.0,0.0,0.0,0.0,0.0,0.0
2484102293,8,1499.0,1454.0,1489.0,1448.0,1490.0,1455.0,1499.0,1461.0,0.0,0.0,0.0,0.0,0.0,0.0,0.0,0.0
2484146211,8,1500.0,1458.0,1494.0,1452.0,1491.0,1454.0,1498.0,1461.0,0.0,0.0,0.0,0.0,0.0,0.0,0.0,0.0
2484190177,8,1498.0,1455.0,1490.0,1450.0,1490.0,1456.0,1499.0,1461.0,0.0,0.0,0.0,0.0,0.0,0.0,0.0,0.0
2484230192,8,1500.0,1458.0,1493.0,1450.0,1489.0,1453.0,1496.0,1461.0,0.0,0.0,0.0,0.0,0.0,0.0,0.0,0.0
2484274176,8,1499.0,1455.0,1491.0,1448.0,1490.0,1453.0,1498.0,1459.0,0.0,0.0,0.0,0.0,0.0,0.0,0.0,0.0
2484314170,8,1499.0,1456.0,1489.0,1447.0,1487.0,1452.0,1496.0,1460.0,0.0,0.0,0.0,0.0,0.0,0.0,0.0,0.0
2484358181,8,1497.0,1454.0,1490.0,1449.0,1489.0,1453.0,1496.0,1458.0,0.0,0.0,0.0,0.0,0.0,0.0,0.0,0.0
2484398189,8,1498.0,1452.0,1487.0,1444.0,1486.0,1451.0,1497.0,1459.0,0.0,0.0,0.0,0.0,0.0,0.0,0.0,0.0
2484442214,8,1498.0,1455.0,1490.0,1447.0,1488.0,1451.0,1496.0,1459.0,0.0,0.0,0.0,0.0,0.0,0.0,0.0,0.0
2484482229,8,1498.0,1456.0,1493.0,1451.0,1491.0,1452.0,1496.0,1458.0,0.0,0.0,0.0,0.0,0.0,0.0,0.0,0.0
2484522258,8,1499.0,1458.0,1493.0,1451.0,1489.0,1453.0,1495.0,1460.0,0.0,0.0,0.0,0.0,0.0,0.0,0.0,0.0
2484566146,8,1499.0,1461.0,1495.0,1454.0,1489.0,1452.0,1493.0,1459.0,0.0,0.0,0.0,0.0,0.0,0.0,0.0,0.0
2484606137,8,1500.0,1459.0,1491.0,1448.0,1484.0,1450.0,1494.0,1461.0,0.0,0.0,0.0,0.0,0.0,0.0,0.0,0.0
2484650203,8,1501.0,1461.0,1493.0,1450.0,1485.0,1450.0,1493.0,1461.0,0.0,0.0,0.0,0.0,0.0,0.0,0.0,0.0
2484690149,8,1501.0,1457.0,1493.0,1446.0,1486.0,1447.0,1494.0,1458.0,0.0,0.0,0.0,0.0,0.0,0.0,0.0,0.0
2484730205,8,1501.0,1457.0,1495.0,1449.0,1490.0,1449.0,1495.0,1457.0,0.0,0.0,0.0,0.0,0.0,0.0,0.0,0.0
2484774118,8,1501.0,1460.0,1495.0,1451.0,1488.0,1450.0,1494.0,1459.0,0.0,0.0,0.0,0.0,0.0,0.0,0.0,0.0
2484818170,8,1501.0,1457.0,1492.0,1446.0,1486.0,1448.0,1495.0,1459.0,0.0,0.0,0.0,0.0,0.0,0.0,0.0,0.0
2484858161,8,1499.0,1459.0,1493.0,1450.0,1487.0,1451.0,1493.0,1459.0,0.0,0.0,0.0,0.0,0.0,0.0,0.0,0.0
2484902167,8,1497.0,1456.0,1490.0,1447.0,1485.0,1449.0,1492.0,1457.0,0.0,0.0,0.0,0.0,0.0,0.0,0.0,0.0
2484942148,8,1498.0,1456.0,1488.0,1445.0,1483.0,1448.0,1492.0,1458.0,0.0,0.0,0.0,0.0,0.0,0.0,0.0,0.0
2484986177,8,1497.0,1454.0,1486.0,1443.0,1481.0,1447.0,1492.0,1458.0,0.0,0.0,0.0,0.0,0.0,0.0,0.0,0.0
2485030114,8,1498.0,1454.0,1487.0,1444.0,1483.0,1448.0,1493.0,1459.0,0.0,0.0,0.0,0.0,0.0,0.0,0.0,0.0
2485070110,8,1498.0,1452.0,1487.0,1442.0,1484.0,1448.0,1495.0,1457.0,0.0,0.0,0.0,0.0,0.0,0.0,0.0,0.0
2485114151,8,1498.0,1454.0,1489.0,1445.0,1485.0,1448.0,1494.0,1458.0,0.0,0.0,0.0,0.0,0.0,0.0,0.0,0.0
2485154158,8,1496.0,1457.0,1491.0,1450.0,1486.0,1449.0,1490.0,1457.0,0.0,0.0,0.0,0.0,0.0,0.0,0.0,0.0
2485198142,8,1497.0,1459.0,1493.0,1450.0,1484.0,1447.0,1489.0,1457.0,0.0,0.0,0.0,0.0,0.0,0.0,0.0,0.0
2485238139,8,1496.0,1460.0,1491.0,1452.0,1484.0,1451.0,1489.0,1459.0,0.0,0.0,0.0,0.0,0.0,0.0,0.0,0.0
2485282234,8,1495.0,1459.0,1488.0,1450.0,1482.0,1450.0,1488.0,1459.0,0.0,0.0,0.0,0.0,0.0,0.0,0.0,0.0
2485322210,8,1495.0,1456.0,1486.0,1447.0,1482.0,1450.0,1491.0,1459.0,0.0,0.0,0.0,0.0,0.0,0.0,0.0,0.0
2485366150,8,1496.0,1459.0,1486.0,1447.0,1479.0,1449.0,1489.0,1461.0,0.0,0.0,0.0,0.0,0.0,0.0,0.0,0.0
2485406162,8,1496.0,1459.0,1486.0,1448.0,1480.0,1451.0,1491.0,1463.0,0.0,0.0,0.0,0.0,0.0,0.0,0.0,0.0
2485450181,8,1498.0,1462.0,1487.0,1449.0,1480.0,1451.0,1491.0,1464.0,0.0,0.0,0.0,0.0,0.0,0.0,0.0,0.0
2485490203,8,1495.0,1462.0,1487.0,1451.0,1479.0,1451.0,1488.0,1463.0,0.0,0.0,0.0,0.0,0.0,0.0,0.0,0.0
2485534168,8,1496.0,1464.0,1488.0,1452.0,1479.0,1451.0,1487.0,1463.0,0.0,0.0,0.0,0.0,0.0,0.0,0.0,0.0
2485574149,8,1495.0,1463.0,1487.0,1450.0,1477.0,1449.0,1485.0,1462.0,0.0,0.0,0.0,0.0,0.0,0.0,0.0,0.0
2485618177,8,1497.0,1463.0,1489.0,1450.0,1479.0,1448.0,1486.0,1461.0,0.0,0.0,0.0,0.0,0.0,0.0,0.0,0.0
2485658167,8,1498.0,1461.0,1487.0,1445.0,1476.0,1446.0,1488.0,1462.0,0.0,0.0,0.0,0.0,0.0,0.0,0.0,0.0
2485702198,8,1497.0,1460.0,1487.0,1446.0,1478.0,1448.0,1489.0,1461.0,0.0,0.0,0.0,0.0,0.0,0.0,0.0,0.0
2485742195,8,1497.0,1460.0,1488.0,1447.0,1479.0,1448.0,1488.0,1461.0,0.0,0.0,0.0,0.0,0.0,0.0,0.0,0.0
2485786166,8,1495.0,1458.0,1486.0,1447.0,1481.0,1451.0,1490.0,1461.0,0.0,0.0,0.0,0.0,0.0,0.0,0.0,0.0
2485826186,8,1494.0,1459.0,1489.0,1452.0,1483.0,1451.0,1488.0,1458.0,0.0,0.0,0.0,0.0,0.0,0.0,0.0,0.0
2485870126,8,1494.0,1458.0,1488.0,1451.0,1484.0,1452.0,1490.0,1459.0,0.0,0.0,0.0,0.0,0.0,0.0,0.0,0.0
2485910161,8,1493.0,1457.0,1488.0,1451.0,1484.0,1452.0,1489.0,1458.0,0.0,0.0,0.0,0.0,0.0,0.0,0.0,0.0
2485954189,8,1495.0,1456.0,1486.0,1447.0,1482.0,1450.0,1491.0,1459.0,0.0,0.0,0.0,0.0,0.0,0.0,0.0,0.0
2485994183,8,1496.0,1453.0,1482.0,1443.0,1481.0,1451.0,1494.0,1461.0,0.0,0.0,0.0,0.0,0.0,0.0,0.0,0.0
2486038160,8,1495.0,1450.0,1480.0,1439.0,1479.0,1450.0,1495.0,1461.0,0.0,0.0,0.0,0.0,0.0,0.0,0.0,0.0
2486078157,8,1493.0,1452.0,1483.0,1446.0,1484.0,1453.0,1494.0,1460.0,0.0,0.0,0.0,0.0,0.0,0.0,0.0,0.0
2486122197,8,1493.0,1450.0,1483.0,1443.0,1483.0,1451.0,1493.0,1458.0,0.0,0.0,0.0,0.0,0.0,0.0,0.0,0.0
2486162224,8,1494.0,1452.0,1486.0,1446.0,1487.0,1452.0,1495.0,1458.0,0.0,0.0,0.0,0.0,0.0,0.0,0.0,0.0
2486206142,8,1492.0,1450.0,1485.0,1446.0,1486.0,1452.0,1493.0,1456.0,0.0,0.0,0.0,0.0,0.0,0.0,0.0,0.0
2486246170,8,1492.0,1449.0,1483.0,1445.0,1486.0,1453.0,1495.0,1458.0,0.0,0.0,0.0,0.0,0.0,0.0,0.0,0.0
2486290195,8,1492.0,1451.0,1484.0,1446.0,1485.0,1452.0,1493.0,1457.0,0.0,0.0,0.0,0.0,0.0,0.0,0.0,0.0
2486330182,8,1493.0,1451.0,1483.0,1444.0,1484.0,1452.0,1494.0,1458.0,0.0,0.0,0.0,0.0,0.0,0.0,0.0,0.0
2486374152,8,1493.0,1452.0,1485.0,1445.0,1483.0,1450.0,1492.0,1457.0,0.0,0.0,0.0,0.0,0.0,0.0,0.0,0.0
2486414165,8,1496.0,1454.0,1488.0,1447.0,1487.0,1452.0,1495.0,1458.0,0.0,0.0,0.0,0.0,0.0,0.0,0.0,0.0
2486458156,8,1495.0,1454.0,1491.0,1450.0,1489.0,1451.0,1493.0,1455.0,0.0,0.0,0.0,0.0,0.0,0.0,0.0,0.0
2486498197,8,1496.0,1456.0,1490.0,1449.0,1487.0,1451.0,1492.0,1457.0,0.0,0.0,0.0,0.0,0.0,0.0,0.0,0.0
2486542182,8,1495.0,1457.0,1491.0,1451.0,1487.0,1451.0,1491.0,1457.0,0.0,0.0,0.0,0.0,0.0,0.0,0.0,0.0
2486582195,8,1497.0,1455.0,1487.0,1445.0,1482.0,1448.0,1492.0,1458.0,0.0,0.0,0.0,0.0,0.0,0.0,0.0,0.0
2486622242,8,1500.0,1455.0,1490.0,1445.0,1486.0,1449.0,1495.0,1459.0,0.0,0.0,0.0,0.0,0.0,0.0,0.0,0.0
2486666133,8,1499.0,1455.0,1491.0,1446.0,1487.0,1448.0,1495.0,1457.0,0.0,0.0,0.0,0.0,0.0,0.0,0.0,0.0
2486706242,8,1499.0,1457.0,1492.0,1448.0,1486.0,1448.0,1492.0,1457.0,0.0,0.0,0.0,0.0,0.0,0.0,0.0,0.0
2486750170,8,1497.0,1456.0,1492.0,1450.0,1488.0,1450.0,1493.0,1456.0,0.0,0.0,0.0,0.0,0.0,0.0,0.0,0.0
2486790217,8,1497.0,1457.0,1490.0,1448.0,1485.0,1449.0,1491.0,1457.0,0.0,0.0,0.0,0.0,0.0,0.0,0.0,0.0
2486834133,8,1495.0,1456.0,1492.0,1451.0,1488.0,1451.0,1492.0,1456.0,0.0,0.0,0.0,0.0,0.0,0.0,0.0,0.0
2486878133,8,1498.0,1455.0,1492.0,1448.0,1487.0,1448.0,1493.0,1456.0,0.0,0.0,0.0,0.0,0.0,0.0,0.0,0.0
2486918193,8,1496.0,1452.0,1491.0,1448.0,1490.0,1450.0,1495.0,1454.0,0.0,0.0,0.0,0.0,0.0,0.0,0.0,0.0
2486962244,8,1497.0,1452.0,1490.0,1446.0,1488.0,1449.0,1494.0,1455.0,0.0,0.0,0.0,0.0,0.0,0.0,0.0,0.0
2487002242,8,1497.0,1454.0,1493.0,1449.0,1491.0,1451.0,1495.0,1455.0,0.0,0.0,0.0,0.0,0.0,0.0,0.0,0.0
2487046196,8,1497.0,1455.0,1492.0,1450.0,1489.0,1451.0,1493.0,1456.0,0.0,0.0,0.0,0.0,0.0,0.0,0.0,0.0
2487086183,8,1497.0,1457.0,1493.0,1450.0,1487.0,1449.0,1492.0,1456.0,0.0,0.0,0.0,0.0,0.0,0.0,0.0,0.0
2487130148,8,1498.0,1459.0,1493.0,1451.0,1487.0,1450.0,1491.0,1457.0,0.0,0.0,0.0,0.0,0.0,0.0,0.0,0.0
2487170148,8,1498.0,1456.0,1487.0,1445.0,1482.0,1449.0,1493.0,1460.0,0.0,0.0,0.0,0.0,0.0,0.0,0.0,0.0
2487214162,8,1498.0,1458.0,1487.0,1447.0,1482.0,1451.0,1493.0,1463.0,0.0,0.0,0.0,0.0,0.0,0.0,0.0,0.0
2487254180,8,1499.0,1459.0,1490.0,1449.0,1485.0,1452.0,1494.0,1462.0,0.0,0.0,0.0,0.0,0.0,0.0,0.0,0.0
2487298143,8,1497.0,1459.0,1490.0,1451.0,1485.0,1453.0,1493.0,1462.0,0.0,0.0,0.0,0.0,0.0,0.0,0.0,0.0
2487338148,8,1498.0,1462.0,1493.0,1453.0,1486.0,1452.0,1491.0,1461.0,0.0,0.0,0.0,0.0,0.0,0.0,0.0,0.0
2487382181,8,1496.0,1460.0,1491.0,1453.0,1486.0,1453.0,1491.0,1460.0,0.0,0.0,0.0,0.0,0.0,0.0,0.0,0.0
2487422177,8,1499.0,1462.0,1492.0,1452.0,1485.0,1452.0,1492.0,1462.0,0.0,0.0,0.0,0.0,0.0,0.0,0.0,0.0
2487466108,8,1498.0,1460.0,1491.0,1452.0,1486.0,1453.0,1493.0,1461.0,0.0,0.0,0.0,0.0,0.0,0.0,0.0,0.0
2487506140,8,1499.0,1459.0,1489.0,1449.0,1485.0,1453.0,1494.0,1463.0,0.0,0.0,0.0,0.0,0.0,0.0,0.0,0.0
2487550150,8,1500.0,1459.0,1488.0,1447.0,1484.0,1452.0,1496.0,1464.0,0.0,0.0,0.0,0.0,0.0,0.0,0.0,0.0
2487590156,8,1500.0,1459.0,1489.0,1448.0,1483.0,1451.0,1494.0,1463.0,0.0,0.0,0.0,0.0,0.0,0.0,0.0,0.0
2487634144,8,1503.0,1459.0,1490.0,1445.0,1484.0,1450.0,1497.0,1463.0,0.0,0.0,0.0,0.0,0.0,0.0,0.0,0.0
2487674106,8,1499.0,1458.0,1490.0,1449.0,1487.0,1453.0,1496.0,1462.0,0.0,0.0,0.0,0.0,0.0,0.0,0.0,0.0
2487718185,8,1500.0,1456.0,1491.0,1447.0,1488.0,1452.0,1497.0,1461.0,0.0,0.0,0.0,0.0,0.0,0.0,0.0,0.0
2487758142,8,1498.0,1457.0,1488.0,1449.0,1487.0,1455.0,1497.0,1463.0,0.0,0.0,0.0,0.0,0.0,0.0,0.0,0.0
2487799776,8,1498.0,1456.0,1487.0,1447.0,1485.0,1454.0,1497.0,1463.0,0.0,0.0,0.0,0.0,0.0,0.0,0.0,0.0
2487839773,8,1497.0,1456.0,1484.0,1445.0,1482.0,1453.0,1496.0,1464.0,0.0,0.0,0.0,0.0,0.0,0.0,0.0,0.0
2487883719,8,1499.0,1457.0,1484.0,1445.0,1482.0,1453.0,1496.0,1466.0,0.0,0.0,0.0,0.0,0.0,0.0,0.0,0.0
2487927810,8,1499.0,1460.0,1487.0,1447.0,1482.0,1452.0,1494.0,1465.0,0.0,0.0,0.0,0.0,0.0,0.0,0.0,0.0
2487975766,8,1498.0,1460.0,1486.0,1450.0,1484.0,1457.0,1496.0,1467.0,0.0,0.0,0.0,0.0,0.0,0.0,0.0,0.0
2488015809,8,1498.0,1462.0,1486.0,1450.0,1482.0,1456.0,1494.0,1467.0,0.0,0.0,0.0,0.0,0.0,0.0,0.0,0.0
2488055798,8,1498.0,1459.0,1487.0,1449.0,1484.0,1454.0,1495.0,1464.0,0.0,0.0,0.0,0.0,0.0,0.0,0.0,0.0
2488099826,8,1501.0,1458.0,1485.0,1444.0,1481.0,1452.0,1497.0,1466.0,0.0,0.0,0.0,0.0,0.0,0.0,0.0,0.0
2488139826,8,1498.0,1460.0,1489.0,1452.0,1487.0,1456.0,1495.0,1464.0,0.0,0.0,0.0,0.0,0.0,0.0,0.0,0.0
2488183768,8,1498.0,1459.0,1487.0,1449.0,1484.0,1455.0,1495.0,1465.0,0.0,0.0,0.0,0.0,0.0,0.0,0.0,0.0
2488223799,8,1497.0,1461.0,1488.0,1451.0,1484.0,1455.0,1494.0,1465.0,0.0,0.0,0.0,0.0,0.0,0.0,0.0,0.0
2488267801,8,1498.0,1460.0,1487.0,1449.0,1483.0,1453.0,1493.0,1464.0,0.0,0.0,0.0,0.0,0.0,0.0,0.0,0.0
2488307852,8,1498.0,1460.0,1486.0,1449.0,1482.0,1455.0,1493.0,1466.0,0.0,0.0,0.0,0.0,0.0,0.0,0.0,0.0
2488351795,8,1495.0,1461.0,1485.0,1451.0,1481.0,1455.0,1491.0,1465.0,0.0,0.0,0.0,0.0,0.0,0.0,0.0,0.0
2488391832,8,1496.0,1459.0,1483.0,1448.0,1480.0,1454.0,1493.0,1466.0,0.0,0.0,0.0,0.0,0.0,0.0,0.0,0.0
2488431818,8,1498.0,1458.0,1483.0,1446.0,1481.0,1455.0,1496.0,1466.0,0.0,0.0,0.0,0.0,0.0,0.0,0.0,0.0
2488475773,8,1496.0,1458.0,1483.0,1447.0,1480.0,1454.0,1493.0,1465.0,0.0,0.0,0.0,0.0,0.0,0.0,0.0,0.0
2488519812,8,1494.0,1462.0,1484.0,1451.0,1479.0,1454.0,1489.0,1465.0,0.0,0.0,0.0,0.0,0.0,0.0,0.0,0.0
2488559807,8,1493.0,1462.0,1485.0,1454.0,1482.0,1458.0,1489.0,1465.0,0.0,0.0,0.0,0.0,0.0,0.0,0.0,0.0
2488603814,8,1492.0,1465.0,1487.0,1458.0,1482.0,1458.0,1487.0,1465.0,0.0,0.0,0.0,0.0,0.0,0.0,0.0,0.0
2488643782,8,1492.0,1466.0,1488.0,1458.0,1482.0,1457.0,1487.0,1465.0,0.0,0.0,0.0,0.0,0.0,0.0,0.0,0.0
2488687794,8,1491.0,1467.0,1489.0,1461.0,1483.0,1459.0,1485.0,1464.0,0.0,0.0,0.0,0.0,0.0,0.0,0.0,0.0
2488727821,8,1490.0,1466.0,1486.0,1459.0,1481.0,1458.0,1485.0,1465.0,0.0,0.0,0.0,0.0,0.0,0.0,0.0,0.0
2488771776,8,1491.0,1467.0,1489.0,1461.0,1482.0,1457.0,1484.0,1463.0,0.0,0.0,0.0,0.0,0.0,0.0,0.0,0.0
2488811778,8,1491.0,1465.0,1487.0,1459.0,1482.0,1458.0,1486.0,1464.0,0.0,0.0,0.0,0.0,0.0,0.0,0.0,0.0
2488855832,8,1491.0,1466.0,1490.0,1461.0,1484.0,1458.0,1486.0,1463.0,0.0,0.0,0.0,0.0,0.0,0.0,0.0,0.0
2488895802,8,1488.0,1463.0,1488.0,1460.0,1485.0,1459.0,1485.0,1461.0,0.0,0.0,0.0,0.0,0.0,0.0,0.0,0.0
2488939790,8,1489.0,1462.0,1488.0,1459.0,1485.0,1458.0,1487.0,1461.0,0.0,0.0,0.0,0.0,0.0,0.0,0.0,0.0
2488979786,8,1490.0,1462.0,1491.0,1461.0,1489.0,1459.0,1488.0,1460.0,0.0,0.0,0.0,0.0,0.0,0.0,0.0,0.0
2489023783,8,1492.0,1462.0,1491.0,1459.0,1488.0,1458.0,1489.0,1461.0,0.0,0.0,0.0,0.0,0.0,0.0,0.0,0.0
2489063781,8,1491.0,1463.0,1494.0,1462.0,1490.0,1457.0,1487.0,1458.0,0.0,0.0,0.0,0.0,0.0,0.0,0.0,0.0
2489107769,8,1493.0,1461.0,1493.0,1458.0,1489.0,1455.0,1489.0,1458.0,0.0,0.0,0.0,0.0,0.0,0.0,0.0,0.0
2489147753,8,1494.0,1461.0,1493.0,1457.0,1489.0,1456.0,1490.0,1459.0,0.0,0.0,0.0,0.0,0.0,0.0,0.0,0.0
2489191783,8,1494.0,1458.0,1490.0,1453.0,1487.0,1454.0,1492.0,1459.0,0.0,0.0,0.0,0.0,0.0,0.0,0.0,0.0
2489231769,8,1496.0,1457.0,1492.0,1451.0,1487.0,1451.0,1492.0,1458.0,0.0,0.0,0.0,0.0,0.0,0.0,0.0,0.0
2489275743,8,1497.0,1456.0,1490.0,1448.0,1485.0,1449.0,1492.0,1457.0,0.0,0.0,0.0,0.0,0.0,0.0,0.0,0.0
2489315746,8,1498.0,1459.0,1496.0,1453.0,1490.0,1449.0,1491.0,1455.0,0.0,0.0,0.0,0.0,0.0,0.0,0.0,0.0
2489359787,8,1499.0,1459.0,1498.0,1452.0,1489.0,1447.0,1490.0,1454.0,0.0,0.0,0.0,0.0,0.0,0.0,0.0,0.0
2489399798,8,1500.0,1462.0,1499.0,1453.0,1488.0,1447.0,1489.0,1455.0,0.0,0.0,0.0,0.0,0.0,0.0,0.0,0.0
2489439760,8,1502.0,1460.0,1497.0,1449.0,1486.0,1445.0,1491.0,1456.0,0.0,0.0,0.0,0.0,0.0,0.0,0.0,0.0
2489483793,8,1501.0,1459.0,1496.0,1449.0,1487.0,1446.0,1492.0,1456.0,0.0,0.0,0.0,0.0,0.0,0.0,0.0,0.0
2489523781,8,1499.0,1460.0,1499.0,1454.0,1490.0,1448.0,1490.0,1454.0,0.0,0.0,0.0,0.0,0.0,0.0,0.0,0.0
2489567808,8,1498.0,1460.0,1499.0,1455.0,1491.0,1449.0,1491.0,1454.0,0.0,0.0,0.0,0.0,0.0,0.0,0.0,0.0
2489607796,8,1496.0,1459.0,1498.0,1456.0,1491.0,1449.0,1489.0,1453.0,0.0,0.0,0.0,0.0,0.0,0.0,0.0,0.0
2489651775,8,1494.0,1458.0,1498.0,1457.0,1493.0,1450.0,1488.0,1451.0,0.0,0.0,0.0,0.0,0.0,0.0,0.0,0.0
2489695809,8,1494.0,1462.0,1501.0,1462.0,1494.0,1453.0,1487.0,1453.0,0.0,0.0,0.0,0.0,0.0,0.0,0.0,0.0
2489735802,8,1494.0,1456.0,1496.0,1456.0,1493.0,1453.0,1492.0,1454.0,0.0,0.0,0.0,0.0,0.0,0.0,0.0,0.0
2489779773,8,1493.0,1459.0,1496.0,1460.0,1494.0,1456.0,1491.0,1455.0,0.0,0.0,0.0,0.0,0.0,0.0,0.0,0.0
2489819762,8,1495.0,1460.0,1499.0,1461.0,1497.0,1457.0,1492.0,1455.0,0.0,0.0,0.0,0.0,0.0,0.0,0.0,0.0
2489863816,8,1494.0,1462.0,1500.0,1463.0,1496.0,1457.0,1491.0,1456.0,0.0,0.0,0.0,0.0,0.0,0.0,0.0,0.0
2489903807,8,1494.0,1462.0,1500.0,1464.0,1497.0,1457.0,1490.0,1454.0,0.0,0.0,0.0,0.0,0.0,0.0,0.0,0.0
2489943811,8,1495.0,1459.0,1497.0,1458.0,1495.0,1456.0,1493.0,1456.0,0.0,0.0,0.0,0.0,0.0,0.0,0.0,0.0
2489987768,8,1496.0,1461.0,1498.0,1460.0,1494.0,1456.0,1492.0,1457.0,0.0,0.0,0.0,0.0,0.0,0.0,0.0,0.0
2490031804,8,1497.0,1461.0,1495.0,1456.0,1491.0,1454.0,1492.0,1459.0,0.0,0.0,0.0,0.0,0.0,0.0,0.0,0.0
2490071803,8,1496.0,1462.0,1498.0,1461.0,1494.0,1457.0,1493.0,1459.0,0.0,0.0,0.0,0.0,0.0,0.0,0.0,0.0
2490115780,8,1496.0,1460.0,1494.0,1456.0,1491.0,1456.0,1493.0,1459.0,0.0,0.0,0.0,0.0,0.0,0.0,0.0,0.0
2490155789,8,1496.0,1463.0,1496.0,1461.0,1491.0,1457.0,1491.0,1460.0,0.0,0.0,0.0,0.0,0.0,0.0,0.0,0.0
2490199850,8,1495.0,1462.0,1494.0,1459.0,1491.0,1457.0,1491.0,1460.0,0.0,0.0,0.0,0.0,0.0,0.0,0.0,0.0
2490239808,8,1495.0,1461.0,1492.0,1456.0,1489.0,1456.0,1492.0,1461.0,0.0,0.0,0.0,0.0,0.0,0.0,0.0,0.0
2490283780,8,1497.0,1461.0,1495.0,1456.0,1490.0,1455.0,1493.0,1460.0,0.0,0.0,0.0,0.0,0.0,0.0,0.0,0.0
2490323823,8,1496.0,1459.0,1490.0,1454.0,1488.0,1456.0,1494.0,1462.0,0.0,0.0,0.0,0.0,0.0,0.0,0.0,0.0
2490367820,8,1497.0,1458.0,1493.0,1454.0,1491.0,1455.0,1495.0,1459.0,0.0,0.0,0.0,0.0,0.0,0.0,0.0,0.0
2490407841,8,1500.0,1461.0,1497.0,1455.0,1491.0,1454.0,1494.0,1460.0,0.0,0.0,0.0,0.0,0.0,0.0,0.0,0.0
2490451797,8,1500.0,1460.0,1499.0,1456.0,1495.0,1454.0,1496.0,1457.0,0.0,0.0,0.0,0.0,0.0,0.0,0.0,0.0
2490491812,8,1500.0,1460.0,1501.0,1457.0,1495.0,1451.0,1493.0,1455.0,0.0,0.0,0.0,0.0,0.0,0.0,0.0,0.0
2490535851,8,1499.0,1462.0,1503.0,1460.0,1497.0,1452.0,1493.0,1455.0,0.0,0.0,0.0,0.0,0.0,0.0,0.0,0.0
2490575799,8,1500.0,1461.0,1502.0,1458.0,1495.0,1451.0,1493.0,1454.0,0.0,0.0,0.0,0.0,0.0,0.0,0.0,0.0
2490619780,8,1500.0,1462.0,1503.0,1459.0,1496.0,1452.0,1493.0,1455.0,0.0,0.0,0.0,0.0,0.0,0.0,0.0,0.0
2490659796,8,1501.0,1459.0,1503.0,1456.0,1496.0,1450.0,1494.0,1454.0,0.0,0.0,0.0,0.0,0.0,0.0,0.0,0.0
2490703806,8,1502.0,1460.0,1502.0,1454.0,1494.0,1448.0,1494.0,1454.0,0.0,0.0,0.0,0.0,0.0,0.0,0.0,0.0
2490743764,8,1500.0,1460.0,1503.0,1456.0,1496.0,1449.0,1493.0,1452.0,0.0,0.0,0.0,0.0,0.0,0.0,0.0,0.0
2490783758,8,1500.0,1461.0,1502.0,1456.0,1494.0,1449.0,1492.0,1454.0,0.0,0.0,0.0,0.0,0.0,0.0,0.0,0.0
2490827800,8,1502.0,1464.0,1503.0,1457.0,1491.0,1447.0,1490.0,1455.0,0.0,0.0,0.0,0.0,0.0,0.0,0.0,0.0
2490867774,8,1503.0,1463.0,1502.0,1454.0,1489.0,1445.0,1490.0,1455.0,0.0,0.0,0.0,0.0,0.0,0.0,0.0,0.0
2490911840,8,1503.0,1464.0,1501.0,1454.0,1489.0,1446.0,1491.0,1456.0,0.0,0.0,0.0,0.0,0.0,0.0,0.0,0.0
2490951779,8,1505.0,1464.0,1501.0,1454.0,1490.0,1448.0,1493.0,1458.0,0.0,0.0,0.0,0.0,0.0,0.0,0.0,0.0
2490995819,8,1504.0,1464.0,1499.0,1453.0,1488.0,1449.0,1493.0,1460.0,0.0,0.0,0.0,0.0,0.0,0.0,0.0,0.0
2491035794,8,1502.0,1465.0,1499.0,1456.0,1488.0,1450.0,1491.0,1460.0,0.0,0.0,0.0,0.0,0.0,0.0,0.0,0.0
2491079771,8,1500.0,1464.0,1496.0,1456.0,1489.0,1453.0,1493.0,1461.0,0.0,0.0,0.0,0.0,0.0,0.0,0.0,0.0
2491119759,8,1500.0,1464.0,1495.0,1455.0,1486.0,1451.0,1490.0,1461.0,0.0,0.0,0.0,0.0,0.0,0.0,0.0,0.0
2491163836,8,1497.0,1462.0,1494.0,1454.0,1487.0,1453.0,1491.0,1460.0,0.0,0.0,0.0,0.0,0.0,0.0,0.0,0.0
2491203788,8,1498.0,1460.0,1493.0,1452.0,1487.0,1453.0,1493.0,1460.0,0.0,0.0,0.0,0.0,0.0,0.0,0.0,0.0
2491247775,8,1499.0,1458.0,1493.0,1450.0,1488.0,1451.0,1494.0,1459.0,0.0,0.0,0.0,0.0,0.0,0.0,0.0,0.0
2491287750,8,1496.0,1461.0,1496.0,1457.0,1491.0,1455.0,1492.0,1459.0,0.0,0.0,0.0,0.0,0.0,0.0,0.0,0.0
2491331802,8,1498.0,1462.0,1496.0,1456.0,1489.0,1452.0,1491.0,1458.0,0.0,0.0,0.0,0.0,0.0,0.0,0.0,0.0
2491375780,8,1499.0,1464.0,1497.0,1456.0,1488.0,1452.0,1490.0,1460.0,0.0,0.0,0.0,0.0,0.0,0.0,0.0,0.0
2491415786,8,1498.0,1466.0,1497.0,1458.0,1486.0,1451.0,1488.0,1460.0,0.0,0.0,0.0,0.0,0.0,0.0,0.0,0.0
2491459807,8,1497.0,1468.0,1497.0,1460.0,1485.0,1452.0,1486.0,1460.0,0.0,0.0,0.0,0.0,0.0,0.0,0.0,0.0
2491499813,8,1499.0,1466.0,1494.0,1454.0,1481.0,1449.0,1487.0,1461.0,0.0,0.0,0.0,0.0,0.0,0.0,0.0,0.0
2491543781,8,1498.0,1468.0,1495.0,1458.0,1483.0,1451.0,1486.0,1461.0,0.0,0.0,0.0,0.0,0.0,0.0,0.0,0.0
2491583778,8,1496.0,1467.0,1494.0,1456.0,1481.0,1450.0,1484.0,1461.0,0.0,0.0,0.0,0.0,0.0,0.0,0.0,0.0
2491627812,8,1495.0,1469.0,1495.0,1460.0,1482.0,1451.0,1483.0,1460.0,0.0,0.0,0.0,0.0,0.0,0.0,0.0,0.0
2491668586,8,1496.0,1471.0,1499.0,1463.0,1484.0,1450.0,1481.0,1459.0,0.0,0.0,0.0,0.0,0.0,0.0,0.0,0.0
2491709384,8,1496.0,1471.0,1499.0,1462.0,1484.0,1450.0,1482.0,1459.0,0.0,0.0,0.0,0.0,0.0,0.0,0.0,0.0
2491753413,8,1495.0,1471.0,1499.0,1465.0,1486.0,1453.0,1482.0,1459.0,0.0,0.0,0.0,0.0,0.0,0.0,0.0,0.0
2491793328,8,1495.0,1471.0,1496.0,1462.0,1482.0,1451.0,1481.0,1461.0,0.0,0.0,0.0,0.0,0.0,0.0,0.0,0.0
2491837404,8,1494.0,1472.0,1496.0,1463.0,1482.0,1452.0,1480.0,1460.0,0.0,0.0,0.0,0.0,0.0,0.0,0.0,0.0
2491877380,8,1494.0,1469.0,1492.0,1458.0,1479.0,1450.0,1480.0,1460.0,0.0,0.0,0.0,0.0,0.0,0.0,0.0,0.0
2491921363,8,1496.0,1471.0,1494.0,1459.0,1478.0,1449.0,1480.0,1461.0,0.0,0.0,0.0,0.0,0.0,0.0,0.0,0.0
2491961360,8,1498.0,1470.0,1497.0,1458.0,1480.0,1447.0,1482.0,1460.0,0.0,0.0,0.0,0.0,0.0,0.0,0.0,0.0
2492005403,8,1499.0,1472.0,1498.0,1458.0,1480.0,1447.0,1482.0,1460.0,0.0,0.0,0.0,0.0,0.0,0.0,0.0,0.0
2492049341,8,1499.0,1472.0,1496.0,1457.0,1477.0,1446.0,1480.0,1461.0,0.0,0.0,0.0,0.0,0.0,0.0,0.0,0.0
2492089396,8,1499.0,1471.0,1496.0,1455.0,1477.0,1444.0,1480.0,1460.0,0.0,0.0,0.0,0.0,0.0,0.0,0.0,0.0
2492133390,8,1500.0,1472.0,1497.0,1456.0,1477.0,1444.0,1480.0,1460.0,0.0,0.0,0.0,0.0,0.0,0.0,0.0,0.0
2492173405,8,1499.0,1469.0,1496.0,1454.0,1478.0,1443.0,1480.0,1458.0,0.0,0.0,0.0,0.0,0.0,0.0,0.0,0.0
2492213362,8,1500.0,1467.0,1495.0,1451.0,1477.0,1441.0,1481.0,1457.0,0.0,0.0,0.0,0.0,0.0,0.0,0.0,0.0
2492257370,8,1499.0,1466.0,1496.0,1452.0,1479.0,1441.0,1481.0,1455.0,0.0,0.0,0.0,0.0,0.0,0.0,0.0,0.0
2492297363,8,1501.0,1467.0,1498.0,1452.0,1479.0,1441.0,1482.0,1456.0,0.0,0.0,0.0,0.0,0.0,0.0,0.0,0.0
2492341387,8,1498.0,1468.0,1499.0,1456.0,1481.0,1443.0,1480.0,1455.0,0.0,0.0,0.0,0.0,0.0,0.0,0.0,0.0
2492381379,8,1498.0,1466.0,1497.0,1453.0,1480.0,1442.0,1481.0,1455.0,0.0,0.0,0.0,0.0,0.0,0.0,0.0,0.0
2492421438,8,1498.0,1467.0,1497.0,1453.0,1479.0,1441.0,1480.0,1455.0,0.0,0.0,0.0,0.0,0.0,0.0,0.0,0.0
2492465317,8,1497.0,1466.0,1496.0,1453.0,1479.0,1441.0,1479.0,1454.0,0.0,0.0,0.0,0.0,0.0,0.0,0.0,0.0
2492505389,8,1499.0,1464.0,1495.0,1450.0,1479.0,1442.0,1483.0,1456.0,0.0,0.0,0.0,0.0,0.0,0.0,0.0,0.0
2492549360,8,1499.0,1464.0,1495.0,1451.0,1480.0,1442.0,1483.0,1455.0,0.0,0.0,0.0,0.0,0.0,0.0,0.0,0.0
2492589400,8,1494.0,1466.0,1497.0,1458.0,1482.0,1446.0,1480.0,1455.0,0.0,0.0,0.0,0.0,0.0,0.0,0.0,0.0
2492633329,8,1495.0,1466.0,1499.0,1459.0,1485.0,1447.0,1481.0,1454.0,0.0,0.0,0.0,0.0,0.0,0.0,0.0,0.0
2492673384,8,1495.0,1468.0,1499.0,1460.0,1484.0,1447.0,1480.0,1455.0,0.0,0.0,0.0,0.0,0.0,0.0,0.0,0.0
2492717412,8,1494.0,1466.0,1498.0,1460.0,1486.0,1448.0,1482.0,1455.0,0.0,0.0,0.0,0.0,0.0,0.0,0.0,0.0
2492757457,8,1497.0,1464.0,1497.0,1455.0,1484.0,1446.0,1484.0,1455.0,0.0,0.0,0.0,0.0,0.0,0.0,0.0,0.0
2492801343,8,1499.0,1464.0,1496.0,1452.0,1483.0,1446.0,1486.0,1457.0,0.0,0.0,0.0,0.0,0.0,0.0,0.0,0.0
2492845385,8,1500.0,1462.0,1494.0,1449.0,1482.0,1444.0,1488.0,1457.0,0.0,0.0,0.0,0.0,0.0,0.0,0.0,0.0
