timestamp,x,y,z,yaw,yawspeed,vx,vy,vz,acc_x,acc_y,acc_z,thrust[0],thrust[1],thrust[2]
2468081752,27.054522,-83.416954,-36.015625,-0.101808734,0.0,0.04205427,-0.23997879,-0.29862997,0.031075928,-0.356251,-5.3602123,0.0,0.0,0.0
2468181435,27.054522,-83.416954,-36.015625,-0.101808734,0.0,0.04115734,-0.24945183,-0.39803198,0.087114945,-0.39364272,-5.5728908,0.0,0.0,0.0
2468285246,27.054522,-83.416954,-36.015625,-0.101808734,0.0,0.03948488,-0.2586712,-0.501882,-0.035993867,-0.4960838,-5.769125,0.0,0.0,0.0
2468385652,27.054522,-83.416954,-36.015625,-0.101808734,0.0,0.037565995,-0.2669773,-0.60250807,0.11375157,-0.43516317,-5.9811134,0.0,0.0,0.0
2468485186,27.054522,-83.416954,-36.015625,-0.101808734,0.0,0.035337258,-0.27570382,-0.70186806,0.005244819,-0.39546216,-6.1930933,0.0,0.0,0.0
2468589160,27.054522,-83.416954,-36.015625,-0.101808734,0.0,0.03319006,-0.28505364,-0.805852,0.037707973,-0.41680533,-6.416592,0.0,0.0,0.0
2468689394,27.054522,-83.416954,-36.015625,-0.101808734,0.0,0.029580593,-0.29449043,-0.90606594,0.05153163,-0.43587765,-6.6224513,0.0,0.0,0.0
2468793943,27.054522,-83.416954,-36.015625,-0.101808734,0.0,0.026717663,-0.30431136,-1.0,0.02901649,-0.45578745,-6.8212953,0.0,0.0,0.0
2468897918,27.054522,-83.416954,-36.015625,-0.101808734,0.0,0.022394275,-0.31469038,-1.0,-0.04985298,-0.37164786,-6.747503,0.0,0.0,0.0
2469001409,27.054522,-83.416954,-36.015625,-0.101808734,0.0,0.0078060147,-0.30814552,-1.0,-0.43112546,0.17710024,-6.1232924,0.0,0.0,0.0
2469100979,27.054522,-83.416954,-36.015625,-0.101808734,0.0,-0.021089649,-0.27652282,-1.0,-0.17027178,-0.058973886,-5.6453195,0.0,0.0,0.0
2469205311,27.054522,-83.416954,-36.015625,-0.101808734,0.0,-0.046575163,-0.24386367,-1.0,-0.30935654,0.29066503,-5.339304,0.0,0.0,0.0
2469306071,27.054522,-83.416954,-36.015625,-0.101808734,0.0,-0.07526789,-0.19820175,-1.0,-0.31208727,0.2644931,-5.214306,0.0,0.0,0.0
2469409995,27.054522,-83.416954,-36.015625,-0.101808734,0.0,-0.10369787,-0.14601669,-1.0,-0.37258938,0.38012365,-5.129504,0.0,0.0,0.0
2469513430,27.054522,-83.416954,-36.015625,-0.101808734,0.0,-0.12950954,-0.09056282,-1.0,-0.2923207,0.3773376,-5.038407,0.0,0.0,0.0
2469613333,27.054522,-83.416954,-36.015625,-0.101808734,0.0,-0.15043068,-0.0396389,-1.0,-0.2389746,0.3348969,-5.0571322,0.0,0.0,0.0
2469716924,27.054522,-83.416954,-36.015625,-0.101808734,0.0,-0.16511679,0.005472183,-1.0,-0.17139612,0.31484234,-5.0441713,0.0,0.0,0.0
2469817621,27.054522,-83.416954,-36.015625,-0.101808734,0.0,-0.17388315,0.042719267,-1.0,-0.10254587,0.23091377,-5.071412,0.0,0.0,0.0
2469917195,27.054522,-83.416954,-36.015625,-0.101808734,0.0,-0.17695989,0.07250099,-1.0,-0.05837806,0.18417515,-5.088472,0.0,0.0,0.0
2470021146,27.054522,-83.416954,-36.015625,-0.101808734,0.0,-0.17320547,0.09478836,-1.0,0.0024846292,0.14440413,-5.1312056,0.0,0.0,0.0
2470122127,27.054522,-83.416954,-36.015625,-0.101808734,0.0,-0.16410388,0.10908127,-1.0,0.05634463,0.056525856,-5.1294565,0.0,0.0,0.0
2470220925,27.054522,-83.416954,-36.015625,-0.101808734,0.0,-0.14922209,0.115176775,-1.0,0.10370869,0.03519769,-5.1838565,0.0,0.0,0.0
2470325291,27.054522,-83.416954,-36.015625,-0.101808734,0.0,-0.1295621,0.11406059,-1.0,0.15135106,-0.03402373,-5.1858425,0.0,0.0,0.0
2470425560,27.054522,-83.416954,-36.015625,-0.101808734,0.0,-0.10606613,0.10800857,-1.0,0.16483755,-0.0656941,-5.211388,0.0,0.0,0.0
2470529425,27.054522,-83.416954,-36.015625,-0.101808734,0.0,-0.07827578,0.096890256,-1.0,0.19017828,-0.10867207,-5.189346,0.0,0.0,0.0
2470633388,27.054522,-83.416954,-36.015625,-0.101808734,0.0,-0.047506522,0.084460065,-1.0,0.25242302,-0.17294767,-5.2383795,0.0,0.0,0.0
2470733319,27.054522,-83.416954,-36.015625,-0.101808734,0.0,-0.017309856,0.07039184,-1.0,0.21475714,-0.1860592,-5.216505,0.0,0.0,0.0
2470836947,27.054522,-83.416954,-36.015625,-0.101808734,0.0,0.013267326,0.055649567,-1.0,0.23457891,-0.19089653,-5.228922,0.0,0.0,0.0
2470938415,27.054522,-83.416954,-36.015625,-0.101808734,0.0,0.040950775,0.040871046,-1.0,0.2645581,-0.19601755,-5.247272,0.0,0.0,0.0
2471041305,27.054522,-83.416954,-36.015625,-0.101808734,0.0,0.06846027,0.027839279,-1.0,0.21836564,-0.1943302,-5.2601857,0.0,0.0,0.0
2471145720,27.054522,-83.416954,-36.015625,-0.101808734,0.0,0.09327173,0.014995956,-1.0,0.22133674,-0.16773236,-5.2389984,0.0,0.0,0.0
2471249359,27.054522,-83.416954,-36.015625,-0.101808734,0.0,0.11511154,0.0057186126,-1.0,0.24579959,-0.21882938,-5.275521,0.0,0.0,0.0
2471349160,27.054522,-83.416954,-36.015625,-0.101808734,0.0,0.1329505,-0.0033340454,-1.0,0.24405651,-0.21237966,-5.264538,0.0,0.0,0.0
2471450264,27.054522,-83.416954,-36.015625,-0.101808734,0.0,0.14858608,-0.008001708,-1.0,0.21388347,-0.17121144,-5.2302685,0.0,0.0,0.0
2471554259,27.054522,-83.416954,-36.015625,-0.101808734,0.0,0.16169032,-0.01323471,-1.0,0.2195525,-0.14512254,-5.2227063,0.0,0.0,0.0
2471652925,27.054522,-83.416954,-36.015625,-0.101808734,0.0,0.17052193,-0.015329361,-1.0,0.23449579,-0.16521783,-5.23478,0.0,0.0,0.0
2471757364,27.054522,-83.416954,-36.015625,-0.101808734,0.0,0.17645979,-0.01743126,-1.0,0.21912305,-0.15570658,-5.2457643,0.0,0.0,0.0
2471860868,27.054522,-83.416954,-36.015625,-0.101808734,0.0,0.1782609,-0.017829895,-1.0,0.18148315,-0.15374231,-5.258633,0.0,0.0,0.0
2471962043,27.054522,-83.416954,-36.015625,-0.101808734,0.0,0.17729874,-0.018851852,-1.0,0.12722291,-0.12352413,-5.2411137,0.0,0.0,0.0
2472065487,27.054522,-83.416954,-36.015625,-0.101808734,0.0,0.17737122,-0.01822853,-1.0,0.127825,-0.10022196,-5.236288,0.0,0.0,0.0
2472169363,27.054522,-83.416954,-36.015625,-0.101808734,0.0,0.17455539,-0.018322753,-1.0,0.1167198,-0.08801574,-5.2370787,0.0,0.0,0.0
2472268954,27.054522,-83.416954,-36.015625,-0.101808734,0.0,0.17456445,-0.015307617,-1.0,0.13018702,-0.1238093,-5.265155,0.0,0.0,0.0
2472370842,27.054522,-83.416954,-36.015625,-0.101808734,0.0,0.17159642,-0.012828827,-1.0,0.10914213,-0.111297786,-5.2595706,0.0,0.0,0.0
2472474551,27.054522,-83.416954,-36.015625,-0.101808734,0.0,0.16880055,-0.0064216615,-1.0,0.119265445,-0.11223779,-5.271118,0.0,0.0,0.0
2472576573,27.054522,-83.416954,-36.015625,-0.101808734,0.0,0.16355123,-0.0016307831,-1.0,0.07659295,-0.087485716,-5.2536335,0.0,0.0,0.0
2472679074,27.054522,-83.416954,-36.015625,-0.101808734,0.0,0.15517445,0.0032543181,-1.0,0.03715396,-0.043839213,-5.2107925,0.0,0.0,0.0
2472783253,27.054522,-83.416954,-36.015625,-0.101808734,0.0,0.14556731,0.0070812223,-1.0,0.06140801,-0.04037891,-5.2472024,0.0,0.0,0.0
2472887047,27.054522,-83.416954,-36.015625,-0.101808734,0.0,0.13706188,0.011799621,-1.0,0.050106313,-0.072322555,-5.2517066,0.0,0.0,0.0
2472986757,27.054522,-83.416954,-36.015625,-0.101808734,0.0,0.12786064,0.015271378,-1.0,0.061004788,-0.062056262,-5.2558475,0.0,0.0,0.0
2473090933,27.054522,-83.416954,-36.015625,-0.101808734,0.0,0.11961794,0.020562362,-1.0,0.045401927,-0.052152943,-5.257152,0.0,0.0,0.0
2473191353,27.054522,-83.416954,-36.015625,-0.101808734,0.0,0.112380885,0.024787903,-1.0,0.038744345,-0.054139003,-5.2714486,0.0,0.0,0.0
2473290878,27.054522,-83.416954,-36.015625,-0.101808734,0.0,0.10815535,0.028607558,-1.0,0.022466866,-0.006715974,-5.2606416,0.0,0.0,0.0
2473394784,27.054522,-83.416954,-36.015625,-0.101808734,0.0,0.10305643,0.032043073,-1.0,0.015003786,-0.04134672,-5.2481217,0.0,0.0,0.0
2473495289,27.054522,-83.416954,-36.015625,-0.101808734,0.0,0.098888874,0.035674285,-1.0,0.049553547,-0.059917387,-5.283511,0.0,0.0,0.0
2473599109,27.054522,-83.416954,-36.015625,-0.101808734,0.0,0.09277887,0.038819883,-1.0,0.028578248,-0.0012186369,-5.282472,0.0,0.0,0.0
2473703614,27.054522,-83.416954,-36.015625,-0.101808734,0.0,0.08644237,0.041791532,-1.0,-0.0062956843,-0.016384492,-5.270373,0.0,0.0,0.0
2473806880,27.054522,-83.416954,-36.015625,-0.101808734,0.0,0.07792606,0.043596268,-1.0,-0.03861893,-0.00034870385,-5.2594986,0.0,0.0,0.0
2473906546,27.054522,-83.416954,-36.015625,-0.101808734,0.0,0.06793661,0.043994904,-1.0,-0.043278735,0.007898868,-5.2668138,0.0,0.0,0.0
2474010561,27.054522,-83.416954,-36.015625,-0.101808734,0.0,0.058016013,0.045553207,-1.0,-0.048697542,-0.039685365,-5.2643175,0.0,0.0,0.0
2474111068,27.054522,-83.416954,-36.015625,-0.101808734,0.0,0.049996186,0.04864082,-1.0,-0.039807018,-0.020695472,-5.2867107,0.0,0.0,0.0
2474215115,27.054522,-83.416954,-36.015625,-0.101808734,0.0,0.038966656,0.05059776,-1.0,-0.062411774,-0.01491546,-5.2967415,0.0,0.0,0.0
2474319735,27.054522,-83.416954,-36.015625,-0.101808734,0.0,0.02646942,0.051786423,-1.0,-0.08151894,-0.016574603,-5.2938266,0.0,0.0,0.0
2474423318,27.054522,-83.416954,-36.015625,-0.101808734,0.0,0.0135445595,0.051989365,-1.0,-0.09793051,-0.0058762534,-5.275433,0.0,0.0,0.0
2474522942,27.054522,-83.416954,-36.015625,-0.101808734,0.0,0.0009567261,0.05146751,-1.0,-0.085340925,-0.014806095,-5.2846346,0.0,0.0,0.0
2474626546,27.054522,-83.416954,-36.015625,-0.101808734,0.0,-0.00786581,0.052801132,-1.0,-0.08245074,0.0040648975,-5.3033676,0.0,0.0,0.0
2474727648,27.054522,-83.416954,-36.015625,-0.101808734,0.0,-0.013522816,0.055091474,-1.0013793,-0.07030246,0.002187345,-5.3077755,0.0,0.0,0.0
2474830993,27.054522,-83.416954,-36.015625,-0.101808734,0.0,-0.019379139,0.057229612,-1.0064849,-0.06481072,-0.019965708,-5.3199964,0.0,0.0,0.0
2474935276,27.054522,-83.416954,-36.015625,-0.101808734,0.0,-0.024561405,0.059541702,-1.0117108,-0.0522119,0.02408596,-5.350199,0.0,0.0,0.0
2475038911,27.054522,-83.416954,-36.015625,-0.101808734,0.0,-0.028294086,0.06104927,-1.0167917,-0.08544542,0.014461341,-5.3351517,0.0,0.0,0.0
2475138763,27.054522,-83.416954,-36.015625,-0.101808734,0.0,-0.03221159,0.062034987,-1.0216801,-0.07209968,0.026915312,-5.3657894,0.0,0.0,0.0
2475242838,27.054522,-83.416954,-36.015625,-0.101808734,0.0,-0.03284216,0.06354255,-1.026644,-0.100886844,0.024195064,-5.3466096,0.0,0.0,0.0
2475343161,27.054522,-83.416954,-36.015625,-0.101808734,0.0,-0.033458233,0.065151595,-1.0314467,-0.08802522,0.027418876,-5.360893,0.0,0.0,0.0
2475446945,27.054522,-83.416954,-36.015625,-0.101808734,0.0,-0.03237467,0.06579666,-1.0365365,-0.10219452,0.01954482,-5.349201,0.0,0.0,0.0
2475550931,27.054522,-83.416954,-36.015625,-0.101808734,0.0,-0.032968998,0.066195294,-1.041364,-0.09111286,-0.0061986675,-5.3603272,0.0,0.0,0.0
2475650461,27.054522,-83.416954,-36.015625,-0.101808734,0.0,-0.03507633,0.06939163,-1.0459938,-0.11270048,0.039127905,-5.348123,0.0,0.0,0.0
2475754818,27.054522,-83.416954,-36.015625,-0.101808734,0.0,-0.039229393,0.072819896,-1.0505968,-0.101344354,0.045049664,-5.374081,0.0,0.0,0.0
2475855158,27.054522,-83.416954,-36.015625,-0.101808734,0.0,-0.042248152,0.07732086,-1.0549872,-0.11101813,0.04433176,-5.355944,0.0,0.0,0.0
2475954823,27.054522,-83.416954,-36.015625,-0.101808734,0.0,-0.04621639,0.081560895,-1.0594212,-0.14404605,0.067686446,-5.3507423,0.0,0.0,0.0
2476058790,27.054522,-83.416954,-36.015625,-0.101808734,0.0,-0.046500873,0.0838295,-1.0640754,-0.12584239,0.063436784,-5.33784,0.0,0.0,0.0
2476161173,27.054522,-83.416954,-36.015625,-0.101808734,0.0,-0.048376273,0.08502541,-1.0686301,-0.12317617,0.051446185,-5.351304,0.0,0.0,0.0
2476264517,27.054522,-83.416954,-36.015625,-0.101808734,0.0,-0.04765329,0.08752594,-1.0734092,-0.1205092,0.012442992,-5.3531394,0.0,0.0,0.0
2476364153,27.054522,-83.416954,-36.015625,-0.101808734,0.0,-0.049037647,0.08879433,-1.0782777,-0.14449145,0.07025202,-5.31489,0.0,0.0,0.0
2476468186,27.054522,-83.416954,-36.015625,-0.101808734,0.0,-0.050927542,0.08996849,-1.0833895,-0.12609759,0.048222344,-5.316844,0.0,0.0,0.0
2476568670,27.054522,-83.416954,-36.015625,-0.101808734,0.0,-0.054167364,0.090019226,-1.0885757,-0.1299349,0.028084435,-5.361268,0.0,0.0,0.0
2476668434,27.054522,-83.416954,-36.015625,-0.101808734,0.0,-0.053306673,0.0862648,-1.0937687,-0.13323386,0.026649322,-5.358914,0.0,0.0,0.0
2476772413,27.054522,-83.416954,-36.015625,-0.101808734,0.0,-0.053973485,0.08182182,-1.0990183,-0.10905322,0.008320274,-5.356366,0.0,0.0,0.0
2476872621,27.054522,-83.416954,-36.015625,-0.101808734,0.0,-0.055537224,0.07816887,-1.1040998,-0.11934722,-0.031252995,-5.372583,0.0,0.0,0.0
2476972450,27.054522,-83.416954,-36.015625,-0.101808734,0.0,-0.0583313,0.07405204,-1.109413,-0.14573446,0.022073086,-5.335302,0.0,0.0,0.0
2477076151,27.054522,-83.416954,-36.015625,-0.101808734,0.0,-0.052935217,0.069971465,-1.1150978,-0.12622167,0.010962377,-5.3196535,0.0,0.0,0.0
2477177587,27.054522,-83.416954,-36.015625,-0.101808734,0.0,-0.049613856,0.06570969,-1.1208061,-0.10166924,-0.014528808,-5.367063,0.0,0.0,0.0
2477280645,27.054522,-83.416954,-36.015625,-0.101808734,0.0,-0.04788704,0.06030998,-1.1269549,-0.09733798,0.018571783,-5.331359,0.0,0.0,0.0
2477386018,27.054522,-83.416954,-36.015625,-0.101808734,0.0,-0.04712963,0.055069733,-1.1329879,-0.12175794,0.0048578335,-5.3467035,0.0,0.0,0.0
2477488639,27.054522,-83.416954,-36.015625,-0.101808734,0.0,-0.041874886,0.047684096,-1.1389711,-0.09493303,-0.002378874,-5.3340807,0.0,0.0,0.0
2477592703,27.054522,-83.416954,-36.015625,-0.101808734,0.0,-0.039196778,0.0415596,-1.1448483,-0.13058576,0.008949642,-5.332031,0.0,0.0,0.0
2477696859,27.054522,-83.416954,-36.015625,-0.101808734,0.0,-0.038854312,0.036413573,-1.1508707,-0.11030942,0.005004665,-5.3143153,0.0,0.0,0.0
2477801465,27.054522,-83.416954,-36.015625,-0.101808734,0.0,-0.039972305,0.032746125,-1.1570845,-0.1354164,0.04041901,-5.2929235,0.0,0.0,0.0
2477900373,27.054522,-83.416954,-36.015625,-0.101808734,0.0,-0.03953018,0.029991912,-1.1631619,-0.13681222,0.01062285,-5.334502,0.0,0.0,0.0
2478004347,27.054522,-83.416954,-36.015625,-0.101808734,0.0,-0.03997955,0.028643798,-1.1692408,-0.12610263,0.013305954,-5.3548203,0.0,0.0,0.0
2478104770,27.054522,-83.416954,-36.015625,-0.101808734,0.0,-0.040550325,0.028911972,-1.1750009,-0.12786363,0.030528551,-5.3612146,0.0,0.0,0.0
2478204124,27.054522,-83.416954,-36.015625,-0.101808734,0.0,-0.042213727,0.029085921,-1.1806424,-0.12105606,0.030872218,-5.3598948,0.0,0.0,0.0
2478308435,27.054522,-83.416954,-36.015625,-0.101808734,0.0,-0.043788336,0.027585601,-1.1864878,-0.10454743,0.010579722,-5.3819923,0.0,0.0,0.0
2478408563,27.054522,-83.416954,-36.015625,-0.101808734,0.0,-0.046263505,0.026483918,-1.1923367,-0.11978136,0.023081664,-5.3628273,0.0,0.0,0.0
2478512621,27.054522,-83.416954,-36.015625,-0.101808734,0.0,-0.04967909,0.025570678,-1.1986753,-0.11121329,0.042803578,-5.3506975,0.0,0.0,0.0
2478612595,27.054522,-83.416954,-36.015625,-0.101808734,0.0,-0.053342912,0.026353454,-1.2047794,-0.09880565,0.0038144323,-5.361577,0.0,0.0,0.0
2478712536,27.054522,-83.416954,-36.015625,-0.101808734,0.0,-0.0573637,0.02828865,-1.2110538,-0.11791774,0.03884176,-5.3479757,0.0,0.0,0.0
2478816780,27.054522,-83.416954,-36.015625,-0.101808734,0.0,-0.061464213,0.030202102,-1.2175659,-0.12583317,0.009675326,-5.3512836,0.0,0.0,0.0
2478916097,27.054522,-83.416954,-36.015625,-0.101808734,0.0,-0.0652132,0.030578995,-1.2238493,-0.12867844,0.0161793,-5.362483,0.0,0.0,0.0
2479017327,27.054522,-83.416954,-36.015625,-0.101808734,0.0,-0.06887884,0.030049896,-1.2302544,-0.14582188,0.06976115,-5.3540845,0.0,0.0,0.0
2479120540,27.054522,-83.416954,-36.015625,-0.101808734,0.0,-0.07235241,0.02912216,-1.2371347,-0.13890614,-0.0036364791,-5.348705,0.0,0.0,0.0
2479220492,27.054522,-83.416954,-36.015625,-0.101808734,0.0,-0.07497797,0.028549576,-1.2435762,-0.1484471,0.036540832,-5.3624682,0.0,0.0,0.0
2479324466,27.054522,-83.416954,-36.015625,-0.101808734,0.0,-0.07690591,0.027933503,-1.2503498,-0.1375935,0.034668114,-5.348668,0.0,0.0,0.0
2479424544,27.054522,-83.416954,-36.015625,-0.101808734,0.0,-0.07904949,0.026360702,-1.2569116,-0.13675848,0.022947341,-5.3664966,0.0,0.0,0.0
2479524159,27.054522,-83.416954,-36.015625,-0.101808734,0.0,-0.0808361,0.024664687,-1.2634467,-0.13190122,0.038898077,-5.3832517,0.0,0.0,0.0
2479628600,27.054522,-83.416954,-36.015625,-0.101808734,0.0,-0.08397627,0.021055222,-1.2702501,-0.12647249,0.038724437,-5.3589406,0.0,0.0,0.0
2479728683,27.054522,-83.416954,-36.015625,-0.101808734,0.0,-0.08735561,0.01666298,-1.2769396,-0.12726144,0.015504988,-5.381925,0.0,0.0,0.0
2479828167,27.054522,-83.416954,-36.015625,-0.101808734,0.0,-0.09083462,0.013676834,-1.283697,-0.14120594,0.016607929,-5.3797536,0.0,0.0,0.0
2479932442,27.054522,-83.416954,-36.015625,-0.101808734,0.0,-0.09647531,0.011335754,-1.2861111,-0.14363074,0.04169098,-5.3162575,0.0,0.0,0.0
2480033615,27.054522,-83.416954,-36.015625,-0.101808734,0.0,-0.101820655,0.0097846985,-1.2861111,-0.13415985,0.0159877,-5.3261538,0.0,0.0,0.0
2480133764,27.054522,-83.416954,-36.015625,-0.101808734,0.0,-0.105624005,0.009320831,-1.2861111,-0.1282482,0.006986285,-5.3287897,0.0,0.0,0.0
2480237725,27.054522,-83.416954,-36.015625,-0.101808734,0.0,-0.11107807,0.008298874,-1.2861111,-0.16100834,0.00010902675,-5.336959,0.0,0.0,0.0
2480338520,27.054522,-83.416954,-36.015625,-0.101808734,0.0,-0.116167925,0.0073566437,-1.2861111,-0.17385094,0.006712713,-5.338751,0.0,0.0,0.0
2480438002,27.054522,-83.416954,-36.015625,-0.101808734,0.0,-0.1208827,0.005392456,-1.2861111,-0.17549884,0.014085553,-5.3236747,0.0,0.0,0.0
2480541708,27.054522,-83.416954,-36.015625,-0.101808734,0.0,-0.124917984,0.0029716492,-1.2861111,-0.17840321,-0.0070168213,-5.3281584,0.0,0.0,0.0
2480642330,27.054522,-83.416954,-36.015625,-0.101808734,0.0,-0.12972517,-0.003471756,-1.2861111,-0.18305728,-0.007913807,-5.3227043,0.0,0.0,0.0
2480742118,27.054522,-83.416954,-36.015625,-0.101808734,0.0,-0.1327113,-0.010183334,-1.2861111,-0.1811055,-0.022024205,-5.33441,0.0,0.0,0.0
2480845771,27.054522,-83.416954,-36.015625,-0.101808734,0.0,-0.13654546,-0.018721389,-1.2861111,-0.17733784,-0.033603813,-5.3035197,0.0,0.0,0.0
2480946249,27.054522,-83.416954,-36.015625,-0.101808734,0.0,-0.13977079,-0.02790451,-1.2861111,-0.17265466,-0.052946404,-5.3060217,0.0,0.0,0.0
2481050387,27.054522,-83.416954,-36.015625,-0.101808734,0.0,-0.145156,-0.03855171,-1.2861111,-0.17977794,-0.06422935,-5.2845426,0.0,0.0,0.0
2481154143,27.054522,-83.416954,-36.015625,-0.101808734,0.0,-0.14792289,-0.04872055,-1.2861111,-0.13742276,-0.10607458,-5.2903585,0.0,0.0,0.0
2481254096,27.054522,-83.416954,-36.015625,-0.101808734,0.0,-0.15235138,-0.059324265,-1.2861111,-0.14164503,-0.11296865,-5.287814,0.0,0.0,0.0
2481357961,27.054522,-83.416954,-36.015625,-0.101808734,0.0,-0.15417422,-0.06981201,-1.2861111,-0.15846159,-0.11888136,-5.288199,0.0,0.0,0.0
2481458834,27.054522,-83.416954,-36.015625,-0.101808734,0.0,-0.15914811,-0.08012581,-1.2861111,-0.1665365,-0.15095371,-5.2974806,0.0,0.0,0.0
2481557756,27.054522,-83.416954,-36.015625,-0.101808734,0.0,-0.15914631,-0.08898277,-1.2861111,-0.1274793,-0.14470546,-5.308205,0.0,0.0,0.0
2481661756,27.054522,-83.416954,-36.015625,-0.101808734,0.0,-0.16150369,-0.09782524,-1.2861111,-0.12516877,-0.124962255,-5.304216,0.0,0.0,0.0
2481762210,27.054522,-83.416954,-36.015625,-0.101808734,0.0,-0.16059045,-0.10516014,-1.2861111,-0.10578849,-0.17478561,-5.2943873,0.0,0.0,0.0
2481862102,27.054522,-83.416954,-36.015625,-0.101808734,0.0,-0.15843602,-0.113372035,-1.2861111,-0.10481342,-0.18847184,-5.295392,0.0,0.0,0.0
2481965971,27.054522,-83.416954,-36.015625,-0.101808734,0.0,-0.15365963,-0.120830156,-1.2861111,-0.10892598,-0.1883849,-5.2824397,0.0,0.0,0.0
2482066385,27.054522,-83.416954,-36.015625,-0.101808734,0.0,-0.15052308,-0.12858543,-1.2861111,-0.11639232,-0.12419726,-5.2612886,0.0,0.0,0.0
2482170115,27.054522,-83.416954,-36.015625,-0.101808734,0.0,-0.14359589,-0.13427505,-1.2861111,-0.114615224,-0.13788648,-5.259899,0.0,0.0,0.0
2482274405,27.054522,-83.416954,-36.015625,-0.101808734,0.0,-0.1371398,-0.13974723,-1.2861111,-0.12373397,-0.14174633,-5.2799892,0.0,0.0,0.0
2482373747,27.054522,-83.416954,-36.015625,-0.101808734,0.0,-0.12839337,-0.14258118,-1.2861111,-0.06950094,-0.12968375,-5.3052917,0.0,0.0,0.0
2482477964,27.054522,-83.416954,-36.015625,-0.101808734,0.0,-0.12162561,-0.14602394,-1.2861111,-0.09429882,-0.16267711,-5.3096886,0.0,0.0,0.0
2482582026,27.054522,-83.416954,-36.015625,-0.101808734,0.0,-0.113417335,-0.14726333,-1.2861111,-0.07215344,-0.15233098,-5.309219,0.0,0.0,0.0
2482682757,27.054522,-83.416954,-36.015625,-0.101808734,0.0,-0.10821333,-0.14787216,-1.2861111,-0.100128345,-0.12558275,-5.303517,0.0,0.0,0.0
2482786410,27.054522,-83.416954,-36.015625,-0.101808734,0.0,-0.10251827,-0.14599495,-1.2861111,-0.07289081,-0.16440405,-5.3167934,0.0,0.0,0.0
2482890318,27.054522,-83.416954,-36.015625,-0.101808734,0.0,-0.0995122,-0.14151573,-1.2861111,-0.12743975,-0.13477975,-5.2972035,0.0,0.0,0.0
2482989726,27.054522,-83.416954,-36.015625,-0.101808734,0.0,-0.095928095,-0.13589859,-1.2861111,-0.115667105,-0.08428683,-5.2831907,0.0,0.0,0.0
2483093728,27.054522,-83.416954,-36.015625,-0.101808734,0.0,-0.09555302,-0.12810707,-1.2861111,-0.16630815,-0.07046858,-5.27963,0.0,0.0,0.0
2483194357,27.054522,-83.416954,-36.015625,-0.101808734,0.0,-0.094820976,-0.119170375,-1.2861111,-0.12622786,-0.05607094,-5.2974763,0.0,0.0,0.0
2483293781,27.054522,-83.416954,-36.015625,-0.101808734,0.0,-0.09528303,-0.10689964,-1.2861111,-0.1280625,-0.08133808,-5.294197,0.0,0.0,0.0
2483398253,27.054522,-83.416954,-36.015625,-0.101808734,0.0,-0.09534464,-0.09320831,-1.2861111,-0.1547481,-0.026733983,-5.2689366,0.0,0.0,0.0
2483498218,27.054522,-83.416954,-36.015625,-0.101808734,0.0,-0.095891856,-0.077820964,-1.2861111,-0.15973268,-0.005620201,-5.259119,0.0,0.0,0.0
2483597779,27.054522,-83.416954,-36.015625,-0.101808734,0.0,-0.09564724,-0.06237564,-1.2861111,-0.16144308,-0.021597555,-5.320762,0.0,0.0,0.0
2483701778,27.054522,-83.416954,-36.015625,-0.101808734,0.0,-0.09628143,-0.04387169,-1.2861111,-0.15296333,0.03385503,-5.295594,0.0,0.0,0.0
2483802354,27.054522,-83.416954,-36.015625,-0.101808734,0.0,-0.0966547,-0.025621414,-1.2861111,-0.17466652,0.019223085,-5.312433,0.0,0.0,0.0
2483902898,27.054522,-83.416954,-36.015625,-0.101808734,0.0,-0.098001,-0.0036312102,-1.2861111,-0.19012459,0.09515677,-5.278183,0.0,0.0,0.0
2484007565,27.054522,-83.416954,-36.015625,-0.101808734,0.0,-0.0990592,0.018815612,-1.2861111,-0.20580119,0.07702188,-5.29738,0.0,0.0,0.0
2484108374,27.054522,-83.416954,-36.015625,-0.101808734,0.0,-0.10038376,0.040595625,-1.2861111,-0.23264414,0.15788817,-5.2969136,0.0,0.0,0.0
2484207577,27.054522,-83.416954,-36.015625,-0.101808734,0.0,-0.102576256,0.061578367,-1.2861111,-0.23928227,0.18273614,-5.28806,0.0,0.0,0.0
2484311385,27.054522,-83.416954,-36.015625,-0.101808734,0.0,-0.10582332,0.08357582,-1.2861111,-0.23763928,0.1896483,-5.2906733,0.0,0.0,0.0
2484411833,27.054522,-83.416954,-36.015625,-0.101808734,0.0,-0.10736532,0.10410919,-1.2861111,-0.23493521,0.21923475,-5.2786794,0.0,0.0,0.0
2484511314,27.054522,-83.416954,-36.015625,-0.101808734,0.0,-0.10761356,0.12311325,-1.2861111,-0.26981258,0.21729483,-5.301744,0.0,0.0,0.0
2484615679,27.054522,-83.416954,-36.015625,-0.101808734,0.0,-0.106731124,0.1407547,-1.2861111,-0.24192643,0.22780402,-5.2723536,0.0,0.0,0.0
2484715794,27.054522,-83.416954,-36.015625,-0.101808734,0.0,-0.10490284,0.15525055,-1.2861111,-0.2401237,0.18810143,-5.2951007,0.0,0.0,0.0
2484820132,27.054522,-83.416954,-36.015625,-0.101808734,0.0,-0.10299663,0.16752852,-1.2861111,-0.23121446,0.20629911,-5.249423,0.0,0.0,0.0
2484923876,27.054522,-83.416954,-36.015625,-0.101808734,0.0,-0.10015907,0.1770378,-1.2861111,-0.25029892,0.1779988,-5.2618966,0.0,0.0,0.0
2485023597,27.054522,-83.416954,-36.015625,-0.101808734,0.0,-0.09533014,0.18340874,-1.2861111,-0.25027326,0.20101868,-5.242032,0.0,0.0,0.0
2485127837,27.054522,-83.416954,-36.015625,-0.101808734,0.0,-0.089278124,0.18713416,-1.2861111,-0.24282998,0.15797059,-5.239712,0.0,0.0,0.0
2485227983,27.054522,-83.416954,-36.015625,-0.101808734,0.0,-0.0802309,0.18605423,-1.2861111,-0.2084811,0.15419337,-5.2794094,0.0,0.0,0.0
2485327818,27.054522,-83.416954,-36.015625,-0.101808734,0.0,-0.07150803,0.18197365,-1.2861111,-0.19030082,0.14318384,-5.2619133,0.0,0.0,0.0
2485431280,27.054522,-83.416954,-36.015625,-0.101808734,0.0,-0.058729935,0.17497215,-1.2861111,-0.19080634,0.098576196,-5.2712483,0.0,0.0,0.0
2485531770,27.054522,-83.416954,-36.015625,-0.101808734,0.0,-0.044812106,0.16602096,-1.2861111,-0.15609077,0.06050838,-5.273118,0.0,0.0,0.0
2485631681,27.054522,-83.416954,-36.015625,-0.101808734,0.0,-0.02922907,0.15499687,-1.2861111,-0.13155581,0.049908273,-5.2640834,0.0,0.0,0.0
2485735605,27.054522,-83.416954,-36.015625,-0.101808734,0.0,-0.012741852,0.14191437,-1.2861111,-0.15473865,-0.00010438968,-5.2604866,0.0,0.0,0.0
2485836179,27.054522,-83.416954,-36.015625,-0.101808734,0.0,0.002794075,0.12855645,-1.2861111,-0.11310311,0.006017179,-5.253214,0.0,0.0,0.0
2485939791,27.054522,-83.416954,-36.015625,-0.101808734,0.0,0.015889263,0.114350505,-1.2861111,-0.14229667,0.0051886137,-5.2231026,0.0,0.0,0.0
2486043830,27.054522,-83.416954,-36.015625,-0.101808734,0.0,0.030314445,0.099861905,-1.2861111,-0.102050796,-0.025110995,-5.2562695,0.0,0.0,0.0
2486143590,27.054522,-83.416954,-36.015625,-0.101808734,0.0,0.041646574,0.086279295,-1.2861111,-0.10915058,-0.016352896,-5.2644625,0.0,0.0,0.0
2486247779,27.054522,-83.416954,-36.015625,-0.101808734,0.0,0.056106184,0.07205162,-1.2861111,-0.08580445,-0.05013197,-5.259303,0.0,0.0,0.0
2486347928,27.054522,-83.416954,-36.015625,-0.101808734,0.0,0.06854906,0.059215546,-1.2861111,-0.05764385,-0.025895096,-5.286773,0.0,0.0,0.0
2486447528,27.054522,-83.416954,-36.015625,-0.101808734,0.0,0.08267889,0.046212766,-1.2861111,-0.06475108,-0.00723796,-5.2584133,0.0,0.0,0.0
2486551345,27.054522,-83.416954,-36.015625,-0.101808734,0.0,0.094893456,0.03432617,-1.2861111,-0.045600288,-0.033200443,-5.252224,0.0,0.0,0.0
2486651741,27.054522,-83.416954,-36.015625,-0.101808734,0.0,0.10839815,0.024295043,-1.2861111,-0.050263833,-0.0012541362,-5.2676125,0.0,0.0,0.0
2486751314,27.054522,-83.416954,-36.015625,-0.101808734,0.0,0.117249675,0.016271591,-1.2861111,-0.07153537,-0.002494326,-5.2758346,0.0,0.0,0.0
2486855674,27.054522,-83.416954,-36.015625,-0.101808734,0.0,0.12669373,0.005008316,-1.2861111,-0.04968459,-0.02076875,-5.270094,0.0,0.0,0.0
2486956498,27.054522,-83.416954,-36.015625,-0.101808734,0.0,0.13235073,-0.0045589446,-1.2861111,-0.048414186,-0.023835484,-5.2948484,0.0,0.0,0.0
2487060170,27.054522,-83.416954,-36.015625,-0.101808734,0.0,0.13707638,-0.016235352,-1.2861111,-0.06527203,-0.03488774,-5.2945957,0.0,0.0,0.0
2487163893,27.054522,-83.416954,-36.015625,-0.101808734,0.0,0.13816357,-0.025788115,-1.2861111,-0.07473029,-0.02115534,-5.3032928,0.0,0.0,0.0
2487263323,27.054522,-83.416954,-36.015625,-0.101808734,0.0,0.14088878,-0.036014937,-1.2861111,-0.071682535,-0.03725949,-5.2927103,0.0,0.0,0.0
2487367382,27.054522,-83.416954,-36.015625,-0.101808734,0.0,0.14070758,-0.044639967,-1.2861111,-0.060192447,-0.039057005,-5.3062234,0.0,0.0,0.0
2487467821,27.054522,-83.416954,-36.015625,-0.101808734,0.0,0.14083986,-0.05329399,-1.2861111,-0.10722006,-0.05592753,-5.3055453,0.0,0.0,0.0
2487567378,27.054522,-83.416954,-36.015625,-0.101808734,0.0,0.1367629,-0.05909233,-1.2861111,-0.09948191,-0.057061903,-5.317251,0.0,0.0,0.0
2487671281,27.054522,-83.416954,-36.015625,-0.101808734,0.0,0.13396701,-0.06664467,-1.2861111,-0.12723374,-0.039617136,-5.308264,0.0,0.0,0.0
2487772062,27.054522,-83.416954,-36.015625,-0.101808734,0.0,0.12786607,-0.07120361,-1.2861111,-0.1216197,-0.058396887,-5.3167257,0.0,0.0,0.0
2487873168,27.054522,-83.416954,-36.015625,-0.101808734,0.0,0.120821096,-0.076509096,-1.2861111,-0.1242324,-0.05104126,-5.3389554,0.0,0.0,0.0
2487977249,27.054522,-83.416954,-36.015625,-0.101808734,0.0,0.1116271,-0.07998085,-1.2861111,-0.16518408,-0.031019319,-5.299871,0.0,0.0,0.0
2488077436,27.054522,-83.416954,-36.015625,-0.101808734,0.0,0.10319052,-0.08322792,-1.2861111,-0.13656034,-0.034846913,-5.3291974,0.0,0.0,0.0
2488177360,27.054522,-83.416954,-36.015625,-0.101808734,0.0,0.0924201,-0.083525084,-1.2861111,-0.16348882,-0.02807803,-5.32388,0.0,0.0,0.0
2488280886,27.054522,-83.416954,-36.015625,-0.101808734,0.0,0.08273325,-0.08353958,-1.2861111,-0.17046109,-0.024013089,-5.2937245,0.0,0.0,0.0
2488382480,27.054522,-83.416954,-36.015625,-0.101808734,0.0,0.0720788,-0.08178558,-1.2861111,-0.16926,-0.032011785,-5.330907,0.0,0.0,0.0
2488480921,27.054522,-83.416954,-36.015625,-0.101808734,0.0,0.06295185,-0.08072738,-1.2861111,-0.20231016,0.0012681596,-5.299603,0.0,0.0,0.0
2488584926,27.054522,-83.416954,-36.015625,-0.101808734,0.0,0.052391622,-0.07816162,-1.2861111,-0.19180587,0.018471278,-5.2971325,0.0,0.0,0.0
2488685985,27.054522,-83.416954,-36.015625,-0.101808734,0.0,0.04240036,-0.07814712,-1.2861111,-0.17838877,-0.04662071,-5.3149905,0.0,0.0,0.0
2488784890,27.054522,-83.416954,-36.015625,-0.101808734,0.0,0.03180027,-0.075864024,-1.2861111,-0.20485334,-0.028530067,-5.31208,0.0,0.0,0.0
2488889232,27.054522,-83.416954,-36.015625,-0.101808734,0.0,0.023693467,-0.07500152,-1.2861111,-0.19037874,-0.023827763,-5.309271,0.0,0.0,0.0
2488989501,27.054522,-83.416954,-36.015625,-0.101808734,0.0,0.01645279,-0.07340698,-1.2861111,-0.16434604,-0.011796493,-5.315688,0.0,0.0,0.0
2489094109,27.054522,-83.416954,-36.015625,-0.101808734,0.0,0.009541892,-0.07239227,-1.2861111,-0.19674177,0.004306203,-5.301789,0.0,0.0,0.0
2489198295,27.054522,-83.416954,-36.015625,-0.101808734,0.0,0.004214668,-0.07068176,-1.2861111,-0.15932639,-0.01536673,-5.313743,0.0,0.0,0.0
2489301408,27.054522,-83.416954,-36.015625,-0.101808734,0.0,0.0015220642,-0.06966705,-1.2861111,-0.17288236,-0.0022359954,-5.288833,0.0,0.0,0.0
2489400979,27.054522,-83.416954,-36.015625,-0.101808734,0.0,-1.9931793e-05,-0.067971036,-1.2861111,-0.12071074,-0.030705959,-5.297985,0.0,0.0,0.0
2489505183,27.054522,-83.416954,-36.015625,-0.101808734,0.0,-0.0007247925,-0.06639824,-1.2861111,-0.12732203,-0.05186276,-5.3271155,0.0,0.0,0.0
2489605363,27.054522,-83.416954,-36.015625,-0.101808734,0.0,-0.0017105102,-0.06447029,-1.2861111,-0.10130402,-0.037137527,-5.301956,0.0,0.0,0.0
2489709742,27.054522,-83.416954,-36.015625,-0.101808734,0.0,-0.0043831826,-0.06212921,-1.2861111,-0.07523622,-0.096682325,-5.3504705,0.0,0.0,0.0
2489814099,27.054522,-83.416954,-36.015625,-0.101808734,0.0,-0.0043596267,-0.06028824,-1.2861111,-0.06968769,-0.06204098,-5.3098497,0.0,0.0,0.0
2489917709,27.054522,-83.416954,-36.015625,-0.101808734,0.0,-0.0016217232,-0.058903884,-1.2861111,-0.055091288,-0.09135038,-5.3654714,0.0,0.0,0.0
2490017443,27.054522,-83.416954,-36.015625,-0.101808734,0.0,0.0016307831,-0.058411025,-1.2861111,-0.057783388,-0.05821713,-5.317726,0.0,0.0,0.0
2490121167,27.054522,-83.416954,-36.015625,-0.101808734,0.0,0.0056117056,-0.058498,-1.2861111,-0.020145182,-0.08818702,-5.3678164,0.0,0.0,0.0
2490221615,27.054522,-83.416954,-36.015625,-0.101808734,0.0,0.009219361,-0.058026884,-1.2861111,-0.053010877,-0.07926026,-5.348419,0.0,0.0,0.0
2490325413,27.054522,-83.416954,-36.015625,-0.101808734,0.0,0.012961102,-0.05696869,-1.2861111,-0.015099488,-0.06683039,-5.3397875,0.0,0.0,0.0
2490429579,27.054522,-83.416954,-36.015625,-0.101808734,0.0,0.015439891,-0.054874036,-1.2861111,-0.046333935,-0.04340962,-5.3303914,0.0,0.0,0.0
2490528962,27.054522,-83.416954,-36.015625,-0.101808734,0.0,0.017436694,-0.05210533,-1.2861111,-0.02905052,-0.054832913,-5.3509116,0.0,0.0,0.0
2490633227,27.054522,-83.416954,-36.015625,-0.101808734,0.0,0.01801834,-0.046988297,-1.2861111,-0.042444766,-0.06736873,-5.355706,0.0,0.0,0.0
2490733498,27.054522,-83.416954,-36.015625,-0.101808734,0.0,0.018407917,-0.04134941,-1.2861111,-0.053271763,-0.014447228,-5.3141522,0.0,0.0,0.0
2490833159,27.054522,-83.416954,-36.015625,-0.101808734,0.0,0.019125462,-0.03516693,-1.2861111,-0.051021323,-0.009202741,-5.3380027,0.0,0.0,0.0
2490937342,27.054522,-83.416954,-36.015625,-0.101808734,0.0,0.01884098,-0.027745055,-1.2861111,-0.071889415,-0.035090752,-5.3346744,0.0,0.0,0.0
2491038020,27.054522,-83.416954,-36.015625,-0.101808734,0.0,0.015168094,-0.018743133,-1.2861111,-0.07922991,0.004899128,-5.3410745,0.0,0.0,0.0
2491137277,27.054522,-83.416954,-36.015625,-0.101808734,0.0,0.011611176,-0.011111069,-1.2861111,-0.08306031,-0.0062123877,-5.335684,0.0,0.0,0.0
2491240870,27.054522,-83.416954,-36.015625,-0.101808734,0.0,0.0032144545,-0.0025512695,-1.2861111,-0.10067614,0.023758192,-5.3475595,0.0,0.0,0.0
2491341472,27.054522,-83.416954,-36.015625,-0.101808734,0.0,-0.0056461333,0.004718399,-1.2861111,-0.117438436,-0.019499447,-5.3299766,0.0,0.0,0.0
2491445373,27.054522,-83.416954,-36.015625,-0.101808734,0.0,-0.01567726,0.011053085,-1.2861111,-0.12558879,-0.018263485,-5.345602,0.0,0.0,0.0
2491549480,27.054522,-83.416954,-36.015625,-0.101808734,0.0,-0.024923801,0.015829468,-1.2861111,-0.16948935,-0.013204514,-5.3216643,0.0,0.0,0.0
2491648920,27.054522,-83.416954,-36.015625,-0.101808734,0.0,-0.033806134,0.019221496,-1.2861111,-0.15573135,-0.008319413,-5.316019,0.0,0.0,0.0
2491750907,27.054522,-83.416954,-36.015625,-0.101808734,0.0,-0.041748047,0.020866776,-1.2861111,-0.15287794,-0.014651785,-5.3401647,0.0,0.0,0.0
2491854926,27.054522,-83.416954,-36.015625,-0.101808734,0.0,-0.05066662,0.019815827,-1.2861111,-0.1948303,-0.028969536,-5.303196,0.0,0.0,0.0
2491955158,27.054522,-83.416954,-36.015625,-0.101808734,0.0,-0.058822345,0.016510772,-1.2861111,-0.17586832,-0.03251804,-5.285573,0.0,0.0,0.0
2492054865,27.054522,-83.416954,-36.015625,-0.101808734,0.0,-0.067802526,0.010400772,-1.2861111,-0.18102951,-0.10935968,-5.29031,0.0,0.0,0.0
2492158549,27.054522,-83.416954,-36.015625,-0.101808734,0.0,-0.07551975,0.0022613525,-1.2861111,-0.19818069,-0.14068457,-5.3018527,0.0,0.0,0.0
2492259707,27.054522,-83.416954,-36.015625,-0.101808734,0.0,-0.08400888,-0.007965469,-1.2861111,-0.1832335,-0.16076335,-5.2697077,0.0,0.0,0.0
2492358892,27.054522,-83.416954,-36.015625,-0.101808734,0.0,-0.09006815,-0.019199753,-1.2861111,-0.21701092,-0.15033957,-5.2574086,0.0,0.0,0.0
2492462766,27.054522,-83.416954,-36.015625,-0.101808734,0.0,-0.0961256,-0.030984879,-1.2861111,-0.19573271,-0.17061229,-5.246233,0.0,0.0,0.0
2492563005,27.054522,-83.416954,-36.015625,-0.101808734,0.0,-0.099867344,-0.04300194,-1.2861111,-0.22688134,-0.1699062,-5.2478166,0.0,0.0,0.0
2492666921,27.054522,-83.416954,-36.015625,-0.101808734,0.0,-0.10644121,-0.05626564,-1.2861111,-0.23226975,-0.18855663,-5.2433715,0.0,0.0,0.0
2492771966,27.054522,-83.416954,-36.015625,-0.101808734,0.0,-0.11017208,-0.06952209,-1.2861111,-0.22624852,-0.18653004,-5.2577224,0.0,0.0,0.0
2492875076,27.054522,-83.416954,-36.015625,-0.101808734,0.0,-0.114404865,-0.08231468,-1.2861111,-0.18726248,-0.22813235,-5.274438,0.0,0.0,0.0
2492975022,27.054522,-83.416954,-36.015625,-0.101808734,0.0,-0.11535797,-0.0935997,-1.2861111,-0.20484732,-0.19492935,-5.307333,0.0,0.0,0.0
2493078520,27.054522,-83.416954,-36.015625,-0.101808734,0.0,-0.11659193,-0.103652574,-1.2861111,-0.19314872,-0.1907985,-5.270122,0.0,0.0,0.0
2493180689,27.054522,-83.416954,-36.015625,-0.101808734,0.0,-0.11538515,-0.11198044,-1.2861111,-0.16721572,-0.19342214,-5.300743,0.0,0.0,0.0
2493283013,27.054522,-83.416954,-36.015625,-0.101808734,0.0,-0.11350612,-0.11972847,-1.2861111,-0.17702973,-0.19004296,-5.2790422,0.0,0.0,0.0
2493387683,27.054522,-83.416954,-36.015625,-0.101808734,0.0,-0.1099782,-0.12570076,-1.2861111,-0.18833409,-0.17208622,-5.2957273,0.0,0.0,0.0
2493491246,27.054522,-83.416954,-36.015625,-0.101808734,0.0,-0.106580734,-0.13035393,-1.2861111,-0.1711984,-0.17203283,-5.280068,0.0,0.0,0.0
2493590586,27.054522,-83.416954,-36.015625,-0.101808734,0.0,-0.10200185,-0.13228187,-1.2861111,-0.17628957,-0.12954742,-5.3078704,0.0,0.0,0.0
2493694570,27.054522,-83.416954,-36.015625,-0.101808734,0.0,-0.096933745,-0.13171653,-1.2861111,-0.17011388,-0.14781104,-5.3162956,0.0,0.0,0.0
2493795207,27.054522,-83.416954,-36.015625,-0.101808734,0.0,-0.09159565,-0.12894058,-1.2861111,-0.16710944,-0.1188576,-5.351038,0.0,0.0,0.0
2493899223,27.054522,-83.416954,-36.015625,-0.101808734,0.0,-0.08611622,-0.123925015,-1.2861111,-0.16641083,-0.08845399,-5.317212,0.0,0.0,0.0
2494003647,27.054522,-83.416954,-36.015625,-0.101808734,0.0,-0.08088503,-0.11656837,-1.2861111,-0.2099305,-0.059431713,-5.2904696,0.0,0.0,0.0
2494107722,27.054522,-83.416954,-36.015625,-0.101808734,0.0,-0.07628803,-0.10716057,-1.2861111,-0.19814129,-0.08679449,-5.2747607,0.0,0.0,0.0
2494206826,27.054522,-83.416954,-36.015625,-0.101808734,0.0,-0.07323847,-0.09678154,-1.2861111,-0.21897878,-0.0361257,-5.280756,0.0,0.0,0.0
2494310758,27.054522,-83.416954,-36.015625,-0.101808734,0.0,-0.072067924,-0.08476448,-1.2861111,-0.24430601,-0.0076157358,-5.2923098,0.0,0.0,0.0
2494411285,27.054522,-83.416954,-36.015625,-0.101808734,0.0,-0.07064734,-0.071819685,-1.2861111,-0.21228118,-0.0018531673,-5.3255816,0.0,0.0,0.0
2494515282,27.054522,-83.416954,-36.015625,-0.101808734,0.0,-0.068846226,-0.057251357,-1.2861111,-0.2455197,0.032077886,-5.3087792,0.0,0.0,0.0
2494619271,27.054522,-83.416954,-36.015625,-0.101808734,0.0,-0.067139335,-0.041327666,-1.2861111,-0.25900382,0.04317257,-5.2941136,0.0,0.0,0.0
2494718779,27.054522,-83.416954,-36.015625,-0.101808734,0.0,-0.06566257,-0.025056075,-1.2861111,-0.25208187,0.07213255,-5.3099766,0.0,0.0,0.0
2494820042,27.054522,-83.416954,-36.015625,-0.101808734,0.0,-0.06544151,-0.0092556,-1.2861111,-0.24497296,0.07134071,-5.316968,0.0,0.0,0.0
2494923228,27.054522,-83.416954,-36.015625,-0.101808734,0.0,-0.066936396,0.005878067,-1.2861111,-0.24880248,0.08779557,-5.2917356,0.0,0.0,0.0
2495022574,27.054522,-83.416954,-36.015625,-0.101808734,0.0,-0.06937713,0.019772338,-1.1995926,-0.2888393,0.093050495,-5.150211,0.0,0.0,0.0
2495126716,27.054522,-83.416954,-36.015625,-0.101808734,0.0,-0.07264233,0.033123016,-1.0667267,-0.24870148,0.08878038,-4.9523554,0.0,0.0,0.0
2495227173,27.054522,-83.416954,-36.015625,-0.101808734,0.0,-0.07711248,0.045466233,-0.9438019,-0.25282198,0.09322532,-4.8576183,0.0,0.0,0.0
2495326872,27.054522,-83.416954,-36.015625,-0.101808734,0.0,-0.08183632,0.05678024,-0.82715607,-0.26573545,0.06407506,-4.7851124,0.0,0.0,0.0
2495430803,24.63007,-81.4566,-35.94012,-0.101808734,0.0,-2.389813,1.9297382,-0.64305496,-1.745343,1.2860585,-4.6492634,0.0,0.0,0.0
2495531367,24.63007,-81.4566,-36.032722,-0.101808734,0.0,-2.3937178,1.9384575,-0.64305496,-1.8132626,1.3402231,-4.835432,0.0,0.0,0.0
2495632807,24.63007,-81.4566,-36.117233,-0.101808734,0.0,-2.3899,1.9388851,-0.64305496,-1.8828776,1.3430562,-4.959808,0.0,0.0,0.0
2495737464,24.63007,-81.4566,-36.162647,-0.101808734,0.0,-2.376156,1.9303471,-0.60583115,-1.8819486,1.3461787,-4.962079,0.0,0.0,0.0
2495840961,24.997734,-81.75509,-36.162647,0.9735062,0.0,-1.9969609,1.6212521,-0.52713394,-1.4208932,0.9553231,-4.8257713,0.0,0.0,0.0
2495944738,24.941956,-81.709305,-36.162647,0.9735062,0.0,-1.99853,1.6193168,-0.4511299,-1.2291131,0.7716616,-4.7832837,0.0,0.0,0.0
2496044486,24.8665,-81.647934,-36.162647,0.9719778,0.0,-1.9994795,1.6181499,-0.38468552,-1.0188341,0.5921063,-4.8495016,0.0,0.0,0.0
2496148556,24.765152,-81.56579,-36.162647,0.97085935,0.0,-2.0003874,1.6170264,-0.32743073,-0.9078222,0.5429973,-4.9347005,0.0,0.0,0.0
2496248847,24.646574,-81.46995,-36.162647,0.96937716,0.0,-1.9999615,1.6175483,-0.28321838,-0.78988826,0.45045674,-5.0523915,0.0,0.0,0.0
2496353245,24.643522,-81.4381,-36.162647,0.967647,0.0,-1.8684136,1.5411407,-0.24475479,-0.54927933,0.30222267,-5.0735707,0.0,0.0,0.0
2496452559,24.675798,-81.39372,-36.162647,0.9667817,0.0,-1.692298,1.4744598,-0.21400452,-0.34319353,0.22409587,-5.1155024,0.0,0.0,0.0
2496554336,24.708351,-81.34897,-36.162647,0.963821,0.0,-1.5068308,1.4024734,-0.1873703,-0.16635577,0.14383876,-5.1666107,0.0,0.0,0.0
2496656801,24.738274,-81.30783,-36.162647,0.96184033,0.0,-1.30864,1.3217605,-0.16132736,0.028355358,0.067159824,-5.1079683,0.0,0.0,0.0
2496760701,24.769672,-81.264656,-36.162647,0.96184033,0.0,-1.109342,1.2409316,-0.13734055,0.1298478,0.02904593,-5.108365,0.0,0.0,0.0
2496860786,24.796999,-81.22709,-36.162647,0.957168,0.0,-0.9195859,1.1647922,-0.113471985,0.2034505,0.021547975,-5.025319,0.0,0.0,0.0
2496964519,24.82823,-81.18414,-36.162647,0.9551683,0.0,-0.7293659,1.0905807,-0.08565521,0.27149364,0.006648384,-5.0208683,0.0,0.0,0.0
2497064728,24.85767,-81.14368,-36.162647,0.95417273,0.0,-0.5548449,1.0255595,-0.05872345,0.28674194,-0.02651163,-5.0083785,0.0,0.0,0.0
2497164704,25.015684,-80.92642,-36.162647,0.9515245,0.0,-0.2743702,1.13093,-0.031974792,0.45428494,0.14259279,-5.038363,0.0,0.0,0.0
2497268544,25.212173,-80.65627,-36.162647,0.9498732,0.0,0.034632396,1.2918701,-0.0053749084,0.55155385,0.32919335,-4.98681,0.0,0.0,0.0
2497368734,25.40751,-80.38771,-36.162647,0.94917285,0.0,0.31860608,1.4577968,0.020004272,0.65567267,0.4965435,-5.01572,0.0,0.0,0.0
2497472747,25.61211,-80.106415,-36.162647,0.9472023,0.0,0.601219,1.6379658,0.041194916,0.7307612,0.6877719,-5.001378,0.0,0.0,0.0
2497578181,25.82871,-79.80861,-36.162647,0.9461161,0.0,0.87139446,1.8319203,0.05940628,0.8618633,0.83858716,-5.0610743,0.0,0.0,0.0
2497680913,26.047953,-79.50718,-36.162647,0.9456051,0.0,1.1257241,2.0285275,0.0746727,0.8658408,0.9810632,-5.0419374,0.0,0.0,0.0
2497780451,26.249424,-79.23019,-36.162647,0.9456051,0.0,1.3365699,2.1977012,0.08836365,0.8969752,1.0542158,-5.070852,0.0,0.0,0.0
2497884398,26.302324,-79.15745,-36.162647,0.94350016,0.0,1.3920056,2.16302,0.09969711,0.74381655,0.9358908,-5.042084,0.0,0.0,0.0
2497984826,26.36489,-79.071434,-36.162647,0.9429632,0.0,1.435533,2.134376,0.10705185,0.6157312,0.8180118,-5.052357,0.0,0.0,0.0
2498084466,26.438477,-78.97027,-36.162647,0.9429632,0.0,1.4729359,2.108733,0.10931778,0.61148405,0.7446244,-5.1407127,0.0,0.0,0.0
2498188544,26.52796,-78.84723,-36.162647,0.9421863,0.0,1.5038682,2.0867934,0.10681915,0.493669,0.62644017,-5.1411376,0.0,0.0,0.0
2498289151,26.623804,-78.71546,-36.162647,0.94181406,0.0,1.5309827,2.0669777,0.10372925,0.4063682,0.5258206,-5.1495337,0.0,0.0,0.0
2498392799,26.734089,-78.56383,-36.162647,0.94181406,0.0,1.5540366,2.0497057,0.098594666,0.34426427,0.49421722,-5.182515,0.0,0.0,0.0
2498492586,26.84711,-78.40844,-36.162647,0.9411546,0.0,1.5764037,2.03255,0.09003067,0.36556762,0.4392022,-5.225878,0.0,0.0,0.0
2498592719,26.967302,-78.24319,-36.162647,0.940873,0.0,1.5959513,2.0172424,0.077049255,0.3305426,0.40076596,-5.249639,0.0,0.0,0.0
2498696858,27.098524,-78.06278,-36.162647,0.9407466,0.0,1.6168344,2.000536,0.06505585,0.2772676,0.32514846,-5.206204,0.0,0.0,0.0
2498796560,27.229824,-77.882256,-36.162647,0.9406171,0.0,1.6332709,1.9871417,0.052825928,0.27094957,0.30256364,-5.249983,0.0,0.0,0.0
2498896665,27.364954,-77.696465,-36.162647,0.9400832,0.0,1.6524363,1.9712398,0.0388031,0.25838628,0.2660567,-5.2068563,0.0,0.0,0.0
2499004660,27.513832,-77.491776,-36.162647,0.93998253,0.0,1.6691065,1.9571426,0.024585724,0.2605323,0.27734193,-5.251916,0.0,0.0,0.0
2499104919,27.65326,-77.30009,-36.162647,0.9396629,0.0,1.6866337,1.9420525,0.013202667,0.25592852,0.26033226,-5.227287,0.0,0.0,0.0
2499208638,27.800869,-77.09714,-36.162647,0.93947566,0.0,1.7013326,1.9291946,0.00050354004,0.2809418,0.22224861,-5.2674823,0.0,0.0,0.0
2499308669,27.945023,-76.89894,-36.162647,0.9393433,0.0,1.7137827,1.9181415,-0.011455536,0.26488057,0.19707185,-5.2939887,0.0,0.0,0.0
2499408907,28.09007,-76.699524,-36.162647,0.93905604,0.0,1.7250386,1.9080235,-0.020965576,0.29295987,0.20972781,-5.2834053,0.0,0.0,0.0
2499510215,28.238209,-76.49586,-36.162647,0.9389058,0.0,1.7342381,1.8996593,-0.028949738,0.245004,0.18625063,-5.2516546,0.0,0.0,0.0
2499614187,28.39081,-76.28604,-36.162647,0.9389058,0.0,1.7425896,1.8920127,-0.03826523,0.26391605,0.16892944,-5.26698,0.0,0.0,0.0
2499718108,28.544323,-76.07498,-36.162647,0.9386171,0.0,1.7505478,1.8846489,-0.042907715,0.19130935,0.18511468,-5.2137947,0.0,0.0,0.0
2499822218,28.698631,-75.86282,-36.162647,0.93853104,0.0,1.7566451,1.8789665,-0.04253006,0.24142912,0.16836804,-5.255555,0.0,0.0,0.0
2499922821,28.847853,-75.65766,-36.162647,0.9384365,0.0,1.7615211,1.8744003,-0.04042816,0.26981932,0.16673748,-5.2753873,0.0,0.0,0.0
2500026616,29.004255,-75.44263,-36.162647,0.93839854,0.0,1.764422,1.8716679,-0.04102707,0.23989995,0.16193135,-5.209893,0.0,0.0,0.0
2500130899,29.161568,-75.22634,-36.162647,0.93837065,0.0,1.7651904,1.8709431,-0.042186737,0.2303967,0.14077626,-5.230511,0.0,0.0,0.0
2500230016,29.313566,-75.017365,-36.162647,0.9383664,0.0,1.7643206,1.871762,-0.04524994,0.17516418,0.14571425,-5.2085204,0.0,0.0,0.0
2500334049,29.472393,-74.798996,-36.162647,0.93836313,0.0,1.7616316,1.8742988,-0.050258636,0.20280404,0.14258538,-5.224112,0.0,0.0,0.0
2500434458,29.626928,-74.58653,-36.162647,0.938394,0.0,1.7582759,1.8774372,-0.05247879,0.20064606,0.14768508,-5.2499857,0.0,0.0,0.0
2500538357,29.788439,-74.36448,-36.162647,0.9384816,0.0,1.752155,1.8831486,-0.054523468,0.18883085,0.16632956,-5.235453,0.0,0.0,0.0
2500642562,29.95262,-74.13875,-36.162647,0.938567,0.0,1.7461338,1.8887367,-0.057712555,0.2039017,0.14352821,-5.2549477,0.0,0.0,0.0
2500742206,30.110249,-73.92203,-36.162647,0.938567,0.0,1.7376193,1.8965718,-0.058483124,0.14940839,0.16223626,-5.2430925,0.0,0.0,0.0
2500846239,30.274267,-73.69652,-36.162647,0.938567,0.0,1.7285793,1.9048198,-0.061538696,0.14458272,0.14462706,-5.242726,0.0,0.0,0.0
2500950013,30.438234,-73.471085,-36.162647,0.93895596,0.0,1.7179303,1.9144306,-0.06739044,0.13601804,0.13942926,-5.2738695,0.0,0.0,0.0
2501050310,30.596737,-73.25317,-36.162647,0.939113,0.0,1.7072052,1.9239979,-0.070961,0.13589631,0.13569923,-5.255848,0.0,0.0,0.0
2501154368,30.761377,-73.0268,-36.162647,0.939113,0.0,1.6946373,1.9350799,-0.07308197,0.094021045,0.1568498,-5.2212653,0.0,0.0,0.0
2501258514,30.927826,-72.79796,-36.162647,0.9395006,0.0,1.6818138,1.9462345,-0.076618195,0.07689649,0.13900839,-5.241481,0.0,0.0,0.0
2501358023,31.087765,-72.578064,-36.162647,0.93958837,0.0,1.6688383,1.9573673,-0.078933716,0.08288109,0.14489537,-5.2719507,0.0,0.0,0.0
2501462106,31.256277,-72.346375,-36.162647,0.9396855,0.0,1.6560112,1.9682392,-0.080654144,0.046166807,0.12052708,-5.242337,0.0,0.0,0.0
2501562860,31.41815,-72.123825,-36.162647,0.9399842,0.0,1.6436064,1.9786037,-0.0815506,0.035193965,0.13507293,-5.220169,0.0,0.0,0.0
2501662027,31.58115,-71.89972,-36.162647,0.9401614,0.0,1.6314336,1.9886566,-0.080768585,0.03790261,0.12141152,-5.236365,0.0,0.0,0.0
2501765988,31.750267,-71.667206,-36.162647,0.9401614,0.0,1.6186844,1.9990429,-0.08208084,0.037041705,0.12623043,-5.23083,0.0,0.0,0.0
2501866241,31.91404,-71.44204,-36.162647,0.9405471,0.0,1.6066619,2.0087187,-0.08181,0.052215792,0.11861767,-5.224604,0.0,0.0,0.0
2501974202,32.090927,-71.19884,-36.162647,0.9407191,0.0,1.593324,2.0193152,-0.08255005,0.006741967,0.11157903,-5.2172437,0.0,0.0,0.0
2502074445,32.256783,-70.9708,-36.162647,0.9407191,0.0,1.579841,2.0298827,-0.074523926,0.0029186092,0.12105205,-5.2074656,0.0,0.0,0.0
2502179271,32.427544,-70.73603,-36.162647,0.9407191,0.0,1.5667024,2.0400372,-0.064071655,-0.012421383,0.12583171,-5.202484,0.0,0.0,0.0
2502278308,32.591938,-70.51,-36.162647,0.94130206,0.0,1.5531704,2.0503654,-0.057567596,-0.041509118,0.12892796,-5.1458836,0.0,0.0,0.0
2502382113,32.761894,-70.276344,-36.162647,0.94148767,0.0,1.5402004,2.060121,-0.04945755,-0.030416172,0.12041984,-5.149725,0.0,0.0,0.0
2502482493,32.926308,-70.05029,-36.162647,0.94169146,0.0,1.5254526,2.0710654,-0.041728973,-0.025424073,0.12534648,-5.1635303,0.0,0.0,0.0
2502582187,33.08919,-69.82635,-36.162647,0.94188553,0.0,1.5129191,2.0802414,-0.032081604,-0.0823276,0.13330966,-5.129111,0.0,0.0,0.0
2502686031,33.258186,-69.594,-36.162647,0.9420848,0.0,1.4985157,2.0906348,-0.024719238,-0.031104375,0.13585567,-5.15822,0.0,0.0,0.0
2502786430,33.420048,-69.37145,-36.162647,0.9422678,0.0,1.4868828,2.0989337,-0.021888733,-0.03633823,0.13668747,-5.1667433,0.0,0.0,0.0
2502890299,33.586105,-69.14315,-36.162647,0.94244146,0.0,1.473561,2.1083052,-0.018421173,-0.104273245,0.15346621,-5.135552,0.0,0.0,0.0
2502990239,33.746082,-68.92321,-36.162647,0.94244146,0.0,1.4626964,2.1158504,-0.016792297,-0.07262197,0.16005415,-5.181048,0.0,0.0,0.0
2503090365,33.906765,-68.702286,-36.162647,0.94283843,0.0,1.4508244,2.1240115,-0.018390656,-0.0809411,0.1286688,-5.1888523,0.0,0.0,0.0
2503195240,34.07381,-68.47262,-36.162647,0.9429757,0.0,1.4414419,2.1303897,-0.021148682,-0.08230211,0.10478876,-5.2044926,0.0,0.0,0.0
2503298376,34.24004,-68.24407,-36.162647,0.9431401,0.0,1.4297256,2.1382682,-0.022468567,-0.08634941,0.12685224,-5.2166905,0.0,0.0,0.0
2503399810,34.403038,-68.019966,-36.162647,0.9432615,0.0,1.4208288,2.144197,-0.023124695,-0.06266087,0.11013275,-5.206362,0.0,0.0,0.0
2503499863,34.564644,-67.79778,-36.162647,0.9433632,0.0,1.4102396,2.1511767,-0.020450592,-0.09834694,0.09939585,-5.2115746,0.0,0.0,0.0
2503604172,34.732956,-67.56637,-36.162647,0.9435327,0.0,1.4015529,2.1568446,-0.017620087,-0.11061427,0.11981585,-5.174378,0.0,0.0,0.0
2503708371,34.901936,-67.334045,-36.162647,0.94369036,0.0,1.3924459,2.1627371,-0.013767242,-0.07979241,0.13360934,-5.206679,0.0,0.0,0.0
2503807725,35.064056,-67.11115,-36.162647,0.9437409,0.0,1.3870462,2.1662018,-0.01210022,-0.0953072,0.1230501,-5.209865,0.0,0.0,0.0
2503911823,35.232624,-66.879395,-36.162647,0.943919,0.0,1.3794576,2.1710434,-0.013389587,-0.11903131,0.07696288,-5.1701093,0.0,0.0,0.0
2504015909,35.400963,-66.64795,-36.162647,0.9439934,0.0,1.373402,2.1748774,-0.0145225525,-0.09672339,0.08706377,-5.2291617,0.0,0.0,0.0
2504116112,35.562874,-66.42534,-36.162647,0.94409466,0.0,1.3684372,2.1780014,-0.014251709,-0.10806885,0.11412427,-5.2038107,0.0,0.0,0.0
2504220064,35.731285,-66.1938,-36.162647,0.9441286,0.0,1.3648168,2.18027,-0.010982513,-0.064967856,0.08057234,-5.1940217,0.0,0.0,0.0
2504324425,35.899784,-65.962135,-36.162647,0.94417274,0.0,1.3620011,2.1820312,-0.010219574,-0.12579569,0.083371006,-5.167102,0.0,0.0,0.0
2504423694,36.061893,-65.73924,-36.162647,0.94424164,0.0,1.360305,2.1830966,-0.006542206,-0.10651569,0.10430886,-5.174032,0.0,0.0,0.0
2504527996,36.230453,-65.5075,-36.162647,0.9442889,0.0,1.3587285,2.184075,-0.004562378,-0.08066916,0.09222035,-5.201119,0.0,0.0,0.0
2504628451,36.392353,-65.28491,-36.162647,0.94428027,0.0,1.3567644,2.1852927,-0.002861023,-0.104727656,0.088972524,-5.175651,0.0,0.0,0.0
2504727983,36.553925,-65.062775,-36.162647,0.94433576,0.0,1.3568115,2.1852639,0.00030899048,-0.08726005,0.10070603,-5.166364,0.0,0.0,0.0
2504831708,36.721893,-64.83183,-36.162647,0.9443405,0.0,1.3559816,2.1857784,0.004634857,-0.081117354,0.08243244,-5.2065873,0.0,0.0,0.0
2504932480,36.88343,-64.60974,-36.162647,0.9443545,0.0,1.3565941,2.1854014,0.0074157715,-0.07279416,0.06926218,-5.2069635,0.0,0.0,0.0
2505036021,37.050762,-64.37968,-36.162647,0.94433993,0.0,1.3564636,2.1854813,0.0069732666,-0.09316354,0.03012076,-5.1779447,0.0,0.0,0.0
2505135971,37.211575,-64.158585,-36.162647,0.94436044,0.0,1.3580654,2.184481,0.004508972,-0.07847349,0.06914397,-5.238807,0.0,0.0,0.0
2505235822,37.371628,-63.938526,-36.162647,0.9443334,0.0,1.3580654,2.1844847,-0.00065231323,-0.06570066,0.0478725,-5.243935,0.0,0.0,0.0
2505340619,37.538094,-63.709656,-36.162647,0.9443433,0.0,1.360015,2.1832707,-0.004299164,-0.07412606,0.029716939,-5.218611,0.0,0.0,0.0
2505443845,37.70458,-63.480755,-36.162647,0.9443135,0.0,1.3601891,2.1831656,-0.011615753,-0.089428715,0.034358032,-5.228275,0.0,0.0,0.0
2505543816,37.86484,-63.260414,-36.162647,0.9443303,0.0,1.3623779,2.1817992,-0.018966675,-0.087464444,0.0285059,-5.2558737,0.0,0.0,0.0
2505647705,38.03008,-63.033237,-36.162647,0.9442993,0.0,1.3631824,2.1812956,-0.023090363,-0.095536076,0.054904863,-5.2428684,0.0,0.0,0.0
2505748378,38.188637,-62.815243,-36.162647,0.9442983,0.0,1.3658025,2.1796575,-0.027263641,-0.09470596,0.042231515,-5.223657,0.0,0.0,0.0
2505847872,38.346485,-62.598217,-36.162647,0.94425446,0.0,1.3672521,2.1787515,-0.031749725,-0.10887796,0.016252138,-5.1912956,0.0,0.0,0.0
2505951677,38.510418,-62.37283,-36.162647,0.9442637,0.0,1.3706405,2.1766207,-0.038093567,-0.08570757,0.044755854,-5.2526054,0.0,0.0,0.0
2506052065,38.666855,-62.157745,-36.162647,0.9441985,0.0,1.3717966,2.175892,-0.045337677,-0.08086197,0.07003826,-5.2348003,0.0,0.0,0.0
2506156656,38.829628,-61.933952,-36.162647,0.94416326,0.0,1.3759896,2.1732395,-0.05086136,-0.047590133,0.062244877,-5.24325,0.0,0.0,0.0
2506259853,38.991875,-61.710884,-36.162647,0.94411933,0.0,1.3782327,2.171819,-0.05337906,-0.07206786,0.038146265,-5.2179103,0.0,0.0,0.0
2506359632,39.148357,-61.49574,-36.162647,0.9440707,0.0,1.3835274,2.1684523,-0.05455017,-0.08317215,0.021552892,-5.197288,0.0,0.0,0.0
2506463618,39.31219,-61.27049,-36.162647,0.94401485,0.0,1.3865497,2.1665206,-0.058258057,-0.07910889,0.0058090882,-5.2268586,0.0,0.0,0.0
2506563993,39.4701,-61.053383,-36.162647,0.94401485,0.0,1.3918915,2.1630888,-0.061519623,-0.06748087,0.038332734,-5.2237225,0.0,0.0,0.0
2506663673,39.627876,-60.836464,-36.162647,0.943872,0.0,1.3968128,2.1599104,-0.061515808,-0.014425101,0.0031949328,-5.2423778,0.0,0.0,0.0
2506767745,39.79229,-60.610413,-36.162647,0.94376606,0.0,1.404318,2.15504,-0.06061554,-0.0698022,-0.003435975,-5.2064395,0.0,0.0,0.0
2506867989,39.949932,-60.393677,-36.162647,0.94367886,0.0,1.4096887,2.151532,-0.05416107,-0.05878343,0.015445534,-5.2077427,0.0,0.0,0.0
2506967744,40.10791,-60.176476,-36.162647,0.9435593,0.0,1.4179876,2.1460707,-0.046447754,-0.013016051,-0.003785373,-5.1727295,0.0,0.0,0.0
2507071377,40.2715,-59.951557,-36.162647,0.9434992,0.0,1.4255037,2.1410913,-0.039676666,-0.04246744,-0.0043376638,-5.1765714,0.0,0.0,0.0
2507172473,40.43024,-59.73331,-36.162647,0.9433036,0.0,1.4348608,2.134829,-0.03460312,0.001904917,0.0005838278,-5.2292924,0.0,0.0,0.0
2507274049,40.589195,-59.51477,-36.162647,0.9431721,0.0,1.4424893,2.1296866,-0.02865982,0.011208858,-0.0019284838,-5.1647186,0.0,0.0,0.0
2507379123,40.753315,-59.289127,-36.162647,0.9431721,0.0,1.4524008,2.1229317,-0.02160263,-0.024622649,-0.019814169,-5.143626,0.0,0.0,0.0
2507481657,40.91829,-59.0623,-36.162647,0.94286215,0.0,1.4607503,2.1171985,-0.014816284,-0.0029332987,-0.047984086,-5.162293,0.0,0.0,0.0
2507581389,41.076694,-58.844513,-36.162647,0.942701,0.0,1.4705242,2.1104252,-0.010318756,0.014517743,-0.031117242,-5.182467,0.0,0.0,0.0
2507685393,41.242165,-58.61702,-36.162647,0.9425396,0.0,1.4799863,2.1037934,-0.008735657,0.027250065,-0.025840051,-5.175072,0.0,0.0,0.0
2507785667,41.40086,-58.39883,-36.162647,0.9423617,0.0,1.4901153,2.0966325,-0.0064582825,0.03581155,-0.069363534,-5.1998835,0.0,0.0,0.0
2507885194,41.559692,-58.18045,-36.162647,0.94228125,0.0,1.4999254,2.0896275,-0.004650116,0.054603763,-0.039680596,-5.194171,0.0,0.0,0.0
2507989327,41.724297,-57.95414,-36.162647,0.94228125,0.0,1.5106777,2.0818684,-0.00048446655,0.036201738,-0.030816214,-5.1715,0.0,0.0,0.0
2508090024,41.883556,-57.73518,-36.162647,0.94188964,0.0,1.5204769,2.074722,0.0027313232,0.061366294,-0.03726496,-5.189192,0.0,0.0,0.0
2508188980,42.041225,-57.51841,-36.162647,0.94171023,0.0,1.5305189,2.0673256,0.0053596497,0.12093301,-0.05597325,-5.20833,0.0,0.0,0.0
2508293492,42.20499,-57.293247,-36.162647,0.94154614,0.0,1.5388178,2.0611575,0.007823944,0.052948948,-0.02529912,-5.1739492,0.0,0.0,0.0
2508393615,42.361767,-57.077698,-36.162647,0.9413965,0.0,1.5464135,2.0554607,0.0079193115,0.092385575,-0.033683594,-5.206476,0.0,0.0,0.0
2508498010,42.52528,-56.85289,-36.162647,0.94133717,0.0,1.5526142,2.0507858,0.0072288513,0.10225047,-0.0017811753,-5.224236,0.0,0.0,0.0
2508601737,42.688263,-56.628807,-36.162647,0.94113547,0.0,1.5582095,2.0465386,0.007789612,0.10980794,-0.034858134,-5.2087536,0.0,0.0,0.0
2508705532,42.85184,-56.403908,-36.162647,0.9410715,0.0,1.5619024,2.043719,0.008293152,0.052504208,-0.043917913,-5.197319,0.0,0.0,0.0
2508805212,43.008606,-56.18838,-36.162647,0.9410715,0.0,1.5647508,2.0415375,0.007045746,0.0663059,-0.033545647,-5.20602,0.0,0.0,0.0
2508909266,43.17213,-55.96355,-36.162647,0.9410001,0.0,1.5656315,2.0408633,0.005405426,0.07977083,-0.021656495,-5.2470345,0.0,0.0,0.0
2509009728,43.32897,-55.747917,-36.162647,0.940975,0.0,1.5656097,2.0408814,0.0019683838,0.08469372,-0.01849856,-5.218263,0.0,0.0,0.0
2509113655,43.491787,-55.52406,-36.162647,0.940975,0.0,1.56449,2.0417404,-0.0040283203,0.044887483,-0.021350106,-5.2391014,0.0,0.0,0.0
2509213460,43.647858,-55.309483,-36.162647,0.94100416,0.0,1.563544,2.0424578,-0.010082245,0.045795444,-0.007682435,-5.2406187,0.0,0.0,0.0
2509313540,43.804176,-55.094566,-36.162647,0.94103897,0.0,1.5615871,2.0439546,-0.014019012,0.073175766,-0.008942518,-5.23032,0.0,0.0,0.0
2509418015,43.96662,-54.87122,-36.162647,0.9410672,0.0,1.5602643,2.0449693,-0.01379776,0.07547395,-0.00077211234,-5.2462716,0.0,0.0,0.0
2509521798,44.12904,-54.64792,-36.162647,0.9410845,0.0,1.5592134,2.0457737,-0.0129470825,0.04734391,-0.0076308283,-5.2054067,0.0,0.0,0.0
2509621258,44.28548,-54.43283,-36.162647,0.9410913,0.0,1.5572673,2.047256,-0.01524353,0.052296303,-0.013275273,-5.2207074,0.0,0.0,0.0
2509725231,44.448647,-54.208504,-36.162647,0.9411583,0.0,1.5544587,2.049387,-0.015853882,0.038628265,0.005988847,-5.231583,0.0,0.0,0.0
2509826047,44.605274,-53.993153,-36.162647,0.9412156,0.0,1.550505,2.0523767,-0.013366699,0.053823113,0.012211247,-5.2120104,0.0,0.0,0.0
2509925550,44.76085,-53.77926,-36.162647,0.9412156,0.0,1.5462577,2.0555766,-0.009292603,-0.012172143,0.008969758,-5.1548376,0.0,0.0,0.0
2510029364,44.922,-53.557693,-36.162647,0.94137204,0.0,1.5408291,2.0596535,-0.0049324036,0.0012921462,0.021559473,-5.1604013,0.0,0.0,0.0
2510130374,45.076565,-53.345192,-36.162647,0.9414886,0.0,1.5347118,2.0642161,-0.006465912,0.0042001083,0.040384207,-5.1745496,0.0,0.0,0.0
2510233558,45.237984,-53.12326,-36.162647,0.9416419,0.0,1.5287758,2.0686157,-0.007041931,0.014114871,0.039862566,-5.2041206,0.0,0.0,0.0
2510337986,45.399353,-52.901386,-36.162647,0.9417402,0.0,1.5233507,2.072613,-0.01027298,-0.030911036,0.027139762,-5.176712,0.0,0.0,0.0
2510442321,45.561615,-52.678307,-36.162647,0.9417906,0.0,1.5175524,2.0768638,-0.012969971,-0.027295133,0.046894938,-5.1828804,0.0,0.0,0.0
2510541150,45.717255,-52.464317,-36.162647,0.9419466,0.0,1.5124462,2.0805857,-0.01461792,-0.033892747,0.045675363,-5.207022,0.0,0.0,0.0
2510645277,45.87894,-52.24202,-36.162647,0.9420412,0.0,1.5074378,2.0842168,-0.016296387,-0.05665489,0.0681056,-5.187697,0.0,0.0,0.0
2510745484,46.033928,-52.028934,-36.162647,0.9420412,0.0,1.5032123,2.087261,-0.015724182,-0.0828681,0.050358634,-5.1536975,0.0,0.0,0.0
2510849417,46.195747,-51.80645,-36.162647,0.94220376,0.0,1.4990194,2.0902798,-0.014728546,-0.051358983,0.045633473,-5.2111344,0.0,0.0,0.0
2510949458,46.351032,-51.592953,-36.162647,0.94227445,0.0,1.4956166,2.092715,-0.013217926,-0.051990606,0.056435708,-5.1919203,0.0,0.0,0.0
2511050351,46.508133,-51.376957,-36.162647,0.94227445,0.0,1.4937321,2.094056,-0.011592865,-0.064319834,0.05427429,-5.174026,0.0,0.0,0.0
2511150972,46.664577,-51.161873,-36.162647,0.9423421,0.0,1.4925398,2.0949075,-0.0075187683,-0.06171868,0.05316495,-5.168648,0.0,0.0,0.0
2511254884,46.827053,-50.93848,-36.162647,0.94236547,0.0,1.4912279,2.0958462,-0.0051345825,-0.012083525,0.040714677,-5.2352834,0.0,0.0,0.0
2511355298,46.983234,-50.723755,-36.162647,0.94236547,0.0,1.4903799,2.0964441,-0.001876831,-0.03282003,0.04056177,-5.197864,0.0,0.0,0.0
2511454875,47.139923,-50.508324,-36.162647,0.942416,0.0,1.4889485,2.0974696,0.0020828247,-0.049052853,0.04276295,-5.1913133,0.0,0.0,0.0
2511559027,47.30273,-50.284485,-36.162647,0.9424434,0.0,1.4879519,2.0981762,0.004589081,-0.062663734,0.023609644,-5.1532884,0.0,0.0,0.0
2511659286,47.460068,-50.068165,-36.162647,0.9424459,0.0,1.48872,2.0976255,0.008171082,-0.04561801,0.0037164541,-5.1637406,0.0,0.0,0.0
2511763719,47.62306,-49.84408,-36.162647,0.942424,0.0,1.4900936,2.0966506,0.011810303,-0.07767611,-0.0070207017,-5.1567698,0.0,0.0,0.0
2511867246,47.786762,-49.619,-36.162647,0.94241136,0.0,1.4919889,2.0953062,0.01612854,-0.027478514,-0.0023292603,-5.194607,0.0,0.0,0.0
2511971189,47.949768,-49.39489,-36.162647,0.94235414,0.0,1.4941162,2.0937877,0.017848969,-0.0527924,0.007958096,-5.168329,0.0,0.0,0.0
2512070773,48.107674,-49.177788,-36.162647,0.94231313,0.0,1.4963051,2.0922222,0.01594925,-0.06668987,-0.019136315,-5.1704264,0.0,0.0,0.0
2512174848,48.270912,-48.953354,-36.162647,0.94231313,0.0,1.498802,2.090432,0.013328552,-0.0155522935,-0.0027296396,-5.2358785,0.0,0.0,0.0
2512275062,48.42935,-48.735516,-36.162647,0.9422087,0.0,1.5019294,2.0881886,0.0060577393,-0.030250944,-0.00059398386,-5.234691,0.0,0.0,0.0
