timestamp,rollspeed,pitchspeed,yawspeed,rollspeed_integ,pitchspeed_integ,yawspeed_integ,additional_integ1
2467875697,0.0011861287,-0.0013076309,-0.00030755735,-0.00094501016,-0.00065636623,-9.528612e-05,0.0
2468035684,-0.002212083,-0.0004642103,-0.002515344,-0.0025810162,-0.0015456378,-0.00013700093,0.0
2468067743,-0.001277443,0.003754437,0.0052837473,-0.0029099765,-0.0017228466,-0.00013640794,0.0
2468099681,-0.0070185177,-0.005086608,-0.0056477413,-0.003233564,-0.0018858166,-0.0001376142,0.0
2468131671,-0.0039903075,0.00021474995,0.0050932644,-0.0035734463,-0.0020748626,-0.00012616008,0.0
2468163730,-0.026448563,-0.018341918,-0.0027368502,-0.0038690981,-0.0022153105,-0.00014673392,0.0
2468195775,-0.020964043,-0.012642967,0.005874526,-0.0041790954,-0.0023786966,-0.00015833873,0.0
2468227760,-0.03452373,-0.023544116,-0.0007301438,-0.0044849645,-0.0024882914,-0.00015706292,0.0
2468259693,-0.044369817,0.017351737,0.0075530424,-0.004615011,-0.0026785405,-0.00022643697,0.0
2468291694,0.0051320065,-0.009116223,0.044172976,-0.00504134,-0.0028203689,-0.0003704509,0.0
2468323724,0.031234361,0.03837239,-0.0073655588,-0.005367384,-0.003040963,-0.0005621536,0.0
2468355746,0.041984558,0.021114927,-0.008485484,-0.005679366,-0.0031932741,-0.0004816001,0.0
2468387676,0.07194306,0.020813514,0.016618771,-0.0061124973,-0.0033934715,-0.0005920982,0.0
2468419745,0.050251216,0.00867581,-0.01850212,-0.006586686,-0.0036356924,-0.0005869891,0.0
2468451725,0.037623823,-0.002754109,-0.009831476,-0.0070019807,-0.0037688052,-0.0005402891,0.0
2468483773,0.0016897712,-0.007939927,-0.008613911,-0.007367265,-0.0039033822,-0.0004725152,0.0
2468515681,-0.021310301,-0.01489647,-0.010577898,-0.00770745,-0.0040360633,-0.000443233,0.0
2468547741,-0.047480527,-0.01726822,-0.015238995,-0.00801277,-0.0041959328,-0.00036642922,0.0
2468579707,-0.050346293,-0.017768037,-0.006381941,-0.008283014,-0.0043034446,-0.00029871555,0.0
2468611744,-0.04387129,-0.0040590037,-0.004790538,-0.008540093,-0.004434403,-0.00026821584,0.0
2468643725,-0.029956408,0.0132843405,-0.0051495945,-0.008807704,-0.004582019,-0.00022910503,0.0
2468675721,-0.011168672,0.015140645,-0.0045262133,-0.009106999,-0.0047560465,-0.00020666448,0.0
2468707718,-0.01266595,0.010517843,-0.008984664,-0.009418641,-0.0049217334,-0.00019347497,0.0
2468739775,-0.04644241,-0.050492942,-0.012547184,-0.009700453,-0.005028899,-0.00012252385,0.0
2468771685,-0.17326963,-0.16531529,-0.026133474,-0.009819195,-0.0049965377,9.7470165e-06,0.0
2468803862,-0.34846708,-0.3416178,-0.021289136,-0.009685124,-0.0046633217,0.00019480175,0.0
2468835715,-0.58105457,-0.5247084,0.011649762,-0.009182302,-0.003986173,0.00025519475,0.0
2468867781,-0.7154915,-0.68173575,0.027184997,-0.008245873,-0.0029248232,0.00015280188,0.0
2468899704,-0.74725085,-0.6776134,0.053178206,-0.006962739,-0.0015643181,-8.6631284e-05,0.0
2468931729,-0.57650375,-0.4513873,0.060223117,-0.005612855,-0.00025232366,-0.00042999332,0.0
2468963946,-0.30327854,-0.09731741,0.089277245,-0.004430746,0.0007924844,-0.000922562,0.0
2468995733,-0.09265803,0.22021891,0.111936346,-0.0034448972,0.0014239433,-0.0016186486,0.0
2469027717,-0.035786502,0.32923815,0.082619734,-0.0025405681,0.0017535764,-0.0023108262,0.0
2469059678,-0.121876925,0.1963537,0.06818029,-0.0015918507,0.0020067485,-0.0028750317,0.0
2469091738,-0.19043182,0.06647623,0.0512959,-0.000601291,0.0024131157,-0.003350516,0.0
2469123761,-0.16868988,0.16546474,0.062825054,0.00036633224,0.0026676839,-0.0038353112,0.0
2469155706,-0.04862941,0.30620188,0.07789594,0.0012018231,0.0027055452,-0.004447346,0.0
2469187859,0.16533935,0.38906983,0.07735534,0.0019276657,0.002571658,-0.00514786,0.0
2469219748,0.38174337,0.3897798,0.04641036,0.0024165225,0.0024312367,-0.005717947,0.0
2469251733,0.42901102,0.36528224,0.025107777,0.0027259788,0.0022627967,-0.006101158,0.0
2469283715,0.39579132,0.34688383,0.027914139,0.0029269224,0.00208724,-0.0064503644,0.0
2469315687,0.40377137,0.2875348,0.031674575,0.0030608957,0.0018576696,-0.0068383045,0.0
2469347749,0.46088618,0.23204193,0.019733557,0.0030885083,0.0016792569,-0.0072125085,0.0
2469379714,0.5282875,0.23146701,0.02332839,0.0029746068,0.0015530712,-0.007564061,0.0
2469411717,0.54196286,0.29210737,0.019816736,0.0027579856,0.0013577518,-0.00792811,0.0
2469443670,0.4964928,0.26532695,0.0226437,0.0025094694,0.001062219,-0.008291101,0.0
2469475731,0.45461035,0.22268727,0.027837368,0.0022293478,0.00071392115,-0.008674027,0.0
2469507761,0.4378894,0.22891721,0.022810187,0.0019162605,0.0003689038,-0.009076305,0.0
2469539701,0.43951565,0.2666595,0.0141039565,0.0015364548,-4.083923e-05,-0.0094332965,0.0
2469571714,0.44178113,0.27593303,0.012663281,0.0010686247,-0.0005690627,-0.009764211,0.0
2469603709,0.43812916,0.23942095,0.013098138,0.0004984019,-0.0011785517,-0.0100876875,0.0
2469635708,0.36416206,0.20015377,0.015006878,-0.00010884489,-0.0017995142,-0.010406124,0.0
2469667663,0.26893148,0.14221357,0.015135615,-0.0006345684,-0.002373363,-0.010748238,0.0
2469699704,0.16602106,0.09503066,0.012448096,-0.0010363889,-0.0029042677,-0.011081581,0.0
2469731677,0.11875132,0.043282036,0.009523592,-0.0013572107,-0.003382878,-0.011382318,0.0
2469763748,0.080028325,-0.01789871,0.0006481209,-0.0016532067,-0.0038159348,-0.011647412,0.0
2469795677,-0.0049242787,-0.08278479,0.00032929436,-0.0019090389,-0.0041622617,-0.011906043,0.0
2469827712,-0.047967643,-0.121904425,-0.00031304167,-0.0020904825,-0.0044267415,-0.012142806,0.0
2469859731,-0.025874725,-0.12571819,-0.008943951,-0.0022421584,-0.0046519567,-0.012356175,0.0
2469891754,-0.020356141,-0.11598602,-0.011303156,-0.002412075,-0.0048943013,-0.012536765,0.0
2469923718,-0.028428761,-0.113633774,-0.007817304,-0.0025927627,-0.0051489486,-0.012718798,0.0
2469955724,-0.057191327,-0.109559625,-0.00611306,-0.0027789965,-0.0054136897,-0.01290873,0.0
2469987699,-0.08240487,-0.10805573,-0.00030418037,-0.0029448105,-0.0056917532,-0.013103259,0.0
2470019755,-0.055627394,-0.095443256,-0.0060721026,-0.0031038055,-0.0059724227,-0.013295768,0.0
2470051707,-0.04788509,-0.10648743,-0.006814109,-0.003255266,-0.006238352,-0.013482524,0.0
2470083712,-0.057460435,-0.11536558,-0.0040427186,-0.00340977,-0.0064833346,-0.01368365,0.0
2470115671,-0.06441377,-0.11910901,-0.0004910252,-0.0035829842,-0.006716976,-0.013896006,0.0
2470147723,-0.064326316,-0.12703893,0.0038783443,-0.0037590677,-0.0069377436,-0.014119587,0.0
2470179644,-0.053636104,-0.11845777,0.0035735583,-0.003946558,-0.0071597067,-0.014340462,0.0
2470211637,-0.040678933,-0.11828419,0.0092329,-0.004161975,-0.00736987,-0.014582106,0.0
2470243651,-0.059317596,-0.12845978,0.0057401406,-0.0043808245,-0.0075672637,-0.014831255,0.0
2470275690,-0.085222825,-0.14784068,0.009608267,-0.004590378,-0.0077590337,-0.015083885,0.0
2470307692,-0.07290169,-0.13612083,0.004348555,-0.0047814786,-0.007935851,-0.015340279,0.0
2470339651,-0.09162345,-0.1378061,0.005584078,-0.0049536065,-0.008102475,-0.015610018,0.0
2470371674,-0.10020906,-0.14169343,0.008107687,-0.005111498,-0.00825429,-0.015891612,0.0
2470403687,-0.10781878,-0.15716927,0.011402489,-0.0052669467,-0.008385535,-0.016174583,0.0
2470435720,-0.10499522,-0.15257552,0.012729394,-0.0054086596,-0.008500049,-0.016478585,0.0
2470467642,-0.113172434,-0.14325279,0.008906344,-0.005540231,-0.008597127,-0.016784402,0.0
2470499693,-0.10257548,-0.13639078,0.004866864,-0.005653637,-0.008678658,-0.017080646,0.0
2470531708,-0.11131373,-0.15048133,0.0133573115,-0.005763996,-0.008754637,-0.01739678,0.0
2470563719,-0.09645344,-0.10945008,0.012012206,-0.0058729555,-0.008830686,-0.017722841,0.0
2470595640,-0.10682206,-0.10534796,0.013071803,-0.005974268,-0.008899861,-0.018057859,0.0
2470627706,-0.11426231,-0.13265426,0.011384067,-0.006068738,-0.008950863,-0.018377436,0.0
2470659712,-0.09002605,-0.1230575,0.010217066,-0.0061720065,-0.008989208,-0.018688122,0.0
2470691749,-0.08295063,-0.10536491,0.004634712,-0.0062818085,-0.009034644,-0.018978251,0.0
2470723684,-0.07201591,-0.10922163,-0.00044937734,-0.006389033,-0.009075212,-0.019270474,0.0
2470755716,-0.09299438,-0.10763722,0.0011175737,-0.0064808447,-0.00912126,-0.019540127,0.0
2470787708,-0.10218176,-0.07924932,0.00023621123,-0.0065566264,-0.009178486,-0.019809587,0.0
2470819741,-0.08913869,-0.060637802,-0.004171502,-0.006621956,-0.00924087,-0.020052012,0.0
2470851667,-0.08667898,-0.06655382,-0.004940769,-0.006674164,-0.009300882,-0.020292208,0.0
2470883683,-0.076137856,-0.051023457,-0.0051319404,-0.0067320787,-0.0093690595,-0.0205174,0.0
2470915693,-0.063793205,-0.03682343,-0.005948855,-0.0067951125,-0.0094381925,-0.020740604,0.0
2470947732,-0.06373766,-0.045962986,-0.008460821,-0.0068426304,-0.009496931,-0.020955665,0.0
2470979731,-0.07177186,-0.04787995,-0.0068583675,-0.006888994,-0.0095606465,-0.02115416,0.0
2471011683,-0.068622746,-0.025258906,-0.009205887,-0.0069336416,-0.009637579,-0.021340657,0.0
2471043740,-0.05543411,-0.02122309,-0.015838148,-0.0069811433,-0.009716251,-0.021501314,0.0
2471075703,-0.053843103,-0.031986278,-0.011813924,-0.007028302,-0.009806959,-0.02165986,0.0
2471107696,-0.046656948,-0.016740456,-0.010072817,-0.007072444,-0.00991337,-0.02182468,0.0
2471139664,-0.023129912,-0.00048372336,-0.016908418,-0.0071202554,-0.010019647,-0.021977356,0.0
2471171745,-0.009643082,-0.0027544815,-0.019632744,-0.007179359,-0.010115878,-0.022113176,0.0
2471203713,-0.031671964,-0.010154173,-0.012256645,-0.007238731,-0.010202402,-0.02224408,0.0
2471235704,-0.023623789,0.0036978815,-0.010851391,-0.0073059355,-0.010294603,-0.022361927,0.0
2471267665,-0.0023974795,0.0020419601,-0.013109334,-0.0073761907,-0.010395473,-0.022477815,0.0
2471299774,-0.012430804,-0.013906324,-0.014465997,-0.0074471035,-0.010498443,-0.022588275,0.0
2471331697,-0.005167505,0.0029366855,-0.015425238,-0.007520017,-0.010617209,-0.022700837,0.0
2471363755,-0.009757018,0.011580499,-0.016681671,-0.0075890967,-0.010745105,-0.022804584,0.0
2471395685,-0.011216262,-0.0003161542,-0.013646287,-0.007655221,-0.010863387,-0.022901637,0.0
2471427756,-0.0039983205,0.01779567,-0.013807549,-0.0077136136,-0.010984875,-0.02299882,0.0
2471459701,-0.007490663,0.03431537,-0.018798443,-0.0077656773,-0.01112108,-0.023072464,0.0
2471491670,-0.0019575302,0.01942412,-0.01780065,-0.007819711,-0.011248224,-0.023129804,0.0
2471523667,0.009700441,-0.0024456643,-0.020092761,-0.007873173,-0.011362058,-0.023178056,0.0
2471555683,-0.0042063408,-0.0009573139,-0.01600361,-0.007927556,-0.011473584,-0.023213768,0.0
2471587706,-0.011158651,0.005672304,-0.01623517,-0.007984075,-0.0115839755,-0.023247264,0.0
2471619720,-0.0011825133,-0.002905108,-0.022383396,-0.008032436,-0.011674212,-0.02326145,0.0
2471651669,0.00014039129,-0.0291771,-0.021083422,-0.008077992,-0.011747177,-0.02326519,0.0
2471683662,0.007528752,-0.019542297,-0.02213095,-0.008134426,-0.011814935,-0.023252744,0.0
2471715746,0.021017918,0.009941179,-0.023595292,-0.008190873,-0.011877576,-0.023231553,0.0
2471747726,0.010771001,0.018209232,-0.022137372,-0.008244823,-0.011940856,-0.02320924,0.0
2471779709,0.0061652996,0.0043396316,-0.016709208,-0.008301091,-0.012004406,-0.02318292,0.0
2471811686,0.0058640735,0.009177646,-0.015934028,-0.008355872,-0.012078735,-0.023155583,0.0
2471843744,0.0062419055,0.01932093,-0.018034594,-0.008410592,-0.012165464,-0.023119094,0.0
2471875751,0.01487077,0.023824252,-0.021328213,-0.008471049,-0.0122577455,-0.023084326,0.0
2471907738,0.013383123,0.007874073,-0.019186778,-0.008523405,-0.012342139,-0.02304718,0.0
2471939693,-0.005912939,0.015879218,-0.018855257,-0.008569744,-0.012419019,-0.022998126,0.0
2471971770,0.008359009,0.030605368,-0.015297769,-0.008618728,-0.012488776,-0.022946015,0.0
2472003711,0.018076552,0.028073002,-0.019352341,-0.008664241,-0.012544828,-0.022894153,0.0
2472035704,0.0031713862,0.00059100986,-0.016864406,-0.00870457,-0.012592276,-0.02283356,0.0
2472067664,0.000730779,0.0055002607,-0.014349817,-0.008741238,-0.012638842,-0.02276981,0.0
2472099758,-0.0018154532,0.010842318,-0.015878169,-0.008775888,-0.01268671,-0.022698611,0.0
2472131714,-0.0035375804,0.012559563,-0.017810553,-0.008809183,-0.012735158,-0.022611761,0.0
2472163719,0.018701212,0.020544147,-0.02072001,-0.008849978,-0.012785478,-0.022515504,0.0
2472195669,0.023975138,0.030390833,-0.023407182,-0.008894807,-0.012844494,-0.022404766,0.0
2472227698,0.0061045038,0.034458145,-0.013907629,-0.008942358,-0.012914357,-0.022291355,0.0
2472259696,0.021659112,0.048539616,-0.01711927,-0.008992173,-0.012994368,-0.022187643,0.0
2472289301,0.024971636,0.052317493,-0.015868457,-0.009034028,-0.013077595,-0.022079218,0.0
2472321359,0.012060168,0.031452205,-0.012467042,-0.00907429,-0.013166519,-0.021976132,0.0
2472353314,0.0046201944,0.037591383,-0.01747318,-0.009113112,-0.013261673,-0.021858469,0.0
2472385336,0.0004186798,0.037350334,-0.0155796055,-0.009151443,-0.013367401,-0.021739628,0.0
2472417317,0.01637267,0.044565625,-0.015101773,-0.009187883,-0.013481696,-0.021615133,0.0
2472449339,0.025646398,0.05081833,-0.013217824,-0.009231179,-0.013603924,-0.021499237,0.0
2472481328,0.035367057,0.0567829,-0.006355345,-0.009281453,-0.013729265,-0.021404821,0.0
2472513278,0.013667082,0.035745714,-0.0060781543,-0.009341184,-0.013854473,-0.021314645,0.0
2472545288,0.020116571,0.031947523,-0.0039182156,-0.009402531,-0.01396982,-0.021226753,0.0
2472577327,0.031036971,0.031632908,-0.007852046,-0.009475212,-0.014083232,-0.021142112,0.0
2472609319,0.028917143,0.0073204003,-0.0021704293,-0.009548935,-0.014183596,-0.021066254,0.0
2472641279,0.017534891,0.006512873,-0.0030238978,-0.009619255,-0.014278396,-0.020998225,0.0
2472673269,0.00605579,0.01582541,0.00040437782,-0.009683669,-0.0143685555,-0.02093278,0.0
2472705308,0.031644836,0.03915135,-0.00871823,-0.009744251,-0.01446022,-0.020852672,0.0
2472737381,0.008683191,0.017118515,-0.0022939527,-0.009802381,-0.014547956,-0.020779489,0.0
2472769284,0.01069786,0.019708863,0.002930347,-0.009849075,-0.014634562,-0.020719826,0.0
2472801304,-0.004423013,0.015809132,-0.00019946945,-0.009896294,-0.01472179,-0.020653512,0.0
2472833354,-0.0022642128,0.014755592,-0.0019001617,-0.009936553,-0.014811383,-0.020587543,0.0
2472865341,0.0013532024,0.0065936875,-0.002757286,-0.009983646,-0.014901876,-0.020525573,0.0
2472897354,0.0033372678,0.009951007,-0.0026198481,-0.010018459,-0.014994296,-0.02046012,0.0
2472929349,-0.012590272,0.02158119,-0.0025772757,-0.010040345,-0.015090957,-0.020395493,0.0
2472961331,-0.0068635587,0.039998658,0.0011179191,-0.0100541795,-0.01518621,-0.020339144,0.0
2472993372,-0.011619059,0.018467415,-0.0019301684,-0.010063408,-0.015279149,-0.020270137,0.0
2473025293,-0.014187055,0.0021335427,-0.0018163528,-0.010063042,-0.0153642325,-0.02019497,0.0
2473057383,-0.010635866,0.0237444,-0.0076231384,-0.010061285,-0.015466185,-0.020103341,0.0
2473089322,-0.02477441,0.017754976,-0.00028199254,-0.010050718,-0.015569657,-0.02002195,0.0
2473121354,-0.0058512706,0.010549959,-0.005385154,-0.010041254,-0.015672091,-0.019936858,0.0
2473153266,0.00032883883,-0.00035534613,-0.004965636,-0.010044371,-0.01576139,-0.01983842,0.0
2473185268,0.023520721,0.02060735,-0.008618226,-0.010047047,-0.015839944,-0.019733503,0.0
2473217310,-0.020826545,-0.011376697,-0.0025565121,-0.010043845,-0.015901605,-0.019632198,0.0
2473249310,-0.009409515,-0.013743198,-0.001453704,-0.010029959,-0.015945066,-0.019529268,0.0
2473281280,0.0038392432,-0.02699279,-0.0050561493,-0.01002397,-0.015981447,-0.019419046,0.0
2473313289,0.002867723,-0.031896252,-0.0056119952,-0.010016677,-0.01601306,-0.019298496,0.0
2473345317,-0.006029444,-0.016818006,-0.012710423,-0.010008165,-0.016047876,-0.01916906,0.0
2473373336,-0.011218004,-0.026207712,-0.01240085,-0.009991987,-0.016064616,-0.019041775,0.0
2473405320,-0.00451635,-0.014209642,-0.0076999767,-0.009970672,-0.016078515,-0.01889729,0.0
2473437364,0.017668104,-0.013718603,-0.0071382797,-0.009957957,-0.016087117,-0.018756012,0.0
2473469271,0.013866851,-0.030305814,-0.0027033708,-0.009957279,-0.01608011,-0.018619986,0.0
2473501279,0.012416283,-0.02677832,-0.005510084,-0.009958836,-0.016055033,-0.018482314,0.0
2473533336,-0.0056039896,-0.03280848,-0.007567355,-0.009957302,-0.016022831,-0.018340725,0.0
2473565308,0.00049530156,-0.029998077,-0.005275135,-0.00994993,-0.015994215,-0.01820529,0.0
2473597302,0.018685535,-0.012818679,-0.0065053413,-0.00994805,-0.015976105,-0.0180539,0.0
2473629264,0.019815339,0.0061453693,-0.0050597154,-0.009942234,-0.015957586,-0.01790882,0.0
2473661340,-0.018302282,-0.017234288,-0.0054366854,-0.0099246595,-0.015927585,-0.017761452,0.0
2473693310,-0.009564865,-0.021183006,-0.002888537,-0.009904474,-0.015884176,-0.017617436,0.0
2473725315,0.012221979,-0.027805148,-0.006066304,-0.00989468,-0.015835311,-0.017474663,0.0
2473757295,0.026642818,-0.021282442,-0.0062764687,-0.009898804,-0.015772797,-0.017320234,0.0
2473789320,0.02069595,-0.003254585,-0.007787368,-0.009914754,-0.015700094,-0.01716399,0.0
2473821311,0.016247217,-0.006802691,-0.0013890248,-0.009942586,-0.015616935,-0.017008249,0.0
2473853300,0.02683679,-0.016869858,-0.0028699543,-0.009981192,-0.015540071,-0.01685502,0.0
2473885275,0.02796896,-0.015396778,-0.0037318314,-0.010031267,-0.015463981,-0.016702244,0.0
2473917371,0.03635311,0.012167372,-0.0051410533,-0.010086806,-0.015394515,-0.016547073,0.0
2473949340,0.017793987,0.02238577,-0.0013859832,-0.010145832,-0.015329666,-0.016414784,0.0
2473981299,0.014107282,0.025378888,-0.00027947023,-0.01019758,-0.015279202,-0.016272405,0.0
2474013271,-0.000107390806,0.030846057,0.0026891034,-0.010235654,-0.015249118,-0.016135123,0.0
2474045354,0.008729444,0.05223628,-0.0010951308,-0.010259793,-0.015240317,-0.01600274,0.0
2474077337,-0.009886149,0.040944412,0.0012366871,-0.010275331,-0.015243135,-0.015878553,0.0
2474109283,-0.011830121,0.044479117,0.0019938457,-0.010287784,-0.015257252,-0.015762232,0.0
2474141270,-0.0032175686,0.06100776,0.0019554948,-0.010294091,-0.015283482,-0.01564162,0.0
2474173300,-0.02090997,0.06314866,0.00539215,-0.010285577,-0.0153143685,-0.015532878,0.0
2474205309,-0.022555824,0.045959674,0.0027516477,-0.010264047,-0.015341237,-0.015410704,0.0
2474237330,-0.02807343,0.03169103,0.004005105,-0.010236365,-0.015365609,-0.015305123,0.0
2474269298,-0.020879298,0.030793132,0.0045389086,-0.0102104945,-0.015398212,-0.01521092,0.0
2474301308,-0.01936686,0.04906509,0.0051994976,-0.010182088,-0.015438257,-0.015123992,0.0
2474333354,-0.025010122,0.057606984,0.006915984,-0.010143152,-0.015482412,-0.015034121,0.0
2474365315,-0.027156727,0.0423441,0.007942,-0.01008633,-0.015521284,-0.0149525525,0.0
2474397328,-0.032261696,0.021243412,0.009944547,-0.01002856,-0.015557441,-0.014878475,0.0
2474429235,-0.016349068,0.018940076,0.0061985953,-0.009983207,-0.015597205,-0.014804356,0.0
2474461313,-0.009544231,0.019878032,0.0071227006,-0.009948804,-0.015630098,-0.014736511,0.0
2474493309,-0.006241901,0.030277887,0.006765329,-0.009911034,-0.01565618,-0.014666509,0.0
2474525289,-0.016256152,0.025192708,0.008876366,-0.00986832,-0.015672835,-0.0145999035,0.0
2474557295,-0.0037103314,0.0031776037,0.009982233,-0.009826675,-0.01568029,-0.014539261,0.0
2474589312,-0.009040691,-0.008432582,0.007575901,-0.009783403,-0.015683617,-0.014475987,0.0
2474621289,-0.013648415,0.00024821982,0.005197047,-0.009729752,-0.01569305,-0.014413143,0.0
2474653290,-0.02512646,0.006516384,0.006296225,-0.009671401,-0.015705988,-0.014357413,0.0
2474685251,0.00194568,0.018920405,0.0061423015,-0.009607416,-0.015721528,-0.014296888,0.0
2474717409,0.002771847,0.002792202,0.005376773,-0.009553555,-0.015737943,-0.014232924,0.0
2474749297,0.003957063,-0.0021466035,0.007815046,-0.009505112,-0.015756702,-0.0141716255,0.0
2474781263,-0.004444357,-0.0030871443,0.004724704,-0.009456497,-0.015769232,-0.014112502,0.0
2474813259,-0.0050153583,-0.0094525125,0.0075285747,-0.0094092805,-0.015768684,-0.014061249,0.0
2474845304,0.015548199,-0.013314728,0.004947725,-0.009372668,-0.015767902,-0.0140027115,0.0
2474877333,0.029426124,-0.004308762,0.0059933304,-0.009335677,-0.015758552,-0.013957976,0.0
2474909254,0.00439962,-0.01611694,0.009107505,-0.009301661,-0.015739862,-0.013913924,0.0
2474941283,-0.00022744015,-0.017848726,0.008834437,-0.009265413,-0.015713234,-0.013874256,0.0
2474973329,0.0075849798,-0.026889527,0.0067790137,-0.009239271,-0.01569382,-0.013831662,0.0
2475005323,0.029603403,-0.021796823,0.0059374073,-0.009217876,-0.015671875,-0.01379884,0.0
2475037287,0.014173441,-0.010721203,0.004013326,-0.009192986,-0.015642582,-0.013766418,0.0
2475069304,0.0040349644,-0.013922947,0.009121323,-0.009163781,-0.015599147,-0.013731195,0.0
2475101313,0.0025392752,-0.03542494,0.011648735,-0.0091353515,-0.015543522,-0.013703417,0.0
2475133355,0.012108725,-0.041654706,0.0060577467,-0.009108735,-0.015481057,-0.013677303,0.0
2475165280,-0.0035314653,-0.038721137,0.0065996195,-0.00908027,-0.015408217,-0.0136574255,0.0
2475197328,0.014621498,-0.011623281,0.005837114,-0.0090430835,-0.015327439,-0.013632846,0.0
2475229280,-0.012970738,-0.033791285,0.010003648,-0.008996662,-0.015239165,-0.013612168,0.0
2475261336,-0.006976234,-0.033344597,0.005796341,-0.008937032,-0.015147814,-0.013585334,0.0
2475293282,-0.021751272,-0.039771307,0.007115455,-0.008872054,-0.015053199,-0.013570759,0.0
2475325316,0.00043109804,-0.023498952,0.0044905855,-0.008803495,-0.014955447,-0.013556137,0.0
2475357315,-0.0056042466,-0.01529413,0.007523754,-0.00873454,-0.014853826,-0.013544183,0.0
2475389384,-0.013672132,-0.015524572,0.009055544,-0.008659748,-0.014749912,-0.013534958,0.0
2475421274,-0.014603319,-0.026757829,0.00981516,-0.008591508,-0.014646696,-0.013532096,0.0
2475453261,0.0004835818,-0.023685085,0.0031935237,-0.008524792,-0.014544742,-0.013524291,0.0
2475485282,0.0076887803,-0.0014650486,0.003345704,-0.008459373,-0.014447019,-0.013510818,0.0
2475517353,-0.0091755595,0.0072282366,0.009789019,-0.0083937645,-0.014358333,-0.013497656,0.0
2475549266,-0.00021044537,-0.002300825,0.007674818,-0.0083325235,-0.01426806,-0.013491218,0.0
2475581288,0.0047026835,-0.011007464,0.0066509955,-0.008279,-0.014179839,-0.013493669,0.0
2475613307,0.015903234,0.00887019,0.0036520083,-0.008221367,-0.014101622,-0.013500146,0.0
2475645305,-0.0020940192,0.020414945,0.0109432535,-0.008166779,-0.014026044,-0.013510856,0.0
2475677359,0.016694939,0.01910776,0.008025516,-0.008121021,-0.013948597,-0.013518088,0.0
2475709295,0.019854248,0.0001009237,0.00920323,-0.008079361,-0.013864406,-0.01353954,0.0
2475741342,0.0134168,0.00103838,0.005867143,-0.008038826,-0.013777253,-0.01356867,0.0
2475773297,0.0065223193,0.008721728,0.011404607,-0.008003278,-0.013689477,-0.0136018675,0.0
2475805345,0.031498954,0.02270309,0.009589209,-0.007972317,-0.013602124,-0.013638325,0.0
2475837335,0.01550286,0.007842578,0.016437884,-0.007936654,-0.013508772,-0.013705977,0.0
2475869308,0.013574793,0.003966337,0.011531611,-0.007906428,-0.013421686,-0.013766002,0.0
2475901316,0.025495872,0.0060506836,0.011403746,-0.007886332,-0.01333645,-0.013837602,0.0
2475933357,0.021801852,0.012096282,0.013325511,-0.007867458,-0.013252063,-0.013910631,0.0
2475965291,0.023089904,0.030184116,0.015537292,-0.007849746,-0.013175032,-0.013991545,0.0
2475997384,0.024926107,0.016950801,0.020175679,-0.007847149,-0.013096344,-0.014094697,0.0
2476029290,0.032965954,0.00014187954,0.02020916,-0.007850101,-0.013012791,-0.014218478,0.0
2476061352,0.017256793,-0.0011828803,0.018025251,-0.007856071,-0.012934554,-0.014354149,0.0
2476093283,0.0085337395,0.016650015,0.023393873,-0.007858087,-0.012863733,-0.014506785,0.0
2476125283,0.026536822,0.033817828,0.020916343,-0.007861909,-0.012798391,-0.014662044,0.0
2476158848,0.016866673,0.019123985,0.018224668,-0.007863756,-0.012733503,-0.0148258405,0.0
2476190878,0.0007430818,0.011860073,0.022048801,-0.00785833,-0.01267363,-0.014997273,0.0
2476222884,-0.011816654,0.011410018,0.021239802,-0.007845334,-0.012622189,-0.015174575,0.0
2476254840,-0.0015647765,0.018156953,0.01964176,-0.007822608,-0.0125763845,-0.0153598655,0.0
2476286834,-0.0063773617,0.03679446,0.018453987,-0.007793525,-0.012547249,-0.015538162,0.0
2476318899,-0.0048504304,0.021873347,0.02044098,-0.007764836,-0.012512019,-0.015722677,0.0
2476350865,-0.007136658,-0.0025278013,0.020942587,-0.007732928,-0.012463734,-0.01592094,0.0
2476382865,-0.019213038,0.00042833947,0.019714503,-0.0076879696,-0.012415722,-0.016127603,0.0
2476414854,-0.029862685,0.0071628895,0.020433413,-0.007639225,-0.012374574,-0.016337454,0.0
2476446917,-0.008951616,0.0023532081,0.019300548,-0.0075961985,-0.01233276,-0.016557058,0.0
2476478861,0.00045293942,0.0032413416,0.01815814,-0.0075535136,-0.012276766,-0.016783264,0.0
2476510869,-0.010228628,0.009254957,0.019103236,-0.0075125974,-0.012218119,-0.017002076,0.0
2476542850,0.0036127921,0.0037858412,0.016663043,-0.007480823,-0.012162936,-0.017214525,0.0
2476574919,-0.0054202564,-0.009718863,0.019156666,-0.007452015,-0.012110423,-0.017437354,0.0
2476606904,-0.011776766,0.0046786945,0.017190121,-0.0074264626,-0.012072865,-0.01766497,0.0
2476638914,0.016428169,0.01416222,0.010835298,-0.0074234563,-0.012040003,-0.017879734,0.0
2476670853,0.019699499,0.003523223,0.0146659175,-0.0074284445,-0.01200415,-0.018101009,0.0
2476702960,0.0053813616,0.014924815,0.012849633,-0.007435068,-0.011976224,-0.018321846,0.0
2476734935,0.013356471,0.011099052,0.01248376,-0.007445376,-0.011949109,-0.018534843,0.0
2476766865,0.00011898205,-0.012466993,0.012587055,-0.007451907,-0.01190747,-0.018749682,0.0
2476798873,-0.0063104704,-0.003274737,0.009238521,-0.0074614687,-0.011865911,-0.018955978,0.0
2476830909,0.0016052667,0.000489939,0.007841613,-0.0074811676,-0.011829805,-0.019156301,0.0
2476862914,0.004602339,-0.006804945,0.00791461,-0.007494281,-0.011791891,-0.019364832,0.0
2476894862,0.004857922,0.009586204,0.0075778165,-0.007495303,-0.011756448,-0.019580178,0.0
2476926882,-0.018356571,0.011208504,0.011247303,-0.0074889776,-0.011722283,-0.019792564,0.0
2476958900,-0.016992386,0.0014828369,0.009529403,-0.0074789342,-0.011682882,-0.02000618,0.0
2476990940,-0.020844974,-0.007656567,0.0067702457,-0.0074608005,-0.011641204,-0.02021607,0.0
2477022870,-0.037274953,-0.013344319,0.0022981905,-0.0074338494,-0.011605102,-0.02041324,0.0
2477054889,-0.011070823,-0.014907368,0.0009626058,-0.007406157,-0.011573806,-0.020594105,0.0
2477086868,-0.013060033,-0.004902398,-0.0024207905,-0.0073582153,-0.0115307085,-0.020779235,0.0
2477118939,-0.04451745,0.00062017515,0.002836453,-0.0072999895,-0.01148536,-0.020948203,0.0
2477150867,-0.027070941,-0.00647131,0.000998023,-0.0072448174,-0.011438519,-0.021113534,0.0
2477182908,-0.037933946,-0.031874396,0.0011919667,-0.0071775313,-0.011381326,-0.021269368,0.0
2477214895,-0.04528947,-0.028430961,-0.0005830221,-0.007102288,-0.011328939,-0.021432105,0.0
2477246909,-0.011213977,-0.019209364,-0.006449498,-0.0070338896,-0.011270072,-0.021587484,0.0
2477278869,-0.01912667,-0.021755777,-0.004736325,-0.0069547156,-0.011197458,-0.021728305,0.0
2477310914,-0.03357125,-0.0037651975,-0.0003350617,-0.0068727364,-0.011128667,-0.02186347,0.0
2477342890,-0.02245117,-0.007687958,-0.0016413167,-0.0067972876,-0.011053072,-0.022006476,0.0
2477374936,-0.021632973,-0.037106715,-0.0037010876,-0.006721544,-0.010966705,-0.022135403,0.0
2477406868,-0.012655012,-0.031133829,-0.006214939,-0.00665155,-0.0108893,-0.022248527,0.0
2477438901,0.0017676558,-0.010368515,-0.01217042,-0.0065952237,-0.010818694,-0.022349294,0.0
2477470864,-0.00040338747,-0.014194579,-0.010328811,-0.0065349243,-0.010743587,-0.022448514,0.0
2477502968,-0.011340773,-0.00846996,-0.00244906,-0.006467405,-0.010661247,-0.0225603,0.0
2477534912,-0.01283139,-0.008024506,-0.0037884177,-0.006405605,-0.0105778575,-0.02266884,0.0
2477566869,-0.004631296,-0.027656475,-0.0042659584,-0.006340334,-0.010486139,-0.022766555,0.0
2477598903,-0.008166321,-0.033572342,-0.0049140966,-0.006270287,-0.0103939,-0.022875395,0.0
2477630914,-0.005707234,-0.0021450073,-0.010468573,-0.006203027,-0.010315015,-0.022964083,0.0
2477662930,0.0034847148,0.013948796,-0.009955746,-0.006131178,-0.010237727,-0.02304696,0.0
2477694879,-0.008607421,0.004014693,-0.0036944428,-0.006060136,-0.010161608,-0.023139989,0.0
2477726883,-0.00689999,0.007588217,-0.004270888,-0.0059949625,-0.010093532,-0.02323174,0.0
2477758919,0.006518175,-0.0011972096,-0.007344603,-0.0059317267,-0.010021126,-0.023310099,0.0
2477790945,-0.0014125537,-0.013791761,-0.008209676,-0.0058682137,-0.009951793,-0.023373758,0.0
2477822885,0.012883508,0.013089538,-0.008084764,-0.005810705,-0.009890374,-0.023455704,0.0
2477854896,0.015981983,0.033793047,-0.0100533245,-0.0057551423,-0.009835926,-0.023524107,0.0
2477886884,0.0024787895,0.00063684024,-0.006128025,-0.005699346,-0.0097688,-0.02359124,0.0
2477918944,0.015144873,0.00041419826,-0.0034813732,-0.0056515597,-0.00970103,-0.023651004,0.0
2477950880,0.013284273,0.0076231845,-0.011584518,-0.0056114905,-0.00964161,-0.023703089,0.0
2477982914,0.0145489285,-0.004434334,-0.010808975,-0.005576577,-0.009579325,-0.023746068,0.0
2478014925,0.028822288,0.0068461653,-0.008098929,-0.0055448147,-0.009513452,-0.023797646,0.0
2478046949,0.01915513,0.025925655,-0.008534235,-0.005517782,-0.009453862,-0.023843808,0.0
2478078858,0.01864559,0.009733504,-0.007143421,-0.005491189,-0.009389305,-0.023882067,0.0
2478110904,0.017474873,-0.011934031,-0.0026469985,-0.005466626,-0.0093234815,-0.023923391,0.0
2478142903,0.009573212,0.00046367757,-0.0064670458,-0.005439694,-0.009263567,-0.023975495,0.0
2478174903,0.014266167,0.020005494,-0.012325321,-0.00540476,-0.009206167,-0.024016209,0.0
2478206863,0.006097681,0.011350127,-0.00512184,-0.00535793,-0.009149617,-0.024055608,0.0
2478238867,-0.00408037,0.020415226,-0.0027278739,-0.0053055543,-0.009101726,-0.0241024,0.0
2478270900,-0.008888777,0.019462775,-0.0041668457,-0.005243171,-0.009054282,-0.024146099,0.0
2478302921,-0.020006808,-0.0012899246,-0.0060235937,-0.005168177,-0.009010468,-0.024179276,0.0
2478334893,-0.010234715,0.011475818,-0.010401119,-0.0050898055,-0.008976677,-0.02420689,0.0
2478366879,-0.004319217,0.03586907,-0.009862507,-0.0050133434,-0.008956177,-0.024232915,0.0
2478398934,-0.0035485122,0.022143938,-0.002570536,-0.004932302,-0.008924903,-0.024275953,0.0
2478430911,-0.00718621,0.008077789,-0.00040074764,-0.0048592873,-0.008891327,-0.024300808,0.0
2478462902,-0.0074541196,0.016389748,-0.005341422,-0.0047910823,-0.008862137,-0.024335237,0.0
2478494867,-0.00080527365,0.0026933774,-0.0064377924,-0.0047208406,-0.00882383,-0.024366198,0.0
2478526922,0.0059550637,-0.008665677,-0.003723598,-0.0046561672,-0.008782104,-0.024405222,0.0
2478558907,0.020828374,0.015069412,-0.0071524344,-0.004597893,-0.008737881,-0.024434002,0.0
2478590899,0.003960576,0.005823726,-0.002602187,-0.0045371847,-0.008676464,-0.024460115,0.0
2478622864,-0.0015874654,-0.02043843,0.0018097525,-0.004479511,-0.008602266,-0.024500309,0.0
2478654951,0.015511723,-0.008339236,-0.0057135983,-0.004433963,-0.008536089,-0.024527444,0.0
2478686885,0.016580123,-0.004817728,-0.0051925946,-0.0043921447,-0.008473005,-0.024559673,0.0
2478718958,0.025397051,-0.004552735,-0.0018014843,-0.004350568,-0.008403251,-0.024597635,0.0
2478750848,0.023407307,0.004084043,-0.0028192904,-0.004320745,-0.008335434,-0.024627026,0.0
2478782928,0.014583511,0.008666184,-0.0017704242,-0.004290894,-0.008265456,-0.02466307,0.0
2478814898,0.0044084266,-0.00870291,0.0003830011,-0.0042560035,-0.008192814,-0.024691598,0.0
2478846848,0.017663863,-0.011357102,-0.0059371064,-0.0042320024,-0.008126425,-0.024711134,0.0
2478878837,0.03374342,0.020755012,-0.0072456067,-0.0042051678,-0.008067581,-0.02473396,0.0
2478910845,0.0048156157,0.023939827,-0.0017390989,-0.0041698962,-0.0080117425,-0.02475698,0.0
2478942890,0.00028116256,0.009408388,-0.000513046,-0.0041343905,-0.007963305,-0.024771456,0.0
2478974865,0.014473308,0.021528946,-0.00671764,-0.0040988373,-0.007921724,-0.02478073,0.0
2479006869,-0.012710962,0.0047565475,-0.0030070145,-0.004055442,-0.007879087,-0.024785968,0.0
2479038839,0.01220417,0.014686843,-0.007430505,-0.004015402,-0.007843047,-0.024785718,0.0
2479070887,0.017651934,0.032247663,-0.0064071594,-0.0039742594,-0.00781765,-0.02479457,0.0
2479102849,-0.024238843,0.018711926,-0.00050779735,-0.0039196955,-0.007789777,-0.024795907,0.0
2479134904,-0.00917618,0.011422686,-0.0026513601,-0.0038643768,-0.007761177,-0.024794327,0.0
2479166858,0.0016916227,0.009082289,-0.0037666862,-0.003815083,-0.007739352,-0.024801875,0.0
2479198914,0.000105207786,0.017264655,-0.009134989,-0.0037613004,-0.007722181,-0.02479024,0.0
2479230901,-0.0012366362,0.021159958,-0.0067722704,-0.0037124474,-0.007704599,-0.024778698,0.0
2479262886,0.0036944095,0.019509817,-0.00517756,-0.003666618,-0.0076957,-0.024752839,0.0
2479294860,-0.0044109635,0.015114408,-0.0030691812,-0.00361458,-0.0076864595,-0.024738088,0.0
2479326933,-0.010787381,0.006752491,-0.004628183,-0.0035669305,-0.007679032,-0.02471594,0.0
2479358919,0.021547047,0.011037456,-0.011444056,-0.0035332781,-0.007677579,-0.024687173,0.0
2479390926,0.014670903,0.0042922087,-0.009863932,-0.00350221,-0.0076717734,-0.024646958,0.0
2479422864,0.0010448936,0.0101969335,-0.006443605,-0.0034752798,-0.007659281,-0.024602432,0.0
2479454938,0.0142966425,0.006858729,-0.0077829254,-0.0034580196,-0.0076415576,-0.02455841,0.0
2479486906,0.012396004,-0.012911212,-0.008764944,-0.003439385,-0.0076191467,-0.024493912,0.0
2479518869,-0.0037189648,-0.020858802,-0.012177236,-0.0034119873,-0.0075868256,-0.024429398,0.0
2479550865,0.0046750754,-0.014008619,-0.013274603,-0.0033908514,-0.0075440593,-0.024343323,0.0
2479582909,0.012690282,-0.016188344,-0.012683952,-0.0033628398,-0.007481256,-0.0242518,0.0
2479614924,-0.015858475,-0.026677432,-0.0107133305,-0.003328421,-0.00740956,-0.024153434,0.0
2479646867,-0.013923343,-0.016752943,-0.012383684,-0.003292165,-0.007345264,-0.024043683,0.0
2479678896,-0.0070672147,-0.020922296,-0.01853006,-0.003253903,-0.007281097,-0.023923486,0.0
2479710917,-0.010614209,-0.014328093,-0.017469572,-0.003206641,-0.0072192387,-0.023785029,0.0
2479742949,-0.019994948,0.0013497528,-0.012774908,-0.003158646,-0.0071653626,-0.02364531,0.0
2479774866,-0.008178625,-0.00040678866,-0.013579747,-0.0031122537,-0.0071093175,-0.023496374,0.0
2479806935,-0.018982401,-0.027930245,-0.018793304,-0.003062721,-0.0070453626,-0.023333827,0.0
2479838909,-0.01713978,-0.012717335,-0.019541487,-0.0030131792,-0.0069768014,-0.023163393,0.0
2479870961,3.3281744e-05,0.0075589567,-0.020329144,-0.0029670955,-0.006902735,-0.022964267,0.0
2479902890,-0.010971,-0.019788539,-0.01810557,-0.0029163198,-0.0068134665,-0.022766348,0.0
2479934933,-0.019952148,-0.023106998,-0.022839285,-0.0028619422,-0.0067251227,-0.022546584,0.0
2479966894,-0.01458917,0.00059001334,-0.021269258,-0.0028124566,-0.006650365,-0.022317287,0.0
2479998946,0.008681609,0.014803395,-0.025379194,-0.0027688078,-0.0065764016,-0.022070812,0.0
2480031751,0.004503172,-0.008233888,-0.020430544,-0.002726686,-0.0064964555,-0.021821644,0.0
2480064469,-0.008861572,0.0014911089,-0.02214286,-0.0026946466,-0.006427271,-0.021556923,0.0
2480096528,0.015746467,0.029641334,-0.024566356,-0.002674828,-0.0063721105,-0.021286909,0.0
2480128484,0.018459084,0.010244897,-0.019307548,-0.0026609406,-0.00631204,-0.0210252,0.0
2480160541,0.015936833,-0.00089705363,-0.015309193,-0.0026505808,-0.0062482036,-0.020774892,0.0
2480192468,0.008528863,0.012410853,-0.013948567,-0.0026508195,-0.006195307,-0.020527972,0.0
2480224475,0.023685217,0.0264424,-0.018455215,-0.0026658163,-0.006147906,-0.020271162,0.0
2480256487,0.023535965,0.009755831,-0.017467903,-0.0026817573,-0.006091773,-0.020014195,0.0
2480288515,0.0077824667,-0.0068198573,-0.012590765,-0.0026876968,-0.006020478,-0.019754685,0.0
2480320545,0.0046673473,0.005956417,-0.01152889,-0.0026899495,-0.005947268,-0.019502886,0.0
2480352463,0.0033488236,0.010694221,-0.013190996,-0.002695275,-0.005878818,-0.01924805,0.0
2480384517,0.012993219,0.009144299,-0.014025086,-0.0026977635,-0.0058095,-0.019003706,0.0
2480416491,-0.009495467,-0.0051893108,-0.0060288445,-0.0026970976,-0.005736893,-0.018764768,0.0
2480448477,-0.0023655165,0.010360157,-0.0075203,-0.002690058,-0.005670992,-0.01853091,0.0
2480480435,-0.009207616,0.012119025,-0.00883711,-0.0026911555,-0.0056082155,-0.01829641,0.0
2480512535,0.014110316,0.021118604,-0.009295644,-0.002694729,-0.0055510458,-0.018060468,0.0
2480544525,-0.009797288,-0.0030405708,0.0010301186,-0.0027014213,-0.0054873754,-0.017858522,0.0
2480576527,-0.001686573,0.01087963,-0.00050378137,-0.0027026522,-0.0054273508,-0.017656026,0.0
2480608445,-0.012989238,0.009340851,-0.0019228023,-0.0027088544,-0.0053723822,-0.017461186,0.0
2480640516,0.0126189515,0.027849348,-0.003506962,-0.0027247844,-0.0053271092,-0.017269665,0.0
2480672459,-0.00242416,0.017250704,0.0047064577,-0.0027513816,-0.00529246,-0.017094795,0.0
2480704522,0.0040433425,0.024522502,0.0058858637,-0.0027840189,-0.0052687256,-0.016927488,0.0
2480736465,-0.00735881,0.022998877,0.003787709,-0.002824796,-0.0052541816,-0.016776176,0.0
2480768541,0.01545777,0.028745947,0.0029426694,-0.002878239,-0.005249232,-0.016622588,0.0
2480800473,0.019403867,0.031435393,0.008765533,-0.0029445703,-0.0052480213,-0.016489107,0.0
2480832537,0.008727074,0.018487357,0.013567368,-0.0030221555,-0.005244187,-0.016373336,0.0
2480864460,0.0052474067,0.019912425,0.007514265,-0.0031072418,-0.005240667,-0.01625979,0.0
2480896521,0.00184674,0.012261851,0.009759391,-0.0031974758,-0.005244202,-0.016153472,0.0
2480928501,0.0140165575,0.02672762,0.01136524,-0.0032853482,-0.005259134,-0.016058696,0.0
2480960531,-0.0053324457,0.022973934,0.01536158,-0.0033754644,-0.00527246,-0.015986508,0.0
2480992523,-0.002553409,0.020231672,0.015026826,-0.0034682313,-0.0052890102,-0.015914548,0.0
2481024463,-0.016036443,0.008130299,0.014831943,-0.0035536285,-0.0053086663,-0.015849128,0.0
2481056561,-0.025009768,0.0051304214,0.015148288,-0.0036286314,-0.0053300206,-0.015803758,0.0
2481088549,-0.015299197,0.03132779,0.015813882,-0.0037049898,-0.005364165,-0.015776478,0.0
2481120497,-0.020505844,0.022913825,0.022312557,-0.0037809573,-0.0053957035,-0.015761869,0.0
2481152475,-0.02791622,-0.0043603256,0.021988306,-0.0038410788,-0.0054160277,-0.015759816,0.0
2481184561,-0.048379235,-0.0075691286,0.020409869,-0.0038924294,-0.005435951,-0.015771378,0.0
2481216529,-0.034036577,-0.0021007545,0.01956721,-0.00394708,-0.005451109,-0.015788069,0.0
2481248516,-0.023409443,-0.0003677886,0.019631006,-0.0040037604,-0.005460624,-0.01581422,0.0
2481280470,-0.026429133,-0.006340064,0.023359692,-0.0040605622,-0.0054677767,-0.01584931,0.0
2481312544,-0.028901426,0.002684079,0.024329364,-0.0041215545,-0.0054786173,-0.01589283,0.0
2481344525,-0.028841536,0.0033700615,0.020232098,-0.0041826474,-0.005492211,-0.015943225,0.0
2481376527,-0.029546404,-0.013301819,0.01874536,-0.0042456253,-0.005510058,-0.01599626,0.0
2481408505,-0.020605981,-0.0024099685,0.020158326,-0.004305021,-0.0055354503,-0.016066357,0.0
2481440542,-0.021866508,0.015159689,0.022546396,-0.0043728626,-0.005568328,-0.016134221,0.0
2481472501,-0.019111656,0.016936533,0.01792581,-0.004433685,-0.0055969856,-0.016198194,0.0
2481504531,-0.027262906,-0.009105578,0.020570762,-0.0044838507,-0.005618314,-0.016276889,0.0
2481536474,-0.03828819,-0.0065082945,0.016953789,-0.004524929,-0.005650011,-0.016352301,0.0
2481568504,-0.037526526,-0.009062652,0.018974992,-0.004566068,-0.0056840205,-0.016429156,0.0
2481600529,-0.013963439,-0.00573045,0.016530633,-0.00461853,-0.0057085445,-0.016515857,0.0
2481632475,-0.001009712,-0.0003756024,0.017951624,-0.0046757073,-0.0057232715,-0.016604029,0.0
2481664488,-0.018007215,-0.0061747003,0.018072888,-0.0047341017,-0.0057350835,-0.016702937,0.0
2481696486,-0.02392953,-0.010852793,0.018524423,-0.0047957,-0.005745585,-0.016791249,0.0
2481728558,-0.009838337,-0.01845533,0.01702453,-0.0048556584,-0.0057630935,-0.016895883,0.0
2481760489,-0.019802721,-0.01602837,0.017086146,-0.0049043875,-0.005783553,-0.017012153,0.0
2481792511,-0.028880775,-0.0058227014,0.019951195,-0.004950337,-0.005809898,-0.01713829,0.0
2481824523,0.00072018616,0.020363014,0.013492277,-0.0049910955,-0.005838744,-0.017253203,0.0
2481856559,-0.023190739,-0.0071442407,0.013993571,-0.005019133,-0.00586469,-0.017370548,0.0
2481888488,-0.038386524,-0.015246636,0.018446755,-0.005043549,-0.0058932737,-0.017496862,0.0
2481920521,-0.013150029,-0.010291738,0.018345827,-0.0050731143,-0.005917616,-0.017635763,0.0
2481952535,-0.013639323,-0.021566167,0.0134854885,-0.005117492,-0.005934557,-0.017773738,0.0
2481984578,-0.0054731295,-0.019257285,0.015067818,-0.0051649613,-0.0059550125,-0.017913664,0.0
2482016517,0.0054159667,-0.004567828,0.012832162,-0.005213816,-0.0059764693,-0.018052714,0.0
2482048518,0.0042621233,-0.009909665,0.014752682,-0.005268272,-0.005992389,-0.01820203,0.0
2482080505,0.0061134463,-0.021353047,0.019087793,-0.0053357496,-0.005997516,-0.018354755,0.0
2482112547,0.0050609075,-0.017433677,0.014284208,-0.005404902,-0.006002329,-0.018507382,0.0
2482144526,-0.0065106023,-0.029508859,0.014874863,-0.0054781297,-0.006000384,-0.018651173,0.0
2482176467,0.003981391,-0.040247045,0.010901205,-0.0055519193,-0.005985346,-0.018807998,0.0
2482208500,0.0134627465,-0.037850738,0.0073650028,-0.005612535,-0.005967317,-0.0189575,0.0
2482240497,-0.011856515,-0.031445395,0.012036251,-0.005661593,-0.005937696,-0.019102057,0.0
2482272533,-0.0054234173,-0.030016342,0.012512962,-0.0057121487,-0.005891965,-0.019257117,0.0
2482304485,-0.008085396,-0.035606727,0.013474623,-0.005752941,-0.0058322134,-0.019409476,0.0
2482336511,-0.033231348,-0.04360673,0.012857497,-0.00577374,-0.00577438,-0.019571843,0.0
2482368528,-0.01136156,-0.054346997,0.012541332,-0.005794828,-0.005705527,-0.019749254,0.0
2482400552,0.0036818348,-0.05375655,0.011481906,-0.005824618,-0.005623817,-0.019927926,0.0
2482432476,-0.00084521994,-0.019018285,0.009152206,-0.005858844,-0.0055493317,-0.020104732,0.0
2482464511,0.0029705893,-0.0076662563,0.018102836,-0.005903193,-0.0054828315,-0.020299362,0.0
2482496525,0.010280339,-0.021917455,0.018367073,-0.005959323,-0.005417308,-0.02051337,0.0
2482528572,0.010575308,-0.00863163,0.014139454,-0.0060145315,-0.005366869,-0.020737723,0.0
2482560510,0.008998481,-0.009300284,0.017715227,-0.0060754935,-0.005325115,-0.02096939,0.0
2482592519,0.0122294305,-0.014250472,0.016213235,-0.006145242,-0.0052895215,-0.021209482,0.0
2482624527,0.02194444,0.013950437,0.01524251,-0.006212837,-0.005270384,-0.021444967,0.0
2482656551,0.01977118,0.012682073,0.019452982,-0.0062787947,-0.0052394867,-0.021692766,0.0
2482688475,0.01626676,-0.011070302,0.016176939,-0.00635036,-0.0051871752,-0.021947335,0.0
2482720544,0.019385703,-0.004709201,0.01602429,-0.006430285,-0.0051279683,-0.022191804,0.0
2482752543,0.01490831,-0.016004486,0.01379355,-0.006507472,-0.0050594117,-0.022437437,0.0
2482784565,0.0027451776,-0.041059054,0.014496588,-0.006580331,-0.004977077,-0.022688093,0.0
2482816480,0.0018844455,-0.03381,0.014046573,-0.006643999,-0.004879152,-0.02294177,0.0
2482848527,0.011689946,-0.020502936,0.011735803,-0.0066974103,-0.0047655297,-0.023193503,0.0
2482880495,0.019134998,-0.019607294,0.01346213,-0.006749716,-0.0046469416,-0.023445144,0.0
2482912552,0.0058260877,0.0020369682,0.010456861,-0.0067960583,-0.0045385608,-0.02369866,0.0
2482944513,-0.015564945,-0.012306175,0.009249348,-0.0068248636,-0.004425847,-0.023942254,0.0
2482976487,-0.00658297,-0.010004504,0.015164561,-0.006849902,-0.004318987,-0.02418982,0.0
2483008529,0.009835382,0.03111011,0.006647964,-0.0068903184,-0.0042510754,-0.024439862,0.0
2483040497,0.0086417245,0.02266108,0.007997146,-0.0069375057,-0.0041955654,-0.024698194,0.0
2483072505,0.026134105,0.028635273,0.010194884,-0.0070008836,-0.0041562608,-0.024959236,0.0
2483104448,0.03862178,0.063388154,0.0021056274,-0.007073056,-0.0041402667,-0.025196426,0.0
2483136556,0.032420106,0.050728284,0.0037004533,-0.0071365642,-0.0041208933,-0.025426054,0.0
2483168505,0.024637878,0.038561437,0.006263124,-0.007197591,-0.0041039293,-0.025654264,0.0
2483200477,0.0012662858,0.029057717,0.007249002,-0.0072573284,-0.004079515,-0.02588934,0.0
2483232453,0.0016292706,0.008822959,0.004015065,-0.0073019946,-0.0040363185,-0.026124539,0.0
2483264491,0.0001892969,-0.004932113,0.004822486,-0.0073258895,-0.0039785192,-0.026355918,0.0
2483296505,0.0034720507,0.0070258565,0.0008950818,-0.007337298,-0.003910542,-0.026588026,0.0
2483328492,0.008255876,0.0024846382,0.00088523957,-0.0073405597,-0.0038289041,-0.026827175,0.0
2483360454,-0.012747318,0.0012664795,0.0044822306,-0.007322865,-0.003740875,-0.027066018,0.0
2483392509,-0.0075567886,0.017149864,0.0049393307,-0.0073005385,-0.0036605047,-0.02728853,0.0
2483424487,0.009072283,0.007840419,0.0028433981,-0.0072815935,-0.0035761478,-0.02752942,0.0
2483456493,-0.010171525,-0.0005641524,0.0026662126,-0.0072563556,-0.003499032,-0.027753402,0.0
2483488454,0.0022391025,0.0130281355,-0.0034570273,-0.0072453558,-0.0034372136,-0.027966164,0.0
2483520535,0.027674831,0.011417048,-0.005034449,-0.0072381105,-0.0033769489,-0.028172158,0.0
2483552506,0.021007996,0.013599526,-0.0037598307,-0.0072238664,-0.0033166932,-0.028379856,0.0
2483584467,0.023137782,0.029042961,-0.0043005943,-0.007217277,-0.0032526609,-0.02857253,0.0
2483616490,0.02379542,0.010075275,-0.00075746584,-0.0072036763,-0.0031761269,-0.028769592,0.0
2483648486,0.0034865495,-0.0115984855,0.00035440896,-0.007169556,-0.0030800481,-0.02897578,0.0
2483680497,0.017595116,-0.011640343,-0.0034687312,-0.0071358387,-0.0029664761,-0.029154366,0.0
2483712536,0.015545009,-0.036693487,-0.0074830707,-0.0070965462,-0.0028242287,-0.02934126,0.0
2483744532,-0.0055024046,-0.030955527,-0.006450552,-0.0070385146,-0.0026755158,-0.029521538,0.0
2483776506,0.021712096,-0.01591774,-0.007745386,-0.0069853184,-0.0025242902,-0.029691776,0.0
2483808551,0.016704146,-0.021323709,-0.010006595,-0.006923638,-0.0023494929,-0.02983914,0.0
2483840525,0.0020973235,-0.018238053,-0.0045663808,-0.0068500303,-0.0021728736,-0.029990364,0.0
2483872502,0.020896971,-0.013409825,-0.010313396,-0.00678209,-0.0020004637,-0.030127198,0.0
2483901326,0.019846551,-0.0003297422,-0.011386888,-0.0067074276,-0.001856679,-0.030235706,0.0
2483934141,0.0011489186,-0.010371847,-0.012645881,-0.006603812,-0.001701157,-0.030352445,0.0
2483966087,0.008583234,0.001426423,-0.015345682,-0.006506279,-0.0015544831,-0.030461578,0.0
2483998150,0.027153067,0.019864446,-0.020093821,-0.006391356,-0.0013994502,-0.03054038,0.0
2484030115,-0.005720131,0.018629856,-0.018691262,-0.006253333,-0.0012325539,-0.030610343,0.0
2484062119,-0.0023741312,0.0086471345,-0.017556088,-0.006110092,-0.0010587408,-0.030666629,0.0
2484094135,0.010663645,0.0010698959,-0.019106966,-0.00595727,-0.0008887597,-0.030713761,0.0
2484126110,-0.0035795718,0.0017507467,-0.015946701,-0.005804271,-0.00072303205,-0.030759217,0.0
2484158178,0.037515394,0.038121626,-0.02077477,-0.0056722206,-0.0005757764,-0.03079823,0.0
2484190067,0.0418868,0.04092654,-0.020037372,-0.005541175,-0.00044347803,-0.03083405,0.0
2484222132,0.028557628,0.031120492,-0.015008844,-0.0054162224,-0.00031276752,-0.03086358,0.0
2484254080,0.05056666,0.03307272,-0.019744389,-0.0053145965,-0.00019283606,-0.030891206,0.0
2484286183,0.04864646,0.028596612,-0.015848119,-0.0052269115,-7.9327816e-05,-0.030930676,0.0
2484318131,0.063637555,0.05507914,-0.014693917,-0.005153728,2.5677435e-05,-0.030956721,0.0
2484350121,0.06912944,0.052483104,-0.014638428,-0.005087131,0.00013124975,-0.030987052,0.0
2484382115,0.045918908,0.023211109,-0.012324352,-0.005018958,0.00023464348,-0.03101372,0.0
2484414171,0.055444915,0.030655753,-0.015369123,-0.0049568894,0.00032803178,-0.031034362,0.0
2484446099,0.061833303,0.019332455,-0.01619838,-0.0049069338,0.00042730395,-0.031051043,0.0
2484478065,0.046372373,0.010736218,-0.012351041,-0.0048570884,0.0005394842,-0.03107096,0.0
2484510103,0.061722115,0.043309502,-0.01203736,-0.0048137237,0.0006435352,-0.031087909,0.0
2484542198,0.061427295,0.01778381,-0.01242885,-0.0047786664,0.0007599201,-0.031104214,0.0
2484574133,0.045316152,-0.011540424,-0.011340668,-0.0047475216,0.00088803936,-0.03111869,0.0
2484606065,0.043455243,-0.0037532784,-0.012577536,-0.0047211545,0.0010189544,-0.031142935,0.0
2484638065,0.043452658,-0.006848678,-0.010978662,-0.004699887,0.001155598,-0.031164037,0.0
2484670122,0.042225283,0.0021886192,-0.008963778,-0.0046798056,0.0012903359,-0.031188367,0.0
2484702183,0.04004402,0.016477868,-0.005523635,-0.0046636662,0.0014214807,-0.031220049,0.0
2484734048,0.03510377,-0.009410994,-0.004708731,-0.004654059,0.0015578186,-0.0312579,0.0
2484766132,0.028583769,-0.01310238,-0.010050537,-0.0046404386,0.0016891053,-0.031291585,0.0
2484798066,0.026922721,0.02049293,-0.010081011,-0.004633426,0.0017982668,-0.031311344,0.0
2484830127,0.026675394,0.021600073,-0.0072992975,-0.0046253554,0.0019027848,-0.03134759,0.0
2484862077,0.0051428042,0.017019948,-0.0029126937,-0.004604743,0.0020044742,-0.031381775,0.0
2484894148,-0.0049760975,0.016231706,0.00054562994,-0.004583638,0.0020972672,-0.03142314,0.0
2484926119,0.005045291,0.0010990389,-0.006558611,-0.0045662457,0.002189625,-0.031455368,0.0
2484958151,0.0003657285,-0.0018018857,-0.009737761,-0.0045397934,0.002278071,-0.031478807,0.0
2484990050,-0.00022671744,0.015227072,-0.011197644,-0.0045131748,0.0023611018,-0.031488333,0.0
2485022126,0.0013146419,0.01445568,-0.0078713205,-0.004482952,0.0024504305,-0.031494156,0.0
2485054078,-0.015603986,-0.0040772166,-0.004803991,-0.0044512777,0.0025570777,-0.031505607,0.0
2485086126,-0.01578631,-0.0101276,-0.0060560163,-0.0044286754,0.0026727791,-0.031512517,0.0
2485118048,-0.0013436396,-0.017426826,-0.009339724,-0.0044175293,0.002790241,-0.03151595,0.0
2485150039,-0.009242464,-0.0225138,-0.012165002,-0.0044040964,0.0028988156,-0.031502437,0.0
2485182158,0.0041836128,-0.0029728636,-0.0075455145,-0.0044058855,0.0029964675,-0.031494357,0.0
2485214124,0.015266651,0.009584138,-0.009029831,-0.004418599,0.003091833,-0.031484842,0.0
2485246073,-0.017252361,-0.0008165911,-0.008687605,-0.0044188234,0.0031823865,-0.031455543,0.0
2485278057,-0.0468768,-0.006538229,-0.0046067433,-0.0044020307,0.0032653168,-0.031440385,0.0
2485310074,-0.01756091,-0.0041163675,-0.013204656,-0.004384333,0.003343025,-0.031399228,0.0
2485342139,-0.017684383,-0.0074028764,-0.016815668,-0.004355968,0.0034184137,-0.031353552,0.0
2485374115,-0.040840942,-0.012512629,-0.009329034,-0.0043252544,0.0035139674,-0.031302173,0.0
2485406101,-0.029985366,-0.021505985,-0.011284599,-0.0042950446,0.0036227293,-0.031237481,0.0
2485438107,-0.041697964,-0.03697165,-0.011614211,-0.0042594783,0.00373052,-0.031158905,0.0
2485470079,-0.048502076,-0.038913526,-0.009290518,-0.004222976,0.0038440982,-0.031089092,0.0
2485502204,-0.027620295,-0.038129047,-0.010508202,-0.004197049,0.0039620446,-0.03102337,0.0
2485534107,-0.011578793,-0.026141975,-0.01273981,-0.004182273,0.0040806723,-0.030950442,0.0
2485566150,-0.029281707,-0.02268361,-0.009697035,-0.0041678133,0.0042044837,-0.030877398,0.0
2485598125,-0.029904427,-0.042494148,-0.0037886864,-0.0041669644,0.004328834,-0.030808901,0.0
2485630127,-0.0045234337,-0.03714154,-0.0072092903,-0.004181032,0.0044427677,-0.030750258,0.0
2485662114,-0.023529211,-0.039944075,-0.0023270368,-0.0041969963,0.0045645097,-0.030715577,0.0
2485694150,-0.014583385,-0.03499388,0.0014524902,-0.004220761,0.0047008884,-0.030679617,0.0
2485726125,-0.0048243124,-0.027095392,-0.0026130325,-0.0042418567,0.0048318757,-0.030641232,0.0
2485758168,-0.037283935,-0.033981714,-0.0025558663,-0.0042497506,0.0049584615,-0.030611832,0.0
2485790176,-0.047701146,-0.034435857,0.0003302909,-0.004247659,0.005080179,-0.030578563,0.0
2485822149,-0.025472926,-0.0077208523,0.00020279438,-0.004244354,0.005175379,-0.030552173,0.0
2485854122,-0.022971634,0.023985766,-0.0030334326,-0.004229277,0.005246441,-0.030527003,0.0
2485886116,-0.052577727,0.0017633718,0.0025837133,-0.004205939,0.0053174705,-0.030506568,0.0
2485918062,-0.05735965,-0.012129057,0.004574361,-0.0041746525,0.0053822296,-0.030497644,0.0
2485950063,-0.045717,0.0018493179,0.0011849195,-0.00413565,0.0054420875,-0.030484606,0.0
2485982139,-0.06202643,-0.016415216,0.0007981014,-0.004085221,0.00551494,-0.030471837,0.0
2486014116,-0.053458415,-0.010730168,0.004149006,-0.0040280037,0.0055909087,-0.03046702,0.0
2486046099,-0.040815666,0.016881902,0.002817987,-0.003958568,0.005654514,-0.030457733,0.0
2486078095,-0.058942225,-0.0024799984,0.0014600427,-0.003874249,0.005716976,-0.030448193,0.0
2486110182,-0.06191927,-0.011753029,0.0016831529,-0.0037878163,0.005770561,-0.030439513,0.0
2486142146,-0.047497973,0.010506107,0.0011241562,-0.00370355,0.0058028377,-0.03043434,0.0
2486174121,-0.05384665,0.0117852315,0.004489758,-0.0036105767,0.0058309394,-0.030447716,0.0
2486206071,-0.04547956,0.009439807,0.0060043074,-0.003513769,0.0058470475,-0.030457815,0.0
2486238133,-0.02364525,0.025184656,0.0055113724,-0.0034267507,0.0058465125,-0.03047581,0.0
2486270118,-0.03264115,0.011980858,0.0016470815,-0.0033324517,0.005851294,-0.030479426,0.0
2486302169,-0.041245155,-0.022288747,0.0031200282,-0.0032363634,0.005863992,-0.03048396,0.0
2486334104,-0.015565332,-0.0014201403,-0.00065890956,-0.0031556645,0.005864745,-0.030476972,0.0
2486366146,-0.011075478,0.009135723,-0.00079954707,-0.003074832,0.005875278,-0.03047732,0.0
2486398132,-0.014898451,-0.011936852,0.0037428075,-0.0029968817,0.005898734,-0.030477507,0.0
2486430117,-0.0022876821,-0.017571006,0.006641829,-0.0029345665,0.005922575,-0.030487355,0.0
2486462098,-0.00037911348,-0.016738888,0.0068288464,-0.0028745837,0.0059416406,-0.03050452,0.0
2486494161,0.0011745915,-0.032861717,0.004754747,-0.0028213172,0.0059580905,-0.030518148,0.0
2486526135,0.009538526,-0.028205913,0.002122605,-0.0027775043,0.0059755677,-0.030541446,0.0
2486554138,0.013251718,-0.034770384,0.0010161542,-0.002735794,0.0060012895,-0.030561106,0.0
2486586112,0.01564037,-0.015387831,0.0020260708,-0.0026936159,0.006035276,-0.030585462,0.0
2486618110,0.015124516,-0.023509672,0.009252776,-0.0026602987,0.006081503,-0.030626146,0.0
2486650059,0.017962923,-0.03285508,0.010415524,-0.002635582,0.0061357543,-0.030675944,0.0
2486682182,0.015439589,-0.02912454,0.0058211433,-0.0026114772,0.006195419,-0.030727755,0.0
2486714118,0.017786529,-0.040879946,0.009596113,-0.0025920412,0.006268811,-0.030772243,0.0
2486746065,0.024413425,-0.035873763,0.004125489,-0.00257933,0.006334682,-0.030824747,0.0
2486778085,0.018685106,-0.009246409,0.0029275308,-0.0025676992,0.0063904244,-0.03087673,0.0
2486810116,0.0158093,-0.008358408,0.01010435,-0.0025589203,0.0064459033,-0.030925887,0.0
2486842154,0.017353036,-0.008580459,0.004480355,-0.002557573,0.006484783,-0.030972987,0.0
2486874057,0.0037641544,0.0045815036,0.0042666798,-0.0025540332,0.006508728,-0.031013317,0.0
2486906077,0.0063505126,0.005748622,0.0054375795,-0.0025557154,0.0065197833,-0.031051384,0.0
2486938116,0.015746865,0.017627312,0.0024440533,-0.002552773,0.0065103113,-0.03109274,0.0
2486970160,0.009688699,0.046832204,-0.0010447584,-0.002539224,0.0064853467,-0.031133229,0.0
2487002142,-0.0064410325,0.024041599,0.006128244,-0.0025271198,0.0064649037,-0.031176656,0.0
2487034099,-0.007847235,0.0042775497,0.0032548474,-0.002519005,0.006456156,-0.031214692,0.0
2487066110,-0.00613882,0.018714169,-0.001986412,-0.002512707,0.006440227,-0.031234974,0.0
2487098155,-0.009095969,0.0002994258,-0.00052571285,-0.0025041304,0.006431478,-0.031249616,0.0
2487130071,0.0012736823,-0.008728417,-0.0019035928,-0.0024970185,0.0064363154,-0.031265087,0.0
2487162145,0.008200349,0.017709315,-0.009616553,-0.0024887868,0.006442709,-0.031254787,0.0
2487194103,-0.010178927,0.004023578,-0.00440794,-0.0024775043,0.0064669577,-0.031239275,0.0
2487226143,-0.016742932,-0.025621442,-0.0044607166,-0.0024645925,0.006509656,-0.031215396,0.0
2487258097,-0.014500119,-0.01716359,-0.007848257,-0.0024528587,0.006551192,-0.031185705,0.0
2487290118,-0.015557401,-0.02390835,-0.004367751,-0.0024425455,0.0066014323,-0.031168036,0.0
2487322121,0.006185501,-0.018770386,-0.003287035,-0.002438327,0.00665964,-0.031148456,0.0
2487354143,0.009379191,0.008926157,-0.009067098,-0.002429097,0.0067086583,-0.031119715,0.0
2487386052,-0.025288288,-0.012845822,0.0012222251,-0.0024135637,0.0067628426,-0.031108651,0.0
2487418038,-0.0101701915,-0.021181498,0.00058527885,-0.0024049233,0.0068250904,-0.031098278,0.0
2487450060,0.0013891924,-0.0031743962,-0.0068088765,-0.0023990115,0.006891261,-0.031090166,0.0
2487482109,-0.014172113,-0.002706185,-0.001360503,-0.0023945195,0.0069632926,-0.03108368,0.0
2487514043,0.0032796059,-0.011015054,0.0025953765,-0.002389117,0.007039819,-0.03107987,0.0
2487546046,0.00055550225,-0.00822263,-0.0033842912,-0.0023809301,0.007123216,-0.03107748,0.0
2487578050,-0.014226165,-0.015594854,-0.0007067608,-0.0023676506,0.0072153998,-0.031063993,0.0
2487610080,0.0011987388,-0.002922872,0.0019497833,-0.002368393,0.0072991643,-0.031060707,0.0
2487642142,0.00048264302,0.02614481,0.0003049968,-0.0023751094,0.0073617715,-0.031067213,0.0
2487674034,-0.010893026,0.025224434,0.000439316,-0.0023644338,0.0074252957,-0.031072702,0.0
2487706064,-0.013140535,0.012622135,0.0033276326,-0.0023359098,0.0074841348,-0.031078113,0.0
2487738097,-0.022168828,0.021950267,-0.0052731894,-0.0022966808,0.0075289207,-0.031073973,0.0
2487770131,-0.03095392,0.019878086,-0.0034695794,-0.0022425293,0.007574659,-0.031051459,0.0
2487803736,-0.012357404,0.043434672,-0.000584898,-0.0021888244,0.007611959,-0.03104005,0.0
2487835660,-0.01715156,0.043591417,-0.0048148176,-0.0021370805,0.007649138,-0.031012751,0.0
2487867704,-0.030115673,-0.0035801828,-0.0004019874,-0.002079638,0.0077054203,-0.030988952,0.0
2487899696,-0.005166337,0.00703655,-0.005703349,-0.002025703,0.0077669746,-0.030957125,0.0
2487931772,0.0055758115,0.030531788,-0.0074727065,-0.0019748788,0.007827872,-0.030930497,0.0
2487963670,-0.013741914,0.011455286,-0.0022687376,-0.0019230243,0.007910518,-0.030895151,0.0
2487995720,-0.00920916,0.008842703,-0.0018701495,-0.0018790917,0.007993013,-0.03085346,0.0
2488027714,0.0066354517,0.019947547,-0.006385815,-0.0018403867,0.008069642,-0.030801905,0.0
2488059744,0.0053842403,-0.00255429,-0.0043015666,-0.0018071723,0.008147532,-0.03075882,0.0
2488091667,0.024838144,0.022561276,-0.0046671527,-0.0017938744,0.008203775,-0.030718561,0.0
2488123733,0.026160432,0.05763012,-0.0056014266,-0.0017816533,0.00825469,-0.030682856,0.0
2488155724,0.0029334202,0.024829693,-0.0031784163,-0.0017627995,0.008315779,-0.030630345,0.0
2488187705,0.0108208,0.025379855,-0.006061083,-0.0017521546,0.008362865,-0.03056886,0.0
2488219679,0.017680973,0.033468183,-0.00801504,-0.0017471715,0.008398836,-0.030513346,0.0
2488251677,0.014452326,0.020399952,-0.006007754,-0.0017335105,0.008444256,-0.030455753,0.0
2488283712,0.019753197,0.033160605,-0.0032069054,-0.0017230253,0.008484349,-0.030406218,0.0
2488315734,0.016512536,0.04435677,-0.0063995593,-0.001711704,0.008519245,-0.030347228,0.0
2488347697,-0.0022761002,0.01608571,-0.004805437,-0.0016937881,0.008562172,-0.030280467,0.0
2488379680,0.0055061365,0.019090792,-0.010009899,-0.0016777815,0.008596313,-0.030197326,0.0
2488411740,0.023154214,0.04862508,-0.011811437,-0.0016621088,0.008621593,-0.030115772,0.0
2488443708,0.0032558069,0.022827134,-0.007802896,-0.0016371775,0.008662279,-0.030037444,0.0
2488475712,9.711087e-05,0.0037667379,-0.0027462828,-0.001611913,0.008703974,-0.029951645,0.0
2488507672,0.016893223,0.029652948,-0.012181534,-0.0016048691,0.008730619,-0.029853988,0.0
2488539745,0.012171603,0.016227,-0.009953951,-0.0016030825,0.0087655755,-0.029751757,0.0
2488571722,0.012746435,0.013960592,-0.0055045662,-0.0015947816,0.008801984,-0.029651871,0.0
2488603723,0.023153096,0.03800195,-0.012102034,-0.001590814,0.008835708,-0.029546153,0.0
2488635670,0.0116249155,0.01700164,-0.010600409,-0.0015931444,0.008868283,-0.02942563,0.0
2488667727,0.0057770973,0.0012762323,-0.0075549274,-0.0016029987,0.008890962,-0.029302701,0.0
2488699716,0.014987342,0.035553418,-0.013137367,-0.0016146986,0.00889814,-0.029167874,0.0
2488731715,0.015582506,0.042532746,-0.010547787,-0.0016238558,0.008899868,-0.029035004,0.0
