timestamp,roll,pitch,yaw,thrust
2468043694,-0.21041545,-0.102350675,-0.0014499301,0.53885144
2468087729,-0.21312475,-0.09721711,-0.0014162917,0.5472995
2468127731,-0.21726353,-0.11432117,-0.0014253582,0.55616635
2468171695,-0.20266122,-0.100257896,-0.0010314212,0.56389475
2468211685,-0.23563641,-0.09296305,-0.0010936559,0.5733008
2468255734,-0.19221076,-0.15786384,-0.0026003048,0.58356273
2468295722,-0.24413219,-0.08386434,-0.0035836222,0.5901595
2468339685,-0.15718831,-0.07339248,-0.0027059964,0.5999248
2468379680,-0.22751123,-0.12948814,-0.0045667356,0.6083262
2468423735,-0.22109282,-0.093983136,-0.0031509688,0.6179936
2468467631,-0.20660222,-0.085667685,-0.002064501,0.6266171
2468511686,-0.23274091,-0.12483588,-0.0023033558,0.63696676
2468551682,-0.22008525,-0.09001176,-0.00069141487,0.64549845
2468595648,-0.20486319,-0.08817943,-9.2732706e-05,0.6552439
2468639685,-0.20213169,-0.10708238,-3.382608e-05,0.66476625
2468679685,-0.20676593,-0.08702827,0.00047488842,0.67304176
2468719667,-0.20140128,-0.07465321,0.0011613867,0.6816266
2468763661,-0.19135016,-0.09609632,0.0016642279,0.6907237
2468803823,-0.17529815,-0.06440404,0.0035933303,0.6882401
2468847682,-0.08116809,0.028777057,0.0045197085,0.693053
2468887630,0.028085768,0.1623399,0.0038772342,0.69674355
2468931687,0.21725254,0.30922925,0.0012440138,0.6682282
2468979647,0.4236344,0.456665,-0.004649722,0.63109624
2469019653,0.50173604,0.4845658,-0.010433211,0.60920966
2469063678,0.47689897,0.38433596,-0.0149598755,0.6005453
2469103687,0.42511663,0.28859967,-0.0188412,0.5697492
2469147647,0.41026405,0.2708562,-0.021245988,0.5559949
2469187820,0.56290734,0.29658616,-0.025882373,0.5408754
2469231695,0.6040757,0.27707306,-0.02916128,0.53218687
2469271682,0.53962237,0.24040888,-0.030043773,0.5261993
2469315652,0.4110359,0.1506588,-0.030320995,0.5281142
2469355650,0.42631912,0.14892879,-0.032656796,0.5217855
2469399684,0.4107832,0.15186454,-0.035056934,0.520325
2469439677,0.32518345,0.0773911,-0.035555027,0.52328414
2469483636,0.25400323,0.012184113,-0.03679009,0.5201041
2469523641,0.19107024,-0.0024361485,-0.038303107,0.5171411
2469567680,0.12666564,-0.056825094,-0.038456213,0.5170695
2469607642,0.04564237,-0.155345,-0.0372953,0.5176357
2469651633,-0.0087907575,-0.18294814,-0.038042504,0.5144463
2469691646,-0.057248995,-0.21572919,-0.03805724,0.5153898
2469735689,-0.0736868,-0.26144943,-0.03744107,0.51588815
2469775634,-0.13580893,-0.2866962,-0.03718268,0.51652336
2469819654,-0.1377765,-0.2780532,-0.0370911,0.51574636
2469859696,-0.12657817,-0.2413123,-0.03764555,0.515543
2469903638,-0.14604777,-0.25933027,-0.036252208,0.51649857
2469943650,-0.15942386,-0.273457,-0.035243362,0.5179838
2469987658,-0.1656291,-0.27812678,-0.034745388,0.5181737
2470027696,-0.14119509,-0.26317635,-0.033955663,0.5176031
2470071630,-0.15660441,-0.2728204,-0.033406302,0.52013487
2470111598,-0.18251479,-0.28687814,-0.033306092,0.52076477
2470155679,-0.18700236,-0.2708935,-0.03348798,0.5215584
2470195682,-0.18795905,-0.26594818,-0.033398334,0.52575904
2470239607,-0.19044209,-0.26625305,-0.033492804,0.5283227
2470279610,-0.20529173,-0.25573644,-0.034074992,0.52740943
2470323622,-0.17764243,-0.22967371,-0.034537893,0.52696764
2470363640,-0.19412903,-0.23129486,-0.035124823,0.5275293
2470407618,-0.18411489,-0.22628644,-0.035799608,0.52748215
2470447599,-0.18960704,-0.1991811,-0.03684695,0.52592283
2470491655,-0.16632555,-0.18692611,-0.037710123,0.5263325
2470531672,-0.17672846,-0.17685053,-0.038131084,0.52828586
2470575608,-0.18053448,-0.18163313,-0.039347094,0.52875435
2470619667,-0.17188764,-0.18400648,-0.04008083,0.5330716
2470663629,-0.16952248,-0.15334935,-0.040414598,0.5333928
2470703634,-0.15544108,-0.14661862,-0.040950276,0.53454566
2470743647,-0.13140757,-0.13510413,-0.041007295,0.5320951
2470783650,-0.114306584,-0.09436768,-0.04096783,0.5294966
2470827681,-0.11211187,-0.10173808,-0.040958874,0.53156227
2470867662,-0.1176159,-0.09270003,-0.04051981,0.53307253
2470911642,-0.11877757,-0.10085677,-0.04039332,0.53498244
2470951663,-0.09259823,-0.07176823,-0.03955105,0.53243315
2470995670,-0.07689387,-0.082045734,-0.039122626,0.5366074
2471035657,-0.07193576,-0.08163181,-0.03844682,0.53721505
2471079620,-0.070016935,-0.08835476,-0.037657216,0.53834534
2471119645,-0.062285323,-0.0651611,-0.036568735,0.5347371
2471163693,-0.050590415,-0.06382246,-0.035719767,0.53476256
2471203677,-0.05084143,-0.0668812,-0.034203537,0.5369155
2471247624,-0.046160553,-0.07821519,-0.033257507,0.5372878
2471287645,-0.047339797,-0.06593885,-0.031902168,0.53513825
2471331659,-0.04405894,-0.071149275,-0.030966876,0.5353121
2471371668,-0.05310925,-0.06419005,-0.029766385,0.5364436
2471415645,-0.042984985,-0.07337313,-0.028730987,0.5378491
2471455627,-0.04468085,-0.07591904,-0.027560458,0.5350063
2471499676,-0.033867724,-0.08017042,-0.026074864,0.5346718
2471539686,-0.015844867,-0.053517308,-0.024502458,0.5340567
2471583634,-0.02190681,-0.06638632,-0.023167824,0.5346019
2471623636,-0.038873024,-0.051715333,-0.021556668,0.53354245
2471667669,-0.033575617,-0.049359564,-0.020014767,0.53235507
2471707661,-0.017036844,-0.014931587,-0.018173989,0.53272563
2471751638,-0.02030341,-0.015419215,-0.016585583,0.5330739
2471791634,-0.02427313,-0.037166867,-0.015180878,0.5366385
2471835677,-0.02039049,-0.02871769,-0.013546981,0.53665656
2471875712,-0.04262752,-0.032482266,-0.0121973045,0.5358056
2471919645,-0.029014133,-0.01668527,-0.010733468,0.5352312
2471959631,-0.03448102,-0.028529108,-0.00976626,0.53715044
2472003670,-0.027108971,-0.024635341,-0.008318786,0.53754956
2472043640,-0.03065224,-0.032997362,-0.0071994034,0.5364364
2472087631,-0.027985096,-0.026965743,-0.0058527286,0.5357173
2472127637,-0.00063185487,-0.004341589,-0.0043951008,0.5345599
2472171635,0.0046916846,-0.0045862235,-0.0030600575,0.53424054
2472211638,-0.014156461,-0.02489688,-0.0012025364,0.5373259
2472255641,-0.026354061,-0.029526245,0.00012658144,0.5369512
2472297320,-0.015652258,-0.032908395,0.0015218633,0.53480124
2472337288,0.011729993,0.0038558468,0.0024987445,0.53151
2472381320,0.004350308,0.001798048,0.003714513,0.5331055
2472421330,-0.01421763,-0.032958105,0.004988975,0.53769845
2472461261,-0.017989613,-0.049005125,0.0056508845,0.53577954
2472505300,-0.034286536,-0.05749841,0.006651777,0.53628707
2472545242,-0.0028883563,-0.029886357,0.0068558278,0.5328183
2472589302,-0.018923152,-0.036168665,0.0074202023,0.535341
2472629235,-0.035006624,-0.057963468,0.007877406,0.5355426
2472669220,-0.0033660568,-0.03891745,0.007991029,0.5328337
2472709243,-0.03253372,-0.02433776,0.008721588,0.5355815
2472753304,-0.030223945,-0.033280388,0.008761126,0.53638244
2472793254,-0.035245907,-0.043698303,0.00875227,0.53672683
2472837255,-0.048402734,-0.046707086,0.008964741,0.5376426
2472877250,-0.012170427,-0.026838116,0.008629562,0.53378254
2472917275,-0.03050366,-0.0490842,0.009227231,0.5373047
2472957271,-0.019902494,-0.059647214,0.009191835,0.5363363
2472997272,0.00828022,-0.01785199,0.009419436,0.531678
2473041276,0.016933713,-0.032075614,0.009581206,0.5324413
2473085232,0.017671874,-0.04238256,0.010012492,0.5357531
2473125246,-0.023652777,-0.04894549,0.01071701,0.53770804
2473169273,-0.0013421455,-0.042656317,0.011003475,0.53624785
2473209282,-0.04008654,-0.055225104,0.011685526,0.53998166
2473253227,-0.029071901,-0.043717705,0.012307611,0.5385078
2473293238,0.02727273,-0.023100998,0.012146737,0.5364136
2473337303,0.01500066,-0.026565151,0.012974054,0.5375202
2473377292,0.0098757325,-0.026366133,0.0139583945,0.53777987
2473421233,0.019673515,-0.013909133,0.014691105,0.53712416
2473461226,0.005893223,-0.029953923,0.015545823,0.5385103
2473505287,0.00018519445,-0.012488253,0.016210593,0.5379946
2473545289,0.035851,0.007327819,0.016198633,0.5360547
2473589237,0.031232249,0.0071028,0.016867952,0.5373218
2473629230,0.0138797965,-0.005367745,0.01738707,0.53938556
2473673260,0.024684269,0.0014714871,0.017867062,0.53895617
2473713269,-0.005621611,0.007463241,0.018409267,0.538255
2473757260,0.0047199246,0.016953876,0.018773409,0.5382695
2473797259,-0.0027092937,0.03487267,0.01913346,0.53820795
2473841274,-0.0066328356,0.03925052,0.019686976,0.537437
2473881270,0.009927636,0.058166046,0.019770348,0.5365206
2473925246,-0.0006329467,0.05778484,0.020104604,0.5368478
2473965232,-0.009436489,0.0635061,0.020575408,0.5365257
2474009262,-0.0020612753,0.05387647,0.020665117,0.5358393
2474049226,-0.0183026,0.049063742,0.021108627,0.53691673
2474093248,-0.01755808,0.047998782,0.020994658,0.53551733
2474133235,0.00082736573,0.04936456,0.020599592,0.5363235
2474173265,-0.012685202,0.025831113,0.020691,0.539975
2474213270,-0.0033965986,0.019643957,0.020635728,0.5388371
2474257264,-0.0060918215,0.015326934,0.020356802,0.5395586
2474297410,-0.0030391081,0.014412454,0.020121213,0.53736037
2474341237,0.00633246,0.011023854,0.019613545,0.53818804
2474381322,0.011952397,0.024144832,0.019315954,0.5384066
2474425204,0.015932877,0.020790558,0.018707018,0.5380224
2474465199,0.0130643975,-0.0030877518,0.01813121,0.5406371
2474509255,0.016682647,8.0469676e-05,0.017681025,0.5394855
2474549235,0.018890891,-0.0077953725,0.01727784,0.5404226
2474593204,0.028995648,-0.012937471,0.016663544,0.53971446
2474633235,0.0257328,0.009540835,0.016316224,0.5384321
2474673241,0.021471191,-0.00043352076,0.015947286,0.5425982
2474717375,0.021938812,-0.0034709095,0.01566937,0.54255706
2474761214,0.020635417,-0.0067124274,0.015338782,0.54245627
2474801207,0.031639334,-0.0015884291,0.014574994,0.54227304
2474845266,0.014769648,-0.004786372,0.01447914,0.54313165
2474889216,0.005306314,-0.009160904,0.014190352,0.5434096
2474933294,0.016785948,-0.008624967,0.013608737,0.5427175
2474973294,0.007532791,-0.0018305229,0.013292308,0.54258627
2475017285,0.01275787,-0.0014972885,0.0127343265,0.54321784
2475057258,0.032237764,0.015527768,0.011963972,0.5432101
2475101278,0.02067432,0.024933502,0.011616172,0.54494154
2475141272,0.034684546,0.012222612,0.010974914,0.5471843
2475185230,0.023185175,0.019725038,0.01066073,0.5490144
2475225223,0.039118506,0.016659606,0.010115276,0.5465326
2475269270,0.038172558,0.02233663,0.009704946,0.5480617
2475309281,0.021817636,0.030133436,0.009534115,0.5468882
2475353245,0.032898534,0.03664996,0.008854105,0.5470011
2475393327,0.03169581,0.048667584,0.008502785,0.5448245
2475437279,0.03826921,0.048592467,0.007866534,0.5447115
2475477279,0.03685094,0.06371018,0.0076917186,0.54635197
2475521240,0.046079624,0.06851742,0.0070645567,0.54471034
2475561230,0.03947535,0.05357626,0.0070457617,0.5484535
2475605283,0.048421405,0.06362051,0.006152339,0.5473286
2475645270,0.04271315,0.04977678,0.006200569,0.5487599
2475689245,0.05087769,0.057031512,0.0053809984,0.5472862
2475729242,0.037453573,0.05069515,0.0053157853,0.54868037
2475773262,0.027157227,0.057446137,0.0046740584,0.54747725
2475813275,0.056660853,0.064160585,0.003781314,0.5457395
2475857269,0.037283897,0.06101417,0.0029409395,0.5461764
2475897276,0.033769675,0.07165646,0.0022000107,0.5464382
2475941297,0.033188276,0.077117495,0.0011079569,0.54566133
2475981278,0.0145204775,0.04903123,0.00061348465,0.54864925
2476025232,0.010313459,0.05221502,-0.0007599329,0.5483384
2476065246,0.015397475,0.041454274,-0.0020766323,0.54745305
2476109273,0.018301532,0.047719084,-0.0036834818,0.5472056
2476150091,0.01071998,0.048121605,-0.0045605833,0.5469146
2476190843,0.022876889,0.0615062,-0.0061216047,0.54575825
2476230837,0.016221398,0.046440404,-0.0072351866,0.5483961
2476274805,0.009293724,0.037643746,-0.008427242,0.5482566
2476314808,0.006208014,0.02292518,-0.009613637,0.546665
2476354815,0.028551534,0.028856244,-0.011076704,0.54371196
2476398896,0.016602451,0.028913151,-0.012492481,0.5448289
2476438839,0.039705902,0.03812252,-0.013943735,0.5452642
2476482809,0.025994664,0.0405114,-0.015393581,0.545395
2476522840,0.0150951445,0.03207226,-0.016353726,0.546731
2476562812,0.027621392,0.026443005,-0.017612703,0.54474205
2476606869,0.015845653,0.019882083,-0.018824087,0.54500735
2476646885,0.02489819,0.03225583,-0.019692786,0.5443062
2476686827,0.024308573,0.03002188,-0.020701205,0.5448249
2476726841,0.0025661003,0.025759788,-0.021319088,0.54510134
2476770847,-0.002981542,0.013315667,-0.02208539,0.5464049
2476810851,0.013090083,0.03432751,-0.022948151,0.5441551
2476854827,-0.00045262292,0.02339377,-0.023442557,0.546653
2476894827,0.006576864,0.010000246,-0.024083482,0.54738617
2476938853,0.0033570714,0.0068376837,-0.024673829,0.54793346
2476978881,-0.015536021,0.014206667,-0.024986334,0.54664797
2477022835,-0.017392084,0.018049324,-0.025579255,0.5452789
2477062824,0.015521698,0.026164006,-0.02597505,0.5454184
2477106836,0.016374797,0.029996714,-0.026345652,0.5438541
2477146863,0.0044179917,-0.00039599868,-0.025864359,0.5451735
2477190829,-0.0035171467,0.0024723513,-0.02587657,0.54660964
2477230823,0.0021027848,0.007251512,-0.02594304,0.54326135
2477274869,0.0054338295,0.017525975,-0.025576895,0.54339266
2477314879,0.006815863,0.037647728,-0.025269713,0.5440868
2477358841,0.019706042,0.049754,-0.024777709,0.54378873
2477398853,0.029204438,0.028074011,-0.024365691,0.5460893
2477442858,0.042547267,0.030891873,-0.023693928,0.5454549
2477482853,0.018526742,0.023337025,-0.023084294,0.5441226
2477526828,0.03384071,0.03371663,-0.022572545,0.5433278
2477566830,0.043145407,0.061505895,-0.022239473,0.5426462
2477610875,0.04923807,0.07202129,-0.021670574,0.5401659
2477650869,0.052228607,0.058099575,-0.020945638,0.5454889
2477694844,0.050111283,0.055564307,-0.020277116,0.54360044
2477734831,0.040804416,0.049655065,-0.01942996,0.54310495
2477778860,0.034026552,0.04200938,-0.018756723,0.5430839
2477818855,0.045789115,0.057245985,-0.018455276,0.54052776
2477862866,0.042765845,0.04642042,-0.01797814,0.5414788
2477902829,0.038439475,0.0649767,-0.017060574,0.54402125
2477946877,0.046917394,0.05636534,-0.016627567,0.5445447
2477986876,0.037141837,0.044011217,-0.015701195,0.5464734
2478030835,0.0495634,0.028616708,-0.015242423,0.5477771
2478070816,0.03296702,0.03880381,-0.014526676,0.5442815
2478114879,0.020889651,0.01957823,-0.013733569,0.5468639
2478154857,0.04414929,0.05163237,-0.013721674,0.5428125
2478198824,0.038242016,0.039313845,-0.012987838,0.5445543
2478238832,0.039343163,0.03324234,-0.012491462,0.5468231
2478282866,0.026347984,0.03232297,-0.011584932,0.548306
2478322882,0.03487652,0.019217059,-0.011214774,0.54728264
2478366840,0.019940436,0.021213474,-0.010230672,0.5483139
2478406831,0.030827684,0.018597811,-0.010286335,0.54464376
2478450863,0.025305934,0.027682874,-0.009537076,0.5459178
2478490852,0.0373832,0.028294262,-0.009350205,0.5449128
2478534836,0.050854083,0.039077297,-0.009136951,0.5446704
2478574834,0.04508289,0.020164644,-0.008516024,0.5478896
2478618875,0.058924846,0.038438693,-0.008355856,0.54633397
2478658967,0.038130853,0.023204064,-0.007842193,0.547487
2478702853,0.0370507,0.038608335,-0.007486126,0.5465135
2478746858,0.03802744,0.04464204,-0.0075863074,0.5456889
2478790804,0.025914032,0.04227248,-0.0072982856,0.5461313
2478830818,0.036187705,0.052673917,-0.0072778487,0.5435095
2478874842,0.010860814,0.045409236,-0.006819502,0.54605013
2478914856,0.037429307,0.0577396,-0.0068830764,0.5466969
2478958834,0.020195913,0.047255,-0.0061588786,0.546954
2478998823,0.016656104,0.03583961,-0.005512212,0.5485912
2479042858,0.024403598,0.032392018,-0.0050474163,0.5490779
2479082799,0.006807287,0.023883447,-0.0047344435,0.54798657
2479126810,0.03576115,0.02265479,-0.0044206087,0.54727757
2479166820,0.009774141,0.027736023,-0.004041444,0.54704696
2479210805,0.03065435,0.027289484,-0.0037779156,0.5457187
2479250826,0.030953707,0.03218822,-0.0033487463,0.54710895
2479294826,0.05808279,0.025062142,-0.003124342,0.54632455
2479334851,0.038156055,0.018203776,-0.0022264645,0.54855424
2479374838,0.014088462,0.010684325,-0.0015815839,0.54834
2479418842,0.030563507,0.012257217,-0.0011304753,0.5475022
2479462844,0.02805668,0.005588224,-0.00030256383,0.5468547
2479506887,0.012445455,-0.0039143553,0.0005646104,0.5477783
2479546847,0.030613288,0.009885592,0.0012945205,0.5447175
2479586839,0.031723585,0.030402498,0.002246229,0.54567504
2479630841,0.02253999,0.02184593,0.0033563252,0.54660445
2479670825,0.027131898,0.017631983,0.0045297393,0.54700214
2479710882,0.023969354,0.030598389,0.0058310437,0.54705065
2479750870,0.011586382,0.035841852,0.0071115238,0.5476734
2479794836,0.013900546,0.031003809,0.0084969625,0.5457324
2479834827,0.029341199,0.04449991,0.00951047,0.5455766
2479878850,0.028883107,0.04410412,0.011242425,0.5434859
2479918883,0.03761294,0.06327705,0.012519736,0.54389024
2479962864,0.041331906,0.05250453,0.014281357,0.5416584
2480002837,0.036636144,0.06552675,0.015996916,0.5439434
2480044450,0.028272022,0.06439387,0.017742299,0.5448501
2480088457,0.045683064,0.06727951,0.019126965,0.5412718
2480128446,0.01541077,0.05669884,0.020959696,0.54458714
2480172454,0.029307276,0.06166195,0.02210655,0.54250365
2480212425,0.00040527884,0.050318383,0.023521615,0.5444317
2480256452,0.010440942,0.053779945,0.024497649,0.54331905
2480296466,-0.012283318,0.047888603,0.02582477,0.5455882
2480340455,-0.001909966,0.055386346,0.026634684,0.54462177
2480380398,-0.018478813,0.034964424,0.027507275,0.5452756
2480424467,-0.022792846,0.0432521,0.028266137,0.54502124
2480464435,-0.008612876,0.038545966,0.028485885,0.54388285
2480508403,-0.028057799,0.034752123,0.029288597,0.5443453
2480548424,0.010133266,0.043289416,0.028751709,0.5415182
2480592422,-0.016404275,0.03574861,0.029156674,0.5430092
2480632444,0.015877388,0.054429114,0.028650448,0.54013056
2480676399,-0.0008018918,0.04124707,0.028578227,0.541127
2480716399,-0.014731941,0.04570638,0.028633162,0.54325205
2480760452,-0.0048889657,0.0370809,0.027987048,0.54230344
2480800434,-0.028725503,0.02409033,0.027895235,0.5444271
2480844443,-0.037591122,0.018845174,0.027129913,0.54449505
2480884429,-0.037941318,0.021062331,0.026318919,0.5421004
2480924446,-0.06990049,0.011006849,0.025958207,0.54194236
2480964450,-0.056362968,0.015301511,0.024704782,0.5401318
2481008463,-0.06132683,0.015065836,0.023829184,0.5398244
2481048491,-0.08018612,-0.0014521066,0.02304509,0.5443235
2481092431,-0.074983165,0.0034414495,0.021691617,0.54367805
2481132451,-0.083147444,-0.019596912,0.020323075,0.54349446
2481176488,-0.07936508,-0.012749508,0.018822994,0.5430129
2481216494,-0.0762224,-0.016876362,0.017363166,0.5429232
2481260431,-0.07409673,-0.010263493,0.015854834,0.5417031
2481300485,-0.06923075,-0.006457035,0.014369675,0.54055727
2481340443,-0.06317532,-0.021064878,0.012758566,0.54217964
2481384495,-0.06813905,-0.01892625,0.011289062,0.54301417
2481424451,-0.06559887,-0.027286366,0.009691654,0.54137725
2481468436,-0.070932895,-0.0289034,0.008374171,0.5428043
2481508449,-0.0481756,-0.018061545,0.0071415952,0.53977203
2481552455,-0.043703448,-0.022574952,0.0057302923,0.54026693
2481592452,-0.030798458,-0.013064835,0.00456912,0.54043865
2481632437,-0.047644965,-0.016193854,0.0033064233,0.5401588
2481676463,-0.036408965,-0.019152313,0.0018677794,0.5394129
2481720461,-0.037543368,-0.031045288,0.00056529976,0.53955895
2481764448,-0.0602349,-0.034119252,-0.0006755496,0.5401735
2481804487,-0.049172856,-0.033253565,-0.0018713591,0.53913945
2481848448,-0.05932524,-0.037874613,-0.0032095665,0.54014665
2481892446,-0.03884139,-0.028695622,-0.0045215767,0.53822124
2481932508,-0.028539512,-0.026167471,-0.005384041,0.53946364
2481972504,-0.026358858,-0.030402828,-0.0064661214,0.53947353
2482012483,-0.055602662,-0.030613767,-0.0072671464,0.5388689
2482056450,-0.031730507,-0.032132342,-0.008557768,0.5380675
2482100501,-0.044236455,-0.026612872,-0.009377776,0.5397314
2482140490,-0.021728368,-0.025281709,-0.010383793,0.54045
2482180475,-0.012831948,-0.017997816,-0.01129933,0.5390306
2482224450,-0.017598353,-0.026106697,-0.012002945,0.5401634
2482268447,-0.032024696,-0.016033579,-0.012735131,0.5389163
2482308496,-0.029570594,-0.003511527,-0.0132837435,0.5394562
2482352444,-0.030154968,0.006523499,-0.01431662,0.5389871
2482392473,-0.031982932,0.0031563966,-0.015061954,0.54122514
2482432438,-0.005698884,-0.0017362691,-0.016223028,0.5404401
2482476491,-0.027750047,0.009715182,-0.017191455,0.5412904
2482516491,-0.034393262,0.013562017,-0.018044446,0.54070884
2482560468,-0.021928078,0.029100759,-0.01950714,0.5395979
2482600453,-0.02721506,0.0242671,-0.020679034,0.5416925
2482644494,-0.033528727,0.02516735,-0.021800062,0.54187953
2482684465,-0.02180851,0.028109692,-0.02301495,0.5410282
2482728458,-0.033558626,0.032784123,-0.02399836,0.5398546
2482768443,-0.01730664,0.055251755,-0.024728592,0.5396068
2482812499,-0.009767218,0.06409509,-0.025960304,0.5381591
2482852477,-0.025743403,0.052698586,-0.026692439,0.5404551
2482896447,-0.03490692,0.03282761,-0.027949428,0.5418752
2482940490,-0.04011846,0.03671767,-0.028422773,0.54436475
2482980481,-0.041111194,0.0395132,-0.029202424,0.5425607
2483024457,-0.026445583,0.06089794,-0.02976262,0.54205334
2483064398,-0.024970531,0.052522883,-0.030494954,0.54283243
2483108446,-0.0025579752,0.066836715,-0.031146664,0.5412457
2483148471,-0.016666867,0.050150968,-0.03167928,0.541547
2483192412,-0.028747693,0.0483398,-0.03192293,0.54135233
2483232397,-0.013819812,0.06779887,-0.03242327,0.5391192
2483276450,0.0033119982,0.07346775,-0.032802135,0.53787565
2483316440,0.006643835,0.05625969,-0.033217352,0.54041183
2483360409,0.01249503,0.045371287,-0.033627924,0.54000145
2483400408,0.018717555,0.059103116,-0.033898752,0.5374363
2483444436,0.018702284,0.053278416,-0.034101702,0.5369409
2483484447,0.04657855,0.066033736,-0.034375615,0.5362959
2483524411,0.036123935,0.043959685,-0.034006745,0.5396851
2483568454,0.026537122,0.036803357,-0.033878025,0.5393241
2483612485,0.0122558335,0.044829685,-0.033568993,0.54144603
2483652462,0.018139442,0.04974763,-0.033470396,0.5401947
2483696439,0.033233713,0.07480155,-0.03312271,0.5399973
2483736457,0.026383765,0.06913171,-0.03282737,0.5420705
2483780473,0.04322704,0.08073815,-0.032290123,0.54192764
2483820500,0.044594146,0.08601767,-0.031556886,0.5414428
2483860424,0.04834424,0.098553605,-0.03131196,0.5386032
2483901291,0.05624197,0.10706002,-0.030804686,0.5400502
2483942139,0.064565316,0.10363017,-0.029809812,0.54140276
2483982134,0.05850729,0.09436422,-0.028981345,0.5400883
2484026027,0.08857521,0.10703999,-0.028164456,0.5400809
2484066030,0.09098367,0.1241573,-0.027056409,0.5390209
2484110094,0.1105559,0.12341735,-0.025928864,0.5402891
2484150074,0.1370844,0.1360458,-0.025230533,0.5395479
2484194049,0.124142334,0.12050323,-0.023654,0.5393558
2484234030,0.1301781,0.10832977,-0.022602908,0.540798
2484278079,0.10542032,0.103405,-0.021369264,0.5421427
2484318038,0.10268439,0.09243028,-0.020270953,0.542149
2484362077,0.085055195,0.09178459,-0.019066112,0.54292613
2484402098,0.07812765,0.07715907,-0.017943703,0.5423433
2484446031,0.08337377,0.090081215,-0.017156871,0.5398609
2484486033,0.076510444,0.108674236,-0.016657148,0.5408217
2484530047,0.0876764,0.10936276,-0.015861437,0.5380279
2484570074,0.06969899,0.09372494,-0.014800706,0.54092854
2484614040,0.065625064,0.087461196,-0.013999024,0.5381443
2484654043,0.0681452,0.09005572,-0.013434442,0.5379606
2484698041,0.05061913,0.075733684,-0.012579593,0.5389093
2484738029,0.055485547,0.082886755,-0.012232599,0.53605264
2484782036,0.036916815,0.066590406,-0.011559456,0.5378414
2484822039,0.033810858,0.07812933,-0.011473473,0.53606534
2484866065,0.016346019,0.07551037,-0.0110592,0.5377353
2484906037,0.02695496,0.06112021,-0.01053234,0.5402867
2484950019,0.013886535,0.063800745,-0.010072683,0.5406801
2484990015,0.00023583202,0.04134032,-0.009037085,0.5387501
2485034033,-0.00802644,0.04526906,-0.00843485,0.5382264
2485074042,-0.018116772,0.06881279,-0.008201528,0.53630877
2485118014,-0.019368934,0.06979273,-0.007452807,0.53647953
2485158004,-0.006966089,0.067632064,-0.0070176595,0.53587204
2485202122,-0.008527943,0.06129045,-0.006252732,0.5368941
2485242090,-0.012994228,0.053231865,-0.005346584,0.5373966
2485282138,-0.026144601,0.049244374,-0.0046670893,0.53658026
2485322114,-0.014249848,0.050955836,-0.004042158,0.5353709
2485366039,-0.025389466,0.04810972,-0.0028085955,0.53538173
2485406058,-0.012387923,0.05745601,-0.0020728074,0.53710335
2485450078,-0.021139234,0.047114845,-0.0004435564,0.53882223
2485490100,-0.015548088,0.037547413,0.00018960859,0.53729963
2485534054,-0.029059237,0.032405637,0.0015567064,0.5379377
2485574045,-0.040590435,0.03441573,0.0022409083,0.5360968
2485618073,-0.042885102,0.02749826,0.0032311662,0.53691
2485658064,-0.014067646,0.046638943,0.003035138,0.5347957
2485702079,-0.017021999,0.045587666,0.003477719,0.53528535
2485742095,-0.022853041,0.04577155,0.0036337182,0.5359059
2485786057,-0.010294203,0.045130458,0.0038650394,0.5360734
2485826080,-0.027018731,0.036487278,0.004054908,0.5371596
2485870023,-0.019691048,0.040794697,0.0041019605,0.537634
2485910035,-0.037555456,0.021157607,0.0041689556,0.5367137
2485954074,-0.034673188,0.033570427,0.004019185,0.5356914
2485994071,-0.002357071,0.05244544,0.0037258493,0.5343405
2486038057,0.005661072,0.061260503,0.0036173966,0.53190106
2486078051,0.015465783,0.04117326,0.0033392762,0.5349761
2486118033,-0.003321198,0.020476965,0.0034370408,0.5374139
2486162122,0.013216978,0.033073995,0.0030188963,0.53624475
2486206031,0.016580207,0.024501061,0.002479206,0.53415745
2486246059,0.037193187,0.013599496,0.0022081817,0.53451294
2486290030,0.023195121,0.004827438,0.0020610527,0.5344593
2486330041,0.046246838,0.016337156,0.001677814,0.533967
2486374040,0.029684125,0.005969816,0.0016011788,0.53345007
2486414055,0.030481169,0.0055019073,0.0015842852,0.53792393
2486458023,0.030425306,-0.00901154,0.0013509926,0.53770846
2486498034,0.019086108,-0.018650174,0.001195731,0.537813
2486542070,0.019119412,-0.024763577,0.00094923435,0.53866184
2486582092,0.026526066,0.008630228,0.0006163664,0.5352305
2486622105,0.032698188,0.008406293,0.00018918133,0.5378386
2486666024,0.03194972,0.0057860347,-0.00016760768,0.5377798
2486706047,0.022056915,0.00081133435,-0.00042435128,0.5382754
2486750063,0.032460533,-0.00025545666,-0.00093890494,0.53895223
2486790069,0.014861979,0.0018659964,-0.0013646584,0.5369072
2486834027,0.019269302,0.0011335002,-0.0019294857,0.53860503
2486878023,0.011281343,0.020017875,-0.0022082315,0.5378902
2486918096,0.01772389,0.019198634,-0.0025921778,0.5373804
2486962097,0.020854015,0.033909675,-0.0030404306,0.5363023
2487002103,0.010003589,0.01810781,-0.00291248,0.53949106
2487046075,0.006860199,0.017210731,-0.0031415087,0.53900963
2487086068,-0.0136452345,0.0068606227,-0.002992497,0.53862315
2487130032,-0.024719011,-0.0062279603,-0.0029421588,0.53931767
2487170041,0.003386394,0.03201407,-0.0028342216,0.53671753
2487214056,-0.0005108923,0.023431957,-0.0024764345,0.5380406
2487254077,0.0018429745,0.018327648,-0.0019009189,0.5404129
2487298023,0.011350782,0.015186125,-0.001579849,0.5404931
2487338038,-0.0108036045,0.01322763,-0.0012979188,0.54143226
2487382078,0.0067711314,0.011491028,-0.001042011,0.5405826
2487422065,-0.013363448,0.020746028,-0.00072017836,0.5416238
2487465998,0.0006697081,0.02327386,-0.00052476715,0.5415337
2487506024,0.00141014,0.033708595,-0.00029604108,0.5404503
2487550034,-0.00017021586,0.038869992,-8.1501086e-05,0.5405752
2487594003,0.0007735954,0.055105142,-0.00012658877,0.5403753
2487638021,0.004386279,0.04809832,-0.00035340243,0.5394214
2487678027,0.0024909568,0.07213995,-0.00011573281,0.5402978
2487722050,0.006804237,0.058319684,-0.00012529209,0.54128975
2487762040,0.0027224398,0.05458987,6.635819e-05,0.5418015
2487803669,-0.002376167,0.04046432,0.00024487267,0.54234827
2487843642,0.0061788955,0.040743157,0.00049143936,0.5410183
2487883623,0.020545984,0.06393438,0.0007026633,0.53877705
2487927714,0.013959829,0.05485689,0.00097324373,0.5396531
2487975671,0.033367567,0.06234821,0.0016649234,0.5418616
2488015709,0.02038578,0.061324954,0.0020466456,0.54167235
2488055701,0.034015372,0.07639566,0.0021365327,0.54040825
2488099680,0.035304982,0.0965771,0.0023631603,0.5393015
2488139694,0.042171266,0.0676593,0.00251038,0.542641
2488183672,0.041023847,0.07580592,0.0029270863,0.5402415
2488223699,0.03196218,0.05555983,0.0032920653,0.5415369
2488267675,0.024158763,0.05701074,0.0036957832,0.53994787
2488307704,0.024103947,0.060425214,0.0039514937,0.54025584
2488351699,0.017400159,0.048572645,0.0043717735,0.5393275
2488391735,0.02651319,0.057048827,0.0047320346,0.53810215
2488431715,0.041643806,0.07000163,0.0052091717,0.53860664
2488475677,0.038686417,0.061863914,0.0056346618,0.5372651
2488519716,0.015176285,0.046661787,0.0067253243,0.5381421
2488559710,0.031029556,0.036570955,0.0069166897,0.5399722
2488603685,0.015732002,0.030579302,0.007889163,0.5413614
2488643685,0.00074287975,0.020707954,0.008420536,0.54159224
2488687698,-0.0169041,0.010428535,0.009515089,0.5422955
2488727724,-0.00088839885,0.015696485,0.009965871,0.5402825
2488767698,0.012820533,0.023451898,0.0104437005,0.5398918
2488811682,-0.0031486156,0.00803041,0.011143889,0.54084086
2488855736,-0.025244176,0.000592476,0.011742909,0.54213005
2488895705,0.004175914,-0.0018842913,0.01149088,0.54027486
2488939694,-0.0030427359,-0.00068874226,0.0117580965,0.54015297
2488979687,-0.018645894,-0.019768322,0.011753771,0.542584
2489023683,-0.020329703,-0.011977857,0.011596192,0.5425919
2489063681,-0.018183006,-0.0366352,0.010913274,0.54292816
2489107656,-0.010448624,-0.0271124,0.010185594,0.54160935
2489147657,-0.033908747,-0.051062282,0.009741567,0.54227984
2489191683,-0.0026905395,-0.03665896,0.008473439,0.5401072
2489231672,-0.0027217346,-0.021409431,0.0076075494,0.5392103
2489275646,0.008553372,-0.019967917,0.006274908,0.5370021
2489315646,0.00012828578,-0.038312696,0.0050518485,0.5404422
2489359691,-0.0025635296,-0.035226766,0.003770916,0.53991026
2489399701,-0.025135137,-0.050219145,0.0026807338,0.5408859
2489439656,-0.02410873,-0.026200887,0.0015641788,0.5396221
2489483697,-0.02781437,-0.021239681,0.0006318886,0.53963524
2489523684,-0.024766091,-0.030950263,-0.00033111905,0.5409995
2489567711,-0.040564068,-0.046742138,-0.0009813368,0.54172826
2489607695,-0.042997934,-0.051999826,-0.0016782335,0.54066056
2489651678,-0.05529712,-0.06544172,-0.0023323644,0.5401319
2489695713,-0.07415535,-0.080074675,-0.002701093,0.5434581
2489735705,-0.047404982,-0.06922935,-0.0027830908,0.5412569
2489779674,-0.04662946,-0.06774132,-0.0029696636,0.5436181
2489819665,-0.047218326,-0.08091564,-0.002976588,0.54584724
2489863717,-0.042413786,-0.07569401,-0.0028248737,0.5464276
2489903704,-0.051337212,-0.093324095,-0.003195952,0.54608876
2489943662,-0.032397516,-0.07914835,-0.0032841675,0.544272
2489987665,-0.037363973,-0.07532461,-0.0031150838,0.54518515
2490031702,-0.024326108,-0.059496783,-0.0029572118,0.5435516
2490071657,-0.010218631,-0.063552424,-0.002804193,0.54650027
2490115678,0.008867741,-0.049728725,-0.0026023067,0.5434485
2490155689,-0.017498119,-0.06572784,-0.002290586,0.5458028
2490199745,-0.01238891,-0.06941862,-0.0018888377,0.5446582
2490239665,-0.012323894,-0.051664032,-0.0015687421,0.5429535
2490283684,-0.02030081,-0.056881707,-0.0013092484,0.5439802
2490323727,0.012762096,-0.039734308,-0.0010886305,0.5424612
2490367716,0.019011883,-0.04469059,-0.0013535591,0.5430964
2490407678,0.0014170207,-0.03696067,-0.0010103494,0.54501796
2490451695,0.007960264,-0.036768455,-0.0015630779,0.546175
2490491705,0.0037229266,-0.035478942,-0.0021166776,0.5449098
2490535752,0.004222101,-0.039808225,-0.002947556,0.5469035
2490575666,-0.005723905,-0.03886677,-0.003560276,0.54554135
2490619684,-0.016873077,-0.03726286,-0.004196059,0.54644066
2490659699,-0.01204619,-0.025174934,-0.0049666245,0.54515326
2490703674,-0.027120862,-0.016534893,-0.005601606,0.5442727
2490743667,-0.017128272,-0.024134045,-0.0064042234,0.5443042
2490783661,-0.03247853,-0.033892896,-0.006862659,0.54450226
2490827704,-0.049852766,-0.02728782,-0.0072258804,0.54443884
2490867674,-0.05103487,-0.009199191,-0.007596947,0.54269606
2490911691,-0.046075556,0.00014807264,-0.007806123,0.54312176
2490955738,-0.026662689,-0.0003035989,-0.00782007,0.5424004
2490995723,-0.024255402,0.0103147235,-0.0075405855,0.5446497
2491039673,-0.013312303,0.014660712,-0.007322746,0.5446896
2491079675,-0.009583065,0.005435697,-0.0071310317,0.544705
2491123721,-0.011729544,0.016477138,-0.0066292547,0.5434316
2491163740,-0.022341844,0.022093527,-0.0062779235,0.54203
2491207664,-0.032589886,0.03317398,-0.005726608,0.54131854
2491247672,-0.013960696,0.050922927,-0.0051786327,0.5407678
2491291719,-0.020673355,0.057133876,-0.004709451,0.5412943
2491331706,-0.009113151,0.037556056,-0.0038779925,0.54323786
2491375681,-0.015004819,0.037030175,-0.003400682,0.5437399
2491415690,-0.03176692,0.027299384,-0.0024811048,0.5433351
2491459711,-0.02919548,0.019043872,-0.0017379685,0.5433244
2491499717,-0.034024782,0.044397205,-0.0011413606,0.54081106
2491543685,-0.04254855,0.031395312,-0.00019194586,0.5426233
2491583681,-0.01620489,0.049571175,0.00011218726,0.5403386
2491627716,-0.028611798,0.036965217,0.0012220758,0.5416239
2491668461,-0.048144292,0.018794494,0.0023214906,0.5432538
2491713246,-0.07078815,0.029127892,0.0034413435,0.5426962
2491757306,-0.07380907,0.037651975,0.0038987324,0.543217
2491797324,-0.08037685,0.015209082,0.004659123,0.54380107
2491841236,-0.08020281,0.027109645,0.005093116,0.5430741
2491881236,-0.10079911,0.016576197,0.006128405,0.5427372
2491925255,-0.08899911,0.02987006,0.0065199705,0.5413147
2491965307,-0.08724803,0.033322576,0.006694535,0.53929824
2492009236,-0.08215827,0.038332306,0.007117426,0.5381873
2492049236,-0.10836572,0.03532453,0.00741644,0.5398626
2492093261,-0.09673273,0.036437217,0.007557466,0.5389219
2492133290,-0.11462647,0.03378269,0.007670733,0.5398073
2492177253,-0.11565108,0.03352233,0.0077048484,0.5394941
2492217293,-0.112731814,0.027725913,0.0072467998,0.5388803
2492261282,-0.12898827,0.01962698,0.0072632,0.5375614
2492301289,-0.10097044,0.026662102,0.0063212607,0.53553545
2492345239,-0.12203243,0.028083881,0.0063029705,0.53617287
2492385256,-0.12316109,0.016402863,0.00593287,0.5400306
2492429259,-0.1327737,0.02654823,0.0056778174,0.5418465
2492469259,-0.12992226,-0.0012057143,0.0048598265,0.53987783
2492513235,-0.12890215,0.008565254,0.004671372,0.53921324
2492557286,-0.11639542,0.016820695,0.0045078625,0.53816175
2492597311,-0.13941225,0.024469666,0.0046054134,0.5387193
2492637337,-0.106184304,0.027028227,0.004052761,0.5388236
2492681224,-0.121521175,0.024148144,0.004101008,0.54020417
2492721249,-0.09519856,0.0054759267,0.0033812707,0.53961796
2492765263,-0.09991089,-0.0110215545,0.0030350292,0.53961384
2492805303,-0.082490794,-0.007751427,0.0024988088,0.5382452
2492849229,-0.09821306,-0.020766644,0.0021100538,0.5397371
2492889253,-0.06593005,0.00346521,0.0017394646,0.5375848
2492933285,-0.07108544,-0.008117916,0.0010632059,0.54121417
2492973298,-0.07998014,-0.023092572,0.00017076795,0.5413375
2493017253,-0.08119222,-0.029096687,-0.0004488626,0.5420942
2493057297,-0.07044632,-0.03424724,-0.0013008212,0.54119277
2493101264,-0.067617685,-0.025744408,-0.001557886,0.5414157
2493141289,-0.051268008,-0.0017471995,-0.0014776209,0.5401375
2493185247,-0.046577554,0.010118868,-0.0015239094,0.5410324
2493225237,-0.042914703,-0.005018549,-0.0019492913,0.54175264
2493269285,-0.043269042,0.008143138,-0.0018315475,0.53919035
2493309277,-0.05637037,0.005881262,-0.0019550456,0.53904295
2493353213,-0.050785266,0.0057581915,-0.0018716193,0.5391985
2493393218,-0.04428864,0.021312417,-0.0017902246,0.5378575
2493433258,-0.033893857,0.022728711,-0.0020747527,0.53907394
2493477304,-0.0460596,0.009248277,-0.0024107664,0.5409056
2493521243,-0.008674449,0.011155928,-0.0029510376,0.542131
2493561271,-0.015236741,0.00084979,-0.0035549426,0.5416363
2493605251,0.0039689024,0.010324792,-0.003835267,0.542412
2493645231,0.0024344742,0.005008471,-0.004625275,0.5414153
2493685246,0.00058842264,0.018441886,-0.0052697356,0.54110795
2493729232,0.03308473,0.03736177,-0.005883639,0.54084593
2493769270,0.00919401,0.030980997,-0.0060536675,0.54582804
2493813322,0.03718022,0.05599434,-0.006931963,0.544139
2493853282,0.011196686,0.0416434,-0.007168115,0.5453104
2493897299,0.032968584,0.045009755,-0.00789808,0.5425038
2493941299,0.022340603,0.034476373,-0.008479673,0.54268986
2493981245,0.017882034,0.059405226,-0.008416757,0.540245
2494025242,0.0082128905,0.052404884,-0.00900553,0.542521
2494065273,0.02063928,0.07613854,-0.0091858525,0.53855956
2494109250,0.0018858529,0.08111911,-0.009087193,0.53818345
2494149261,0.028222233,0.097587876,-0.00960795,0.53886473
2494193250,0.004030321,0.08860719,-0.009295943,0.5420315
2494233273,0.023883246,0.07547708,-0.009860265,0.53976715
2494277250,0.01893986,0.062067997,-0.009890848,0.5420989
2494317498,0.035133842,0.081279375,-0.010287291,0.54051274
2494361262,0.027237821,0.07978504,-0.010154414,0.5414107
2494401301,0.05526817,0.08968812,-0.010955036,0.54042864
2494445234,0.046017632,0.10445113,-0.01069954,0.53998095
2494485253,0.06334498,0.089595184,-0.011028953,0.54284585
2494529265,0.05914943,0.09969614,-0.010964065,0.54172575
2494569292,0.04692314,0.08223154,-0.010672444,0.54373324
2494613239,0.050344996,0.071848996,-0.010554646,0.5445504
2494653240,0.03565186,0.06823586,-0.009980275,0.54308194
2494697319,0.045706652,0.060390018,-0.009863969,0.5421641
2494737358,0.053747315,0.08050884,-0.00955924,0.5410048
2494781270,0.040774226,0.078007415,-0.0091193225,0.54217565
2494821253,0.04331127,0.07468301,-0.008754194,0.5426387
2494865278,0.03315636,0.08340634,-0.008348479,0.54247135
2494905320,0.032549404,0.076593116,-0.007851947,0.5431321
2494949255,0.038468506,0.072272375,-0.0073308786,0.54332256
2494989256,-0.0031180787,0.058573388,-0.006554166,0.53560984
2495033279,0.0027631614,0.061169904,-0.0061092507,0.5249237
2495073292,0.008036348,0.07783666,-0.0061053825,0.5134495
2495117271,0.0046796263,0.07389839,-0.005715549,0.5079021
2495157313,0.006737254,0.07131634,-0.0054161167,0.504211
2495201271,0.0074533504,0.06791912,-0.0049655116,0.50145817
2495241276,-0.0021239948,0.0640088,-0.004701399,0.49720573
2495285240,-0.010575002,0.0720286,-0.0045460216,0.49122807
2495325249,0.013394205,0.08385355,-0.0045227283,0.4902369
2495369296,0.020642102,0.06877332,-0.0042968453,0.49112606
2495409284,-0.010446731,0.05455057,-0.0035756244,0.4898383
2495453240,0.73618466,0.87266463,-0.07080448,0.4822811
2495493262,0.7062879,0.87266463,-0.06875445,0.49540487
2495533249,0.6593734,0.87266463,-0.06783241,0.507526
2495578909,0.57679784,0.87266463,-0.06691584,0.52414715
2495622891,0.48182642,0.87266463,-0.06588751,0.53774035
2495666865,0.39963454,0.76622844,-0.06493489,0.5420247
2495706905,0.29984546,0.6575986,-0.062325455,0.54977894
2495750844,0.22053023,0.5414615,-0.058805734,0.54897934
2495790894,0.078258745,0.21180199,0.7853982,0.5286129
2495834864,-0.023575963,0.09959296,0.7853982,0.5239065
2495874910,-0.120861545,-0.008726855,0.7853982,0.5161385
2495918844,-0.22304228,-0.06640122,0.7853982,0.5111171
2495959070,-0.22181693,-0.10980806,0.7853982,0.50576794
2496002867,-0.25851473,-0.15107182,0.7853982,0.50462794
2496042919,-0.2806698,-0.19135982,0.7853982,0.5052556
2496082915,-0.29354292,-0.19260669,0.7853982,0.50794923
2496130851,-0.27783108,-0.20874052,0.7853982,0.51213026
2496178828,-0.25342375,-0.20112948,0.7853982,0.5143094
2496222881,-0.25422978,-0.21892315,0.7853982,0.5193755
2496266827,-0.24068068,-0.18294887,0.7853982,0.52254415
2496306860,-0.21832849,-0.19872777,0.7853982,0.5224967
2496350866,-0.2363294,-0.22025385,0.7853982,0.5225143
2496394876,-0.23981145,-0.231327,0.7853982,0.52167296
2496434833,-0.20504344,-0.23342466,0.7853982,0.52302104
2496478898,-0.18979645,-0.25553167,0.7853982,0.5223037
2496522863,-0.19887261,-0.24130107,0.7853982,0.5220544
2496566906,-0.11965084,-0.2198112,0.7853982,0.52079207
2496610866,-0.110404275,-0.20399283,0.7853982,0.52210015
2496650907,-0.07464275,-0.19152586,0.7853982,0.5204675
2496690890,-0.06312881,-0.16239822,0.7853982,0.51774144
2496734937,-0.042734884,-0.13528755,0.7853982,0.5195466
2496778816,0.041888565,-0.11585429,0.7629779,0.5151879
2496826837,0.017086644,-0.12831429,0.6905779,0.51967007
2496866827,0.06009265,-0.1022968,0.62825185,0.5174883
2496906837,0.123968974,-0.061478212,0.5740836,0.50968224
2496946889,0.13126782,-0.05253505,0.524204,0.51299506
2496987096,0.17566553,-0.039281957,0.47503626,0.51239306
2497026880,0.19802876,-0.016131232,0.42836365,0.51310134
2497070907,0.23597148,-0.028701685,0.38043362,0.5117523
2497110924,0.30038494,-0.040079705,0.3392009,0.50968677
2497154882,0.32641318,-0.07573226,0.2949487,0.5076227
2497194873,0.32558164,-0.16304566,0.25304857,0.50834835
2497238913,0.3512364,-0.19555457,0.21451733,0.50985324
2497282877,0.37747675,-0.24645793,0.17730226,0.5093887
2497322888,0.4164256,-0.28718635,0.14636117,0.5093837
2497362905,0.36734515,-0.2868962,0.12030804,0.5138492
2497410885,0.39264193,-0.3141893,0.09109807,0.51443046
2497450875,0.41663286,-0.31049317,0.0693708,0.5127871
2497494882,0.42900348,-0.313891,0.045799963,0.51030886
2497538827,0.38575763,-0.3298766,0.02543618,0.517945
2497578845,0.3496185,-0.35364187,0.009364732,0.52509934
2497618869,0.3838783,-0.31848434,-0.0030598717,0.52022636
2497658890,0.37109482,-0.34772134,-0.015148415,0.5244343
2497698874,0.34610042,-0.32233736,-0.023441115,0.52751493
2497742834,0.34703553,-0.30675003,-0.03152068,0.5277796
2497782843,0.31969538,-0.29830107,-0.037967756,0.5318183
2497826853,0.31784335,-0.2094999,-0.040348426,0.52560866
2497866872,0.30559027,-0.13868588,-0.045379512,0.52611077
2497910854,0.28876767,-0.08588947,-0.047146402,0.52868086
2497950855,0.2667403,-0.057545632,-0.048103027,0.53145045
2497994878,0.25902703,0.012754806,-0.04756731,0.52585673
2498034887,0.26033276,0.058342874,-0.046288677,0.52431494
2498078836,0.22007652,0.0565619,-0.043947216,0.5287941
2498122912,0.21912682,0.073139966,-0.042696517,0.53001344
2498166834,0.20853189,0.07264328,-0.040083367,0.5273166
2498206873,0.16027325,0.06012783,-0.036626637,0.5293325
2498250839,0.15970027,0.04485176,-0.0341958,0.5278556
2498290909,0.14719012,0.059728894,-0.030847311,0.5289155
2498330905,0.14400977,0.03811843,-0.027940936,0.52981126
2498370905,0.13203563,0.021964194,-0.025132904,0.530572
2498414873,0.12424993,0.013659123,-0.021918856,0.53009856
2498454873,0.09992048,-0.006931791,-0.01903053,0.5330021
2498498916,0.09488067,-0.016573299,-0.017554425,0.5336374
2498538902,0.070341274,-0.063156605,-0.0155942105,0.53849155
2498578879,0.09068415,-0.02726806,-0.013374815,0.53345484
2498618883,0.056656923,-0.059748452,-0.011327026,0.53495824
2498662861,0.0545853,-0.0842264,-0.009773921,0.5354014
2498706909,0.054749787,-0.09946737,-0.00816856,0.5358129
2498746887,0.017548092,-0.10641748,-0.0064879875,0.5358795
2498786864,0.037365466,-0.09533301,-0.0055106636,0.53341496
2498830849,0.022833273,-0.10929343,-0.004964627,0.5348412
2498870823,0.024116099,-0.12044548,-0.004486216,0.53407824
2498914909,0.01538468,-0.14654213,-0.0041046934,0.53397715
2498954828,0.036887042,-0.1552943,-0.0032186715,0.5369898
2499002903,0.01681529,-0.14113142,-0.0022535902,0.5335229
2499042918,0.010420456,-0.14740731,-0.0020691326,0.5350345
2499086854,0.004812987,-0.1643228,-0.0017365627,0.5362205
2499126875,-0.0011268826,-0.17722926,-0.0016089883,0.53598154
2499170895,-0.0035431825,-0.17775002,-0.00088687195,0.5369216
2499210903,-0.005279425,-0.18155676,-0.00014108255,0.5376495
2499258878,0.0002375215,-0.17920987,0.00022987887,0.5369356
2499298892,0.019603662,-0.15008509,0.0009696717,0.53441375
2499342833,0.0134872,-0.16606522,0.0011024163,0.535733
2499382884,0.004437603,-0.18237415,0.0015572609,0.5388684
2499422857,-0.003644633,-0.19112618,0.0017105127,0.5390807
2499463623,0.006264764,-0.17411725,0.0021135914,0.53598225
2499508441,0.0086025605,-0.18214558,0.002485342,0.53710157
2499548454,0.00073924405,-0.18557392,0.002894114,0.5386127
2499588459,-0.02747294,-0.17455949,0.0033932219,0.539408
2499636446,0.0037405766,-0.1851605,0.004117572,0.53682435
2499676448,0.006306448,-0.15105554,0.0044414615,0.53479326
2499720459,0.040004,-0.1441577,0.0048993854,0.5318653
2499760436,0.006684774,-0.16028202,0.005461886,0.53761286
2499804477,0.00833929,-0.15294525,0.0059123943,0.5343154
2499844463,0.0041778814,-0.14487624,0.0062417784,0.5339036
2499884472,0.0121050365,-0.12839131,0.0067403414,0.5319539
2499924493,-0.022081848,-0.1733171,0.006654352,0.5382398
2499968447,-0.002321318,-0.15570436,0.007178895,0.53521997
2500008436,-0.0093680415,-0.15796763,0.007564595,0.5338957
2500052474,0.0009045719,-0.16075674,0.007784622,0.5320336
2500092464,0.001087983,-0.15244356,0.008253421,0.53147566
2500136454,0.004713869,-0.16196615,0.008550523,0.5320015
2500176440,-0.039756555,-0.15991789,0.009315596,0.53359544
2500220456,-0.0029050426,-0.1255201,0.010011109,0.53034925
2500260495,-0.025154494,-0.15618388,0.009760124,0.5353265
2500304430,-0.022193229,-0.15014426,0.010558971,0.5364717
2500348455,-0.022376662,-0.15869589,0.010845577,0.53500915
2500388482,-0.023141364,-0.14679213,0.011105484,0.5337943
2500428431,-0.017986491,-0.1274637,0.0113087185,0.5337704
2500472416,-0.01613166,-0.14182687,0.011299495,0.5320587
2500512456,-0.0031076772,-0.15934737,0.011530332,0.5344468
2500556469,-0.023110248,-0.1579167,0.011776227,0.536476
2500596429,2.696147e-05,-0.13386086,0.01157591,0.53087854
2500640420,0.008535269,-0.12237569,0.0116712935,0.53090465
2500684457,-0.019866597,-0.13973622,0.01152072,0.5370369
2500724422,-0.018461557,-0.13599767,0.011778047,0.53282034
2500764424,-0.0041702744,-0.11267792,0.011827424,0.5317663
2500808445,0.0018115543,-0.12306165,0.011471551,0.53111917
2500848480,-0.018028205,-0.12063298,0.011460891,0.534691
2500892445,-0.008878587,-0.11944964,0.011610236,0.535394
2500932477,-0.016740078,-0.12689948,0.011028016,0.53620046
2500976469,-0.03532142,-0.11238593,0.01106005,0.53748226
2501020422,0.0001442802,-0.10624114,0.010858973,0.53716284
2501060443,-0.02480933,-0.105674595,0.010574402,0.5383487
2501100428,0.0013602184,-0.10359355,0.009744792,0.5341853
2501144463,-0.03254811,-0.10731735,0.009537195,0.5351711
2501184543,0.014482983,-0.06824532,0.008645736,0.5304846
2501228428,-0.00030736832,-0.07694292,0.0086418325,0.53224
2501268445,-0.036515575,-0.08541241,0.008495522,0.5349229
2501312460,-0.027833264,-0.07767126,0.007834626,0.5344541
2501352483,-0.026693538,-0.080144756,0.007578292,0.53449225
2501396439,-0.011266657,-0.059731286,0.0069440366,0.53246206
2501436437,-0.026729262,-0.07071333,0.0066203317,0.53632796
2501480475,-0.011099007,-0.07399696,0.006472753,0.5345546
2501520459,-0.0051868707,-0.076349646,0.006032757,0.5322045
2501564447,-0.003427026,-0.07616932,0.0058883717,0.53237313
2501604423,-0.0057532117,-0.08541423,0.005472607,0.534291
2501652424,-0.021202903,-0.075374946,0.005008152,0.5353416
2501692474,-0.012914938,-0.07843955,0.0048967544,0.5349389
2501740419,0.015444087,-0.079835065,0.0047864574,0.5337428
2501780440,0.0068280417,-0.07624803,0.0041479594,0.53348005
2501824443,-0.0061601033,-0.083112255,0.004385289,0.53294826
2501868451,-0.014417856,-0.086294465,0.004164034,0.5327588
2501908406,0.019659195,-0.055933245,0.0034098863,0.53011954
2501948410,0.027560469,-0.057910107,0.00300417,0.53158176
2501996484,0.0067998,-0.08163707,0.0025461267,0.53501993
2502036445,-0.002374195,-0.0842481,0.0018142802,0.53148663
2502076391,0.0025665225,-0.07772393,0.0014540014,0.5310261
2502120492,0.005652414,-0.07862963,0.00060383056,0.5307315
2502160456,-0.013416754,-0.11185366,0.0007108707,0.5300287
2502204439,-0.012250315,-0.10461735,0.0009892104,0.53060305
2502244396,0.010760897,-0.08169541,7.095863e-05,0.5274975
2502288481,0.010766313,-0.10411841,6.599096e-05,0.5290286
2502328471,-0.022784173,-0.10423059,-0.00040548923,0.5250377
2502368479,-5.570504e-05,-0.08101934,-0.0011114738,0.5237953
2502408481,-0.0039449274,-0.089768335,-0.0013997152,0.5236939
2502452510,-0.011255288,-0.094632074,-0.0018117297,0.5248722
2502496506,-6.150556e-05,-0.08739678,-0.0024897722,0.52514553
2502540469,0.015067761,-0.06061344,-0.003118709,0.5245718
2502580451,-0.001783487,-0.084655926,-0.003248767,0.52754503
2502620433,-0.004866394,-0.092423834,-0.0036081509,0.52688706
2502664495,0.010063013,-0.07288864,-0.004106499,0.5257841
2502704487,0.019636378,-0.07439158,-0.004241684,0.52525526
2502744477,-0.0075679924,-0.076976486,-0.004374184,0.52680624
2502788419,0.0031848892,-0.06302386,-0.0046254676,0.52697283
2502832483,0.020368416,-0.03637067,-0.0049431147,0.52507323
2502876462,0.04520692,-0.02177591,-0.0053938585,0.5237491
2502916457,0.010901751,-0.036938224,-0.005149347,0.5285211
2502956437,0.011284553,-0.036751017,-0.0053127278,0.52705514
2503000512,0.0333293,-0.0141496565,-0.0060508964,0.52569836
2503044456,0.019787822,-0.019404445,-0.0055442834,0.5284994
2503088497,0.0058852294,-0.03386748,-0.0053219516,0.52991295
2503128522,0.008614835,-0.037323833,-0.005253026,0.5297636
2503168491,0.014505936,-0.019999783,-0.0056281285,0.5287326
2503212498,0.011667773,-0.014674488,-0.0057650344,0.5292507
2503252452,-0.010865699,-0.056005552,-0.004988631,0.5343334
2503296514,-0.004812479,-0.04604775,-0.004932236,0.53121436
2503338053,-0.0036021867,-0.04043375,-0.0048301914,0.53103703
2503378067,0.003978424,-0.04899731,-0.0046481886,0.53166443
2503422062,0.0090860445,-0.06579129,-0.004013893,0.53442967
2503466047,0.010180992,-0.053570632,-0.0033166625,0.53237617
2503506075,0.009331135,-0.047657408,-0.0032920223,0.5296263
2503550032,0.022016954,-0.030325554,-0.003182776,0.52727306
2503593996,0.028323416,-0.040885847,-0.0025072207,0.52759445
2503634036,0.027153453,-0.02622199,-0.0020890082,0.52566093
2503677999,0.012694628,-0.043158,-0.001443642,0.52642673
2503718018,0.01950901,-0.029528657,-0.0014721802,0.52651227
2503758015,0.020206653,-0.034366604,-0.001166818,0.52833134
2503798002,-0.0008929178,-0.052399933,-0.00040770537,0.53087044
2503838039,0.013565173,-0.040970515,-0.00031543573,0.5295733
2503882048,0.0050819675,-0.04288331,-0.0001916018,0.532771
2503922159,-0.0077448245,-0.037081514,0.00017897243,0.5315418
2503966037,0.009507687,-0.038906213,0.00019885816,0.5302564
2504006097,-0.002241564,-0.017149663,0.0002039449,0.5309009
2504050072,0.02328881,-0.011284283,-0.0003526399,0.5279599
2504094042,0.0011158513,-0.04009584,0.00073711853,0.5304297
2504138074,-0.008116594,-0.0575195,0.00066639605,0.53139997
2504178071,-0.031626057,-0.050578684,0.0010070754,0.5308914
2504222066,-0.022436703,-0.041900564,0.00088523346,0.52969915
2504262060,0.0005033616,-0.03579702,0.0010458388,0.5299138
2504306112,-0.0021989315,-0.047478102,0.0016226514,0.53196955
2504346079,-0.01176065,-0.037031326,0.0020301535,0.5274115
2504390055,-0.0047692806,-0.040011667,0.0025470995,0.5275113
2504434049,0.010288442,-0.019803934,0.0029497987,0.52759504
2504474072,-0.009441047,-0.029647904,0.0042436933,0.53171754
2504518028,-0.010889746,-0.019324442,0.0046907854,0.53188276
2504558042,-0.0004329666,-0.034898803,0.0053167264,0.53007036
2504598039,0.04586242,0.0047468944,0.004732366,0.52672255
2504642112,0.032882463,0.0032920563,0.0056959884,0.525914
2504686042,0.026325043,-0.014215229,0.0064263884,0.525053
2504726037,0.0049248827,-0.0065226206,0.0071096136,0.5270625
2504770062,0.0048843003,-0.01080857,0.0075263507,0.5263251
2504810079,0.04117605,0.018225621,0.0072384086,0.5235443
2504854052,0.040006112,0.017525727,0.007379691,0.5237683
2504894044,0.015684893,-0.0006482701,0.008356683,0.52881473
2504938061,0.034901887,0.004769104,0.008045415,0.5265411
2504978083,0.0140574975,-0.005604826,0.00850652,0.52998495
2505022055,0.01691426,0.0126008075,0.008201025,0.5295554
2505062066,0.030308561,0.0036166664,0.008179649,0.53014356
2505106064,0.03969114,-0.009102438,0.008108004,0.52970684
2505146079,-0.0021329534,0.0041405945,0.008109913,0.5300924
2505190042,0.00964482,0.0078739375,0.007783215,0.5285548
2505230033,0.0082209855,0.020702291,0.0074901693,0.53283507
2505274088,-0.00010900486,0.0074828295,0.0073340577,0.5344645
2505314084,0.014020636,0.0070696343,0.006948397,0.5309639
2505358026,-0.0012371739,0.001318285,0.006825215,0.5343965
2505398032,0.021749033,0.022294886,0.006279667,0.53093743
2505438052,0.0067434832,-0.021653924,0.0066096154,0.5370715
2505482055,0.0092666345,-0.014819901,0.006078952,0.5367623
2505522061,0.015177111,-0.015367213,0.0056853867,0.53398144
2505562060,-0.0021826192,-0.004239056,0.005299305,0.53414214
2505606069,0.007608422,-0.014302433,0.005124979,0.5343132
2505650030,0.010559168,-0.028186377,0.0049076397,0.53472215
2505694048,0.017307254,-0.03079288,0.004755161,0.53468704
2505734080,-0.025710514,-0.032309655,0.0051936405,0.53584856
2505778022,0.0017321736,-0.015567269,0.004615587,0.53254557
2505818030,-0.00066063675,-0.007990951,0.0045850202,0.5353712
2505862073,0.0071376804,-0.023381863,0.004777622,0.5356658
2505902116,0.010644721,-0.026367797,0.0051844423,0.5340324
2505942126,0.017992439,-0.029693626,0.0052783224,0.5339308
2505982157,0.012270253,-0.041295275,0.0054209074,0.53502125
2506026031,0.021340113,-0.04544345,0.005720849,0.53560907
2506070052,0.013940436,-0.050711278,0.0058078812,0.53682846
2506110071,0.0065078977,-0.029446641,0.00570888,0.5337998
2506154037,0.0012506268,-0.026286194,0.005678442,0.53244877
2506198038,0.01782345,-0.03069691,0.0056083347,0.53170055
2506238053,-0.022476178,-0.031795084,0.006381375,0.5359097
2506282040,-0.012726866,-0.027601916,0.006076468,0.5353574
2506322043,-0.032178927,-0.028060017,0.0062110373,0.5339161
2506362033,-0.00032197702,0.008166803,0.0056636557,0.5300469
2506406057,0.0020496547,0.0040755575,0.0054635843,0.53149974
2506446047,-0.018517356,-0.016833534,0.0056788167,0.5353486
2506490013,-0.02420458,-0.0055467742,0.0053180335,0.5353904
2506534043,-0.0068083126,0.006590477,0.0048033716,0.5339616
2506574058,-0.005774536,-0.0039870227,0.0046179974,0.53480935
2506614025,-0.011819287,0.0016870907,0.0037127892,0.5335143
2506658005,-0.029271435,-0.007522209,0.0035485127,0.5364658
2506702114,-0.010496277,-0.009579488,0.0028138282,0.5351448
2506742121,-0.013271447,6.103967e-05,0.0023150577,0.53181434
2506782112,-0.031758282,0.009459255,0.0017786555,0.53336275
2506826032,-0.032233328,0.0066706855,0.001281663,0.53408766
2506870052,-0.0075658793,0.005492511,0.00014965552,0.53107625
2506910095,-0.031818233,0.010859382,-0.000247752,0.5317375
2506950072,-0.018908866,0.03728291,-0.0013441022,0.5285523
2506990069,-0.036401413,-0.0055844467,-0.0012830119,0.53372824
2507034032,-0.024366809,0.008772573,-0.002136643,0.5289533
2507078071,-0.029355029,0.0044824416,-0.0027124418,0.52816045
2507122071,-0.032444753,-0.0039081452,-0.0033856665,0.5273439
2507162070,-0.021926062,0.012125654,-0.0039762906,0.52761763
2507207729,-0.015720429,0.018650379,-0.0038340376,0.5238512
2507247697,-0.023718284,-0.0020855526,-0.0040344996,0.5266928
2507291704,-0.037194595,0.0008593307,-0.0039518117,0.52471995
2507335708,-0.05163715,-0.0017394819,-0.003866403,0.5270224
2507375713,-0.043777272,0.0008146811,-0.003981158,0.5286434
2507419670,-0.052088886,-0.0075292233,-0.004327622,0.5291681
2507459666,-0.047995258,-0.016578365,-0.004430733,0.5275888
2507503698,-0.054630324,-0.020195179,-0.0044517014,0.52973104
2507543720,-0.048306223,0.010262219,-0.0044256365,0.52643234
2507587681,-0.04034499,-0.007995668,-0.0046685687,0.5280483
2507627691,-0.059481665,-0.006254145,-0.0041557653,0.52848864
2507671695,-0.05108408,-0.014904241,-0.004045192,0.52738863
2507711740,-0.047651123,-0.008155067,-0.004107173,0.5289362
2507751689,-0.048026185,-0.019039031,-0.004073782,0.5283465
2507795649,-0.057675026,-0.025761658,-0.0035778265,0.52901065
2507835655,-0.044909462,-0.030323155,-0.0033294586,0.5297928
2507879696,-0.05331309,-0.04157498,-0.003001517,0.531059
2507919682,-0.039883908,-0.04504163,-0.0025683066,0.5291094
2507959659,-0.04797484,-0.027331375,-0.0020328036,0.5279418
2507999638,-0.044388577,-0.048416078,-0.0016828112,0.53135026
2508043601,-0.041520774,-0.045183565,-0.0015837958,0.53061455
2508083597,-0.049064465,-0.044626247,-0.0009861662,0.52920187
2508127657,-0.03385625,-0.02140049,-0.0005175102,0.52569926
2508171634,-0.041117854,-0.020706143,-2.3243645e-05,0.52532375
2508215690,-0.04141542,-0.033949684,0.00021186381,0.5284621
2508259669,-0.038394716,-0.04280117,0.00069832086,0.5303174
2508299677,-0.05135951,-0.05407033,0.0009166491,0.5312405
2508339661,-0.03562337,-0.03976189,0.0010651731,0.52909017
2508379635,-0.05239002,-0.04971183,0.0014556219,0.5309622
2508419626,-0.04597158,-0.045734044,0.0017921559,0.5301029
2508463675,-0.046948295,-0.032597207,0.0024937969,0.5309763
2508503646,-0.041920744,-0.039286964,0.0030130933,0.5310073
2508547663,-0.046922836,-0.03401625,0.003811384,0.53162295
2508587636,-0.060046658,-0.0581766,0.0042308937,0.53200364
2508631638,-0.052547216,-0.045249242,0.0048239767,0.5317781
2508675670,-0.050329085,-0.019420339,0.005534555,0.53153384
2508719728,-0.028815638,0.0021063308,0.005981351,0.52829707
2508763687,-0.026205245,-0.004192664,0.006666348,0.5288027
2508803685,-0.033395074,-0.035871178,0.0073382496,0.53262085
2508843648,-0.037734114,-0.019317286,0.007839573,0.52901244
2508887717,-0.01765813,0.0027135047,0.008446447,0.5278937
2508927710,-0.03799733,-0.024783017,0.009216544,0.5351094
2508967652,-0.0344571,-0.027337762,0.009618536,0.53168267
2509007654,-0.024141202,-0.014196724,0.009940365,0.5319874
2509051667,-0.019771293,-0.020945754,0.010517914,0.53242093
2509091660,-0.015612081,-0.044017784,0.011065006,0.5334198
2509135647,-0.021964822,-0.05681459,0.011516086,0.5341869
2509175639,-0.03265644,-0.02778067,0.012293056,0.5318482
2509219667,-0.018811202,-0.028791765,0.012549575,0.53115696
2509259684,-0.02377982,-0.05469329,0.013255426,0.5357667
2509303645,-0.022364233,-0.05474107,0.013520332,0.53672415
2509347663,-0.01747111,-0.048315477,0.014094315,0.5349252
2509391680,-0.040178858,-0.042873397,0.014937113,0.5359725
2509435691,-0.048035003,-0.044026695,0.01548666,0.5347451
2509475731,-0.004050125,-0.01808094,0.015182728,0.53017944
2509515693,-0.030362476,-0.06595721,0.015917346,0.536628
2509559686,-0.022157354,-0.057451744,0.016266732,0.5356588
2509603710,-0.02580146,-0.04393765,0.016544437,0.5361039
2509643685,-0.012615123,-0.05021088,0.016246876,0.53244567
2509687692,-0.008090171,-0.038440157,0.016472947,0.53194237
2509727700,-0.01945436,-0.034839313,0.01639964,0.53345335
2509771672,-0.0030647963,-0.037070207,0.01602494,0.5305785
2509811727,-0.017818835,-0.03778793,0.015968453,0.5309641
2509851699,-0.00973141,-0.0182427,0.01564631,0.5280996
2509895690,-0.0018379168,-0.024869118,0.015195083,0.5271112
2509939691,-0.0061358255,-0.030869033,0.0151847815,0.5297063
2509979711,-0.009774074,-0.053708445,0.014977293,0.5297583
2510019712,-0.0039807134,-0.015032664,0.0144409435,0.5242136
2510063694,0.005408592,-0.008998995,0.013828738,0.5244891
2510103671,0.0066056494,-0.026299298,0.013699139,0.52975523
2510147756,-0.00017846143,-0.024909016,0.013164491,0.5301719
2510191662,-0.0011757641,-0.020191584,0.012607025,0.5304372
2510231680,0.007735279,0.00081726455,0.012182299,0.52703345
2510275717,0.025225228,0.0064822007,0.01141009,0.52595174
2510315715,0.0011864136,-0.042989008,0.011708698,0.5337268
2510355803,0.018253667,-0.016654745,0.010932123,0.5264515
2510399689,0.010199982,-0.020662202,0.010504438,0.5271539
2510439666,0.019839924,-0.015560967,0.00995287,0.5299952
2510483685,-0.00524607,-0.029130096,0.009865013,0.5334462
2510527632,-0.0031274338,-0.019530818,0.008926974,0.5327615
2510567652,-0.002803058,-0.020093089,0.00823262,0.53041923
2510611660,0.008810207,-0.0132147465,0.007398091,0.5296785
2510651684,-0.0014625549,-0.023478832,0.0072046677,0.5326391
2510691679,0.020823322,-0.020234335,0.006014071,0.52867997
2510735664,-0.010622095,-0.03861048,0.0058261007,0.5305741
2510775639,0.04848711,0.015849583,0.0041635064,0.5251182
2510819694,0.011275597,-0.0043688808,0.0044740597,0.52953935
2510863625,0.011833171,-0.018291233,0.0037590694,0.53005767
2510903645,-0.0069637857,-0.01683054,0.0035699299,0.52913815
2510947724,-0.0063243723,-0.011483108,0.0031271304,0.5302869
2510987709,0.02006943,0.0125349695,0.002248843,0.5271413
2511031656,0.0069564744,0.0010640512,0.0018887605,0.5296792
2511073238,0.011170969,0.0036887592,0.0010237981,0.5267522
