timestamp,lat,lon,alt,delta_alt,vel_n,vel_e,vel_d,yaw,eph,epv,terrain_alt,lat_lon_reset_counter,alt_reset_counter,terrain_alt_valid,dead_reckoning
2467876178,37.102512979179394,-76.38844449309416,3.3694942,-0.0,-0.014530324,0.09839177,-0.008056877,-0.10158868,1.6475209,1.8799181,0.0,2,0,0,0
2468080137,37.10251300535704,-76.38844425677377,3.3643157,-0.0,-0.0032779628,0.10237762,-0.008315773,-0.10185647,1.6477016,1.8798065,0.0,2,0,0,0
2468284464,37.10251302968202,-76.38844403490619,3.367067,-0.0,0.017931823,0.13972057,-0.011077413,-0.10117452,1.6476965,1.8798313,0.0,2,0,0,0
2468484373,37.10251306894727,-76.38844383273934,3.3639386,-0.0,0.015796024,0.096034914,-0.0067457445,-0.1015158,1.647692,1.8798552,0.0,2,0,0,0
2468688059,37.102513123444744,-76.38844360975375,3.3606899,-0.0,0.00052889856,0.10236964,-0.008255426,-0.102955446,1.6478301,1.8799487,0.0,2,0,0,0
2468888346,37.10251318701633,-76.3884433763588,3.3593748,-0.0,0.023739938,0.075664155,-0.012895249,-0.10036779,1.6477646,1.8797662,0.0,2,0,0,0
2469092532,37.10251358369793,-76.38844379257033,3.4176834,-0.0,0.24812642,-0.3317615,-0.6015103,-0.085507385,1.6477675,1.8797958,0.0,2,0,0,0
2469292577,37.102514082986204,-76.38844468400539,3.6031225,-0.0,0.28683156,-0.5427356,-0.8620275,-0.08275187,1.6477902,1.8798229,0.0,2,0,0,0
2469492463,37.10251458635434,-76.38844590450013,3.8670108,-0.0,0.23155959,-0.61901873,-0.93143886,-0.080187105,1.6478285,1.8798485,0.0,2,0,0,0
2469696419,37.102514946270716,-76.38844706709581,4.1555424,-0.0,0.10419495,-0.51774895,-0.94808364,-0.07553217,1.6480108,1.8797435,0.0,2,0,0,0
2469896391,37.1025150814485,-76.38844790062912,4.3865004,-0.0,-0.05067423,-0.33245212,-0.91919684,-0.07633426,1.6480393,1.879776,0.0,2,0,0,0
2470100394,37.10251497826827,-76.3884483740435,4.5940275,-0.0,-0.1878131,-0.14262514,-0.90204275,-0.079025,1.6480578,1.8798126,0.0,2,0,0,0
2470304364,37.10251467228878,-76.38844846712271,4.770979,-0.0,-0.2750327,0.008369324,-0.8917779,-0.079735234,1.6482155,1.8797169,0.0,2,0,0,0
2470504453,37.102514207198354,-76.38844829024201,4.9291954,-0.0,-0.3225467,0.12935764,-0.8762559,-0.079336576,1.6482193,1.8797532,0.0,2,0,0,0
2470708183,37.102513635621904,-76.38844798345674,5.080597,-0.0,-0.31912422,0.20056479,-0.86504114,-0.07850243,1.6482197,1.8797867,0.0,2,0,0,0
2470912475,37.10251307653331,-76.3884476348617,5.228298,-0.0,-0.28192943,0.22458534,-0.84859,-0.07908721,1.6483643,1.8796918,0.0,2,0,0,0
2471116455,37.10251258154593,-76.38844732205537,5.3773813,-0.0,-0.21846445,0.20432578,-0.86566126,-0.08108336,1.6483598,1.8797325,0.0,2,0,0,0
2471316070,37.102512196029565,-76.38844709958049,5.534957,-0.0,-0.17019287,0.18142757,-0.84893554,-0.08423485,1.6483532,1.8797688,0.0,2,0,0,0
2471520379,37.10251190749665,-76.38844696803912,5.70018,-0.0,-0.10010292,0.14118834,-0.8642191,-0.08771892,1.6484927,1.8796778,0.0,2,0,0,0
2471724142,37.10251174704611,-76.38844690738692,5.862754,-0.0,-0.050159752,0.115356036,-0.8685317,-0.092008576,1.6484836,1.8797146,0.0,2,0,0,0
2471924475,37.10251171879497,-76.3884468855353,6.027481,-0.0,0.00750654,0.08243259,-0.86879516,-0.09578039,1.6484952,1.8797543,0.0,2,0,0,0
2472124186,37.102511737286115,-76.38844688656786,6.1923723,-0.0,0.063875064,0.046537336,-0.87754124,-0.09928784,1.6484824,1.8797971,0.0,2,0,0,0
2472325990,37.1025117600651,-76.38844694429338,6.3614206,-0.0,0.090953715,0.03355797,-0.87349206,-0.10318065,1.6486173,1.8797121,0.0,2,0,0,0
2472526108,37.10251182709887,-76.38844706146523,6.52174,-0.0,0.11776855,0.011652501,-0.8817082,-0.10588605,1.6485603,1.8797404,0.0,2,0,0,0
2472729999,37.10251198159692,-76.38844716384124,6.6822977,-0.0,0.13243854,0.00065613724,-0.88500583,-0.10663982,1.6485544,1.8795929,0.0,2,0,0,0
2472929976,37.10251214571796,-76.38844726071153,6.837244,-0.0,0.1371382,0.007208307,-0.8733706,-0.10714808,1.6485493,1.8796486,0.0,2,0,0,0
2473134018,37.10251230632247,-76.38844737229269,7.0008316,-0.0,0.13122897,0.008333239,-0.87334025,-0.10816627,1.6486914,1.87977,0.0,2,0,0,0
2473333995,37.1025123988118,-76.3884474631401,7.168336,-0.0,0.13070184,-0.010124277,-0.8764897,-0.10935249,1.6486858,1.8796201,0.0,2,0,0,0
2473537997,37.10251249519499,-76.3884475424597,7.3394947,-0.0,0.12580886,-0.0038768945,-0.86951166,-0.11137491,1.6486807,1.8796701,0.0,2,0,0,0
2473738002,37.10251261404896,-76.38844761085396,7.5133076,-0.0,0.13399237,-0.0040185205,-0.8718592,-0.11263054,1.6486758,1.8797184,0.0,2,0,0,0
2473941926,37.10251279770813,-76.38844762806197,7.6958914,-0.0,0.14925419,-0.01024083,-0.88430834,-0.113582,1.6488206,1.8798394,0.0,2,0,0,0
2474146031,37.1025129662721,-76.38844769095101,7.883111,-0.0,0.16824609,-0.009044745,-0.8996665,-0.11373801,1.6488171,1.8796809,0.0,2,0,0,0
2474349955,37.1025131909616,-76.38844772201014,8.0658,-0.0,0.16630545,-0.00420373,-0.8971544,-0.11304908,1.6489646,1.8798007,0.0,2,0,0,0
2474549992,37.1025134270583,-76.38844771435652,8.242389,-0.0,0.14404218,-0.00021734361,-0.8837867,-0.11179668,1.6489615,1.8798428,0.0,2,0,0,0
2474749667,37.10251354551788,-76.38844776459872,8.415775,-0.0,0.114619054,-0.0048756455,-0.87913066,-0.110687636,1.6489586,1.8796839,0.0,2,0,0,0
2474953938,37.10251364740747,-76.38844781647526,8.593697,-0.0,0.10014994,-0.012315002,-0.8905919,-0.10945945,1.6488904,1.8797253,0.0,2,0,0,0
2475154041,37.10251371480218,-76.38844784297294,8.763842,-0.0,0.084164195,-0.010301717,-0.8686715,-0.10813918,1.648896,1.8797675,0.0,2,0,0,0
2475358028,37.10251372337847,-76.38844788142785,8.934684,-0.0,0.079191536,-0.019510858,-0.89217985,-0.106768094,1.6490519,1.8798772,0.0,2,0,0,0
2475558039,37.10251371686017,-76.38844789166518,9.100827,-0.0,0.08149854,-0.0139010195,-0.89146423,-0.105838574,1.6490579,1.8799176,0.0,2,0,0,0
2475761988,37.10251377878259,-76.38844797227479,9.262016,-0.0,0.09666908,-0.014695048,-0.90509784,-0.10449904,1.6490648,1.8799531,0.0,2,0,0,0
2475966013,37.10251384489016,-76.38844807981143,9.418381,-0.0,0.100990824,-0.016573288,-0.92662126,-0.102165446,1.6491576,1.8798497,0.0,2,0,0,0
2476167613,37.102513863672634,-76.38844811482532,9.577306,-0.0,0.09540041,-0.0049105682,-0.9313254,-0.09884493,1.6491737,1.8798821,0.0,2,0,0,0
2476371346,37.10251386907553,-76.38844815999045,9.746446,-0.0,0.08335277,0.008141676,-0.9580085,-0.09493979,1.6492188,1.8799269,0.0,2,0,0,0
2476579374,37.10251391727595,-76.38844816936815,9.93064,-0.0,0.07493865,0.021581575,-0.95806545,-0.09133706,1.6458616,1.8796891,0.0,2,0,0,0
2476779728,37.102513915235484,-76.38844807344618,10.108973,-0.0,0.06622074,0.018687693,-0.99416983,-0.08874685,1.6458691,1.8797182,0.0,2,0,0,0
2476983688,37.10251394407074,-76.388447978729,10.294642,-0.0,0.053311124,0.045220423,-0.98171157,-0.087247744,1.6460054,1.8796208,0.0,2,0,0,0
2477187618,37.102513872594166,-76.38844787790252,10.495058,-0.0,0.030884188,0.050315727,-1.0017769,-0.08684587,1.646012,1.879653,0.0,2,0,0,0
2477387839,37.102513850930634,-76.38844775737613,10.699792,-0.0,0.037297294,0.03138628,-1.0525222,-0.087480634,1.6460004,1.8796813,0.0,2,0,0,0
2477591739,37.10251377449723,-76.38844759848025,10.902847,-0.0,0.03948292,0.023733897,-1.0434288,-0.08906776,1.6461383,1.8797815,0.0,2,0,0,0
2477791567,37.10251378300602,-76.38844749713861,11.108123,-0.0,0.030954713,0.009091217,-1.053306,-0.09086298,1.6497283,1.8799416,0.0,2,0,0,0
2477995622,37.102513782183074,-76.38844744526331,11.321165,-0.0,0.039049182,-0.00091185374,-1.0620968,-0.09287017,1.6461028,1.8798255,0.0,2,0,0,0
2478199379,37.1025138015147,-76.38844744965101,11.524074,-0.0,0.0420267,-0.011633724,-1.0776917,-0.094548605,1.6462266,1.879918,0.0,2,0,0,0
2478399594,37.10251383921766,-76.38844742126203,11.724275,-0.0,0.043523267,-0.023155985,-1.100827,-0.09566648,1.6462388,1.8797308,0.0,2,0,0,0
2478599620,37.10251390395388,-76.38844741524082,11.937098,-0.0,0.031433385,-0.029947424,-1.0904713,-0.09697204,1.6462497,1.8797543,0.0,2,0,0,0
2478799362,37.10251397949617,-76.38844746419207,12.156214,-0.0,0.03295562,-0.031631548,-1.1242492,-0.09753718,1.6462044,1.8797781,0.0,2,0,0,0
2479003363,37.10251405116222,-76.38844746591354,12.381533,-0.0,0.028654184,-0.030378813,-1.126253,-0.098659486,1.646219,1.8798018,0.0,2,0,0,0
2479207602,37.102514110889835,-76.38844744371887,12.614597,-0.0,0.017619424,-0.029918563,-1.14859,-0.09963665,1.6463645,1.8798968,0.0,2,0,0,0
2479407699,37.102514147923756,-76.3884474229004,12.842864,-0.0,0.0013739762,-0.024428533,-1.1564245,-0.101014316,1.6463766,1.8799171,0.0,2,0,0,0
2479607695,37.102514192248094,-76.38844736362722,13.071177,-0.0,-0.008760521,-0.021474415,-1.1614565,-0.10351608,1.6463871,1.8799349,0.0,2,0,0,0
2479811618,37.102514253485715,-76.38844727346995,13.310166,-0.0,-0.019727055,-0.00925315,-1.1713904,-0.10698943,1.6463405,1.8797443,0.0,2,0,0,0
2480015688,37.102514359784486,-76.38844722314451,13.555668,-0.0,-0.0135842245,-0.023365377,-1.2249775,-0.11131169,1.6465069,1.8798318,0.0,2,0,0,0
2480217159,37.102514446682726,-76.38844720611192,13.806848,-0.0,-0.022404188,-0.013749687,-1.2201062,-0.11530276,1.6465447,1.8798661,0.0,2,0,0,0
2480420950,37.10251454008215,-76.38844717419644,14.053994,-0.0,-0.02204575,0.0014062757,-1.2064902,-0.11809137,1.6465503,1.8798865,0.0,2,0,0,0
2480625247,37.10251462440802,-76.38844707810348,14.307666,-0.0,-0.025419824,0.005645766,-1.2113613,-0.11873606,1.6466897,1.879775,0.0,2,0,0,0
2480824975,37.10251469022623,-76.38844690208967,14.549737,-0.0,-0.038866695,0.019091325,-1.2175201,-0.117570154,1.6466552,1.8798019,0.0,2,0,0,0
2481028957,37.10251476367802,-76.38844667549112,14.805264,-0.0,-0.058681894,0.046820063,-1.219126,-0.11532666,1.6466618,1.8796314,0.0,2,0,0,0
2481233169,37.102514842035816,-76.38844642385828,15.064755,-0.0,-0.07442776,0.058947522,-1.2258054,-0.11148782,1.6468034,1.8797369,0.0,2,0,0,0
2481432970,37.10251490337756,-76.3884461820325,15.314612,-0.0,-0.09806806,0.06192215,-1.2361726,-0.10736002,1.6468264,1.87977,0.0,2,0,0,0
2481633301,37.10251493307141,-76.38844597014429,15.56532,-0.0,-0.11225187,0.052425634,-1.2357719,-0.103752814,1.6468279,1.8796059,0.0,2,0,0,0
2481832946,37.10251491260911,-76.38844578621477,15.810891,-0.0,-0.13300058,0.053149235,-1.2459192,-0.10028803,1.6467905,1.8796467,0.0,2,0,0,0
2482037318,37.102514837119315,-76.38844560374706,16.057522,-0.0,-0.14377408,0.025842763,-1.2588036,-0.097231194,1.6467956,1.8796917,0.0,2,0,0,0
2482240945,37.10251472346333,-76.38844546308881,16.307459,-0.0,-0.14922194,0.013145808,-1.2332042,-0.09467283,1.6469353,1.8796077,0.0,2,0,0,0
2482444980,37.10251457652967,-76.38844538161786,16.553726,-0.0,-0.14687508,-0.010914878,-1.2341828,-0.09226287,1.6469387,1.879651,0.0,2,0,0,0
2482645221,37.102514446079844,-76.38844535047387,16.792252,-0.0,-0.12328346,-0.03727535,-1.2502656,-0.08885206,1.6469414,1.8796965,0.0,2,0,0,0
2482845104,37.10251435600801,-76.38844540097156,17.030197,-0.0,-0.10210267,-0.053255707,-1.2307215,-0.086154774,1.6469642,1.8797389,0.0,2,0,0,0
2483049192,37.10251431374139,-76.38844554506903,17.28406,-0.0,-0.0708152,-0.07508636,-1.2412661,-0.08382128,1.6470809,1.8796535,0.0,2,0,0,0
2483253183,37.10251430392793,-76.38844577717423,17.533932,-0.0,-0.058102842,-0.08388722,-1.2374914,-0.08282276,1.647063,1.8796991,0.0,2,0,0,0
2483457178,37.10251431116396,-76.38844611036328,17.792059,-0.0,-0.04514096,-0.09926457,-1.2580034,-0.08190265,1.6472046,1.8796122,0.0,2,0,0,0
2483656943,37.10251431476308,-76.38844649559964,18.046368,-0.0,-0.032281555,-0.1280079,-1.2421302,-0.08247186,1.6472082,1.8796581,0.0,2,0,0,0
2483860976,37.1025143258061,-76.38844695740158,18.309324,-0.0,-0.015400549,-0.14299616,-1.2425728,-0.08388251,1.6471726,1.8797064,0.0,2,0,0,0
2484062984,37.102514347843886,-76.38844747314363,18.557785,-0.0,0.012645199,-0.15628277,-1.2535813,-0.08638405,1.6471788,1.8795567,0.0,2,0,0,0
2484262743,37.10251439106594,-76.38844797950881,18.797623,-0.0,0.026876055,-0.16767365,-1.2488145,-0.08973994,1.6472088,1.879622,0.0,2,0,0,0
2484466757,37.102514420102416,-76.38844847176513,19.044537,-0.0,0.030361218,-0.1565319,-1.2406778,-0.09266356,1.6473696,1.8797414,0.0,2,0,0,0
2484666737,37.102514403580734,-76.3884488701636,19.291805,-0.0,0.019148527,-0.1302651,-1.2605177,-0.094923474,1.64739,1.8795887,0.0,2,0,0,0
2484866857,37.10251436529258,-76.38844915061654,19.550556,-0.0,0.011717876,-0.073467016,-1.2619944,-0.09615353,1.6473483,1.879632,0.0,2,0,0,0
2485070570,37.1025142776728,-76.38844930761773,19.820938,-0.0,0.010352787,-0.014839123,-1.272511,-0.09750885,1.6473708,1.8796773,0.0,2,0,0,0
2485270822,37.10251412655322,-76.38844929565788,20.08685,-0.0,-0.0021423886,0.015885942,-1.2724873,-0.09924935,1.6473911,1.8797255,0.0,2,0,0,0
2485474587,37.102513895140675,-76.38844913632992,20.357475,-0.0,-0.012009095,0.07521461,-1.2558205,-0.10216326,1.6475297,1.8796462,0.0,2,0,0,0
2485678549,37.10251360190882,-76.3884488745411,20.630419,-0.0,-0.013533455,0.11046429,-1.2720826,-0.10374808,1.6475275,1.8796926,0.0,2,0,0,0
2485882870,37.10251331454381,-76.38844855416683,20.900648,-0.0,-0.002042332,0.12687126,-1.2793305,-0.1042336,1.6476679,1.8796103,0.0,2,0,0,0
2486082860,37.1025130674546,-76.38844822510416,21.162384,-0.0,-0.0034117193,0.1393916,-1.2715973,-0.103658035,1.6476653,1.8796543,0.0,2,0,0,0
2486286777,37.102512822217925,-76.38844789733196,21.431063,-0.0,0.0029778914,0.120666064,-1.2805587,-0.10298684,1.6476635,1.8796985,0.0,2,0,0,0
2486490733,37.10251256248662,-76.38844758994836,21.702477,-0.0,0.006655953,0.08834506,-1.2778072,-0.10241642,1.6478245,1.8796158,0.0,2,0,0,0
2486690790,37.102512337318466,-76.38844735233442,21.962555,-0.0,0.010648418,0.06577854,-1.2637639,-0.10156327,1.6478404,1.8796594,0.0,2,0,0,0
2486890864,37.10251217824154,-76.38844711936686,22.219135,-0.0,0.031829573,0.049678378,-1.2684937,-0.10037989,1.6478543,1.8797039,0.0,2,0,0,0
2487094737,37.10251210122562,-76.38844687289382,22.481056,-0.0,0.051267948,0.04153479,-1.2647982,-0.099954285,1.6478664,1.8797491,0.0,2,0,0,0
2487298702,37.10251206352476,-76.38844663631457,22.739313,-0.0,0.0708785,0.026927961,-1.258067,-0.10089511,1.6480004,1.87966,0.0,2,0,0,0
2487502794,37.102512082154625,-76.38844644627751,22.989096,-0.0,0.09217973,0.014879548,-1.2535715,-0.1015355,1.6480117,1.8796982,0.0,2,0,0,0
2487702773,37.10251215095732,-76.3884462938356,23.230143,-0.0,0.12413215,-0.0034778172,-1.2504841,-0.10148877,1.6480218,1.8797386,0.0,2,0,0,0
2487908183,37.10251228607399,-76.38844617683831,23.490011,-0.0,0.14305025,-0.019567903,-1.2626761,-0.10209954,1.6481129,1.8796506,0.0,2,0,0,0
2488112479,37.10251246330131,-76.38844611567413,23.748882,-0.0,0.1642034,-0.047274068,-1.2802655,-0.10285961,1.6481527,1.8797057,0.0,2,0,0,0
2488312519,37.102512652295225,-76.38844611920366,24.002562,-0.0,0.15341781,-0.061530817,-1.247297,-0.10401885,1.6481627,1.8797435,0.0,2,0,0,0
2488516320,37.10251283988232,-76.38844615490788,24.259336,-0.0,0.14867918,-0.069911964,-1.2698479,-0.10558851,1.6482972,1.8798511,0.0,2,0,0,0
2488720181,37.10251303861902,-76.38844618682697,24.519207,-0.0,0.13595445,-0.07470674,-1.263961,-0.10752381,1.6482866,1.8798839,0.0,2,0,0,0
2488920340,37.102513201608446,-76.38844622167059,24.768557,-0.0,0.10397186,-0.0698689,-1.2571409,-0.108519666,1.6482356,1.8797137,0.0,2,0,0,0
2489120147,37.10251332926228,-76.38844625367484,25.015354,-0.0,0.071418904,-0.06623966,-1.2632622,-0.107534185,1.6482319,1.879745,0.0,2,0,0,0
2489324378,37.102513392917594,-76.38844628223714,25.27446,-0.0,0.020384032,-0.040213354,-1.2509383,-0.104794785,1.6483756,1.879845,0.0,2,0,0,0
2489524498,37.10251341058507,-76.38844632043408,25.526981,-0.0,-0.009888271,-0.038146373,-1.2638274,-0.10157341,1.648396,1.8798703,0.0,2,0,0,0
2489728415,37.10251344506259,-76.38844637179362,25.783764,-0.0,-0.03553581,-0.024242012,-1.2523658,-0.10036184,1.648391,1.8798978,0.0,2,0,0,0
2489928399,37.10251341351758,-76.38844640758114,26.041616,-0.0,-0.07347668,0.007855379,-1.233684,-0.10026134,1.6483454,1.8799288,0.0,2,0,0,0
2490128495,37.10251334670585,-76.38844641110748,26.29813,-0.0,-0.08501268,-0.010721331,-1.2505074,-0.10046805,1.6483676,1.8799528,0.0,2,0,0,0
2490328186,37.10251327721811,-76.3884464290006,26.548208,-0.0,-0.100427605,-0.0018819247,-1.2202156,-0.10135869,1.648367,1.8799757,0.0,2,0,0,0
2490532550,37.10251323960066,-76.38844648879002,26.811064,-0.0,-0.092476256,-0.021107845,-1.231273,-0.100185126,1.6485136,1.8798641,0.0,2,0,0,0
2490736401,37.10251322647747,-76.38844661542404,27.068707,-0.0,-0.07859036,-0.021697082,-1.2384253,-0.09832824,1.6485344,1.8798846,0.0,2,0,0,0
2490936406,37.1025132250868,-76.38844677586745,27.320135,-0.0,-0.053425822,-0.015974464,-1.247656,-0.09727953,1.6484901,1.87991,0.0,2,0,0,0
2491136307,37.10251329352649,-76.38844697330407,27.562204,-0.0,-0.033120714,-0.016153669,-1.247855,-0.09793546,1.6485146,1.8797354,0.0,2,0,0,0
2491340287,37.102513456892076,-76.38844716119267,27.814518,-0.0,-0.0050891093,-0.00531059,-1.2514232,-0.09987901,1.6486863,1.8798391,0.0,2,0,0,0
2491544348,37.10251363384345,-76.38844728946357,28.070131,-0.0,0.010418672,-0.00029208336,-1.2519292,-0.10171029,1.6486852,1.8798709,0.0,2,0,0,0
2491746034,37.10251379799906,-76.38844735355697,28.323822,-0.0,0.020867797,0.021536265,-1.2548269,-0.10410542,1.6488556,1.8797671,0.0,2,0,0,0
2491950051,37.10251395584318,-76.38844730262997,28.582747,-0.0,0.022335906,0.05323003,-1.26634,-0.10579667,1.6487647,1.8797797,0.0,2,0,0,0
2492154047,37.10251411775354,-76.38844713625257,28.835052,-0.0,0.016756088,0.08152594,-1.2872491,-0.105934575,1.6489234,1.8798841,0.0,2,0,0,0
2492358032,37.102514256078976,-76.38844687730804,29.095627,-0.0,0.009119658,0.11084134,-1.2902381,-0.1051253,1.6489321,1.8799207,0.0,2,0,0,0
2492558110,37.10251434659859,-76.38844660038293,29.35232,-0.0,-0.008269885,0.12409871,-1.2775784,-0.10436018,1.6489624,1.879748,0.0,2,0,0,0
2492761941,37.102514441955655,-76.38844629197139,29.615847,-0.0,-0.026478507,0.13231982,-1.2757903,-0.103659734,1.6491414,1.8798568,0.0,2,0,0,0
2492962020,37.102514496951045,-76.38844600936795,29.87908,-0.0,-0.03826037,0.10532278,-1.2764735,-0.10227957,1.6491641,1.8798903,0.0,2,0,0,0
2493165949,37.10251449568345,-76.3884457876721,30.154718,-0.0,-0.060964968,0.083488375,-1.2666094,-0.10091697,1.6491616,1.8797227,0.0,2,0,0,0
2493366106,37.10251444865065,-76.38844562645382,30.421339,-0.0,-0.07673491,0.045459297,-1.27199,-0.10057591,1.6491587,1.879758,0.0,2,0,0,0
2493565736,37.1025143796955,-76.3884455380155,30.68619,-0.0,-0.06794629,0.0008169862,-1.2961657,-0.099465504,1.6491559,1.8797952,0.0,2,0,0,0
2493769972,37.102514282659634,-76.3884455658876,30.942278,-0.0,-0.06045573,-0.05308306,-1.2819002,-0.09765268,1.6458068,1.8797661,0.0,2,0,0,0
2493974179,37.10251418193503,-76.38844569544548,31.203314,-0.0,-0.045972977,-0.09133758,-1.2743126,-0.096354164,1.6493239,1.8799345,0.0,2,0,0,0
2494178036,37.10251410145045,-76.38844592092559,31.466513,-0.0,-0.026033359,-0.11809314,-1.2821776,-0.095800385,1.6459107,1.8798962,0.0,2,0,0,0
2494377959,37.1025140806414,-76.38844620198094,31.707838,-0.0,-0.00720551,-0.14281403,-1.2587078,-0.09534123,1.6459082,1.8797133,0.0,2,0,0,0
2494581774,37.102514049265494,-76.38844654420254,31.953238,-0.0,0.0130392555,-0.15406947,-1.2490833,-0.09556924,1.6459069,1.8797396,0.0,2,0,0,0
2494782040,37.10251402107974,-76.38844693038479,32.19852,-0.0,0.025451979,-0.15612397,-1.26629,-0.09671883,1.6494414,1.8799003,0.0,2,0,0,0
2494986070,37.10251404980858,-76.38844728138206,32.458702,-0.0,0.026024625,-0.13480927,-1.2584213,-0.09806921,1.646001,1.879661,0.0,2,0,0,0
2495186210,37.102514113959145,-76.38844758549413,32.71177,-0.0,0.03854387,-0.115058325,-1.183275,-0.09907844,1.6460218,1.8796948,0.0,2,0,0,0
2495389978,37.10251420531493,-76.3884478563995,32.945595,-0.0,0.027935054,-0.088026226,-0.99428105,-0.099759385,1.6460215,1.8797282,0.0,2,0,0,0
2495591647,37.10251424889987,-76.3884480256184,33.13042,-0.0,-0.04877384,0.020791423,-0.806801,-0.101856716,1.6461455,1.8798289,0.0,2,0,0,0
2495791782,37.102513962014605,-76.38844777638984,33.28818,-0.0,-0.3011203,0.26001483,-0.74269867,-0.09334364,1.6461003,1.8798364,0.0,2,0,0,0
2495995722,37.102513002129925,-76.38844672519382,33.436703,-0.0,-0.73610437,0.6292783,-0.6354463,-0.018912522,1.646092,1.879864,0.0,2,0,0,0
2496199642,37.10251121793735,-76.38844488716958,33.547527,-0.0,-1.1579978,0.96910757,-0.41176933,0.09895313,1.6462126,1.8797517,0.0,2,0,0,0
2496403576,37.10250870796355,-76.38844242018104,33.62292,-0.0,-1.470175,1.1739948,-0.2981305,0.23836207,1.6461989,1.8799723,0.0,2,0,0,0
2496603603,37.1025057741017,-76.38843971910349,33.677372,-0.0,-1.632537,1.2739786,-0.22496758,0.3869517,1.6461852,1.8797761,0.0,2,0,0,0
2496807596,37.102502603646435,-76.38843692709096,33.725708,-0.0,-1.6200677,1.2708043,-0.19863065,0.54813856,1.6463069,1.8798612,0.0,2,0,0,0
2497007692,37.10249966038371,-76.3884343277856,33.778072,-0.0,-1.4148216,1.1954316,-0.17980313,0.6959089,1.6462858,1.879869,0.0,2,0,0,0
2497207660,37.102497151558175,-76.38843196119322,33.83141,-0.0,-1.1265911,1.0862753,-0.12932946,0.80829567,1.6462698,1.8798735,0.0,2,0,0,0
2497411593,37.10249519964383,-76.38842980933522,33.8804,-0.0,-0.7407691,1.0027819,-0.09900881,0.8893528,1.6462741,1.879875,0.0,2,0,0,0
2497611647,37.102493957390486,-76.38842779668029,33.915245,-0.0,-0.3480919,0.9973895,-0.018245384,0.93899894,1.6462773,1.8798739,0.0,2,0,0,0
2497815378,37.10249346840431,-76.38842556973725,33.944485,-0.0,0.08574946,1.1231295,0.016715068,0.96494627,1.6463588,1.8799468,0.0,2,0,0,0
2498019548,37.10249370282308,-76.38842293356483,33.959488,-0.0,0.4882172,1.3260343,0.045080367,0.9708147,1.6463777,1.8799485,0.0,2,0,0,0
2498219697,37.10249460769546,-76.38841980781152,33.957527,-0.0,0.82089263,1.5262171,0.06638334,0.963641,1.6464076,1.8799536,0.0,2,0,0,0
2498419595,37.10249602740775,-76.38841617096823,33.948277,-0.0,1.0667903,1.6928779,0.09236841,0.9542832,1.6464522,1.8799582,0.0,2,0,0,0
2498619295,37.10249777097552,-76.38841211577142,33.925682,-0.0,1.2248459,1.808628,0.09128914,0.94725776,1.6465114,1.8799617,0.0,2,0,0,0
2498827635,37.10249984146978,-76.38840755257922,33.900127,-0.0,1.3357655,1.8954116,0.067310266,0.94284046,1.6467221,1.8798295,0.0,2,0,0,0
2499028028,37.10250198929072,-76.38840295987987,33.873417,-0.0,1.3981528,1.9362111,0.046520114,0.9406006,1.6468033,1.8798326,0.0,2,0,0,0
2499235803,37.10250433756589,-76.38839808105135,33.849045,-0.0,1.4497303,1.9539368,0.033803627,0.93850106,1.647033,1.8799055,0.0,2,0,0,0
2499436529,37.10250673798565,-76.38839332877129,33.82834,-0.0,1.4867176,1.9573672,0.020422708,0.93695945,1.6471201,1.8799055,0.0,2,0,0,0
2499636907,37.10250921998579,-76.38838858027714,33.811337,-0.0,1.5278499,1.9543293,0.0046997685,0.9353915,1.6472185,1.8799129,0.0,2,0,0,0
2499837266,37.102511764371826,-76.38838384640826,33.809277,-0.0,1.5756098,1.960236,-0.02694597,0.9340879,1.6473068,1.8799189,0.0,2,0,0,0
2500045150,37.10251450581492,-76.38837893446201,33.81014,-0.0,1.60856,1.9649382,-0.03180609,0.9332166,1.6475213,1.8799922,0.0,2,0,0,0
2500245232,37.1025172386797,-76.38837423156495,33.805595,-0.0,1.6401278,1.9664793,-0.037079193,0.93215847,1.6475779,1.8799932,0.0,2,0,0,0
2500449264,37.10252012362517,-76.38836944074801,33.7992,-0.0,1.6647998,1.9643528,-0.04319584,0.9315827,1.6477746,1.8800652,0.0,2,0,0,0
2500653251,37.10252311692739,-76.3883646243814,33.793774,-0.0,1.6822542,1.9709197,-0.042416926,0.9315268,1.6478543,1.8798583,0.0,2,0,0,0
2500853173,37.102526116866905,-76.38835991942162,33.78951,-0.0,1.6942152,1.9793954,-0.049039092,0.9319704,1.647875,1.8800647,0.0,2,0,0,0
2501061291,37.102529282661614,-76.38835505943965,33.780552,-0.0,1.7208463,2.0008385,-0.06493275,0.93344575,1.6480345,1.8801312,0.0,2,0,0,0
2501269196,37.102532503397924,-76.38835018715578,33.774952,-0.0,1.7246423,2.0197377,-0.05655174,0.9350311,1.6481851,1.8801862,0.0,2,0,0,0
2501468962,37.102535640768544,-76.38834544503197,33.770638,-0.0,1.7207589,2.0439045,-0.060435485,0.93639797,1.6481756,1.8803728,0.0,2,0,0,0
2501677506,37.10253892246773,-76.38834045592102,33.7704,-0.0,1.7228328,2.0797718,-0.06418167,0.9375267,1.6483108,1.8801894,0.0,2,0,0,0
2501880942,37.10254215064827,-76.38833553244893,33.769306,-0.0,1.7112604,2.0941052,-0.08068089,0.9385175,1.6484172,1.8802279,0.0,2,0,0,0
2502081230,37.10254536248125,-76.38833066119565,33.777924,-0.0,1.7126412,2.1138735,-0.08122743,0.9401434,1.6484578,1.8801955,0.0,2,0,0,0
2502284968,37.102548627901164,-76.38832570984984,33.794437,-0.0,1.6962106,2.1185338,-0.0677732,0.94186527,1.6484191,1.8801607,0.0,2,0,0,0
2502489178,37.10255189754047,-76.38832077278441,33.810566,-0.0,1.6713468,2.1383567,-0.06527297,0.9434755,1.648531,1.8802034,0.0,2,0,0,0
2502693293,37.10255513570329,-76.38831586092462,33.82727,-0.0,1.6588422,2.152511,-0.058703862,0.9450159,1.6484889,1.8801749,0.0,2,0,0,0
2502893226,37.10255825399845,-76.38831108163339,33.833206,-0.0,1.6387067,2.1666915,-0.033443756,0.9454926,1.648379,1.8801479,0.0,2,0,0,0
2503097315,37.10256141780154,-76.38830620057026,33.832924,-0.0,1.6325858,2.185393,-0.019039296,0.94611657,1.6484939,1.8801986,0.0,2,0,0,0
2503301170,37.10256454863612,-76.38830129851539,33.829227,-0.0,1.6222622,2.2103984,-0.037823148,0.94646895,1.6484149,1.8801812,0.0,2,0,0,0
2503502772,37.102567651785094,-76.38829641796698,33.831173,-0.0,1.5925965,2.2207282,-0.027031627,0.94564515,1.6484153,1.880183,0.0,2,0,0,0
2503706563,37.10257079641104,-76.38829142618349,33.83775,-0.0,1.568863,2.2326782,-0.012740433,0.9448362,1.6485324,1.8800335,0.0,2,0,0,0
2503910829,37.102573893351114,-76.388286398181,33.838127,-0.0,1.5576384,2.2588027,-0.03089947,0.94417816,1.6484579,1.8800334,0.0,2,0,0,0
2504110875,37.10257690452441,-76.38828145784048,33.837112,-0.0,1.5279101,2.263973,-0.008256079,0.944008,1.6484566,1.8800358,0.0,2,0,0,0
2504314791,37.10257994214861,-76.38827638467149,33.84132,-0.0,1.5115255,2.2704089,-0.025362361,0.943468,1.6485829,1.8799019,0.0,2,0,0,0
2504514832,37.10258289253092,-76.38827138866897,33.84688,-0.0,1.4944885,2.2869034,0.0011409931,0.94168514,1.6485604,1.8799045,0.0,2,0,0,0
2504718823,37.10258587608801,-76.38826628306582,33.85133,-0.0,1.4923711,2.290999,-0.019934773,0.9404774,1.6485411,1.8799078,0.0,2,0,0,0
2504922851,37.102588841874145,-76.38826117832234,33.858692,-0.0,1.4833735,2.302102,0.0046849465,0.93938196,1.6486961,1.8799862,0.0,2,0,0,0
2505122914,37.10259172638754,-76.38825618274815,33.856476,-0.0,1.4880595,2.3091438,0.0032265699,0.9397003,1.6486777,1.8799974,0.0,2,0,0,0
2505326574,37.10259463944419,-76.38825109942454,33.84795,-0.0,1.4839981,2.3033228,0.0055727717,0.9404365,1.6486611,1.8800138,0.0,2,0,0,0
2505530855,37.102597561420225,-76.38824602375719,33.833015,-0.0,1.4825838,2.3122482,-0.0047341157,0.9410894,1.6487973,1.8798958,0.0,2,0,0,0
2505734824,37.10260043893486,-76.38824096821973,33.82508,-0.0,1.4746938,2.288659,-0.014261097,0.9419134,1.648785,1.8799123,0.0,2,0,0,0
2505934807,37.102603235553964,-76.38823604516539,33.814365,-0.0,1.4550543,2.28757,-0.010011276,0.94137985,1.6487751,1.8799284,0.0,2,0,0,0
2506138597,37.1026060585549,-76.38823105475042,33.801266,-0.0,1.4386032,2.2720644,-0.027975135,0.9410171,1.6489191,1.8800151,0.0,2,0,0,0
2506342761,37.1026088544536,-76.38822605792569,33.79712,-0.0,1.4433154,2.2702692,-0.049429037,0.9408168,1.6489131,1.8800274,0.0,2,0,0,0
2506546795,37.102611667471294,-76.38822101116105,33.790154,-0.0,1.4436053,2.2704968,-0.05848106,0.9413597,1.6490618,1.8801111,0.0,2,0,0,0
2506746722,37.102614397672774,-76.3882160252606,33.790123,-0.0,1.437004,2.2754529,-0.051614664,0.9426198,1.6490589,1.8801161,0.0,2,0,0,0
2506950509,37.10261715998551,-76.3882109236084,33.803642,-0.0,1.4389997,2.2817235,-0.059251666,0.94422793,1.6490563,1.8799149,0.0,2,0,0,0
2507154818,37.102619891353704,-76.38820581386882,33.81614,-0.0,1.4400808,2.2697747,-0.047180295,0.9454782,1.6492083,1.8800027,0.0,2,0,0,0
2507356196,37.10262258313186,-76.38820074387381,33.828705,-0.0,1.4358146,2.2652528,-0.037309922,0.94564253,1.6491591,1.8799942,0.0,2,0,0,0
2507560164,37.10262532269912,-76.38819558668872,33.840527,-0.0,1.4314014,2.267784,-0.026785415,0.94527566,1.6493183,1.8800762,0.0,2,0,0,0
2507760417,37.10262799783835,-76.38819049996023,33.84485,-0.0,1.4298387,2.2514403,0.0006676391,0.9447207,1.6493214,1.8798823,0.0,2,0,0,0
2507964402,37.10263071160693,-76.38818531214791,33.849888,-0.0,1.4316462,2.2398965,-0.007709025,0.94326425,1.6493226,1.8798975,0.0,2,0,0,0
2508164360,37.102633376522434,-76.38818021978373,33.85629,-0.0,1.4337809,2.212404,0.017181244,0.94172287,1.6493231,1.8799127,0.0,2,0,0,0
2508368385,37.10263609914122,-76.38817510406288,33.859512,-0.0,1.4501806,2.1965706,-0.0023570852,0.9405918,1.6494558,1.8799993,0.0,2,0,0,0
2508572498,37.1026388590506,-76.38817003062513,33.85925,-0.0,1.4510403,2.1742208,0.0027528827,0.93874526,1.6494572,1.8800132,0.0,2,0,0,0
2508772548,37.102641616866315,-76.38816509401582,33.859276,-0.0,1.4628628,2.1551456,0.02617301,0.9369396,1.6494584,1.8800254,0.0,2,0,0,0
2508972462,37.10264442415136,-76.3881602091959,33.85513,-0.0,1.4918864,2.1438735,0.0013214587,0.93549234,1.6494591,1.8800361,0.0,2,0,0,0
2509172453,37.10264725980733,-76.38815537569204,33.843815,-0.0,1.5006524,2.1354723,-0.0021430058,0.9338255,1.6494597,1.8800464,0.0,2,0,0,0
2509376345,37.10265015817558,-76.38815046828961,33.83795,-0.0,1.5133691,2.112466,-0.0037890146,0.93259215,1.6460059,1.8799891,0.0,2,0,0,0
2509576419,37.102652989748634,-76.38814564480735,33.83733,-0.0,1.5292467,2.104091,-0.019179357,0.93177205,1.6460079,1.8797917,0.0,2,0,0,0
2509776443,37.1026558651307,-76.38814083203567,33.837,-0.0,1.5272298,2.0949812,-0.0229565,0.9319037,1.6460103,1.8798083,0.0,2,0,0,0
2509980375,37.10265880421972,-76.38813598777762,33.844677,-0.0,1.5354124,2.0816197,-0.015698276,0.93270004,1.6496027,1.8799607,0.0,2,0,0,0
2510180299,37.1026617003218,-76.38813130000526,33.84467,-0.0,1.5493823,2.075348,-0.012839428,0.9342305,1.645998,1.8798416,0.0,2,0,0,0
2510384352,37.10266465814159,-76.38812648039386,33.83987,-0.0,1.5423086,2.0734668,-0.0005371701,0.93563986,1.6461327,1.8797277,0.0,2,0,0,0
2510584168,37.10266756244281,-76.38812173825063,33.835663,-0.0,1.5622052,2.0829182,-0.022538401,0.93750584,1.6461352,1.8799512,0.0,2,0,0,0
2510784332,37.10267043459872,-76.38811700260194,33.83609,-0.0,1.562555,2.0888028,-0.012541922,0.9393749,1.6461374,1.8797599,0.0,2,0,0,0
2510988399,37.102673353823434,-76.38811214393205,33.838768,-0.0,1.559829,2.0970204,-0.018780332,0.9409384,1.6461391,1.8797734,0.0,2,0,0,0
2511190000,37.10267619815699,-76.38810730319818,33.84461,-0.0,1.5519825,2.106799,-0.022818085,0.9427993,1.6461405,1.8799948,0.0,2,0,0,0
2511390020,37.10267902931664,-76.3881024757123,33.85132,-0.0,1.5457747,2.1131916,-0.017089972,0.9449893,1.6461641,1.8800174,0.0,2,0,0,0
2511593949,37.10268192442379,-76.38809753178651,33.857845,-0.0,1.5555515,2.1324172,-0.015627632,0.9459066,1.6462928,1.879888,0.0,2,0,0,0
2511793969,37.10268472535943,-76.38809264029422,33.864758,-0.0,1.54602,2.1427913,-0.014614001,0.94612193,1.6462892,1.8798971,0.0,2,0,0,0
2511993934,37.10268751421907,-76.38808773391847,33.86918,-0.0,1.5365869,2.1474473,0.005836403,0.945613,1.6462854,1.8799068,0.0,2,0,0,0
2512197778,37.1026903568029,-76.38808271114571,33.863766,-0.0,1.5237802,2.145492,0.014365522,0.9453813,1.6462815,1.8799142,0.0,2,0,0,0
2512398020,37.10269313502739,-76.38807775620587,33.850494,-0.0,1.524347,2.1472425,0.029109724,0.9459613,1.6462768,1.8799168,0.0,2,0,0,0
2512602084,37.10269596889732,-76.38807265772691,33.848473,-0.0,1.5416858,2.1424656,-0.00888012,0.947312,1.6464056,1.8799903,0.0,2,0,0,0
2512802086,37.102698752507514,-76.38806770115181,33.843594,-0.0,1.5453855,2.1373305,-0.008231386,0.9481289,1.6463643,1.8799884,0.0,2,0,0,0
2513005999,37.1027015851073,-76.38806268788369,33.83688,-0.0,1.5497575,2.142838,0.0016328078,0.9480138,1.6463656,1.879986,0.0,2,0,0,0
2513209994,37.10270447122501,-76.38805763788126,33.831623,-0.0,1.5722783,2.1471543,-0.013517362,0.94843787,1.646519,1.8800553,0.0,2,0,0,0
2513409690,37.102707307426236,-76.38805268874692,33.824825,-0.0,1.571915,2.1395783,-0.014634558,0.94778615,1.6465187,1.8800539,0.0,2,0,0,0
2513609963,37.10271015978538,-76.38804778112127,33.82098,-0.0,1.5710218,2.1349533,-0.017965214,0.94724244,1.6464992,1.8800519,0.0,2,0,0,0
2513814175,37.102713079076274,-76.38804283753565,33.821663,-0.0,1.563078,2.1230407,-0.021842042,0.9472828,1.6465014,1.8798451,0.0,2,0,0,0
2514018012,37.10271598622225,-76.38803794776064,33.82439,-0.0,1.5653762,2.1243281,-0.04104016,0.94807595,1.6465995,1.8799254,0.0,2,0,0,0
2514222050,37.102718876866405,-76.38803311493625,33.825733,-0.0,1.5442859,2.1317322,-0.031418618,0.9486818,1.6466054,1.8799345,0.0,2,0,0,0
2514422042,37.10272171121339,-76.38802832125425,33.825474,-0.0,1.5284698,2.1420946,-0.012151627,0.94935644,1.6466104,1.8799436,0.0,2,0,0,0
2514625924,37.10272460758672,-76.38802339616319,33.82811,-0.0,1.5216777,2.1577516,-0.00974077,0.948337,1.6467501,1.8798249,0.0,2,0,0,0
2514825777,37.102727423236615,-76.38801853456053,33.823143,-0.0,1.5019783,2.1655133,0.0050319685,0.9459007,1.6467538,1.8798473,0.0,2,0,0,0
2515027645,37.10273024248872,-76.38801361815712,33.81799,-0.0,1.5057075,2.170385,-0.015718121,0.94301826,1.6467553,1.8798727,0.0,2,0,0,0
2515231297,37.10273308970057,-76.38800864488842,33.820686,-0.0,1.4915441,2.1638856,0.022658074,0.94064003,1.64678,1.8797067,0.0,2,0,0,0
2515435638,37.10273593464793,-76.38800368848099,33.827934,-0.0,1.4969264,2.171269,-0.009919335,0.93953675,1.6469142,1.8798039,0.0,2,0,0,0
2515639615,37.102738780589895,-76.38799874841871,33.82438,-0.0,1.5117847,2.1600614,0.00036687683,0.9394015,1.6469316,1.8798273,0.0,2,0,0,0
2515839344,37.102741614558205,-76.38799393778646,33.83364,-0.0,1.5334738,2.1432335,-0.018454242,0.939975,1.6469475,1.8798525,0.0,2,0,0,0
2516043584,37.10274455604273,-76.3879890841831,33.84306,-0.0,1.5313098,2.1240692,0.012433639,0.9400999,1.6470985,1.8797504,0.0,2,0,0,0
2516243551,37.102747431692364,-76.38798440999226,33.84376,-0.0,1.5358438,2.0897188,0.02914276,0.9410878,1.6470907,1.8797845,0.0,2,0,0,0
2516447636,37.10275034477001,-76.38797975662028,33.842297,-0.0,1.5522857,2.0704396,-0.013590667,0.9435089,1.6470828,1.879816,0.0,2,0,0,0
2516647625,37.10275317280127,-76.38797526631527,33.841675,-0.0,1.5463091,2.055893,-0.03695534,0.94513416,1.6470754,1.8798474,0.0,2,0,0,0
2516851570,37.10275602543018,-76.38797074534075,33.84967,-0.0,1.5066487,2.0445697,-0.022191502,0.9465078,1.6472079,1.8797429,0.0,2,0,0,0
2517055335,37.10275885939614,-76.387966245873,33.859364,-0.0,1.488763,2.0426233,-0.008364236,0.9493681,1.6472012,1.8797688,0.0,2,0,0,0
2517255626,37.10276160632628,-76.38796183307853,33.868332,-0.0,1.4550908,2.0631444,-0.011590317,0.95262116,1.647196,1.8797902,0.0,2,0,0,0
2517459578,37.102764345057395,-76.38795732612505,33.872913,-0.0,1.4340795,2.0705094,-0.014986392,0.95576954,1.647311,1.8798833,0.0,2,0,0,0
2517659645,37.10276697778125,-76.38795289995177,33.88126,-0.0,1.4039663,2.0694022,0.009364945,0.9576985,1.6473069,1.8799013,0.0,2,0,0,0
2517863589,37.10276959016168,-76.38794836017686,33.890427,-0.0,1.3712142,2.075838,-0.00058446825,0.95865375,1.6472634,1.8799157,0.0,2,0,0,0
2518067666,37.102772145559,-76.3879438197991,33.893543,-0.0,1.346434,2.0722804,0.024530763,0.9586655,1.6474046,1.8797997,0.0,2,0,0,0
2518267578,37.102774623217705,-76.38793932591923,33.897854,-0.0,1.3494123,2.0757911,0.02288389,0.9570309,1.6474044,1.8798203,0.0,2,0,0,0
2518467565,37.10277711535366,-76.3879347962081,33.89215,-0.0,1.3405528,2.0653796,0.04979688,0.9538556,1.6474247,1.8798412,0.0,2,0,0,0
2518671411,37.10277966913839,-76.38793016618726,33.873055,-0.0,1.3489585,2.068007,0.023403801,0.95019495,1.647442,1.8798555,0.0,2,0,0,0
2518873200,37.10278215767189,-76.38792562017302,33.862015,-0.0,1.3676645,2.0705912,0.017642148,0.9469204,1.6475182,1.8799397,0.0,2,0,0,0
2519073168,37.10278460678695,-76.38792113270097,33.862267,-0.0,1.3620069,2.0759802,-0.014222068,0.9434667,1.6474855,1.8799251,0.0,2,0,0,0
2519273230,37.102787061528176,-76.38791661903284,33.866554,-0.0,1.3547083,2.0736163,-0.0069366544,0.9398117,1.6474957,1.8799274,0.0,2,0,0,0
2519477261,37.1027895436118,-76.38791199864562,33.864277,-0.0,1.371178,2.0805595,0.00238063,0.93760246,1.6475055,1.8801398,0.0,2,0,0,0
2519681159,37.102792002435635,-76.3879073411795,33.87613,-0.0,1.3700819,2.0851336,0.0060937814,0.93653405,1.6476556,1.8800008,0.0,2,0,0,0
2519885242,37.10279445299161,-76.38790263024603,33.889534,-0.0,1.3819491,2.0955975,0.011578561,0.9363904,1.6476629,1.8800083,0.0,2,0,0,0
2520085147,37.10279683733586,-76.3878979851671,33.888622,-0.0,1.4023808,2.0929127,0.012719613,0.9361025,1.6476691,1.8800185,0.0,2,0,0,0
2520288962,37.10279927221361,-76.38789322584164,33.89394,-0.0,1.4178913,2.0874448,0.024825837,0.9351065,1.647796,1.87989,0.0,2,0,0,0
2520492940,37.10280173388452,-76.38788845356866,33.900143,-0.0,1.4494697,2.081615,0.04145852,0.93398637,1.6477811,1.8799022,0.0,2,0,0,0
2520693284,37.10280417174629,-76.38788377016319,33.905045,-0.0,1.4757806,2.0749633,0.01913536,0.93335384,1.6477883,1.8799155,0.0,2,0,0,0
2520893187,37.10280666683092,-76.38787909893078,33.905663,-0.0,1.5052596,2.064302,0.01833098,0.93211854,1.6477334,1.8799326,0.0,2,0,0,0
2521097329,37.102809243084614,-76.38787432902323,33.90436,-0.0,1.522478,2.0592418,0.046060912,0.9308374,1.6478882,1.8798201,0.0,2,0,0,0
2521301169,37.102811870042956,-76.38786956225566,33.903957,-0.0,1.5429591,2.0517335,0.040495016,0.9301634,1.6478995,1.879842,0.0,2,0,0,0
2521505210,37.1028145252695,-76.3878648216622,33.907322,-0.0,1.5796938,2.034197,0.02262617,0.9304274,1.6480746,1.8799405,0.0,2,0,0,0
2521705341,37.10281719106195,-76.38786017329154,33.903473,-0.0,1.5986521,2.03014,0.014877576,0.93122286,1.6480815,1.8799626,0.0,2,0,0,0
2521908982,37.10281997493714,-76.38785542295524,33.894714,-0.0,1.6222062,2.0259264,0.030694641,0.93180174,1.6480883,1.8799849,0.0,2,0,0,0
2522113186,37.10282281960307,-76.3878506756729,33.88906,-0.0,1.6431886,2.024164,0.028020104,0.9322603,1.6482394,1.8798704,0.0,2,0,0,0
2522313225,37.102825655314575,-76.38784601951637,33.8896,-0.0,1.6727312,2.0193777,0.010703592,0.93344027,1.6482444,1.879889,0.0,2,0,0,0
2522517286,37.10282856571118,-76.3878412722766,33.891846,-0.0,1.6787953,2.0225136,0.03219003,0.9344215,1.6482494,1.8799136,0.0,2,0,0,0
2522718842,37.10283142852451,-76.38783656602911,33.890636,-0.0,1.659799,2.0334523,0.0371367,0.9354448,1.6484005,1.8798033,0.0,2,0,0,0
2522922871,37.10283430725609,-76.3878317595145,33.89136,-0.0,1.660954,2.0462763,0.014347587,0.937089,1.6483815,1.8798106,0.0,2,0,0,0
2523122832,37.10283709287976,-76.3878270125097,33.887405,-0.0,1.642935,2.0439978,0.03531923,0.93880576,1.6483881,1.8798351,0.0,2,0,0,0
2523326811,37.10283988848661,-76.38782218672353,33.89366,-0.0,1.6331434,2.0438929,0.030113673,0.9405418,1.6485198,1.8799293,0.0,2,0,0,0
2523526796,37.10284260608028,-76.38781745546106,33.898567,-0.0,1.6236861,2.0386128,0.024946429,0.94239295,1.6485057,1.8799487,0.0,2,0,0,0
2523730790,37.10284538998819,-76.38781265619258,33.906544,-0.0,1.6161768,2.028978,0.04831243,0.94493484,1.6484915,1.8799683,0.0,2,0,0,0
2523934846,37.10284820521769,-76.38780784081493,33.90425,-0.0,1.6343179,2.0318654,0.04301324,0.9471612,1.6486492,1.8800602,0.0,2,0,0,0
2524134897,37.102850989330875,-76.38780311451987,33.88955,-0.0,1.6139827,2.033072,0.056370948,0.9487934,1.6486565,1.8798667,0.0,2,0,0,0
2524338757,37.10285383992986,-76.38779831331493,33.87365,-0.0,1.6090058,2.0320804,0.057411738,0.9503833,1.6486416,1.8800912,0.0,2,0,0,0
2524542866,37.10285666699441,-76.38779352963797,33.853237,-0.0,1.607612,2.036769,0.032993067,0.9506781,1.6487985,1.8799659,0.0,2,0,0,0
2524746832,37.10285947855226,-76.38778875234824,33.84344,-0.0,1.5680443,2.0468922,0.025584258,0.9513136,1.6488067,1.8799803,0.0,2,0,0,0
2524947095,37.10286216784159,-76.38778412089846,33.851,-0.0,1.5554371,2.0690975,-0.02251638,0.95245224,1.6487491,1.8799962,0.0,2,0,0,0
2525150551,37.102864894868056,-76.3877793648784,33.87015,-0.0,1.5481735,2.0765803,-0.02832349,0.9529807,1.648915,1.87988,0.0,2,0,0,0
2525354849,37.10286763733223,-76.38777459920131,33.87565,-0.0,1.5343235,2.07918,-0.004403471,0.95214474,1.6489298,1.8799003,0.0,2,0,0,0
2525558775,37.10287038206033,-76.38776988324868,33.868576,-0.0,1.5442466,2.0753057,-0.01646258,0.94963527,1.6490924,1.8799907,0.0,2,0,0,0
2525758730,37.10287305515625,-76.38776527702551,33.86023,-0.0,1.5283611,2.0741813,0.0013511511,0.9466922,1.6490805,1.8800075,0.0,2,0,0,0
2525962850,37.10287579020941,-76.38776063561635,33.84705,-0.0,1.5373658,2.0768683,-0.0026974138,0.94467294,1.6490248,1.8800222,0.0,2,0,0,0
2526166778,37.1028785428959,-76.38775598493727,33.842426,-0.0,1.5314225,2.0831409,-0.013429952,0.9430183,1.6491957,1.8801086,0.0,2,0,0,0
2526366854,37.102881246592474,-76.38775143613763,33.840965,-0.0,1.529057,2.087136,-0.033012968,0.9416355,1.649192,1.8801191,0.0,2,0,0,0
2526568372,37.10288398960405,-76.3877468604107,33.84525,-0.0,1.5318611,2.0770214,-0.025977168,0.94096977,1.6492089,1.8799181,0.0,2,0,0,0
2526772460,37.10288677398909,-76.38774222265658,33.85097,-0.0,1.5292987,2.066125,-0.04315591,0.94040495,1.6492553,1.8799473,0.0,2,0,0,0
2526972553,37.10288952022504,-76.38773768792184,33.86092,-0.0,1.5385289,2.0781481,-0.039645754,0.94047916,1.6492425,1.8799607,0.0,2,0,0,0
2527172519,37.102892281418356,-76.38773317540382,33.86206,-0.0,1.5426397,2.071664,-0.03377661,0.94037044,1.6492531,1.8799745,0.0,2,0,0,0
2527376384,37.10289513873822,-76.38772856354369,33.854958,-0.0,1.5481769,2.0718875,-0.0077852607,0.93887794,1.6458858,1.8799194,0.0,2,0,0,0
2527580535,37.102898033451915,-76.38772392667033,33.85305,-0.0,1.5669209,2.0608587,-0.023377443,0.93793786,1.6458918,1.879932,0.0,2,0,0,0
2527784421,37.1029009654222,-76.3877192758385,33.85062,-0.0,1.572904,2.0600042,-0.0032913256,0.9372344,1.6460075,1.8798101,0.0,2,0,0,0
2527988514,37.10290394446069,-76.38771462455482,33.855736,-0.0,1.5966114,2.0630245,-0.032546975,0.93587846,1.646013,1.8798236,0.0,2,0,0,0
2528192386,37.102906924390915,-76.38770999568132,33.861317,-0.0,1.601329,2.0476847,-0.029385183,0.934516,1.6461489,1.8799077,0.0,2,0,0,0
2528396485,37.102909900890275,-76.38770540074594,33.871937,-0.0,1.6047225,2.0431862,-0.022573061,0.9347706,1.6461343,1.879919,0.0,2,0,0,0
2528596449,37.10291279539695,-76.38770093250936,33.873856,-0.0,1.6111025,2.047551,-0.018016398,0.93743247,1.6461397,1.8799361,0.0,2,0,0,0
2528796172,37.102915669937246,-76.38769640557904,33.872696,-0.0,1.5684781,2.0663617,0.033048425,0.9402237,1.6461434,1.8799492,0.0,2,0,0,0
2529000374,37.102918539331654,-76.38769171246162,33.865383,-0.0,1.5299475,2.1029282,0.04127624,0.94289804,1.6462588,1.8798296,0.0,2,0,0,0
2529200329,37.102921284879734,-76.38768705569083,33.86141,-0.0,1.4947957,2.133347,0.036818843,0.9446473,1.6462626,1.879849,0.0,2,0,0,0
2529404176,37.102924020890704,-76.3876822293563,33.863552,-0.0,1.4726893,2.1468678,0.034075536,0.9448798,1.6462663,1.8798684,0.0,2,0,0,0
2529608420,37.10292670352071,-76.3876774159902,33.867775,-0.0,1.4495442,2.140615,0.015125005,0.9431666,1.6464022,1.87976,0.0,2,0,0,0
2529808333,37.102929289200404,-76.38767276478843,33.869675,-0.0,1.4423096,2.09208,0.0044903867,0.941567,1.6464058,1.879783,0.0,2,0,0,0
2530012459,37.10293190623596,-76.38766812950182,33.86499,-0.0,1.441779,2.0244575,-0.00381375,0.9407021,1.6464094,1.8798113,0.0,2,0,0,0
2530216442,37.102934528554336,-76.38766362678577,33.869896,-0.0,1.4316803,1.9782575,-0.0047753565,0.9404558,1.6465268,1.879713,0.0,2,0,0,0
2530420392,37.10293713948264,-76.3876592632,33.875053,-0.0,1.4447759,1.9293845,-0.038307875,0.94230396,1.6465318,1.8797449,0.0,2,0,0,0
2530622024,37.10293973243407,-76.38765502821671,33.872223,-0.0,1.4342002,1.8899015,-0.01779085,0.9460501,1.6465511,1.8797829,0.0,2,0,0,0
2530825959,37.10294235317353,-76.38765080209417,33.873257,-0.0,1.440959,1.8957245,-0.063038185,0.9515116,1.6466612,1.8798875,0.0,2,0,0,0
2531025983,37.10294489891893,-76.38764667075381,33.888134,-0.0,1.4029278,1.9062244,-0.030332536,0.95706564,1.646667,1.8799095,0.0,2,0,0,0
2531229763,37.10294748857653,-76.38764241179977,33.901016,-0.0,1.391973,1.9056202,-0.02388823,0.9619341,1.6466725,1.8797287,0.0,2,0,0,0
2531434013,37.1029500407028,-76.38763814558668,33.89643,-0.0,1.3886298,1.905679,-0.021701336,0.96402544,1.6468111,1.8798299,0.0,2,0,0,0
2531634021,37.10295250891537,-76.38763394987404,33.89165,-0.0,1.3719519,1.9051629,-0.026127681,0.96425414,1.6468142,1.8796608,0.0,2,0,0,0
2531833829,37.102954956543975,-76.38762975289215,33.89048,-0.0,1.3452985,1.8876817,-0.025885148,0.96396124,1.6468165,1.8796914,0.0,2,0,0,0
2532034024,37.10295738722508,-76.38762554200552,33.88591,-0.0,1.3500293,1.8956741,-0.00019223988,0.9622468,1.6468195,1.8797266,0.0,2,0,0,0
2532237979,37.10295986991458,-76.38762127550083,33.88823,-0.0,1.3636137,1.8828571,-0.024547648,0.9607695,1.6468211,1.8797548,0.0,2,0,0,0
2532442019,37.10296234306673,-76.38761702752439,33.895676,-0.0,1.3739053,1.875009,-0.04206209,0.958555,1.6469793,1.8798554,0.0,2,0,0,0
2532646100,37.1029648330289,-76.38761276242789,33.908703,-0.0,1.4108795,1.875774,-0.02832089,0.9573217,1.6469802,1.8796842,0.0,2,0,0,0
2532846077,37.10296733005797,-76.38760854675488,33.913525,-0.0,1.4461976,1.8721232,0.0049920743,0.9570945,1.6469803,1.879721,0.0,2,0,0,0
2533049944,37.10296993679888,-76.38760418330511,33.914837,-0.0,1.463223,1.8958275,0.005927401,0.9597204,1.6471164,1.8798263,0.0,2,0,0,0
2533253790,37.10297256645634,-76.3875997671407,33.91899,-0.0,1.4898084,1.91413,-0.0111365095,0.9638329,1.6471137,1.8798525,0.0,2,0,0,0
2533458065,37.102975181773594,-76.38759530762802,33.926476,-0.0,1.4480684,1.9285115,0.017286832,0.9670974,1.6472496,1.8799515,0.0,2,0,0,0
2533657919,37.10297770638455,-76.38759087982206,33.937332,-0.0,1.4559194,1.9830123,-0.1402081,0.9916008,1.6472468,1.8797685,0.0,2,0,0,0
2533857781,37.102980388461916,-76.38758613157877,34.02354,-0.0,1.6262629,2.2245815,-0.6549571,1.0468484,1.6472462,1.8799958,0.0,2,0,0,0
2534061922,37.102983655601,-76.38758038653168,34.215126,-0.0,2.0281093,2.7571485,-1.1644617,1.104805,1.647229,1.8800111,0.0,2,0,0,0
2534269949,37.10298770129004,-76.3875731121654,34.4571,-0.0,2.4343295,3.4029374,-1.233378,1.1467434,1.6474038,1.8800895,0.0,2,0,0,0
2534471561,37.10299227721896,-76.38756451127695,34.695118,-0.0,2.7868187,4.0461473,-1.1824191,1.1735053,1.6475848,1.8799564,0.0,2,0,0,0
2534675345,37.102997400677964,-76.38755439492965,34.91854,-0.0,3.019569,4.5570946,-1.0998446,1.1905768,1.6475797,1.8801346,0.0,2,0,0,0
2534875371,37.10300258444699,-76.38754356290137,35.127148,-0.0,3.0391567,4.805262,-1.1415873,1.2027482,1.6475662,1.8801239,0.0,2,0,0,0
2535075360,37.10300757754016,-76.38753230662654,35.360275,-0.0,2.9170573,4.8796763,-1.2709504,1.2100698,1.6476206,1.8801079,0.0,2,0,0,0
2535279317,37.10301236211804,-76.38752070637716,35.62894,-0.0,2.7609136,4.8904953,-1.3251318,1.2104368,1.6478163,1.880169,0.0,2,0,0,0
2535483628,37.103016901952955,-76.38750895166636,35.90712,-0.0,2.646101,5.005682,-1.3106422,1.2068508,1.647855,1.8801581,0.0,2,0,0,0
2535683717,37.103021189360206,-76.38749697952707,36.183224,-0.0,2.5866566,5.2600174,-1.3002621,1.2041659,1.6478804,1.880143,0.0,2,0,0,0
2535887642,37.1030254996828,-76.38748418282731,36.464607,-0.0,2.5948927,5.575409,-1.3269309,1.2077022,1.6479795,1.8802012,0.0,2,0,0,0
2536091736,37.10302981357163,-76.38747058334695,36.743618,-0.0,2.629634,5.8902545,-1.3178185,1.2134811,1.6480424,1.8801816,0.0,2,0,0,0
2536291730,37.10303413576091,-76.38745661580369,37.014732,-0.0,2.6652238,6.138909,-1.3651069,1.21871,1.6480534,1.8801625,0.0,2,0,0,0
2536495615,37.103038588861374,-76.38744193012421,37.291225,-0.0,2.6796012,6.3132086,-1.3309526,1.2226759,1.6481863,1.8800076,0.0,2,0,0,0
2536699959,37.10304309959455,-76.3874269164403,37.563473,-0.0,2.6975439,6.451587,-1.3203105,1.2260251,1.6481895,1.8799948,0.0,2,0,0,0
2536899381,37.10304752229562,-76.38741190139973,37.825512,-0.0,2.6835203,6.5370326,-1.3684429,1.2282774,1.6482282,1.8799837,0.0,2,0,0,0
2537103518,37.103051964549095,-76.38739650832866,38.106045,-0.0,2.6166968,6.5786,-1.3462403,1.2269542,1.6483608,1.8800465,0.0,2,0,0,0
2537307638,37.10305635472346,-76.38738111151362,38.391937,-0.0,2.632644,6.6248326,-1.381848,1.2229233,1.6483407,1.880037,0.0,2,0,0,0
2537507685,37.10306065521931,-76.38736604127483,38.667004,-0.0,2.6200192,6.6497297,-1.3490841,1.2193019,1.6482943,1.880024,0.0,2,0,0,0
2537707605,37.10306499166635,-76.387350967335,38.940464,-0.0,2.6335182,6.6619835,-1.3781713,1.2174704,1.648268,1.8800156,0.0,2,0,0,0
2537911358,37.10306948139202,-76.38733558827948,39.225403,-0.0,2.6558075,6.666758,-1.3807585,1.2151796,1.6483859,1.8800801,0.0,2,0,0,0
2538115376,37.10307408542456,-76.38732017361649,39.505596,-0.0,2.6694489,6.665223,-1.357268,1.2161589,1.6483984,1.8800724,0.0,2,0,0,0
2538317271,37.103078656521525,-76.38730508010983,39.779457,-0.0,2.6614459,6.661677,-1.3499619,1.2191397,1.6483217,1.8800609,0.0,2,0,0,0
2538520952,37.10308325437534,-76.38728987508578,40.06423,-0.0,2.643063,6.65594,-1.3216537,1.2209101,1.6484638,1.8801426,0.0,2,0,0,0
2538724982,37.1030878883862,-76.38727468375994,40.35052,-0.0,2.6380498,6.67264,-1.3349487,1.2197278,1.648434,1.8801334,0.0,2,0,0,0
2538925580,37.103092445480925,-76.38725985420726,40.631695,-0.0,2.658952,6.6672864,-1.3665481,1.2190222,1.6483866,1.8801229,0.0,2,0,0,0
2539125389,37.10309700374021,-76.38724502355589,40.914665,-0.0,2.6553578,6.652858,-1.3116838,1.2172548,1.6483667,1.880114,0.0,2,0,0,0
2539328908,37.103101697713015,-76.38722986900187,41.200596,-0.0,2.6749196,6.671923,-1.330983,1.2169752,1.648496,1.8799677,0.0,2,0,0,0
2539529004,37.10310639086127,-76.38721501817251,41.471554,-0.0,2.7147706,6.683285,-1.3740369,1.2179933,1.6484848,1.879961,0.0,2,0,0,0
2539733533,37.1031112709081,-76.38719984640814,41.74864,-0.0,2.724142,6.6926403,-1.358041,1.219831,1.648477,1.879955,0.0,2,0,0,0
2539933317,37.10311604721144,-76.3871850387614,42.004433,-0.0,2.6837726,6.696502,-1.269951,1.2207999,1.6484109,1.879953,0.0,2,0,0,0
2540137209,37.10312083270602,-76.38716986727317,42.260666,-0.0,2.6363525,6.7249374,-1.2665871,1.2229643,1.6485642,1.8800249,0.0,2,0,0,0
2540341158,37.10312551671991,-76.38715455000677,42.51956,-0.0,2.5313094,6.77608,-1.2384977,1.2235843,1.6485726,1.8800275,0.0,2,0,0,0
2540545274,37.103130078257784,-76.38713915896889,42.77779,-0.0,2.4686174,6.8144846,-1.2542443,1.2247281,1.6487067,1.8798984,0.0,2,0,0,0
2540745252,37.10313448411198,-76.38712400263955,43.02515,-0.0,2.4219654,6.8234015,-1.2632811,1.2250893,1.6487186,1.8799049,0.0,2,0,0,0
2540949292,37.10313893545336,-76.38710849436208,43.28896,-0.0,2.3995318,6.83102,-1.2853125,1.2243291,1.6487324,1.8799108,0.0,2,0,0,0
2541153148,37.10314343070498,-76.38709300690167,43.540398,-0.0,2.4122272,6.8240595,-1.2547973,1.2252618,1.648899,1.8799928,0.0,2,0,0,0
2541353109,37.10314787175162,-76.38707783409214,43.76756,-0.0,2.4119143,6.8170614,-1.2516668,1.2266275,1.6489154,1.8800015,0.0,2,0,0,0
2541553161,37.10315233818309,-76.38706267405604,43.99626,-0.0,2.4344392,6.820221,-1.2444376,1.22687,1.6489305,1.8800111,0.0,2,0,0,0
2541753149,37.10315683706646,-76.38704750408158,44.224106,-0.0,2.448892,6.809899,-1.2336452,1.224918,1.6489453,1.8800186,0.0,2,0,0,0
2541957377,37.1031614474424,-76.38703201566683,44.467842,-0.0,2.4556148,6.811292,-1.2649965,1.2245857,1.6489595,1.8800243,0.0,2,0,0,0
2542158895,37.10316602728452,-76.387016739786,44.709293,-0.0,2.452917,6.806702,-1.2690667,1.2262886,1.6491264,1.8801031,0.0,2,0,0,0
2542358812,37.103170573367855,-76.38700162279986,44.949776,-0.0,2.4249175,6.7867484,-1.2666558,1.2268132,1.6490927,1.8798772,0.0,2,0,0,0
2542562870,37.103175195470776,-76.3869861684901,45.20439,-0.0,2.3938892,6.8081813,-1.283987,1.2275621,1.6491138,1.8798846,0.0,2,0,0,0
2542766822,37.10317976803306,-76.38697066983063,45.462566,-0.0,2.3674877,6.82147,-1.2701379,1.2265906,1.6492857,1.8799685,0.0,2,0,0,0
2542966816,37.1031841608981,-76.38695553537612,45.719368,-0.0,2.3530462,6.8299675,-1.2332845,1.2241497,1.6492316,1.8799773,0.0,2,0,0,0
2543166766,37.103188557671714,-76.38694031239555,45.970875,-0.0,2.3513808,6.837158,-1.2315507,1.2230232,1.6492505,1.8799863,0.0,2,0,0,0
2543366730,37.103192976948634,-76.38692513758951,46.227295,-0.0,2.3622346,6.8129306,-1.2723961,1.2228351,1.6492436,1.8799934,0.0,2,0,0,0
2543570888,37.10319755169915,-76.38690975187936,46.483517,-0.0,2.4097977,6.765561,-1.2746693,1.2233998,1.6492399,1.8800031,0.0,2,0,0,0
2543774583,37.103202229298404,-76.38689439718011,46.73387,-0.0,2.4369266,6.736738,-1.2253715,1.2260277,1.6494129,1.8798821,0.0,2,0,0,0
2543974960,37.10320679917536,-76.38687937730644,46.967422,-0.0,2.4417157,6.7466836,-1.2342294,1.2292585,1.6494054,1.8798972,0.0,2,0,0,0
2544178836,37.103211428741794,-76.38686403021747,47.205555,-0.0,2.387606,6.7491198,-1.245254,1.2304214,1.6493969,1.8799111,0.0,2,0,0,0
2544378774,37.10321590063564,-76.38684897145568,47.45055,-0.0,2.3318558,6.753342,-1.2632949,1.2303026,1.6493889,1.8799286,0.0,2,0,0,0
2544582843,37.10322037094773,-76.38683360371733,47.701725,-0.0,2.2771773,6.7428913,-1.2424046,1.2283697,1.6459894,1.8796784,0.0,2,0,0,0
2544786759,37.103224774359795,-76.3868181358395,47.973896,-0.0,2.2746382,6.76013,-1.3254778,1.2281199,1.646003,1.8797004,0.0,2,0,0,0
2544986927,37.10322907231375,-76.38680296605294,48.24893,-0.0,2.253621,6.7485294,-1.3072164,1.2276405,1.6460155,1.8797222,0.0,2,0,0,0
2545186761,37.10323338645822,-76.38678776679942,48.530243,-0.0,2.2592196,6.7584386,-1.3742142,1.2271088,1.646027,1.8797494,0.0,2,0,0,0
2545390805,37.103237789658166,-76.38677224454564,48.817,-0.0,2.2485263,6.7726545,-1.3655711,1.223911,1.6461691,1.8796471,0.0,2,0,0,0
2545590581,37.103242084517994,-76.38675696343175,49.110558,-0.0,2.2479796,6.7973294,-1.3867154,1.2211981,1.6461787,1.8796717,0.0,2,0,0,0
2545794716,37.10324650767928,-76.38674129139686,49.405857,-0.0,2.2931597,6.836035,-1.4045469,1.2202064,1.6461865,1.8796985,0.0,2,0,0,0
2545996480,37.1032509313194,-76.38672571356243,49.681366,-0.0,2.333776,6.871049,-1.3613821,1.221022,1.6461921,1.8797234,0.0,2,0,0,0
2546200143,37.10325547791013,-76.38670991299452,49.948307,-0.0,2.3714254,6.898141,-1.3702466,1.2225227,1.6463507,1.8798295,0.0,2,0,0,0
2546400374,37.10325996865012,-76.3866944305624,50.218094,-0.0,2.4155805,6.8848257,-1.3906516,1.220878,1.646348,1.879847,0.0,2,0,0,0
2546600491,37.10326451132837,-76.3866790047353,50.475193,-0.0,2.4362373,6.843161,-1.3225795,1.2219676,1.6463456,1.8798618,0.0,2,0,0,0
2546800357,37.10326907870577,-76.3866636553863,50.72611,-0.0,2.4648695,6.8011537,-1.2708824,1.225338,1.646341,1.8796791,0.0,2,0,0,0
2547000184,37.10327365733422,-76.38664837950454,50.978424,-0.0,2.4669185,6.773861,-1.2867686,1.2286993,1.6463175,1.8797024,0.0,2,0,0,0
2547204331,37.10327836200074,-76.38663287512506,51.244194,-0.0,2.4974914,6.758746,-1.3159451,1.2323837,1.646314,1.8797216,0.0,2,0,0,0
2547408389,37.103283095893744,-76.38661729787631,51.506485,-0.0,2.5067472,6.769844,-1.2807535,1.2326665,1.6464447,1.879812,0.0,2,0,0,0
2547608149,37.10328772535777,-76.38660194869115,51.765533,-0.0,2.5092382,6.79634,-1.3089997,1.233279,1.6464239,1.8798316,0.0,2,0,0,0
2547808393,37.10329232874667,-76.38658656259776,52.02444,-0.0,2.490148,6.8391337,-1.334727,1.2342849,1.646368,1.8796529,0.0,2,0,0,0
2548008197,37.10329688232028,-76.38657112393905,52.275433,-0.0,2.4463105,6.8803477,-1.3028723,1.2342513,1.6463761,1.8796834,0.0,2,0,0,0
2548212460,37.10330143280021,-76.38655517030567,52.52837,-0.0,2.388523,6.898145,-1.3117275,1.2321494,1.6463816,1.8797121,0.0,2,0,0,0
2548412422,37.10330574437007,-76.38653944121054,52.780704,-0.0,2.2872953,6.902148,-1.3734595,1.2296773,1.646369,1.8797437,0.0,2,0,0,0
2548616129,37.10330997874616,-76.386523433723,53.052647,-0.0,2.2095978,6.886335,-1.4464554,1.2273533,1.6464932,1.8796493,0.0,2,0,0,0
2548816465,37.10331399273849,-76.3865077461805,53.312393,-0.0,2.1741538,6.896362,-1.397689,1.2252177,1.646508,1.8796899,0.0,2,0,0,0
2549016174,37.103317944839496,-76.38649199660985,53.559494,-0.0,2.1246476,6.9005585,-1.3137496,1.2239492,1.6465002,1.8795332,0.0,2,0,0,0
2549220344,37.10332190125835,-76.38647593819134,53.82314,-0.0,2.107163,6.9309235,-1.3454455,1.2227768,1.6464913,1.879573,0.0,2,0,0,0
2549424317,37.103325856508455,-76.38645986187703,54.095093,-0.0,2.1620977,6.922537,-1.4086733,1.2183987,1.6466155,1.8796808,0.0,2,0,0,0
2549628372,37.10332992304688,-76.38644384517796,54.380234,-0.0,2.24731,6.8684535,-1.4481866,1.2154219,1.6466093,1.8797137,0.0,2,0,0,0
2549829786,37.103334127841315,-76.38642820175758,54.667583,-0.0,2.3657303,6.8080845,-1.4629557,1.2163246,1.6465689,1.8797406,0.0,2,0,0,0
2550034036,37.10333859054906,-76.3864125460295,54.951122,-0.0,2.518795,6.7416983,-1.5253375,1.2205578,1.6467516,1.8798528,0.0,2,0,0,0
2550234067,37.10334322094711,-76.38639717841023,55.225155,-0.0,2.5750296,6.7065554,-1.433895,1.2215493,1.6467688,1.8796761,0.0,2,0,0,0
2550434000,37.10334803625483,-76.386381830143,55.494663,-0.0,2.6430674,6.687407,-1.408438,1.2254996,1.6467832,1.8797013,0.0,2,0,0,0
2550637997,37.103352983843145,-76.3863661807682,55.78775,-0.0,2.6720595,6.688723,-1.4798534,1.2302276,1.6467966,1.8797235,0.0,2,0,0,0
2550837971,37.10335775598958,-76.38635084703668,56.06691,-0.0,2.6128817,6.7348967,-1.4483415,1.2318722,1.6467503,1.8797425,0.0,2,0,0,0
2551037989,37.1033624578056,-76.38633548276381,56.344574,-0.0,2.6008468,6.760163,-1.4549335,1.233484,1.6467656,1.8797594,0.0,2,0,0,0
2551242045,37.1033672446949,-76.38631965470199,56.622963,-0.0,2.5804274,6.7834754,-1.4379205,1.2336844,1.6469154,1.879848,0.0,2,0,0,0
2551441784,37.10337186217955,-76.3863040682981,56.902252,-0.0,2.5424008,6.817572,-1.405953,1.2338145,1.6469266,1.8798636,0.0,2,0,0,0
2551645973,37.10337648295149,-76.3862880842633,57.176533,-0.0,2.4883466,6.8671975,-1.4122767,1.2329546,1.6469356,1.8798772,0.0,2,0,0,0
2551850007,37.10338097740411,-76.38627200077833,57.456284,-0.0,2.462358,6.8888946,-1.3968185,1.2293262,1.6470782,1.8799593,0.0,2,0,0,0
2552053752,37.10338535946663,-76.38625590025944,57.738697,-0.0,2.4010968,6.921402,-1.3630612,1.2317095,1.6470826,1.8799657,0.0,2,0,0,0
2552253743,37.103389572056024,-76.38624005000177,58.011604,-0.0,2.338349,6.961851,-1.3097048,1.2337852,1.6470854,1.8799738,0.0,2,0,0,0
2552458060,37.10339377098491,-76.38622378619804,58.271698,-0.0,2.299599,7.007007,-1.3119963,1.2340498,1.6472235,1.879851,0.0,2,0,0,0
2552657993,37.10339782411232,-76.38620779080755,58.52491,-0.0,2.292967,7.030462,-1.2875278,1.2322315,1.6472217,1.8798629,0.0,2,0,0,0
2552862081,37.10340195819712,-76.38619147263063,58.78196,-0.0,2.301156,7.0286193,-1.2482334,1.2303181,1.647221,1.8798802,0.0,2,0,0,0
2553061812,37.10340607183676,-76.38617548549445,59.038113,-0.0,2.3422086,7.022256,-1.277394,1.2298954,1.6472192,1.8798994,0.0,2,0,0,0
2553265763,37.103410354464394,-76.38615921755267,59.306442,-0.0,2.386833,7.010067,-1.2983912,1.2294202,1.6473576,1.8797809,0.0,2,0,0,0
2553465985,37.10341463071295,-76.38614330964337,59.558086,-0.0,2.42819,6.974585,-1.2481254,1.2273504,1.6473581,1.8797936,0.0,2,0,0,0
2553669910,37.10341908871171,-76.38612714819949,59.8106,-0.0,2.4645057,6.9409037,-1.2230327,1.2259185,1.647357,1.8798081,0.0,2,0,0,0
2553871316,37.103423562493276,-76.38611133216261,60.05793,-0.0,2.525227,6.91127,-1.2712162,1.2263417,1.6473434,1.8798374,0.0,2,0,0,0
2554075685,37.10342813260397,-76.38609541942469,60.310223,-0.0,2.5303264,6.880258,-1.2295216,1.2273953,1.6474838,1.879923,0.0,2,0,0,0
2554275371,37.10343270216767,-76.38607984564187,60.564434,-0.0,2.5853186,6.8580384,-1.2746104,1.2290885,1.6474845,1.8797374,0.0,2,0,0,0
2554479344,37.10343741745985,-76.38606401737853,60.831295,-0.0,2.6088693,6.833576,-1.3324451,1.229472,1.6474868,1.8797555,0.0,2,0,0,0
2554679617,37.103442087606204,-76.38604847576507,61.1014,-0.0,2.5967999,6.818116,-1.3021929,1.2281053,1.6475102,1.8797796,0.0,2,0,0,0
2554883559,37.10344684076859,-76.38603265670227,61.370365,-0.0,2.5931857,6.82872,-1.2933626,1.2268032,1.6476123,1.8798728,0.0,2,0,0,0
2555083596,37.10345148730809,-76.3860171179244,61.63488,-0.0,2.5808272,6.84596,-1.3183726,1.2260852,1.6476182,1.8798922,0.0,2,0,0,0
2555287669,37.10345621727423,-76.3860012238402,61.913097,-0.0,2.5517106,6.839048,-1.2731653,1.2249894,1.6476245,1.8799098,0.0,2,0,0,0
2555487381,37.10346086243659,-76.38598562449356,62.179935,-0.0,2.5495925,6.830313,-1.2733485,1.2239184,1.6476305,1.8797278,0.0,2,0,0,0
