timestamp,vel_pos_innov[0],vel_pos_innov[1],vel_pos_innov[2],vel_pos_innov[3],vel_pos_innov[4],vel_pos_innov[5],mag_innov[0],mag_innov[1],mag_innov[2],heading_innov,airspeed_innov,beta_innov,flow_innov[0],flow_innov[1],hagl_innov,vel_pos_innov_var[0],vel_pos_innov_var[1],vel_pos_innov_var[2],vel_pos_innov_var[3],vel_pos_innov_var[4],vel_pos_innov_var[5],mag_innov_var[0],mag_innov_var[1],mag_innov_var[2],heading_innov_var,airspeed_innov_var,beta_innov_var,flow_innov_var[0],flow_innov_var[1],hagl_innov_var,output_tracking_error[0],output_tracking_error[1],output_tracking_error[2],drag_innov[0],drag_innov[1],drag_innov_var[0],drag_innov_var[1],aux_vel_innov[0],aux_vel_innov[1]
2467876178,-0.032262538,0.09478659,-0.007074117,-0.023691177,-0.058799744,0.07316208,0.0,0.0,0.0,0.029891223,0.0,0.0,0.0,0.0,0.0,0.26109487,0.26109442,0.5716371,0.28877497,0.2887747,4.056098,0.0,0.0,0.0,0.09016686,0.0,0.0,0.0,0.0,0.0,0.00021971548,0.0057936376,0.013270449,0.0,0.0,0.0,0.0,0.0,0.0
2468080137,0.01320906,0.08624907,0.047586106,-0.021108627,-0.05898285,0.11520386,0.0,0.0,0.0,-0.036323167,0.0,0.0,0.0,0.0,0.0,0.26090133,0.26090088,0.5716255,0.28787956,0.2878793,4.0562263,0.0,0.0,0.0,0.090166956,0.0,0.0,0.0,0.0,0.0,0.00029705855,0.004524284,0.010381491,0.0,0.0,0.0,0.0,0.0,0.0
2468284464,-0.008053246,0.12461603,-0.02496231,-0.021709442,-0.04535675,0.026618958,0.0,0.0,0.0,-0.07607268,0.0,0.0,0.0,0.0,0.0,0.2610299,0.26102942,0.571618,0.2884582,0.2884579,4.056044,0.0,0.0,0.0,0.09016679,0.0,0.0,0.0,0.0,0.0,0.00019028451,0.005574835,0.012180127,0.0,0.0,0.0,0.0,0.0,0.0
2468484373,-0.0034311176,0.11926663,-0.059641458,-0.03073883,-0.05467987,0.040454865,0.0,0.0,0.0,0.014925152,0.0,0.0,0.0,0.0,0.0,0.26102826,0.2610276,0.57162714,0.28844848,0.28844815,4.0561347,0.0,0.0,0.0,0.09016659,0.0,0.0,0.0,0.0,0.0,0.00014875736,0.0061098323,0.015028321,0.0,0.0,0.0,0.0,0.0,0.0
2468688059,-0.009827531,0.089252055,0.049975898,-0.03788948,-0.06275177,0.24692154,0.0,0.0,0.0,0.059093013,0.0,0.0,0.0,0.0,0.0,0.261022,0.26102144,0.57163465,0.28844,0.28843963,4.0562162,0.0,0.0,0.0,0.09016661,0.0,0.0,0.0,0.0,0.0,0.00011666402,0.004009282,0.009441813,0.0,0.0,0.0,0.0,0.0,0.0
2468888346,-0.0037041781,0.098811716,-0.06058468,-0.042518616,-0.056732178,-0.16340256,0.0,0.0,0.0,0.026606597,0.0,0.0,0.0,0.0,0.0,0.26118088,0.26118037,0.5715818,0.28920537,0.28920498,4.056071,0.0,0.0,0.0,0.090166494,0.0,0.0,0.0,0.0,0.0,9.8222896e-05,0.0049627814,0.014077081,0.0,0.0,0.0,0.0,0.0,0.0
2469092532,0.048725255,0.11895224,0.12647514,-0.045684814,-0.057235718,0.0029945374,0.0,0.0,0.0,0.03080269,0.0,0.0,0.0,0.0,0.0,0.2609833,0.26098236,0.5715755,0.28831255,0.28831217,4.055907,0.0,0.0,0.0,0.09016637,0.0,0.0,0.0,0.0,0.0,0.00012265112,0.0029650182,0.008105887,0.0,0.0,0.0,0.0,0.0,0.0
2469292577,0.05062212,-0.042975083,-0.3795268,-0.053819656,-0.060890198,0.9955292,0.0,0.0,0.0,0.00176958,0.0,0.0,0.0,0.0,0.0,0.26124975,0.2612415,0.571587,0.28833333,0.28833306,4.0560117,0.0,0.0,0.0,0.09016653,0.0,0.0,0.0,0.0,0.0,0.00029756088,0.024171142,0.08397858,0.0,0.0,0.0,0.0,0.0,0.0
2469492463,0.100202814,-0.11687854,-0.33320355,-0.05332184,-0.0632782,1.5545387,0.0,0.0,0.0,0.012972757,0.0,0.0,0.0,0.0,0.0,0.26151422,0.26148152,0.571596,0.28840187,0.28840142,4.0561094,0.0,0.0,0.0,0.09016664,0.0,0.0,0.0,0.0,0.0,0.00044097262,0.035300814,0.12585457,0.0,0.0,0.0,0.0,0.0,0.0
2469696419,0.00033169985,-0.10194981,-0.1640498,-0.05653763,-0.07862091,-0.42626953,0.0,0.0,0.0,0.01185035,0.0,0.0,0.0,0.0,0.0,0.26156035,0.26150194,0.57160574,0.2884773,0.2884749,4.0559826,0.0,0.0,0.0,0.09016654,0.0,0.0,0.0,0.0,0.0,0.0003555444,0.01739033,0.067020684,0.0,0.0,0.0,0.0,0.0,0.0
2469896391,-0.14022715,0.14035296,0.03407252,-0.06347656,-0.07652283,0.06978989,0.0,0.0,0.0,-0.022258118,0.0,0.0,0.0,0.0,0.0,0.26150763,0.26145554,0.57154185,0.28854308,0.28853709,4.0558305,0.0,0.0,0.0,0.090166636,0.0,0.0,0.0,0.0,0.0,0.00025260117,0.0067350487,0.019509692,0.0,0.0,0.0,0.0,0.0,0.0
2470100394,-0.053481497,0.14362931,0.034697413,-0.072200775,-0.06536102,-0.7415848,0.0,0.0,0.0,0.013937153,0.0,0.0,0.0,0.0,0.0,0.26141143,0.26138964,0.57154983,0.2885885,0.28857964,4.055694,0.0,0.0,0.0,0.090166435,0.0,0.0,0.0,0.0,0.0,0.00033969677,0.0071346513,0.016330358,0.0,0.0,0.0,0.0,0.0,0.0
2470300374,0.006064117,0.05427228,-0.11088008,-0.07906532,-0.05974579,-0.09880829,0.0,0.0,0.0,-0.023046672,0.0,0.0,0.0,0.0,0.0,0.26133588,0.2613394,0.57156205,0.2886165,0.28860742,4.055833,0.0,0.0,0.0,0.090166576,0.0,0.0,0.0,0.0,0.0,0.00019230107,0.009111221,0.029642787,0.0,0.0,0.0,0.0,0.0,0.0
2470500176,0.1334124,0.14859203,-0.27172112,-0.07040024,-0.048851013,-0.21894073,0.0,0.0,0.0,0.03992524,0.0,0.0,0.0,0.0,0.0,0.26128742,0.26130486,0.5715746,0.28862876,0.28862178,4.0557427,0.0,0.0,0.0,0.09016627,0.0,0.0,0.0,0.0,0.0,0.00027136694,0.013651976,0.04328946,0.0,0.0,0.0,0.0,0.0,0.0
2470704159,0.18312904,0.2542209,-0.012736678,-0.055496216,-0.02470398,-0.10536957,0.0,0.0,0.0,-0.007528901,0.0,0.0,0.0,0.0,0.0,0.26124623,0.26126477,0.57158977,0.28863034,0.2886269,4.0558715,0.0,0.0,0.0,0.09016594,0.0,0.0,0.0,0.0,0.0,0.0004367781,0.016731342,0.05060989,0.0,0.0,0.0,0.0,0.0,0.0
2470908390,0.081124485,0.16570586,-0.017535627,-0.032993317,0.0017089844,-0.24753952,0.0,0.0,0.0,-0.025151275,0.0,0.0,0.0,0.0,0.0,0.26122066,0.2612306,0.5715302,0.28862607,0.28862637,4.055735,0.0,0.0,0.0,0.09016587,0.0,0.0,0.0,0.0,0.0,0.00036263966,0.015728999,0.049093015,0.0,0.0,0.0,0.0,0.0,0.0
2471112384,0.14324528,0.1996716,0.18192238,-0.030046463,0.02544403,-0.004749298,0.0,0.0,0.0,-0.0004575029,0.0,0.0,0.0,0.0,0.0,0.26119053,0.26119,0.5715458,0.28861853,0.2886216,4.0556626,0.0,0.0,0.0,0.09016569,0.0,0.0,0.0,0.0,0.0,0.00041934944,0.012801582,0.035975013,0.0,0.0,0.0,0.0,0.0,0.0
2471312534,0.08451313,0.15297605,0.20557505,-0.02566719,0.047966003,0.078948975,0.0,0.0,0.0,0.057581082,0.0,0.0,0.0,0.0,0.0,0.26115885,0.26115146,0.57156146,0.28860742,0.2886117,4.0558023,0.0,0.0,0.0,0.09016576,0.0,0.0,0.0,0.0,0.0,0.0004759613,0.010637089,0.027962873,0.0,0.0,0.0,0.0,0.0,0.0
2471512367,0.08798456,0.1441493,-0.038241804,-0.019130707,0.051254272,-0.24419022,0.0,0.0,0.0,-0.030710265,0.0,0.0,0.0,0.0,0.0,0.2611314,0.2611203,0.57157516,0.28859353,0.28859764,4.055679,0.0,0.0,0.0,0.09016599,0.0,0.0,0.0,0.0,0.0,0.00039474588,0.010224202,0.027987223,0.0,0.0,0.0,0.0,0.0,0.0
2471716365,0.00030356646,0.10008496,0.040296435,-0.012971878,0.05846405,0.5656166,0.0,0.0,0.0,-0.011031933,0.0,0.0,0.0,0.0,0.0,0.2611089,0.26109803,0.5715907,0.28857914,0.28858218,4.055824,0.0,0.0,0.0,0.09016579,0.0,0.0,0.0,0.0,0.0,0.00029304225,0.007522478,0.022397717,0.0,0.0,0.0,0.0,0.0,0.0
2471920416,-0.0032265037,0.0028861985,-0.048541248,-0.022727966,0.059913635,-0.42085648,0.0,0.0,0.0,-0.0031200498,0.0,0.0,0.0,0.0,0.0,0.26103193,0.26102322,0.57157373,0.28830615,0.2883078,4.0557466,0.0,0.0,0.0,0.09016572,0.0,0.0,0.0,0.0,0.0,0.00013305685,0.004424919,0.017009007,0.0,0.0,0.0,0.0,0.0,0.0
2472124186,0.20471047,-0.0057395175,0.036735356,-0.009183884,0.06334686,0.004711151,0.0,0.0,0.0,0.016438745,0.0,0.0,0.0,0.0,0.0,0.2610729,0.2610679,0.5715456,0.28858167,0.28858182,4.0556335,0.0,0.0,0.0,0.0901659,0.0,0.0,0.0,0.0,0.0,0.0002929586,0.0051013436,0.012621132,0.0,0.0,0.0,0.0,0.0,0.0
2472325990,0.24303475,0.056534417,0.059069097,0.011291504,0.060928345,-0.13047409,0.0,0.0,0.0,0.0050328,0.0,0.0,0.0,0.0,0.0,0.26105252,0.2610509,0.57156223,0.2885589,0.28855783,4.0555844,0.0,0.0,0.0,0.09016631,0.0,0.0,0.0,0.0,0.0,0.00059374055,0.0088170795,0.02041278,0.0,0.0,0.0,0.0,0.0,0.0
2472526108,0.10836144,0.07767979,-0.12374908,0.023742676,0.06758118,-0.24052048,0.0,0.0,0.0,-0.015490979,0.0,0.0,0.0,0.0,0.0,0.26103187,0.26103395,0.5715078,0.28853455,0.28853276,4.055415,0.0,0.0,0.0,0.090166226,0.0,0.0,0.0,0.0,0.0,0.00046235824,0.00775739,0.020083385,0.0,0.0,0.0,0.0,0.0,0.0
2472725972,-0.05467046,-0.042487785,0.012379825,0.016708374,0.058372498,-0.14970398,0.0,0.0,0.0,-0.015906848,0.0,0.0,0.0,0.0,0.0,0.26100174,0.2610075,0.5715245,0.28843516,0.2884332,4.055401,0.0,0.0,0.0,0.09016602,0.0,0.0,0.0,0.0,0.0,9.76735e-05,0.0068155094,0.023944966,0.0,0.0,0.0,0.0,0.0,0.0
2472926220,0.10784436,0.012419006,-0.08651328,0.01681137,0.055648804,-0.05379486,0.0,0.0,0.0,0.06487078,0.0,0.0,0.0,0.0,0.0,0.26098755,0.2609949,0.57154614,0.28842548,0.28842372,4.0553374,0.0,0.0,0.0,0.09016573,0.0,0.0,0.0,0.0,0.0,0.00049668853,0.0049539856,0.016543671,0.0,0.0,0.0,0.0,0.0,0.0
2473130077,0.08826259,0.032868102,-0.0035609007,0.021068573,0.057510376,0.19953537,0.0,0.0,0.0,0.012384854,0.0,0.0,0.0,0.0,0.0,0.2609851,0.26099235,0.57156754,0.28841403,0.2884128,4.0555286,0.0,0.0,0.0,0.09016544,0.0,0.0,0.0,0.0,0.0,0.00072589354,0.0028910798,0.008874941,0.0,0.0,0.0,0.0,0.0,0.0
2473333995,0.22881997,-0.038808495,0.041971743,0.038244247,0.048065186,0.1767807,0.0,0.0,0.0,0.018981852,0.0,0.0,0.0,0.0,0.0,0.26098284,0.26099047,0.5715129,0.28840417,0.28840366,4.0555058,0.0,0.0,0.0,0.090165384,0.0,0.0,0.0,0.0,0.0,0.00071390055,0.0064993952,0.012920181,0.0,0.0,0.0,0.0,0.0,0.0
2473534035,0.066534534,-0.033277027,-0.06013143,0.04278946,0.04384613,0.3846054,0.0,0.0,0.0,0.040872782,0.0,0.0,0.0,0.0,0.0,0.2609804,0.26098645,0.57153165,0.28839368,0.28839388,4.0556993,0.0,0.0,0.0,0.0901655,0.0,0.0,0.0,0.0,0.0,0.0005895082,0.0051194564,0.011799327,0.0,0.0,0.0,0.0,0.0,0.0
2473734035,0.061813325,-0.038250435,-0.18157089,0.03403473,0.039009094,0.34685898,0.0,0.0,0.0,0.054743543,0.0,0.0,0.0,0.0,0.0,0.26097316,0.2609791,0.57154816,0.28838396,0.28838488,4.055608,0.0,0.0,0.0,0.09016532,0.0,0.0,0.0,0.0,0.0,0.0005335729,0.004023127,0.00894373,0.0,0.0,0.0,0.0,0.0,0.0
2473938029,-0.0033615977,-0.11956121,0.11660898,0.027288437,0.02558899,0.19374847,0.0,0.0,0.0,0.037007928,0.0,0.0,0.0,0.0,0.0,0.26096892,0.26097423,0.57156414,0.2883754,0.288377,4.0557947,0.0,0.0,0.0,0.09016513,0.0,0.0,0.0,0.0,0.0,0.0006456937,0.0077880644,0.020228738,0.0,0.0,0.0,0.0,0.0,0.0
2474141736,0.22556892,0.09516967,-0.012789965,0.027803421,0.037246704,0.12447357,0.0,0.0,0.0,0.041325487,0.0,0.0,0.0,0.0,0.0,0.26096198,0.2609683,0.5715793,0.28836766,0.28836983,4.055741,0.0,0.0,0.0,0.09016478,0.0,0.0,0.0,0.0,0.0,0.00061263185,0.005434025,0.016039662,0.0,0.0,0.0,0.0,0.0,0.0
2474341939,-0.033940017,-0.06742556,0.038194537,0.016023636,0.033599854,0.04572296,0.0,0.0,0.0,0.0038660318,0.0,0.0,0.0,0.0,0.0,0.2609673,0.26097336,0.57152003,0.28836173,0.2883644,4.0556464,0.0,0.0,0.0,0.09016491,0.0,0.0,0.0,0.0,0.0,0.00026193078,0.0032724168,0.006044152,0.0,0.0,0.0,0.0,0.0,0.0
2474546033,0.016862407,-0.10045359,0.07900089,0.0026359558,0.032554626,-0.0532341,0.0,0.0,0.0,0.030228876,0.0,0.0,0.0,0.0,0.0,0.26097134,0.26097685,0.57153463,0.28835666,0.2883598,4.055807,0.0,0.0,0.0,0.09016507,0.0,0.0,0.0,0.0,0.0,0.00035314006,0.005381448,0.009701814,0.0,0.0,0.0,0.0,0.0,0.0
2474746040,0.2781552,0.07171237,0.01554656,0.022148132,0.035102844,-0.46902084,0.0,0.0,0.0,0.028923951,0.0,0.0,0.0,0.0,0.0,0.26097158,0.26097596,0.57154644,0.28835124,0.28835464,4.055702,0.0,0.0,0.0,0.09016519,0.0,0.0,0.0,0.0,0.0,0.0004535978,0.0035489995,0.006839109,0.0,0.0,0.0,0.0,0.0,0.0
2474950017,0.041722387,-0.044272877,0.06776506,0.022287369,0.03492737,-0.24692535,0.0,0.0,0.0,-0.0039336607,0.0,0.0,0.0,0.0,0.0,0.2611197,0.2611226,0.5715753,0.28911623,0.2891198,4.0559125,0.0,0.0,0.0,0.09016522,0.0,0.0,0.0,0.0,0.0,0.0003244884,0.0022036904,0.003922261,0.0,0.0,0.0,0.0,0.0,0.0
2475154041,0.089032285,-0.09335749,0.04974675,0.015106201,0.03249359,-0.19382477,0.0,0.0,0.0,0.038457498,0.0,0.0,0.0,0.0,0.0,0.26092997,0.26093167,0.5715703,0.28823093,0.28823414,4.0557966,0.0,0.0,0.0,0.09016526,0.0,0.0,0.0,0.0,0.0,0.0003189114,0.0037177745,0.007574388,0.0,0.0,0.0,0.0,0.0,0.0
2475358028,0.19255668,-0.02405495,-0.02788353,0.038175583,0.033081055,0.1879654,0.0,0.0,0.0,0.037447385,0.0,0.0,0.0,0.0,0.0,0.26094297,0.26094386,0.5715827,0.2882411,0.28824395,4.05594,0.0,0.0,0.0,0.090165555,0.0,0.0,0.0,0.0,0.0,0.0005210155,0.0036298833,0.0077123307,0.0,0.0,0.0,0.0,0.0,0.0
2475558039,0.14050168,-0.10736311,0.028505802,0.04801178,0.028800964,-0.12828827,0.0,0.0,0.0,-0.011209138,0.0,0.0,0.0,0.0,0.0,0.26094776,0.26094848,0.57151884,0.2882497,0.28825217,4.055815,0.0,0.0,0.0,0.09016541,0.0,0.0,0.0,0.0,0.0,0.00046362408,0.0068653403,0.019499708,0.0,0.0,0.0,0.0,0.0,0.0
2475761988,-0.0406619,0.0734127,0.19842702,0.047185898,0.038993835,-0.23625946,0.0,0.0,0.0,0.028166711,0.0,0.0,0.0,0.0,0.0,0.26095894,0.2609596,0.57153016,0.2882601,0.28826222,4.0559506,0.0,0.0,0.0,0.09016536,0.0,0.0,0.0,0.0,0.0,0.000591971,0.0068660607,0.024811698,0.0,0.0,0.0,0.0,0.0,0.0
2475966013,0.099468715,0.013989924,-0.0323503,0.04986763,0.044052124,-0.4484787,0.0,0.0,0.0,0.025077134,0.0,0.0,0.0,0.0,0.0,0.26113668,0.2611373,0.57155323,0.28904104,0.28904295,4.0561123,0.0,0.0,0.0,0.09016543,0.0,0.0,0.0,0.0,0.0,0.000747897,0.008654308,0.030168666,0.0,0.0,0.0,0.0,0.0,0.0
2476167613,0.16856223,-0.14311805,-0.016311944,0.063201904,0.034217834,-0.023704529,0.0,0.0,0.0,-0.008392818,0.0,0.0,0.0,0.0,0.0,0.2609578,0.26095834,0.5715446,0.28817278,0.2881744,4.056236,0.0,0.0,0.0,0.09016516,0.0,0.0,0.0,0.0,0.0,0.00088296056,0.0063618473,0.020896925,0.0,0.0,0.0,0.0,0.0,0.0
2476371346,0.09511249,0.017913945,-0.07475442,0.0735054,0.044799805,0.059223175,0.0,0.0,0.0,0.035710208,0.0,0.0,0.0,0.0,0.0,0.260986,0.26098645,0.5715529,0.28819865,0.2882001,4.0561295,0.0,0.0,0.0,0.090165004,0.0,0.0,0.0,0.0,0.0,0.00046841078,0.0022640994,0.007960218,0.0,0.0,0.0,0.0,0.0,0.0
2476575615,0.11548796,-0.17772351,0.00634861,0.06947899,0.016693115,-0.23095322,0.0,0.0,0.0,0.06683183,0.0,0.0,0.0,0.0,0.0,0.26102784,0.2610281,0.5715734,0.28829312,0.2882943,4.0562954,0.0,0.0,0.0,0.090164825,0.0,0.0,0.0,0.0,0.0,0.0005616977,0.009296741,0.016004747,0.0,0.0,0.0,0.0,0.0,0.0
2476779728,-0.10868824,0.026551519,0.11598414,0.057933807,0.011817932,-0.34627914,0.0,0.0,0.0,-0.0096726045,0.0,0.0,0.0,0.0,0.0,0.2610358,0.26103598,0.5715081,0.2883109,0.2883119,4.0561295,0.0,0.0,0.0,0.09016483,0.0,0.0,0.0,0.0,0.0,0.00022860974,0.004672798,0.011768331,0.0,0.0,0.0,0.0,0.0,0.0
2476983688,0.25618714,-0.0026519615,0.037635624,0.071416855,0.014762878,-0.011154175,0.0,0.0,0.0,0.068247795,0.0,0.0,0.0,0.0,0.0,0.26104334,0.26104355,0.5715192,0.2883274,0.2883282,4.0555086,0.0,0.0,0.0,0.090165004,0.0,0.0,0.0,0.0,0.0,0.00034667653,0.009397348,0.016994767,0.0,0.0,0.0,0.0,0.0,0.0
2477187618,-0.10666777,-0.058856614,0.25533974,0.056238174,0.0030975342,0.45778656,0.0,0.0,0.0,0.032638945,0.0,0.0,0.0,0.0,0.0,0.26104766,0.26104793,0.57153046,0.2883424,0.288343,4.055633,0.0,0.0,0.0,0.09016474,0.0,0.0,0.0,0.0,0.0,0.00023776566,0.008269647,0.020591656,0.0,0.0,0.0,0.0,0.0,0.0
2477387839,0.16150153,-0.12644139,0.11726582,0.06374931,-0.0109939575,-0.49209976,0.0,0.0,0.0,0.03667681,0.0,0.0,0.0,0.0,0.0,0.261119,0.2611195,0.5715691,0.28861448,0.288615,4.0562644,0.0,0.0,0.0,0.09016508,0.0,0.0,0.0,0.0,0.0,0.0004906095,0.010560807,0.019166825,0.0,0.0,0.0,0.0,0.0,0.0
2477587592,-0.11953923,0.010987338,0.23802125,0.05028534,-0.019424438,-0.10115051,0.0,0.0,0.0,0.055322506,0.0,0.0,0.0,0.0,0.0,0.26105973,0.26106045,0.5715488,0.28833368,0.28833407,4.0558524,0.0,0.0,0.0,0.090165116,0.0,0.0,0.0,0.0,0.0,0.00054699084,0.00615992,0.011173434,0.0,0.0,0.0,0.0,0.0,0.0
2477791567,-0.11953923,0.010987338,0.23802125,0.05028534,-0.019424438,0.10687256,0.0,0.0,0.0,0.0012639761,0.0,0.0,0.0,0.0,0.0,0.26105973,0.26106045,0.5715488,0.28833368,0.28833407,4.056467,0.0,0.0,0.0,0.09016477,0.0,0.0,0.0,0.0,0.0,0.00054081314,0.007118109,0.017549831,0.0,0.0,0.0,0.0,0.0,0.0
2477995622,0.015636178,0.06624062,-0.013175249,0.03167343,-0.012901306,-0.2540207,0.0,0.0,0.0,0.03821902,0.0,0.0,0.0,0.0,0.0,0.2610285,0.2610288,0.57155985,0.28825313,0.28825343,4.0560217,0.0,0.0,0.0,0.09016491,0.0,0.0,0.0,0.0,0.0,0.00033474475,0.0022682599,0.005463833,0.0,0.0,0.0,0.0,0.0,0.0
2478199379,0.018129429,-0.11729521,0.01681006,0.022758484,-0.015197754,-0.51942444,0.0,0.0,0.0,0.015874892,0.0,0.0,0.0,0.0,0.0,0.26109132,0.2610912,0.57152104,0.2885331,0.28853333,4.0563464,0.0,0.0,0.0,0.09016486,0.0,0.0,0.0,0.0,0.0,0.00045774382,0.0069124964,0.01710009,0.0,0.0,0.0,0.0,0.0,0.0
2478399594,-0.05123661,-0.025816988,-0.045943737,0.015256882,-0.02507782,0.2517128,0.0,0.0,0.0,0.021685325,0.0,0.0,0.0,0.0,0.0,0.26103172,0.2610312,0.5715697,0.28826314,0.28826335,4.055934,0.0,0.0,0.0,0.09016486,0.0,0.0,0.0,0.0,0.0,0.0003518255,0.007100491,0.015140364,0.0,0.0,0.0,0.0,0.0,0.0
2478599620,-0.029640172,0.07324586,0.013990045,0.002418518,-0.014350891,0.38721085,0.0,0.0,0.0,0.024712421,0.0,0.0,0.0,0.0,0.0,0.26104084,0.26104018,0.5715045,0.28828865,0.2882888,4.0557485,0.0,0.0,0.0,0.09016491,0.0,0.0,0.0,0.0,0.0,0.00029627144,0.006781272,0.013993519,0.0,0.0,0.0,0.0,0.0,0.0
2478799362,0.0032059103,-0.09825584,-0.16044223,0.002128601,-0.013847351,-0.12998962,0.0,0.0,0.0,0.011363573,0.0,0.0,0.0,0.0,0.0,0.26121357,0.26121268,0.5715288,0.28908432,0.28908437,4.0563636,0.0,0.0,0.0,0.09016495,0.0,0.0,0.0,0.0,0.0,0.00039604024,0.00725355,0.014739394,0.0,0.0,0.0,0.0,0.0,0.0
2479003363,0.0067356937,-0.08459319,-0.050453782,-0.0029239655,-0.01939392,0.31399918,0.0,0.0,0.0,-0.018433087,0.0,0.0,0.0,0.0,0.0,0.261022,0.2610213,0.5715221,0.2882203,0.2882203,4.0559316,0.0,0.0,0.0,0.0901649,0.0,0.0,0.0,0.0,0.0,0.00051328586,0.008585667,0.023223225,0.0,0.0,0.0,0.0,0.0,0.0
2479207602,0.029188575,-0.031013671,-0.017859936,-0.0071430206,-0.016799927,-0.021095276,0.0,0.0,0.0,0.052962616,0.0,0.0,0.0,0.0,0.0,0.26102123,0.26102075,0.5715307,0.28824994,0.28824985,4.055743,0.0,0.0,0.0,0.09016486,0.0,0.0,0.0,0.0,0.0,0.00020519254,0.0055506304,0.0137967225,0.0,0.0,0.0,0.0,0.0,0.0
2479407699,-0.030286068,-0.087004274,0.049735308,-0.025482178,-0.026557922,-0.040672302,0.0,0.0,0.0,0.039299294,0.0,0.0,0.0,0.0,0.0,0.2610346,0.26103428,0.5715384,0.28827703,0.28827694,4.0558205,0.0,0.0,0.0,0.090164855,0.0,0.0,0.0,0.0,0.0,0.00039983666,0.008623447,0.019052906,0.0,0.0,0.0,0.0,0.0,0.0
2479607695,-0.08916087,-0.12682725,0.08916497,-0.04009819,-0.039718628,0.114227295,0.0,0.0,0.0,0.050863482,0.0,0.0,0.0,0.0,0.0,0.26104409,0.26104438,0.57154477,0.28830084,0.28830072,4.0558887,0.0,0.0,0.0,0.09016482,0.0,0.0,0.0,0.0,0.0,0.00065117446,0.013172494,0.026116997,0.0,0.0,0.0,0.0,0.0,0.0
2479811618,-0.11417659,0.041217092,0.10272956,-0.051027298,-0.029830933,-0.06988907,0.0,0.0,0.0,-0.042283542,0.0,0.0,0.0,0.0,0.0,0.2612046,0.26120538,0.5715645,0.28909433,0.2890943,4.055986,0.0,0.0,0.0,0.09016486,0.0,0.0,0.0,0.0,0.0,0.0004734362,0.014347264,0.029946165,0.0,0.0,0.0,0.0,0.0,0.0
2480015688,0.025018178,0.052246414,0.23237109,-0.059921265,-0.030853271,-0.06247711,0.0,0.0,0.0,0.00937663,0.0,0.0,0.0,0.0,0.0,0.26096016,0.26096106,0.5715247,0.287976,0.28797603,4.056045,0.0,0.0,0.0,0.0901649,0.0,0.0,0.0,0.0,0.0,0.00025359364,0.011242614,0.027649788,0.0,0.0,0.0,0.0,0.0,0.0
2480217159,-0.06234018,-0.023612225,0.05327046,-0.066991806,-0.02443695,0.04409027,0.0,0.0,0.0,0.010047004,0.0,0.0,0.0,0.0,0.0,0.2610365,0.2610379,0.57156223,0.28829348,0.28829363,4.0558734,0.0,0.0,0.0,0.09016494,0.0,0.0,0.0,0.0,0.0,0.000215352,0.010824785,0.025332566,0.0,0.0,0.0,0.0,0.0,0.0
2480420950,0.008023016,-0.047260396,-0.009596348,-0.06806183,-0.031570435,0.057647705,0.0,0.0,0.0,-0.07224824,0.0,0.0,0.0,0.0,0.0,0.26105154,0.2610527,0.5715752,0.28836662,0.28836685,4.05598,0.0,0.0,0.0,0.09016507,0.0,0.0,0.0,0.0,0.0,0.00034451653,0.008182163,0.020380395,0.0,0.0,0.0,0.0,0.0,0.0
2480625247,-0.018745711,-0.17383914,0.10439277,-0.073308945,-0.053100586,-0.304924,0.0,0.0,0.0,0.07090861,0.0,0.0,0.0,0.0,0.0,0.26103932,0.26104063,0.57151043,0.28837648,0.28837687,4.055829,0.0,0.0,0.0,0.09016498,0.0,0.0,0.0,0.0,0.0,0.0005174424,0.011437756,0.025350893,0.0,0.0,0.0,0.0,0.0,0.0
2480824975,-0.058865994,-0.04495591,0.1592958,-0.0772171,-0.060585022,0.263443,0.0,0.0,0.0,0.03647524,0.0,0.0,0.0,0.0,0.0,0.26115063,0.26115233,0.5715082,0.28889847,0.28889903,4.0556564,0.0,0.0,0.0,0.09016523,0.0,0.0,0.0,0.0,0.0,0.0004733754,0.012264025,0.027553312,0.0,0.0,0.0,0.0,0.0,0.0
2481028957,-0.12338494,-0.009318244,0.024152279,-0.08926773,-0.054504395,0.20340729,0.0,0.0,0.0,0.010016046,0.0,0.0,0.0,0.0,0.0,0.26100972,0.2610119,0.5715362,0.2883166,0.28831732,4.0555496,0.0,0.0,0.0,0.090165265,0.0,0.0,0.0,0.0,0.0,0.0006417742,0.013289499,0.02909287,0.0,0.0,0.0,0.0,0.0,0.0
2481233169,-0.08557285,-0.00016673282,0.12807405,-0.10857582,-0.047714233,-0.058444977,0.0,0.0,0.0,0.051098786,0.0,0.0,0.0,0.0,0.0,0.26100668,0.26100948,0.5715532,0.28832734,0.28832826,4.0556808,0.0,0.0,0.0,0.0901654,0.0,0.0,0.0,0.0,0.0,0.00046751343,0.013333482,0.030674506,0.0,0.0,0.0,0.0,0.0,0.0
2481432970,-0.080910586,0.017063174,0.052541494,-0.11911774,-0.039634705,-0.45529938,0.0,0.0,0.0,0.0008648038,0.0,0.0,0.0,0.0,0.0,0.2609539,0.26095754,0.57153815,0.28808376,0.288085,4.0555334,0.0,0.0,0.0,0.09016513,0.0,0.0,0.0,0.0,0.0,0.0004694787,0.011885958,0.026003074,0.0,0.0,0.0,0.0,0.0,0.0
2481633301,-0.058809876,0.01199935,0.0672431,-0.12182999,-0.030845642,-0.14820099,0.0,0.0,0.0,0.015011653,0.0,0.0,0.0,0.0,0.0,0.2610197,0.26102453,0.57151234,0.28838262,0.28838435,4.055451,0.0,0.0,0.0,0.09016524,0.0,0.0,0.0,0.0,0.0,0.00044722244,0.011633828,0.027472831,0.0,0.0,0.0,0.0,0.0,0.0
2481832946,0.03160263,-0.0774035,-0.016525984,-0.10856819,-0.040351868,-0.025886536,0.0,0.0,0.0,0.016680613,0.0,0.0,0.0,0.0,0.0,0.26112068,0.26112655,0.57151747,0.28889835,0.2889006,4.055335,0.0,0.0,0.0,0.09016519,0.0,0.0,0.0,0.0,0.0,0.0003564974,0.0076438677,0.019979773,0.0,0.0,0.0,0.0,0.0,0.0
2482037318,-0.0028988197,-0.045327786,-0.06666899,-0.10422516,-0.036956787,0.029167175,0.0,0.0,0.0,0.01419311,0.0,0.0,0.0,0.0,0.0,0.26099294,0.26099882,0.57147783,0.2883106,0.28831318,4.055232,0.0,0.0,0.0,0.09016543,0.0,0.0,0.0,0.0,0.0,0.0004465105,0.005693689,0.0146150915,0.0,0.0,0.0,0.0,0.0,0.0
2482240945,0.04998836,-0.010198161,0.059954643,-0.09223366,-0.038108826,-0.2040863,0.0,0.0,0.0,-0.013472483,0.0,0.0,0.0,0.0,0.0,0.2609934,0.26099977,0.5714993,0.2883195,0.28832257,4.0554576,0.0,0.0,0.0,0.090165555,0.0,0.0,0.0,0.0,0.0,0.00030876332,0.0020902401,0.007811126,0.0,0.0,0.0,0.0,0.0,0.0
2482444980,0.021181718,-0.060870975,0.04272473,-0.088005066,-0.026977539,0.23760605,0.0,0.0,0.0,0.011820972,0.0,0.0,0.0,0.0,0.0,0.26099387,0.26099986,0.5715172,0.2883275,0.2883309,4.0553503,0.0,0.0,0.0,0.0901658,0.0,0.0,0.0,0.0,0.0,0.00020409931,0.0017881904,0.0052578333,0.0,0.0,0.0,0.0,0.0,0.0
2482645221,-0.008985966,-0.033422403,0.011133313,-0.08292389,-0.018455505,-0.33054352,0.0,0.0,0.0,-0.022164412,0.0,0.0,0.0,0.0,0.0,0.26098463,0.26098844,0.5715364,0.288332,0.28833562,4.055526,0.0,0.0,0.0,0.090165995,0.0,0.0,0.0,0.0,0.0,0.00021982138,0.0046895756,0.0152857555,0.0,0.0,0.0,0.0,0.0,0.0
2482845104,-0.034610413,0.046316538,0.16851449,-0.08473778,0.0012817383,0.18887329,0.0,0.0,0.0,-0.011382237,0.0,0.0,0.0,0.0,0.0,0.26093268,0.26093426,0.5715239,0.28808406,0.2880876,4.0554113,0.0,0.0,0.0,0.09016585,0.0,0.0,0.0,0.0,0.0,0.00021058385,0.0042092362,0.008339351,0.0,0.0,0.0,0.0,0.0,0.0
2483049192,-0.009451956,0.005826693,0.052072287,-0.08413887,0.01675415,0.04146576,0.0,0.0,0.0,0.0057843253,0.0,0.0,0.0,0.0,0.0,0.2610538,0.2610537,0.57152814,0.2886351,0.28863835,4.0553594,0.0,0.0,0.0,0.0901656,0.0,0.0,0.0,0.0,0.0,0.00030746387,0.00515692,0.010780192,0.0,0.0,0.0,0.0,0.0,0.0
2483253183,0.022677518,0.09160372,0.0712024,-0.07800865,0.037254333,0.054588318,0.0,0.0,0.0,-0.054055184,0.0,0.0,0.0,0.0,0.0,0.26104623,0.2610444,0.5715464,0.28859723,0.2885998,4.0555363,0.0,0.0,0.0,0.090165384,0.0,0.0,0.0,0.0,0.0,0.0005190211,0.0087267775,0.017946515,0.0,0.0,0.0,0.0,0.0,0.0
2483457178,0.032605834,0.042115584,0.046668172,-0.059597015,0.046279907,-0.44059753,0.0,0.0,0.0,0.0010778308,0.0,0.0,0.0,0.0,0.0,0.2609859,0.26098332,0.5715323,0.28830817,0.28830993,4.055475,0.0,0.0,0.0,0.090165466,0.0,0.0,0.0,0.0,0.0,0.00024641593,0.00872379,0.01898916,0.0,0.0,0.0,0.0,0.0,0.0
2483656943,0.017343566,0.05367223,0.08595085,-0.0525589,0.052352905,0.23617172,0.0,0.0,0.0,-0.032437727,0.0,0.0,0.0,0.0,0.0,0.26098752,0.26098448,0.57154936,0.28831726,0.28831816,4.055377,0.0,0.0,0.0,0.090165704,0.0,0.0,0.0,0.0,0.0,0.00020845835,0.0096301995,0.022973025,0.0,0.0,0.0,0.0,0.0,0.0
2483860976,0.015482236,0.15336034,0.13965178,-0.04417801,0.060440063,-0.013538361,0.0,0.0,0.0,-0.041646935,0.0,0.0,0.0,0.0,0.0,0.26108918,0.26108643,0.57155406,0.28883508,0.28883514,4.0552864,0.0,0.0,0.0,0.09016552,0.0,0.0,0.0,0.0,0.0,0.00056285877,0.013004102,0.027766392,0.0,0.0,0.0,0.0,0.0,0.0
2484062984,0.07195253,-0.06193907,0.11687434,-0.02193451,0.06085968,-0.046272278,0.0,0.0,0.0,0.017726839,0.0,0.0,0.0,0.0,0.0,0.26096642,0.26096356,0.5715138,0.28825524,0.28825465,4.055261,0.0,0.0,0.0,0.09016537,0.0,0.0,0.0,0.0,0.0,0.0005072546,0.009274348,0.024916634,0.0,0.0,0.0,0.0,0.0,0.0
2484262743,-0.024640568,-0.015904933,0.112531185,-0.015979767,0.051979065,-0.11828613,0.0,0.0,0.0,-0.10373938,0.0,0.0,0.0,0.0,0.0,0.26098248,0.26097977,0.57153744,0.28831947,0.2883183,4.055238,0.0,0.0,0.0,0.0901658,0.0,0.0,0.0,0.0,0.0,0.0005273538,0.006102425,0.018161647,0.0,0.0,0.0,0.0,0.0,0.0
2484466757,0.11477828,-0.024907649,0.07194674,0.010353088,0.04875946,-0.36613464,0.0,0.0,0.0,0.012242742,0.0,0.0,0.0,0.0,0.0,0.26093444,0.26093265,0.57152724,0.28807005,0.2880684,4.055422,0.0,0.0,0.0,0.090165906,0.0,0.0,0.0,0.0,0.0,0.0001538771,0.008312111,0.02028261,0.0,0.0,0.0,0.0,0.0,0.0
2484666737,0.058047716,-0.07791902,0.104914784,0.026210785,0.045410156,0.23791504,0.0,0.0,0.0,-0.024662547,0.0,0.0,0.0,0.0,0.0,0.2609443,0.26094383,0.5715446,0.28811276,0.28811085,4.0553846,0.0,0.0,0.0,0.09016593,0.0,0.0,0.0,0.0,0.0,0.0002428403,0.008598684,0.021242559,0.0,0.0,0.0,0.0,0.0,0.0
2484866857,0.016932746,-0.020092525,0.3216467,0.03278351,0.028388977,0.13899231,0.0,0.0,0.0,-0.002436906,0.0,0.0,0.0,0.0,0.0,0.26112577,0.26112643,0.57157713,0.28891695,0.288915,4.055552,0.0,0.0,0.0,0.090165965,0.0,0.0,0.0,0.0,0.0,0.00013561375,0.009392478,0.024015747,0.0,0.0,0.0,0.0,0.0,0.0
2485070570,0.117521085,-0.014950544,0.25433707,0.051124573,0.023422241,-0.12077713,0.0,0.0,0.0,0.015663542,0.0,0.0,0.0,0.0,0.0,0.26093313,0.26093432,0.5715025,0.2880718,0.2880702,4.055451,0.0,0.0,0.0,0.09016606,0.0,0.0,0.0,0.0,0.0,0.00033789227,0.011793552,0.028945431,0.0,0.0,0.0,0.0,0.0,0.0
2485270822,0.15147649,-0.13344419,0.23299372,0.06982803,0.007408142,0.30540085,0.0,0.0,0.0,0.05699329,0.0,0.0,0.0,0.0,0.0,0.26095518,0.2609551,0.5715193,0.28811416,0.28811306,4.05536,0.0,0.0,0.0,0.090166226,0.0,0.0,0.0,0.0,0.0,0.0004119151,0.013911236,0.031268086,0.0,0.0,0.0,0.0,0.0,0.0
2485474587,0.22378059,-0.04045544,0.25418973,0.09258652,-0.0054092407,-0.069503784,0.0,0.0,0.0,-0.02088666,0.0,0.0,0.0,0.0,0.0,0.26101455,0.26101267,0.57149476,0.28840554,0.28840494,4.0553308,0.0,0.0,0.0,0.09016641,0.0,0.0,0.0,0.0,0.0,0.00060305075,0.016846139,0.03657372,0.0,0.0,0.0,0.0,0.0,0.0
2485674755,0.19563822,-0.056998,0.3015362,0.11575508,-0.0034637451,-0.08870697,0.0,0.0,0.0,0.06448995,0.0,0.0,0.0,0.0,0.0,0.26101393,0.26101002,0.57151264,0.28840154,0.28840125,4.055509,0.0,0.0,0.0,0.09016622,0.0,0.0,0.0,0.0,0.0,0.0007405336,0.018301249,0.040672768,0.0,0.0,0.0,0.0,0.0,0.0
2485878767,0.025850862,-0.00041490048,0.2794137,0.102537155,-0.0009613037,-0.07732773,0.0,0.0,0.0,-0.029010378,0.0,0.0,0.0,0.0,0.0,0.26100343,0.2609977,0.57152855,0.288397,0.28839675,4.055414,0.0,0.0,0.0,0.09016637,0.0,0.0,0.0,0.0,0.0,0.00038794684,0.011714813,0.028576681,0.0,0.0,0.0,0.0,0.0,0.0
2486078763,0.10885976,-0.005474031,0.16403997,0.1141243,-0.0047836304,-0.2560196,0.0,0.0,0.0,-0.030914739,0.0,0.0,0.0,0.0,0.0,0.26100922,0.26100364,0.5715459,0.2883939,0.28839353,4.0555873,0.0,0.0,0.0,0.0901664,0.0,0.0,0.0,0.0,0.0,0.00035264282,0.011073208,0.027101595,0.0,0.0,0.0,0.0,0.0,0.0
2486278872,0.124393746,-0.035001576,0.2776531,0.120794296,-0.0135269165,-0.38196182,0.0,0.0,0.0,-0.006353885,0.0,0.0,0.0,0.0,0.0,0.26101437,0.26100817,0.57156,0.28839248,0.2883918,4.055532,0.0,0.0,0.0,0.09016611,0.0,0.0,0.0,0.0,0.0,0.00041504749,0.011762839,0.0284925,0.0,0.0,0.0,0.0,0.0,0.0
2486482774,0.08706906,-0.06630729,0.21687853,0.12743187,-0.020057678,-0.218956,0.0,0.0,0.0,0.029503345,0.0,0.0,0.0,0.0,0.0,0.26094842,0.26094508,0.5715463,0.28813383,0.28813294,4.0554376,0.0,0.0,0.0,0.09016608,0.0,0.0,0.0,0.0,0.0,0.0005299661,0.009960084,0.025054943,0.0,0.0,0.0,0.0,0.0,0.0
2486686720,0.025820632,0.0019222647,0.13309288,0.124874115,-0.015991211,-0.30384064,0.0,0.0,0.0,-0.054780155,0.0,0.0,0.0,0.0,0.0,0.26095423,0.2609533,0.5715641,0.28816694,0.288166,4.0556073,0.0,0.0,0.0,0.09016624,0.0,0.0,0.0,0.0,0.0,0.00042609748,0.0063122325,0.01747019,0.0,0.0,0.0,0.0,0.0,0.0
2486886748,-0.01273633,-0.17484218,-0.015020251,0.10567284,-0.030281067,0.094932556,0.0,0.0,0.0,-0.004979387,0.0,0.0,0.0,0.0,0.0,0.26095098,0.26095283,0.5715059,0.2881958,0.28819507,4.0555525,0.0,0.0,0.0,0.090166114,0.0,0.0,0.0,0.0,0.0,0.00034347447,0.006637,0.01531283,0.0,0.0,0.0,0.0,0.0,0.0
2487086772,-0.048470974,-0.09659406,0.02461195,0.09429932,-0.04450226,0.0017127991,0.0,0.0,0.0,0.011088535,0.0,0.0,0.0,0.0,0.0,0.26096523,0.26096866,0.5715224,0.28822058,0.28822032,4.055726,0.0,0.0,0.0,0.09016647,0.0,0.0,0.0,0.0,0.0,0.0003460219,0.006175881,0.01349344,0.0,0.0,0.0,0.0,0.0,0.0
2487290717,0.07268731,-0.0687917,0.09433818,0.09084892,-0.046546936,0.01399231,0.0,0.0,0.0,0.02422893,0.0,0.0,0.0,0.0,0.0,0.26101995,0.26102546,0.571567,0.28849614,0.28849658,4.055609,0.0,0.0,0.0,0.090166666,0.0,0.0,0.0,0.0,0.0,0.00033054667,0.0057232827,0.013467727,0.0,0.0,0.0,0.0,0.0,0.0
2487494773,-0.014666062,-0.020029414,0.14539969,0.08304024,-0.044425964,-0.18263245,0.0,0.0,0.0,0.056575485,0.0,0.0,0.0,0.0,0.0,0.26095963,0.2609663,0.5715516,0.2882237,0.28822497,4.05576,0.0,0.0,0.0,0.09016677,0.0,0.0,0.0,0.0,0.0,0.00037548097,0.005426201,0.016686326,0.0,0.0,0.0,0.0,0.0,0.0
2487698565,0.026534569,-0.06517422,0.16657507,0.086429596,-0.047958374,0.43987274,0.0,0.0,0.0,-0.0068865865,0.0,0.0,0.0,0.0,0.0,0.26095754,0.26096544,0.57156414,0.28824228,0.2882445,4.055686,0.0,0.0,0.0,0.09016664,0.0,0.0,0.0,0.0,0.0,0.0002751533,0.004039018,0.012544576,0.0,0.0,0.0,0.0,0.0,0.0
2487900173,-0.017926164,-0.08700194,0.09437871,0.07191086,-0.05055237,-0.0730896,0.0,0.0,0.0,-0.0045151636,0.0,0.0,0.0,0.0,0.0,0.26112705,0.2611365,0.57152134,0.2890293,0.2890328,4.0555725,0.0,0.0,0.0,0.09016683,0.0,0.0,0.0,0.0,0.0,0.0002720009,0.0045469264,0.0101854615,0.0,0.0,0.0,0.0,0.0,0.0
2488100362,0.005294189,-0.02848582,-0.021174073,0.061971664,-0.046409607,0.093055725,0.0,0.0,0.0,0.010563269,0.0,0.0,0.0,0.0,0.0,0.26095885,0.2609685,0.5715242,0.28821474,0.28821892,4.055789,0.0,0.0,0.0,0.090167105,0.0,0.0,0.0,0.0,0.0,0.0003783612,0.0032888234,0.0077654724,0.0,0.0,0.0,0.0,0.0,0.0
2488300520,0.011731416,-0.012144775,0.16700149,0.069654465,-0.041793823,0.007987976,0.0,0.0,0.0,-0.037858993,0.0,0.0,0.0,0.0,0.0,0.26096457,0.2609737,0.5715381,0.28823358,0.28823876,4.0559363,0.0,0.0,0.0,0.090167105,0.0,0.0,0.0,0.0,0.0,0.0003261543,0.0023402087,0.0058355127,0.0,0.0,0.0,0.0,0.0,0.0
2488500403,0.036917664,-0.043221746,0.30717576,0.05721283,-0.052497864,-0.308033,0.0,0.0,0.0,-0.0064972118,0.0,0.0,0.0,0.0,0.0,0.2610259,0.26103365,0.57157993,0.28850594,0.28851202,4.055842,0.0,0.0,0.0,0.09016719,0.0,0.0,0.0,0.0,0.0,0.0002706783,0.0019854947,0.006534782,0.0,0.0,0.0,0.0,0.0,0.0
2488700401,-0.06731887,-0.08613498,-0.09480691,0.054636,-0.0539093,0.023033142,0.0,0.0,0.0,-0.0401802,0.0,0.0,0.0,0.0,0.0,0.26101887,0.2610248,0.57159185,0.28848583,0.28849232,4.055966,0.0,0.0,0.0,0.09016709,0.0,0.0,0.0,0.0,0.0,0.000341058,0.0048071425,0.0100463545,0.0,0.0,0.0,0.0,0.0,0.0
2488904459,0.021898776,-0.006507911,0.025389075,0.049459457,-0.055290222,0.12585449,0.0,0.0,0.0,0.0011255518,0.0,0.0,0.0,0.0,0.0,0.26112747,0.26113048,0.57158667,0.28898153,0.2889882,4.055819,0.0,0.0,0.0,0.09016684,0.0,0.0,0.0,0.0,0.0,0.00019421634,0.0039972235,0.009663031,0.0,0.0,0.0,0.0,0.0,0.0
2489108344,-0.07111853,-0.0049965605,0.03499508,0.031843185,-0.050956726,0.04132843,0.0,0.0,0.0,-0.040875226,0.0,0.0,0.0,0.0,0.0,0.26099107,0.26099268,0.57153815,0.28837594,0.28838205,4.0559435,0.0,0.0,0.0,0.09016688,0.0,0.0,0.0,0.0,0.0,0.0003988106,0.0054729804,0.011170283,0.0,0.0,0.0,0.0,0.0,0.0
2489312448,-0.0013110042,-0.008025836,0.09126425,0.031341553,-0.047561646,-0.17498016,0.0,0.0,0.0,-0.04035689,0.0,0.0,0.0,0.0,0.0,0.26099378,0.26099324,0.5715475,0.28837138,0.28837672,4.0560517,0.0,0.0,0.0,0.09016689,0.0,0.0,0.0,0.0,0.0,0.00015526194,0.004658022,0.010282924,0.0,0.0,0.0,0.0,0.0,0.0
2489512440,-0.059008162,0.056671236,0.08747709,0.008684158,-0.033988953,0.15679169,0.0,0.0,0.0,-0.0365766,0.0,0.0,0.0,0.0,0.0,0.26093903,0.2609376,0.57159966,0.28811416,0.28811836,4.056148,0.0,0.0,0.0,0.09016668,0.0,0.0,0.0,0.0,0.0,0.0004019479,0.006892155,0.0151570635,0.0,0.0,0.0,0.0,0.0,0.0
2489712451,-0.21636075,0.10250558,-0.086069345,-0.013605118,-0.016525269,0.2180748,0.0,0.0,0.0,0.0088626295,0.0,0.0,0.0,0.0,0.0,0.26100338,0.26100218,0.57156205,0.2884021,0.28840506,4.05602,0.0,0.0,0.0,0.090166785,0.0,0.0,0.0,0.0,0.0,0.00035930943,0.012650589,0.02587633,0.0,0.0,0.0,0.0,0.0,0.0
2489916399,0.06667733,0.031130552,-0.0035959482,-0.018949509,-0.010734558,0.040496826,0.0,0.0,0.0,-0.046603724,0.0,0.0,0.0,0.0,0.0,0.26110563,0.2611053,0.5715574,0.28890842,0.28891018,4.056138,0.0,0.0,0.0,0.090166576,0.0,0.0,0.0,0.0,0.0,9.806363e-05,0.007932405,0.020203423,0.0,0.0,0.0,0.0,0.0,0.0
2490120453,-0.068744965,-0.02804095,0.0012198687,-0.025560379,-0.014976501,0.12069702,0.0,0.0,0.0,0.029265046,0.0,0.0,0.0,0.0,0.0,0.26091948,0.2609205,0.57155204,0.28806236,0.28806323,4.05623,0.0,0.0,0.0,0.09016704,0.0,0.0,0.0,0.0,0.0,0.0003478027,0.0071833436,0.018433627,0.0,0.0,0.0,0.0,0.0,0.0
2490324469,-0.079321265,0.039264124,0.0891726,-0.04046631,-0.013061523,0.13095856,0.0,0.0,0.0,0.10297937,0.0,0.0,0.0,0.0,0.0,0.26098546,0.26098773,0.5715889,0.2883552,0.28835538,4.056318,0.0,0.0,0.0,0.090167135,0.0,0.0,0.0,0.0,0.0,0.0004280245,0.008200193,0.019630544,0.0,0.0,0.0,0.0,0.0,0.0
2490524445,-0.09509442,0.05048357,0.089943886,-0.056171417,-0.006111145,-0.19847488,0.0,0.0,0.0,-0.0046009272,0.0,0.0,0.0,0.0,0.0,0.26098743,0.26099098,0.5715955,0.2883538,0.2883536,4.056168,0.0,0.0,0.0,0.09016692,0.0,0.0,0.0,0.0,0.0,0.0002929874,0.0091418205,0.021380339,0.0,0.0,0.0,0.0,0.0,0.0
2490728371,-0.044013213,0.12632547,0.11013651,-0.057899475,0.0067596436,0.35277557,0.0,0.0,0.0,-0.009253405,0.0,0.0,0.0,0.0,0.0,0.2609371,0.2609405,0.5715736,0.28810006,0.28809974,4.056248,0.0,0.0,0.0,0.090167016,0.0,0.0,0.0,0.0,0.0,0.00033430004,0.009433279,0.0216357,0.0,0.0,0.0,0.0,0.0,0.0
2490932376,0.0064369813,0.13163331,0.04345274,-0.06362915,0.019119263,0.03376007,0.0,0.0,0.0,0.019377165,0.0,0.0,0.0,0.0,0.0,0.26110598,0.261109,0.57159585,0.2889033,0.288903,4.056067,0.0,0.0,0.0,0.09016672,0.0,0.0,0.0,0.0,0.0,0.0003388855,0.009588189,0.021808209,0.0,0.0,0.0,0.0,0.0,0.0
2491132361,-0.08632703,0.14306596,0.14077914,-0.07783699,0.029296875,-0.3049469,0.0,0.0,0.0,0.0018387586,0.0,0.0,0.0,0.0,0.0,0.26093176,0.26093423,0.57151675,0.28805974,0.2880596,4.055951,0.0,0.0,0.0,0.090166815,0.0,0.0,0.0,0.0,0.0,0.00036016948,0.011758574,0.029783994,0.0,0.0,0.0,0.0,0.0,0.0
2491332381,-0.12656213,0.065769985,0.12200916,-0.0936985,0.036590576,-0.31214142,0.0,0.0,0.0,-0.006243363,0.0,0.0,0.0,0.0,0.0,0.26094347,0.26094526,0.57153076,0.28810257,0.28810263,4.056072,0.0,0.0,0.0,0.09016683,0.0,0.0,0.0,0.0,0.0,0.0004893947,0.010291833,0.024289237,0.0,0.0,0.0,0.0,0.0,0.0
2491532509,0.014169181,0.0019791685,-0.019518614,-0.08880043,0.030662537,-0.12971497,0.0,0.0,0.0,-0.018814221,0.0,0.0,0.0,0.0,0.0,0.26101935,0.26102027,0.5715737,0.28839642,0.28839663,4.055916,0.0,0.0,0.0,0.0901668,0.0,0.0,0.0,0.0,0.0,0.00021021812,0.0067377933,0.018090598,0.0,0.0,0.0,0.0,0.0,0.0
2491734000,0.05752709,0.010368383,0.061741948,-0.0777092,0.014137268,-0.05102539,0.0,0.0,0.0,-0.0012417883,0.0,0.0,0.0,0.0,0.0,0.26096642,0.26096678,0.5715578,0.28814018,0.28814045,4.0560293,0.0,0.0,0.0,0.09016676,0.0,0.0,0.0,0.0,0.0,0.00039342706,0.0027741652,0.009415035,0.0,0.0,0.0,0.0,0.0,0.0
2491938110,-0.018451987,-0.051767178,0.015048027,-0.07869911,0.0015945435,-0.27391052,0.0,0.0,0.0,-0.047214948,0.0,0.0,0.0,0.0,0.0,0.2611381,0.26113805,0.57158506,0.28894433,0.2889447,4.055843,0.0,0.0,0.0,0.09016664,0.0,0.0,0.0,0.0,0.0,0.00042378536,0.0045845695,0.0129739735,0.0,0.0,0.0,0.0,0.0,0.0
2492137680,-0.029876027,-0.039884042,0.025516748,-0.07402229,-0.009819031,0.4477768,0.0,0.0,0.0,0.04999426,0.0,0.0,0.0,0.0,0.0,0.26098555,0.26098484,0.57153606,0.288274,0.28827435,4.0559664,0.0,0.0,0.0,0.09016696,0.0,0.0,0.0,0.0,0.0,0.0004416053,0.003739803,0.008513247,0.0,0.0,0.0,0.0,0.0,0.0
2492342037,0.003267914,-0.02230373,0.101382494,-0.079582214,-0.014717102,0.24016953,0.0,0.0,0.0,-0.052166663,0.0,0.0,0.0,0.0,0.0,0.26100168,0.26100048,0.5715494,0.2882901,0.28829044,4.055828,0.0,0.0,0.0,0.09016672,0.0,0.0,0.0,0.0,0.0,0.00022015187,0.002946549,0.006636883,0.0,0.0,0.0,0.0,0.0,0.0
2492546039,0.04785596,0.06790842,0.07340419,-0.06470871,-0.014373779,0.18856049,0.0,0.0,0.0,-0.02232746,0.0,0.0,0.0,0.0,0.0,0.2609606,0.26095852,0.57153505,0.28805268,0.28805292,4.055954,0.0,0.0,0.0,0.0901666,0.0,0.0,0.0,0.0,0.0,0.00049254304,0.0011311424,0.0039339517,0.0,0.0,0.0,0.0,0.0,0.0
2492746001,-0.065392934,0.012348004,-0.0067682266,-0.07847786,-0.0138168335,0.2751007,0.0,0.0,0.0,0.015555002,0.0,0.0,0.0,0.0,0.0,0.2609661,0.2609632,0.57154864,0.28810245,0.28810254,4.055817,0.0,0.0,0.0,0.09016622,0.0,0.0,0.0,0.0,0.0,0.00019628512,0.0016364285,0.0049258736,0.0,0.0,0.0,0.0,0.0,0.0
2492946031,-0.007637036,0.02566845,0.13470125,-0.07471657,-0.015167236,-0.1154747,0.0,0.0,0.0,0.070793726,0.0,0.0,0.0,0.0,0.0,0.26099217,0.2609896,0.57156396,0.28814796,0.28814787,4.055992,0.0,0.0,0.0,0.09016633,0.0,0.0,0.0,0.0,0.0,0.00031809616,0.002811043,0.009474226,0.0,0.0,0.0,0.0,0.0,0.0
2493149962,0.015506279,0.05056426,0.14782596,-0.067020416,-0.015129089,-0.043827057,0.0,0.0,0.0,-0.0490148,0.0,0.0,0.0,0.0,0.0,0.2610425,0.26104084,0.57153344,0.2884404,0.2884401,4.0558543,0.0,0.0,0.0,0.09016613,0.0,0.0,0.0,0.0,0.0,0.000164958,0.0042980015,0.014564145,0.0,0.0,0.0,0.0,0.0,0.0
2493353997,0.04885229,-0.019299962,0.067634344,-0.06484604,-0.011207581,-0.13512039,0.0,0.0,0.0,-0.06724997,0.0,0.0,0.0,0.0,0.0,0.26102856,0.2610285,0.5715484,0.28843594,0.2884356,4.0559936,0.0,0.0,0.0,0.09016615,0.0,0.0,0.0,0.0,0.0,0.0002910426,0.002087944,0.0049279146,0.0,0.0,0.0,0.0,0.0,0.0
2493553997,0.029428497,-0.009912357,0.1639378,-0.058675766,-0.016853333,-0.1647377,0.0,0.0,0.0,-0.024843827,0.0,0.0,0.0,0.0,0.0,0.26101917,0.26102057,0.57156163,0.288431,0.28843084,4.0559044,0.0,0.0,0.0,0.09016626,0.0,0.0,0.0,0.0,0.0,0.0006962031,0.0024349017,0.004643416,0.0,0.0,0.0,0.0,0.0,0.0
2493757964,0.067523226,0.030768575,-0.02431178,-0.04374504,-0.011230469,0.308033,0.0,0.0,0.0,-0.002971463,0.0,0.0,0.0,0.0,0.0,0.2610134,0.2610157,0.571576,0.28842568,0.28842586,4.056038,0.0,0.0,0.0,0.0901662,0.0,0.0,0.0,0.0,0.0,0.00030949363,0.0040864795,0.009519192,0.0,0.0,0.0,0.0,0.0,0.0
2493958001,0.05547397,0.005583936,-0.019753814,-0.03420639,-0.016838074,0.542717,0.0,0.0,0.0,-0.051693648,0.0,0.0,0.0,0.0,0.0,0.26095873,0.26096052,0.5715592,0.28816634,0.28816685,4.0561585,0.0,0.0,0.0,0.09016631,0.0,0.0,0.0,0.0,0.0,4.794689e-05,0.0046146475,0.013011136,0.0,0.0,0.0,0.0,0.0,0.0
2494162074,0.054831058,0.0121160485,0.040216565,-0.025888443,-0.002822876,-0.20829391,0.0,0.0,0.0,-0.040740892,0.0,0.0,0.0,0.0,0.0,0.2610722,0.26107284,0.57155555,0.28870732,0.2887082,4.0562634,0.0,0.0,0.0,0.09016618,0.0,0.0,0.0,0.0,0.0,6.0564034e-05,0.0052653966,0.013301626,0.0,0.0,0.0,0.0,0.0,0.0
2494365770,-0.012019582,-0.018813573,0.03459978,-0.026327133,0.0010986328,0.111888885,0.0,0.0,0.0,0.009406552,0.0,0.0,0.0,0.0,0.0,0.26100123,0.26099983,0.5716073,0.2884034,0.2884044,4.056349,0.0,0.0,0.0,0.09016595,0.0,0.0,0.0,0.0,0.0,4.8952166e-05,0.007149613,0.022612857,0.0,0.0,0.0,0.0,0.0,0.0
2494566020,0.13772997,0.010978572,0.0464952,-0.008131027,-0.0008544922,0.0006790161,0.0,0.0,0.0,-0.0057603717,0.0,0.0,0.0,0.0,0.0,0.26101208,0.2610085,0.5716127,0.28839827,0.28839916,4.0561743,0.0,0.0,0.0,0.09016614,0.0,0.0,0.0,0.0,0.0,0.00026798053,0.007620084,0.022132324,0.0,0.0,0.0,0.0,0.0,0.0
2494765933,0.10308614,0.051064894,-0.035788655,0.0022029877,0.0077438354,0.20082474,0.0,0.0,0.0,-0.007914163,0.0,0.0,0.0,0.0,0.0,0.26100898,0.26100448,0.57162154,0.28839517,0.28839567,4.0562677,0.0,0.0,0.0,0.09016607,0.0,0.0,0.0,0.0,0.0,0.00019920678,0.0058622696,0.013283945,0.0,0.0,0.0,0.0,0.0,0.0
2494969943,-0.039927427,-0.058553368,0.030011177,-0.0049762726,0.0062408447,-0.5864105,0.0,0.0,0.0,-0.012353122,0.0,0.0,0.0,0.0,0.0,0.26110885,0.26110414,0.57161367,0.28890336,0.28890327,4.0561385,0.0,0.0,0.0,0.09016574,0.0,0.0,0.0,0.0,0.0,6.432375e-05,0.0026327465,0.00791062,0.0,0.0,0.0,0.0,0.0,0.0
2495169945,-0.07034882,0.03741862,0.1347028,-0.013654709,0.013000488,0.42775345,0.0,0.0,0.0,-0.11092709,0.0,0.0,0.0,0.0,0.0,0.26093438,0.26093182,0.5715473,0.28806695,0.288066,4.0559883,0.0,0.0,0.0,0.090165906,0.0,0.0,0.0,0.0,0.0,0.00042813292,0.0053142495,0.012337154,0.0,0.0,0.0,0.0,0.0,0.0
2495373892,-0.07034882,0.03741862,0.1347028,-0.013654709,0.013000488,-0.34196472,0.0,0.0,0.0,-0.010222204,0.0,0.0,0.0,0.0,0.0,0.26093438,0.26093182,0.5715473,0.28806695,0.288066,4.0561237,0.0,0.0,0.0,0.0901661,0.0,0.0,0.0,0.0,0.0,0.00046394192,0.0014092192,0.0046331803,0.0,0.0,0.0,0.0,0.0,0.0
2495579601,0.07680396,-0.044098623,0.04635501,-0.002855301,0.019554138,0.0077285767,0.0,0.0,0.0,-0.010630235,0.0,0.0,0.0,0.0,0.0,0.26083583,0.26083544,0.5716014,0.28833932,0.2883381,4.0562806,0.0,0.0,0.0,0.09016616,0.0,0.0,0.0,0.0,0.0,8.0111786e-05,0.0032408657,0.006346236,0.0,0.0,0.0,0.0,0.0,0.0
2495779779,-0.00058200955,-0.078565165,0.030838668,-0.005174637,-0.0015029907,-0.1360588,0.0,0.0,0.0,0.028655052,0.0,0.0,0.0,0.0,0.0,0.26075888,0.26075736,0.5716078,0.28823453,0.28823358,4.0563107,0.0,0.0,0.0,0.09016641,0.0,0.0,0.0,0.0,0.0,0.00015714976,0.0025055576,0.006289138,0.0,0.0,0.0,0.0,0.0,0.0
2495980687,0.068905115,0.061678693,0.03917575,-0.0070266724,0.010414124,-0.3957939,-0.0016762167,-0.0062079355,8.6307526e-05,0.008931279,0.0,0.0,0.0,0.0,0.0,0.26076216,0.26075688,0.5716061,0.28821605,0.28821573,4.056419,0.0041678334,0.0041101095,0.0041665095,0.090166606,0.0,0.0,0.0,0.0,0.0,0.0001333085,0.004010111,0.008522759,0.0,0.0,0.0,0.0,0.0,0.0
2496181153,0.14464438,-0.041187227,0.09827256,0.0067367554,0.0151901245,0.011348724,-0.0016186982,-0.0014351569,0.0021513402,0.008931279,0.0,0.0,0.0,0.0,0.0,0.26075837,0.26074737,0.5715931,0.28819233,0.28819236,4.0564995,0.0027947421,0.0027919654,0.0027946576,0.090166606,0.0,0.0,0.0,0.0,0.0,0.00026303937,0.00753304,0.014683926,0.0,0.0,0.0,0.0,0.0,0.0
2496383368,0.16281545,0.13269532,0.04941526,0.015174866,0.024887085,-0.008312225,0.00798814,0.0030416134,0.0072216094,0.008931279,0.0,0.0,0.0,0.0,0.0,0.26075485,0.26076704,0.5715892,0.28815985,0.2881605,4.0565577,0.0026784088,0.0026948804,0.0026755119,0.090166606,0.0,0.0,0.0,0.0,0.0,0.00047638314,0.01338411,0.023316316,0.0,0.0,0.0,0.0,0.0,0.0
2496587789,0.2051835,0.12958753,0.08738154,0.03173065,0.039726257,0.2204895,0.008908048,-0.010281909,0.004419118,0.008931279,0.0,0.0,0.0,0.0,0.0,0.26079044,0.26083884,0.5715937,0.28812847,0.2881311,4.0565968,0.002637558,0.0026753861,0.0026296594,0.090166606,0.0,0.0,0.0,0.0,0.0,0.0007306667,0.01910779,0.032972537,0.0,0.0,0.0,0.0,0.0,0.0
2496795753,0.23700047,0.17027009,0.06279959,0.04846573,0.056999207,0.001121521,0.0103222355,-0.005848676,-0.0077221096,0.008931279,0.0,0.0,0.0,0.0,0.0,0.26081812,0.26088873,0.5716019,0.28810865,0.28811568,4.056653,0.002633696,0.002681131,0.0026166001,0.090166606,0.0,0.0,0.0,0.0,0.0,0.00096814544,0.023930708,0.042051207,0.0,0.0,0.0,0.0,0.0,0.0
2496995634,0.21354067,0.08621812,-0.046512246,0.038066864,0.07212067,0.060955048,0.0017476529,0.007240042,0.004834205,0.008931279,0.0,0.0,0.0,0.0,0.0,0.26089108,0.26094183,0.571555,0.28835335,0.28836578,4.056681,0.0026374261,0.0026783189,0.0026092106,0.090166606,0.0,0.0,0.0,0.0,0.0,0.0009776858,0.02406738,0.04603996,0.0,0.0,0.0,0.0,0.0,0.0
2497199561,0.17685461,0.12728453,-0.09026525,0.050655365,0.08030701,0.58784485,0.0059590265,0.0019406229,0.0075438023,0.008931279,0.0,0.0,0.0,0.0,0.0,0.26091075,0.2609116,0.57161844,0.2883168,0.2883304,4.0569854,0.0026266712,0.0026523983,0.0025914256,0.090166606,0.0,0.0,0.0,0.0,0.0,0.0008711516,0.022725,0.04808511,0.0,0.0,0.0,0.0,0.0,0.0
2497403640,0.19684744,0.088725924,0.005968347,0.088394165,0.08282471,0.19447327,-0.007821351,-0.0064236373,0.004000604,0.008931279,0.0,0.0,0.0,0.0,0.0,0.26088986,0.2608571,0.5715728,0.2880367,0.2880446,4.0564604,0.0026142765,0.002630072,0.0025774024,0.090166606,0.0,0.0,0.0,0.0,0.0,0.0008228714,0.022204084,0.04892356,0.0,0.0,0.0,0.0,0.0,0.0
2497603629,0.110189855,0.0019148588,-0.039477646,0.10176468,0.08695221,-0.2663002,-0.0035520047,0.016661137,-0.0001770258,0.008931279,0.0,0.0,0.0,0.0,0.0,0.2609848,0.2609544,0.5715597,0.28805083,0.28804573,4.0564556,0.0026071316,0.0026065514,0.0025650857,0.090166606,0.0,0.0,0.0,0.0,0.0,0.00068235165,0.017357053,0.04007939,0.0,0.0,0.0,0.0,0.0,0.0
2497811572,0.25468117,-0.032518864,0.025556818,0.1060009,0.10420227,-0.048923492,0.0015707538,0.0058473498,0.010702014,0.008931279,0.0,0.0,0.0,0.0,0.0,0.26131633,0.2613585,0.5715685,0.28883618,0.28880942,4.0564904,0.0025965443,0.0025804453,0.0025526434,0.090166606,0.0,0.0,0.0,0.0,0.0,0.0007509348,0.021150298,0.046360526,0.0,0.0,0.0,0.0,0.0,0.0
2498011372,0.13841276,-0.07090664,0.010324459,0.11902046,0.064712524,0.11097717,-0.005016066,-0.008862585,6.824732e-06,0.008931279,0.0,0.0,0.0,0.0,0.0,0.26131698,0.2614694,0.57155454,0.28800434,0.2879639,4.0562186,0.002589578,0.0025666459,0.002545882,0.090166606,0.0,0.0,0.0,0.0,0.0,0.0007791289,0.016730769,0.0363107,0.0,0.0,0.0,0.0,0.0,0.0
2498215548,0.10380608,-0.12211931,0.04388383,0.12248421,0.04043579,-0.050430298,-0.012568235,7.233024e-05,5.686283e-05,0.008931279,0.0,0.0,0.0,0.0,0.0,0.26157424,0.2618849,0.5715651,0.288079,0.28802666,4.056239,0.002573557,0.0025550737,0.0025390177,0.090166606,0.0,0.0,0.0,0.0,0.0,0.0007139796,0.01352325,0.029394066,0.0,0.0,0.0,0.0,0.0,0.0
2498419595,0.2556398,-0.15150082,-0.022798914,0.14526749,0.006538391,0.12371445,-0.008275747,0.009415165,0.014871687,0.008931279,0.0,0.0,0.0,0.0,0.0,0.26185837,0.2623264,0.57158077,0.28818157,0.28813204,4.056258,0.002556161,0.0025478618,0.0025336046,0.090166606,0.0,0.0,0.0,0.0,0.0,0.0009710166,0.020758465,0.039759584,0.0,0.0,0.0,0.0,0.0,0.0
2498619295,0.14226192,-0.2626506,-0.008636236,0.14590836,-0.010414124,0.49005127,-0.0007928759,-0.0056369305,0.002891153,0.008931279,0.0,0.0,0.0,0.0,0.0,0.26210862,0.26269183,0.57159775,0.2883073,0.28827953,4.05627,0.0025442792,0.002541703,0.0025296488,0.090166606,0.0,0.0,0.0,0.0,0.0,0.001238731,0.025038147,0.04645324,0.0,0.0,0.0,0.0,0.0,0.0
2498823554,0.11664367,-0.26040447,-0.06181685,0.14999008,-0.04018402,0.05878067,-0.00023943186,-0.00013673306,-0.01571858,0.008931279,0.0,0.0,0.0,0.0,0.0,0.26232234,0.26296687,0.5716105,0.2884505,0.28846174,4.056315,0.0025368198,0.0025365506,0.0025265377,0.090166606,0.0,0.0,0.0,0.0,0.0,0.0013595395,0.02746861,0.053173974,0.0,0.0,0.0,0.0,0.0,0.0
2499028028,0.1825229,-0.19912374,0.039478496,0.1497345,-0.04396057,0.46304703,0.0033218265,0.012596577,-0.012263328,0.008931279,0.0,0.0,0.0,0.0,0.0,0.26251388,0.26317516,0.57161903,0.2886079,0.28866997,4.0563273,0.0025334375,0.0025330302,0.0025246388,0.090166606,0.0,0.0,0.0,0.0,0.0,0.0013561352,0.026817447,0.05178776,0.0,0.0,0.0,0.0,0.0,0.0
2499235803,0.028315425,-0.25042915,-0.09423943,0.12929916,-0.046798706,-0.2217865,-0.0025990903,-0.0011069477,-0.013971567,0.008931279,0.0,0.0,0.0,0.0,0.0,0.2626648,0.26331562,0.57162356,0.2887724,0.28889033,4.056609,0.0025314111,0.0025304623,0.0025233075,0.090166606,0.0,0.0,0.0,0.0,0.0,0.0012170628,0.024928972,0.05215836,0.0,0.0,0.0,0.0,0.0,0.0
2499436529,0.101258874,-0.14166558,-0.002334565,0.1237278,-0.05643463,-0.16282272,0.0021622404,-0.014026701,0.001455456,0.008931279,0.0,0.0,0.0,0.0,0.0,0.26277268,0.26338413,0.5716251,0.28893718,0.2891098,4.056609,0.0025295503,0.0025282498,0.0025221284,0.090166606,0.0,0.0,0.0,0.0,0.0,0.001016837,0.020027746,0.043883957,0.0,0.0,0.0,0.0,0.0,0.0
2499636907,0.12511027,-0.20137775,0.07091962,0.12415886,-0.06946564,0.026180267,0.00027407706,-0.0017152131,0.005782455,0.008931279,0.0,0.0,0.0,0.0,0.0,0.26285428,0.2634123,0.5716255,0.28909743,0.28931928,4.0566373,0.002527531,0.0025260993,0.0025208846,0.090166606,0.0,0.0,0.0,0.0,0.0,0.0010102206,0.020110643,0.043428134,0.0,0.0,0.0,0.0,0.0,0.0
2499837266,0.0859828,-0.15733838,-0.026564997,0.12229347,-0.06384277,0.22533798,0.019051336,0.0037002712,-0.004561156,0.008931279,0.0,0.0,0.0,0.0,0.0,0.26292592,0.26342514,0.5716291,0.28930336,0.2895671,4.056661,0.0025257282,0.0025242781,0.0025197659,0.090166606,0.0,0.0,0.0,0.0,0.0,0.00094424904,0.016133022,0.032662477,0.0,0.0,0.0,0.0,0.0,0.0
2500041232,0.030642033,-0.16856277,0.06161802,0.10683823,-0.056884766,-0.09928131,-0.0018757582,-0.005036801,0.006364584,0.008931279,0.0,0.0,0.0,0.0,0.0,0.26294342,0.26337615,0.5716292,0.28943342,0.2897271,4.056385,0.0025239538,0.0025225233,0.0025186248,0.090166606,0.0,0.0,0.0,0.0,0.0,0.0008236779,0.013622514,0.030547477,0.0,0.0,0.0,0.0,0.0,0.0
2500245232,0.011110783,-0.13650155,-0.014406543,0.09413719,-0.04147339,-0.22145462,0.0020665564,0.0087708235,-0.0051748455,0.008931279,0.0,0.0,0.0,0.0,0.0,0.26293704,0.2632964,0.5716311,0.28954932,0.28986132,4.056389,0.0025225116,0.0025210623,0.0025176064,0.090166606,0.0,0.0,0.0,0.0,0.0,0.0006786251,0.01130885,0.02708627,0.0,0.0,0.0,0.0,0.0,0.0
2500449264,-0.07616055,-0.2007122,-0.0446369,0.08036232,-0.03944397,-0.09866333,0.00026613474,-0.004134521,-0.011090517,0.008931279,0.0,0.0,0.0,0.0,0.0,0.2629212,0.26320153,0.5716328,0.28964955,0.2899682,4.056664,0.0025212413,0.0025198,0.0025167011,0.090166606,0.0,0.0,0.0,0.0,0.0,0.00064258976,0.012507133,0.022615835,0.0,0.0,0.0,0.0,0.0,0.0
2500653251,-0.04684329,-0.17726827,-0.026169963,0.043582916,-0.073036194,-0.2122879,-0.00028771162,-0.010149002,0.0016018748,0.008931279,0.0,0.0,0.0,0.0,0.0,0.26274318,0.26295695,0.5715751,0.289174,0.28947884,4.0564265,0.002520166,0.0025187011,0.0025158918,0.090166606,0.0,0.0,0.0,0.0,0.0,0.000672085,0.014825927,0.030248083,0.0,0.0,0.0,0.0,0.0,0.0
2500853173,-0.018883824,-0.09265995,-0.0006720964,0.057510376,-0.029922485,-0.36542892,0.0039578155,0.0012870878,-0.00947389,0.008931279,0.0,0.0,0.0,0.0,0.0,0.2628419,0.26298466,0.5716374,0.2898774,0.29017803,4.0566607,0.0025194131,0.0025179752,0.002515333,0.090166606,0.0,0.0,0.0,0.0,0.0,0.00046973972,0.012977391,0.032289226,0.0,0.0,0.0,0.0,0.0,0.0
2501061291,-0.03459406,-0.09205985,0.0055641234,0.033599854,-0.012069702,-0.19601822,-0.007586859,0.0029717088,-0.006930977,0.008931279,0.0,0.0,0.0,0.0,0.0,0.26277477,0.2628539,0.5716373,0.28991196,0.29018927,4.056917,0.002518301,0.0025170369,0.0025145595,0.090166606,0.0,0.0,0.0,0.0,0.0,0.00029998127,0.010998366,0.025288684,0.0,0.0,0.0,0.0,0.0,0.0
2501269196,-0.075915575,-0.1364752,-0.12636921,0.016933441,-0.004020691,-0.18918228,-0.006220989,-0.010849342,-0.014224321,0.008931279,0.0,0.0,0.0,0.0,0.0,0.26268008,0.26271346,0.571708,0.2899228,0.29017568,4.0574107,0.002517354,0.00251632,0.0025139311,0.090166606,0.0,0.0,0.0,0.0,0.0,0.00033063887,0.01264347,0.02785565,0.0,0.0,0.0,0.0,0.0,0.0
2501468962,-0.067602515,-0.15152478,-0.07479477,0.008981705,-0.016838074,-0.6919441,0.00952382,-0.0007633567,-0.004360646,0.008931279,0.0,0.0,0.0,0.0,0.0,0.2625842,0.26258186,0.571696,0.28992283,0.2901441,4.0575595,0.0025166816,0.002515793,0.002513436,0.090166606,0.0,0.0,0.0,0.0,0.0,0.00046622392,0.013030283,0.029507594,0.0,0.0,0.0,0.0,0.0,0.0
2501677506,-0.06625295,-0.13126612,-0.09549247,0.0021839142,-0.0042419434,-0.1406784,0.017121814,0.01124002,-0.0008661747,0.008931279,0.0,0.0,0.0,0.0,0.0,0.26248708,0.26245442,0.5717556,0.28990737,0.2900951,4.0577073,0.0025159987,0.0025151374,0.00251291,0.090166606,0.0,0.0,0.0,0.0,0.0,0.00044101203,0.01296538,0.029345892,0.0,0.0,0.0,0.0,0.0,0.0
2501880942,-0.06724727,-0.15324926,-0.07671231,0.00021362305,0.01763916,-0.30649948,0.0026376247,-0.00027249753,-0.00044950843,0.008931279,0.0,0.0,0.0,0.0,0.0,0.26245105,0.26239875,0.57169116,0.29015914,0.29031217,4.0575714,0.0025155446,0.0025146408,0.0025125402,0.090166606,0.0,0.0,0.0,0.0,0.0,0.00036489998,0.012581561,0.029211564,0.0,0.0,0.0,0.0,0.0,0.0
2502081230,-0.10627365,-0.066877365,-0.05450897,-0.07078552,-0.04081726,0.07667923,0.007436499,0.009109423,0.008050531,0.008931279,0.0,0.0,0.0,0.0,0.0,0.2621025,0.26203993,0.5717108,0.28898597,0.28910345,4.0574465,0.0025149728,0.0025140373,0.0025120792,0.090166606,0.0,0.0,0.0,0.0,0.0,0.0003768463,0.014824192,0.03499001,0.0,0.0,0.0,0.0,0.0,0.0
2502284968,-0.09802401,-0.07255578,-0.030444741,-0.03315735,0.023338318,-0.055553436,0.004500225,0.005669132,-0.008925587,-0.007254839,0.0,0.0,0.0,0.0,0.0,0.26223305,0.26216117,0.57171315,0.28988224,0.28996733,4.0575967,0.0025146392,0.0025137374,0.0025117719,0.09022952,0.0,0.0,0.0,0.0,0.0,0.00032123455,0.014183749,0.03076159,0.0,0.0,0.0,0.0,0.0,0.0
2502489178,-0.15961301,-0.082610846,-0.07261215,-0.05551529,0.03992462,0.17329407,0.004500225,0.005669132,-0.008925587,-0.0030727983,0.0,0.0,0.0,0.0,0.0,0.26213467,0.26206338,0.5717009,0.28981885,0.28987166,4.057477,0.0025146392,0.0025137374,0.0025117719,0.09022756,0.0,0.0,0.0,0.0,0.0,0.00042154963,0.01673633,0.03665401,0.0,0.0,0.0,0.0,0.0,0.0
2502693293,-0.07272625,-0.03597212,-0.03808993,-0.05052948,0.05744934,-0.13421631,0.004500225,0.005669132,-0.008925587,-0.0694626,0.0,0.0,0.0,0.0,0.0,0.26204488,0.26198187,0.57169056,0.28975198,0.28977555,4.0573673,0.0025146392,0.0025137374,0.0025117719,0.09022668,0.0,0.0,0.0,0.0,0.0,0.00033170957,0.015099113,0.032789305,0.0,0.0,0.0,0.0,0.0,0.0
2502893226,-0.06560969,-0.029642344,0.06871804,-0.01527977,0.122802734,-0.05596161,0.004500225,0.005669132,-0.008925587,0.0073882937,0.0,0.0,0.0,0.0,0.0,0.26212734,0.26207787,0.571695,0.29050088,0.29049742,4.057264,0.0025146392,0.0025137374,0.0025117719,0.09022538,0.0,0.0,0.0,0.0,0.0,0.0002646445,0.01523883,0.033368237,0.0,0.0,0.0,0.0,0.0,0.0
2503097315,-0.058092833,-0.062922955,-0.02533004,-0.07006645,0.0597229,-0.21985626,0.004500225,0.005669132,-0.008925587,-0.02466327,0.0,0.0,0.0,0.0,0.0,0.26182687,0.26179603,0.57167405,0.2894802,0.2894629,4.0571756,0.0025146392,0.0025137374,0.0025117719,0.090223566,0.0,0.0,0.0,0.0,0.0,0.0002532565,0.012876038,0.029395906,0.0,0.0,0.0,0.0,0.0,0.0
2503301170,-0.095465064,0.01375556,-0.08329164,-0.054424286,0.10562134,-0.0054244995,0.004500225,0.005669132,-0.008925587,0.017934024,0.0,0.0,0.0,0.0,0.0,0.2618656,0.26185384,0.5716551,0.28995582,0.2899243,4.057108,0.0025146392,0.0025137374,0.0025117719,0.09022223,0.0,0.0,0.0,0.0,0.0,0.00025510177,0.014949076,0.03229048,0.0,0.0,0.0,0.0,0.0,0.0
2503502772,-0.1502235,-0.039566517,-0.041714557,-0.0940094,0.06506348,0.15210342,0.004500225,0.005669132,-0.008925587,0.0078495145,0.0,0.0,0.0,0.0,0.0,0.2616659,0.26167443,0.57166845,0.28927332,0.28923708,4.0570884,0.0025146392,0.0025137374,0.0025117719,0.09022047,0.0,0.0,0.0,0.0,0.0,0.00043785688,0.014874723,0.03226713,0.0,0.0,0.0,0.0,0.0,0.0
2503706563,-0.14752972,-0.0371027,-0.0756671,-0.09856796,0.066833496,-0.021003723,0.004500225,0.005669132,-0.008925587,0.060549438,0.0,0.0,0.0,0.0,0.0,0.2616341,0.26166704,0.57167214,0.28927228,0.28923386,4.056823,0.0025146392,0.0025137374,0.0025117719,0.09021876,0.0,0.0,0.0,0.0,0.0,0.00041003365,0.013653756,0.029472182,0.0,0.0,0.0,0.0,0.0,0.0
2503910829,-0.12715018,-0.051078796,-0.058649704,-0.08369827,0.103515625,-0.01777649,0.004500225,0.005669132,-0.008925587,-0.0255332,0.0,0.0,0.0,0.0,0.0,0.26170838,0.2617621,0.5716604,0.2897436,0.2897068,4.0565434,0.0025146392,0.0025137374,0.0025117719,0.09021737,0.0,0.0,0.0,0.0,0.0,0.00037725264,0.012970676,0.028098568,0.0,0.0,0.0,0.0,0.0,0.0
2504110875,-0.06179297,0.026834011,0.01732288,-0.117256165,0.050491333,0.22799683,0.004500225,0.005669132,-0.008925587,-0.01154989,0.0,0.0,0.0,0.0,0.0,0.2614702,0.26154003,0.57165194,0.28881162,0.2887813,4.0565505,0.0025146392,0.0025137374,0.0025117719,0.09021582,0.0,0.0,0.0,0.0,0.0,0.0005217146,0.011476333,0.025427954,0.0,0.0,0.0,0.0,0.0,0.0
2504314791,-0.13833952,-0.0030298233,-0.06632583,-0.10468674,0.06452179,-0.27900314,0.004500225,0.005669132,-0.008925587,-0.00420022,0.0,0.0,0.0,0.0,0.0,0.26151282,0.26160175,0.57161444,0.28906584,0.28904364,4.0565953,0.0025146392,0.0025137374,0.0025117719,0.090214625,0.0,0.0,0.0,0.0,0.0,0.00033612872,0.010238164,0.02174711,0.0,0.0,0.0,0.0,0.0,0.0
2504514832,-0.121738076,-0.002637148,-0.04984843,-0.106040955,0.071624756,-0.3250084,0.004500225,0.005669132,-0.008925587,0.023945987,0.0,0.0,0.0,0.0,0.0,0.26149434,0.2615957,0.57162046,0.2890176,0.28900567,4.0566053,0.0025146392,0.0025137374,0.0025117719,0.09021307,0.0,0.0,0.0,0.0,0.0,0.00038675545,0.009423961,0.019929226,0.0,0.0,0.0,0.0,0.0,0.0
2504718823,-0.08608377,0.0060942173,0.025447728,-0.11140442,0.08854675,0.41768265,0.004500225,0.005669132,-0.008925587,0.014152765,0.0,0.0,0.0,0.0,0.0,0.2614761,0.26158646,0.5716259,0.28897357,0.2889732,4.056618,0.0025146392,0.0025137374,0.0025117719,0.09021176,0.0,0.0,0.0,0.0,0.0,0.00039930525,0.009807939,0.024292406,0.0,0.0,0.0,0.0,0.0,0.0
2504922851,-0.033737898,0.0048208237,0.031249896,-0.12211609,0.086372375,0.1615181,0.004500225,0.005669132,-0.008925587,0.06462914,0.0,0.0,0.0,0.0,0.0,0.26139128,0.2615055,0.571602,0.28867254,0.28868324,4.0566397,0.0025146392,0.0025137374,0.0025117719,0.090210356,0.0,0.0,0.0,0.0,0.0,0.0003411009,0.007118801,0.017017832,0.0,0.0,0.0,0.0,0.0,0.0
2505122914,-0.067638874,0.012635231,-0.014078973,-0.113040924,0.12232208,-0.12186432,0.004500225,0.005669132,-0.008925587,0.066741705,0.0,0.0,0.0,0.0,0.0,0.26145777,0.26157367,0.57163745,0.2889354,0.28895852,4.056402,0.0025146392,0.0025137374,0.0025117719,0.09020964,0.0,0.0,0.0,0.0,0.0,0.0005017123,0.007072125,0.015638495,0.0,0.0,0.0,0.0,0.0,0.0
2505326574,-0.046454906,0.013985872,-0.0302479,-0.09379959,0.1279068,-0.07262039,0.004500225,0.005669132,-0.008925587,-0.028872192,0.0,0.0,0.0,0.0,0.0,0.26143113,0.2615463,0.57164633,0.28889805,0.28893176,4.0564647,0.0025146392,0.0025137374,0.0025117719,0.0902082,0.0,0.0,0.0,0.0,0.0,0.00029605403,0.007022949,0.014905131,0.0,0.0,0.0,0.0,0.0,0.0
2505530855,-0.13560498,-0.028190136,-0.072448365,-0.09075546,0.13362885,0.33071518,0.004500225,0.005669132,-0.008925587,-0.01633352,0.0,0.0,0.0,0.0,0.0,0.26141757,0.26152542,0.57165587,0.28886297,0.2889059,4.0562916,0.0025146392,0.0025137374,0.0025117719,0.09020686,0.0,0.0,0.0,0.0,0.0,0.0004179071,0.00657404,0.015016801,0.0,0.0,0.0,0.0,0.0,0.0
2505734824,-0.029148936,0.008034468,-0.033869285,-0.081905365,0.14218903,-0.50710297,0.004500225,0.005669132,-0.008925587,0.0034375787,0.0,0.0,0.0,0.0,0.0,0.26141307,0.26151446,0.5716657,0.28883404,0.2888846,4.0563545,0.0025146392,0.0025137374,0.0025117719,0.09020552,0.0,0.0,0.0,0.0,0.0,0.0003637971,0.006599017,0.01630829,0.0,0.0,0.0,0.0,0.0,0.0
2505934807,-0.09029722,-0.02422452,-0.02640249,-0.08294296,0.14683533,-0.15392303,0.004500225,0.005669132,-0.008925587,0.03982663,0.0,0.0,0.0,0.0,0.0,0.26141715,0.2615118,0.57167447,0.28881064,0.2888672,4.0564165,0.0025146392,0.0025137374,0.0025117719,0.09020463,0.0,0.0,0.0,0.0,0.0,0.0003054166,0.0064241956,0.017693028,0.0,0.0,0.0,0.0,0.0,0.0
2506138597,-0.08607149,0.008657932,-0.025675543,-0.07073212,0.1340332,-0.3075714,0.004500225,0.005669132,-0.008925587,0.082199335,0.0,0.0,0.0,0.0,0.0,0.26142228,0.26151127,0.57168084,0.28879148,0.2888523,4.05647,0.0025146392,0.0025137374,0.0025117719,0.09020307,0.0,0.0,0.0,0.0,0.0,0.00029065766,0.005937478,0.016814832,0.0,0.0,0.0,0.0,0.0,0.0
2506342761,-0.090531826,-0.01696229,-0.06930535,-0.07429123,0.11830902,0.03186798,0.004500225,0.005669132,-0.008925587,0.018132329,0.0,0.0,0.0,0.0,0.0,0.26143062,0.2615108,0.5716865,0.28877825,0.28884178,4.0567975,0.0025146392,0.0025137374,0.0025117719,0.0902021,0.0,0.0,0.0,0.0,0.0,0.00053454225,0.0034514973,0.0086416695,0.0,0.0,0.0,0.0,0.0,0.0
2506546795,-0.13808703,-0.07959175,-0.042449128,-0.07956314,0.095954895,0.3811531,0.004500225,0.005669132,-0.008925587,0.020752788,0.0,0.0,0.0,0.0,0.0,0.2614364,0.2615085,0.5716895,0.28876656,0.28883156,4.056836,0.0025146392,0.0025137374,0.0025117719,0.09020094,0.0,0.0,0.0,0.0,0.0,0.0003643521,0.0015217705,0.0056696692,0.0,0.0,0.0,0.0,0.0,0.0
