timestamp,rollspeed,pitchspeed,yawspeed,q[0],q[1],q[2],q[3],delta_q_reset[0],delta_q_reset[1],delta_q_reset[2],delta_q_reset[3],quat_reset_counter
2467876178,0.0018151496,-0.0021852348,-0.00038655865,0.9986817,-0.0014138595,0.0075218715,-0.050757688,0.9775009,-0.0016463673,0.002744584,-0.21090697,1
2468044382,-0.021429135,-0.024521211,0.0146339815,0.99867433,-0.0015452612,0.0074057877,-0.050915547,0.9775009,-0.0016463673,0.002744584,-0.21090697,1
2468088402,-0.02299586,0.01665913,-0.024321556,0.9986706,-0.0015330897,0.0074494574,-0.050982546,0.9775009,-0.0016463673,0.002744584,-0.21090697,1
2468128399,0.02257159,0.00850196,0.029459901,0.9986711,-0.0016239715,0.0074490663,-0.050971005,0.9775009,-0.0016463673,0.002744584,-0.21090697,1
2468172409,0.023361512,0.003086647,-0.009621707,0.99866706,-0.0020262385,0.0071842973,-0.051072203,0.9775009,-0.0016463673,0.002744584,-0.21090697,1
2468212451,-0.088748895,-0.05090108,0.032276727,0.99867105,-0.0024829393,0.0070040757,-0.05100035,0.9775009,-0.0016463673,0.002744584,-0.21090697,1
2468256488,-0.04726681,0.021743493,0.005395086,0.99867445,-0.0035800647,0.0068661566,-0.05088746,0.9775009,-0.0016463673,0.002744584,-0.21090697,1
2468296429,0.006806493,0.013420554,0.045523833,0.99870694,-0.0035419597,0.006909589,-0.05024282,0.9775009,-0.0016463673,0.002744584,-0.21090697,1
2468340492,0.037044078,0.021872774,-0.013666236,0.9986962,-0.0029153093,0.0074967043,-0.05041007,0.9775009,-0.0016463673,0.002744584,-0.21090697,1
2468380568,0.091262475,0.03967582,0.010391862,0.99870664,-0.0017707819,0.007785206,-0.050214,0.9775009,-0.0016463673,0.002744584,-0.21090697,1
2468424414,0.050727062,-0.014918223,-0.003443471,0.9986962,-0.0005010333,0.007962138,-0.05042211,0.9775009,-0.0016463673,0.002744584,-0.21090697,1
2468468401,0.014778098,0.022609035,-0.013935794,0.9986831,7.638974e-05,0.007975959,-0.05068049,0.9775009,-0.0016463673,0.002744584,-0.21090697,1
2468512425,-0.021735901,-0.019797541,-0.010821018,0.9986779,-0.0002493889,0.007543845,-0.050847538,0.9775009,-0.0016463673,0.002744584,-0.21090697,1
2468552479,-0.051839504,-0.01924831,-0.011565868,0.9986648,-0.0010834121,0.007270042,-0.05113354,0.9775009,-0.0016463673,0.002744584,-0.21090697,1
2468596348,-0.043197416,-0.016999695,-0.00304542,0.99865717,-0.002132763,0.0071066148,-0.05127235,0.9775009,-0.0016463673,0.002744584,-0.21090697,1
2468636394,-0.027037721,0.022222094,-0.0032753423,0.9986487,-0.0029071625,0.00717316,-0.051389314,0.9775009,-0.0016463673,0.002744584,-0.21090697,1
2468680382,-0.0077287666,0.024450045,-0.0024804282,0.99864256,-0.003244376,0.0074262414,-0.051453445,0.9775009,-0.0016463673,0.002744584,-0.21090697,1
2468720447,-0.030840745,-0.049644154,0.0050913165,0.9986356,-0.0035653056,0.007431929,-0.051566258,0.9775009,-0.0016463673,0.002744584,-0.21090697,1
2468764387,-0.15834573,-0.16529009,-0.049654726,0.99861646,-0.005897023,0.0055544423,-0.051959146,0.9775009,-0.0016463673,0.002744584,-0.21090697,1
2468804537,-0.5429422,-0.28498456,0.033483576,0.9985578,-0.012229868,3.4289777e-05,-0.052275833,0.9775009,-0.0016463673,0.002744584,-0.21090697,1
2468848391,-0.63128227,-0.2981219,0.13252002,0.9982854,-0.024866106,-0.010575236,-0.05192561,0.9775009,-0.0016463673,0.002744584,-0.21090697,1
2468888346,-0.7805739,-0.5011782,0.05959578,0.99759424,-0.040285967,-0.02387386,-0.051117312,0.9775009,-0.0016463673,0.002744584,-0.21090697,1
2468932503,-0.44862393,-0.30776674,0.039962284,0.99663764,-0.055000953,-0.034845486,-0.049741574,0.9775009,-0.0016463673,0.002744584,-0.21090697,1
2468980550,-0.13423476,0.05165507,0.11422094,0.99625593,-0.062301036,-0.03633855,-0.047669996,0.9775009,-0.0016463673,0.002744584,-0.21090697,1
2469020449,-0.14246535,0.08878549,0.13728128,0.99646664,-0.063316755,-0.030479787,-0.046004925,0.9775009,-0.0016463673,0.002744584,-0.21090697,1
2469064403,-0.25107223,0.002173964,0.019839557,0.9965422,-0.065129764,-0.02525761,-0.044986833,0.9775009,-0.0016463673,0.002744584,-0.21090697,1
2469104479,-0.12075167,0.18069205,-0.02158796,0.9963901,-0.068739936,-0.023109745,-0.04413276,0.9775009,-0.0016463673,0.002744584,-0.21090697,1
2469148358,0.14269039,0.39449787,0.050509058,0.9963737,-0.07124032,-0.01793843,-0.042923395,0.9775009,-0.0016463673,0.002744584,-0.21090697,1
2469188523,0.3287948,0.44875816,0.06276212,0.99668556,-0.06903106,-0.010472349,-0.041750878,0.9775009,-0.0016463673,0.002744584,-0.21090697,1
2469232450,0.32730857,0.38007987,0.035373658,0.9973041,-0.060639333,-0.0023756113,-0.04125442,0.9775009,-0.0016463673,0.002744584,-0.21090697,1
2469272470,0.7985869,0.5031114,-0.07105886,0.9978165,-0.051392913,0.004351446,-0.041255485,0.9775009,-0.0016463673,0.002744584,-0.21090697,1
2469316365,0.313986,0.23661721,0.1317245,0.9981925,-0.042710643,0.010980188,-0.040828194,0.9775009,-0.0016463673,0.002744584,-0.21090697,1
2469356344,0.58853036,0.20328727,0.04190414,0.99850327,-0.033283737,0.015107783,-0.040683325,0.9775009,-0.0016463673,0.002744584,-0.21090697,1
2469400500,0.4938797,0.198986,0.030442128,0.99874836,-0.021698045,0.019768514,-0.040500596,0.9775009,-0.0016463673,0.002744584,-0.21090697,1
2469440179,0.28947613,-0.0036907345,0.1025647,0.9988116,-0.011179316,0.025012406,-0.040308926,0.9775009,-0.0016463673,0.002744584,-0.21090697,1
2469484445,0.15408136,-0.014727443,0.050564468,0.99875075,-0.0008771697,0.029773325,-0.040122066,0.9775009,-0.0016463673,0.002744584,-0.21090697,1
2469524328,0.4317733,0.13884884,0.0012965981,0.9985791,0.0084015,0.03418498,-0.040007353,0.9775009,-0.0016463673,0.002744584,-0.21090697,1
2469568332,0.3158192,0.0016138069,0.064656325,0.998244,0.018197961,0.039850343,-0.039871678,0.9775009,-0.0016463673,0.002744584,-0.21090697,1
2469608323,0.40661412,0.20764118,0.024856474,0.9978164,0.027339464,0.044955067,-0.039926317,0.9775009,-0.0016463673,0.002744584,-0.21090697,1
2469652448,0.4721173,0.34293184,-0.04219563,0.9973741,0.035496276,0.048924934,-0.03988986,0.9775009,-0.0016463673,0.002744584,-0.21090697,1
2469692446,0.03977327,0.09212363,0.084475145,0.9971156,0.039654225,0.051214352,-0.039562937,0.9775009,-0.0016463673,0.002744584,-0.21090697,1
2469736329,-0.056536656,-0.05125078,-0.0065038158,0.9969361,0.042626362,0.05230787,-0.039565705,0.9775009,-0.0016463673,0.002744584,-0.21090697,1
2469776355,-0.24283338,-0.1933692,0.063205875,0.9969094,0.04395684,0.051731847,-0.039539017,0.9775009,-0.0016463673,0.002744584,-0.21090697,1
2469820377,-0.25508025,-0.061542265,0.07652292,0.99704516,0.043262623,0.049658913,-0.039540764,0.9775009,-0.0016463673,0.002744584,-0.21090697,1
2469860360,0.06951142,-0.0051272474,-0.042740215,0.9971791,0.042719297,0.047133766,-0.039842438,0.9775009,-0.0016463673,0.002744584,-0.21090697,1
2469904508,-0.09810426,-0.12581074,-0.028772948,0.997321,0.04185644,0.044643573,-0.04007405,0.9775009,-0.0016463673,0.002744584,-0.21090697,1
2469944377,0.07374899,-0.06880498,0.00948113,0.99743915,0.04108884,0.042552054,-0.040203407,0.9775009,-0.0016463673,0.002744584,-0.21090697,1
2469988385,0.096257284,0.013116265,-0.05986585,0.9975684,0.039767638,0.04049818,-0.04044314,0.9775009,-0.0016463673,0.002744584,-0.21090697,1
2470028455,-0.112336054,-0.116735965,-0.0045848982,0.99771494,0.038067553,0.038399737,-0.04051086,0.9775009,-0.0016463673,0.002744584,-0.21090697,1
2470072315,-0.036145978,-0.23128167,0.04302797,0.99785805,0.036720652,0.03584657,-0.040572915,0.9775009,-0.0016463673,0.002744584,-0.21090697,1
2470112379,0.03373111,-0.017765187,-0.029387161,0.9979765,0.035446253,0.03354694,-0.040756498,0.9775009,-0.0016463673,0.002744584,-0.21090697,1
2470156370,0.0572274,-0.08266486,-0.022667963,0.99812645,0.03378293,0.030625604,-0.04079702,0.9775009,-0.0016463673,0.002744584,-0.21090697,1
2470196361,-0.17786399,-0.27673352,0.039324187,0.9982487,0.032502215,0.028059982,-0.04069196,0.9775009,-0.0016463673,0.002744584,-0.21090697,1
2470240171,-0.18254893,-0.17848106,0.016006514,0.9983547,0.031419266,0.025420593,-0.04067664,0.9775009,-0.0016463673,0.002744584,-0.21090697,1
2470280157,-0.15933846,-0.12711942,-0.0020606564,0.99846643,0.02995809,0.022684816,-0.04065393,0.9775009,-0.0016463673,0.002744584,-0.21090697,1
2470324178,-0.11885634,-0.077509046,-0.038360763,0.9985894,0.02794532,0.019797808,-0.040575378,0.9775009,-0.0016463673,0.002744584,-0.21090697,1
2470364472,-0.21857409,-0.06996532,-0.007937877,0.9986953,0.026030798,0.017218329,-0.040417466,0.9775009,-0.0016463673,0.002744584,-0.21090697,1
2470408375,-0.07527578,0.060734726,-0.06368635,0.9987983,0.023862917,0.014327633,-0.04033805,0.9775009,-0.0016463673,0.002744584,-0.21090697,1
2470448169,-0.020899825,0.014519941,-0.001698833,0.9989024,0.021549381,0.011214083,-0.040051218,0.9775009,-0.0016463673,0.002744584,-0.21090697,1
2470492449,0.17848074,0.1765611,-0.09146899,0.9989829,0.019116415,0.008376585,-0.039971977,0.9775009,-0.0016463673,0.002744584,-0.21090697,1
2470532447,0.09322228,0.14232957,0.038197674,0.99905413,0.016845427,0.005656569,-0.03968725,0.9775009,-0.0016463673,0.002744584,-0.21090697,1
2470576354,0.14898671,0.25273034,-0.015902271,0.99911034,0.014429225,0.0029602598,-0.039517224,0.9775009,-0.0016463673,0.002744584,-0.21090697,1
2470620131,-0.295269,-0.12564945,-0.014360458,0.99915946,0.011504561,5.9245876e-06,-0.039343785,0.9775009,-0.0016463673,0.002744584,-0.21090697,1
2470664168,-0.39890584,-0.26024115,0.04391242,0.99918574,0.00920799,-0.0027302764,-0.039189164,0.9775009,-0.0016463673,0.002744584,-0.21090697,1
2470704159,-0.26003662,-0.33945006,0.018550813,0.9991954,0.0075175506,-0.0047818176,-0.03910531,0.9775009,-0.0016463673,0.002744584,-0.21090697,1
2470744439,0.13700832,0.1808219,-0.043977745,0.9991934,0.006100408,-0.006219188,-0.039201677,0.9775009,-0.0016463673,0.002744584,-0.21090697,1
2470784449,-0.02399979,0.09517807,-0.039393317,0.99919075,0.0040809563,-0.008105409,-0.039185304,0.9775009,-0.0016463673,0.002744584,-0.21090697,1
2470828369,0.08966712,0.04525307,-0.05797956,0.99917996,0.0021369532,-0.009511111,-0.03930033,0.9775009,-0.0016463673,0.002744584,-0.21090697,1
2470868384,-0.011406586,0.10631411,-0.0009810952,0.9991696,0.00031578337,-0.010494703,-0.039367683,0.9775009,-0.0016463673,0.002744584,-0.21090697,1
2470912475,0.15388991,0.13127589,-0.024273029,0.99915034,-0.001260198,-0.011561323,-0.039539926,0.9775009,-0.0016463673,0.002744584,-0.21090697,1
2470952480,-0.029348392,0.138085,0.0060147117,0.9991297,-0.0030465496,-0.0125618,-0.039659347,0.9775009,-0.0016463673,0.002744584,-0.21090697,1
2470996444,-0.103293136,-0.0050677937,-0.018033443,0.9991046,-0.0045822645,-0.013367014,-0.039880883,0.9775009,-0.0016463673,0.002744584,-0.21090697,1
2471036181,0.09133595,0.27435178,-0.034530792,0.99908555,-0.0054221195,-0.0136787845,-0.040145513,0.9775009,-0.0016463673,0.002744584,-0.21090697,1
2471080186,0.12363977,0.29935735,-0.058294307,0.99906135,-0.0065892264,-0.01392069,-0.040487397,0.9775009,-0.0016463673,0.002744584,-0.21090697,1
2471120365,-0.033603854,0.090462126,-0.029580398,0.9990375,-0.007752301,-0.014429595,-0.0406929,0.9775009,-0.0016463673,0.002744584,-0.21090697,1
2471164566,0.19708766,0.15105964,-0.112366095,0.999015,-0.008285584,-0.014494036,-0.041113555,0.9775009,-0.0016463673,0.002744584,-0.21090697,1
2471204374,-0.1338554,0.028346328,0.02779566,0.9989978,-0.009002284,-0.0147474175,-0.041290123,0.9775009,-0.0016463673,0.002744584,-0.21090697,1
2471248329,-0.0070042238,0.17119181,-0.01461185,0.99898005,-0.009225966,-0.014670621,-0.041695733,0.9775009,-0.0016463673,0.002744584,-0.21090697,1
2471288347,0.078095496,0.15330215,0.0051929764,0.9989626,-0.009301163,-0.014904945,-0.042015906,0.9775009,-0.0016463673,0.002744584,-0.21090697,1
2471332447,0.13059348,0.19117574,-0.03771331,0.99894994,-0.009356485,-0.014654075,-0.04238869,0.9775009,-0.0016463673,0.002744584,-0.21090697,1
2471372450,-0.16768932,-0.12452005,0.016566,0.9989364,-0.009807695,-0.014641996,-0.04260931,0.9775009,-0.0016463673,0.002744584,-0.21090697,1
2471416341,-0.12935822,-0.077040836,0.018537313,0.99892664,-0.009942669,-0.014286736,-0.04292654,0.9775009,-0.0016463673,0.002744584,-0.21090697,1
2471456360,-0.08601374,0.12036609,0.010703935,0.9989152,-0.010054122,-0.013865812,-0.04330225,0.9775009,-0.0016463673,0.002744584,-0.21090697,1
2471500350,-0.18005201,0.034136064,0.04499659,0.9988971,-0.010387855,-0.013792638,-0.04366338,0.9775009,-0.0016463673,0.002744584,-0.21090697,1
2471540432,-0.10463616,-0.022825366,-0.0020691003,0.99887997,-0.010240945,-0.013759853,-0.044099562,0.9775009,-0.0016463673,0.002744584,-0.21090697,1
2471584323,-0.07264203,0.041698895,0.0079898015,0.998865,-0.010219609,-0.013527338,-0.044512294,0.9775009,-0.0016463673,0.002744584,-0.21090697,1
2471624383,-0.030379217,0.040259503,-0.01114799,0.9988416,-0.010183671,-0.013697065,-0.04498998,0.9775009,-0.0016463673,0.002744584,-0.21090697,1
2471668068,0.011790451,0.08162093,-0.021585168,0.99881923,-0.010094396,-0.013896727,-0.0454444,0.9775009,-0.0016463673,0.002744584,-0.21090697,1
2471708438,0.16857997,-0.049776427,-0.054044772,0.9987957,-0.0098688565,-0.014207119,-0.04591426,0.9775009,-0.0016463673,0.002744584,-0.21090697,1
2471752380,0.08704196,-0.057856165,-0.04943106,0.9987756,-0.009783402,-0.0142175,-0.0463639,0.9775009,-0.0016463673,0.002744584,-0.21090697,1
2471792441,-0.024787482,-0.029772323,0.0042663515,0.99876523,-0.00958196,-0.0139065385,-0.046722256,0.9775009,-0.0016463673,0.002744584,-0.21090697,1
2471836175,-0.0038240869,0.06413466,-0.0042752814,0.99875265,-0.009248688,-0.013488591,-0.04717711,0.9775009,-0.0016463673,0.002744584,-0.21090697,1
2471876467,-0.07271264,-0.10723062,0.01536614,0.9987401,-0.009098855,-0.01324171,-0.047540832,0.9775009,-0.0016463673,0.002744584,-0.21090697,1
2471920416,-0.047281742,-0.0965299,-0.006460379,0.998729,-0.00886335,-0.012774926,-0.047944617,0.9775009,-0.0016463673,0.002744584,-0.21090697,1
2471960396,-0.02378248,-0.13692938,-0.058038555,0.9987165,-0.0087391725,-0.012278545,-0.048357654,0.9775009,-0.0016463673,0.002744584,-0.21090697,1
2472004339,-0.06351666,-0.1709854,-0.031191869,0.99870276,-0.00866951,-0.012075986,-0.048702486,0.9775009,-0.0016463673,0.002744584,-0.21090697,1
2472044438,0.113199785,0.11749804,-0.036446363,0.9986934,-0.008387226,-0.011568949,-0.049065065,0.9775009,-0.0016463673,0.002744584,-0.21090697,1
2472088371,0.029776089,0.04270323,-0.041224062,0.99867576,-0.008443126,-0.011444826,-0.0494418,0.9775009,-0.0016463673,0.002744584,-0.21090697,1
2472128366,0.16110525,0.105755776,-0.042391874,0.9986632,-0.00828272,-0.011119371,-0.049796697,0.9775009,-0.0016463673,0.002744584,-0.21090697,1
2472172479,0.23503214,0.1495448,-0.095094144,0.99864703,-0.007982511,-0.010585211,-0.050281905,0.9775009,-0.0016463673,0.002744584,-0.21090697,1
2472212451,-0.20828746,-0.021328712,0.060466893,0.99863696,-0.008082796,-0.01018454,-0.050548792,0.9775009,-0.0016463673,0.002744584,-0.21090697,1
2472256185,-0.05476154,0.1092333,0.04357922,0.9986285,-0.007553342,-0.0092526125,-0.050976302,0.9775009,-0.0016463673,0.002744584,-0.21090697,1
2472298062,-0.09284373,0.049619514,0.02596085,0.9986155,-0.007207832,-0.008545143,-0.051402874,0.9775009,-0.0016463673,0.002744584,-0.21090697,1
2472337967,0.088281676,0.16578442,-0.06517279,0.9986046,-0.006801034,-0.0078049256,-0.051785197,0.9775009,-0.0016463673,0.002744584,-0.21090697,1
2472382143,0.05948057,0.13711627,-0.064457335,0.99859446,-0.006667956,-0.0068785725,-0.052129302,0.9775009,-0.0016463673,0.002744584,-0.21090697,1
2472422128,-0.14010039,-0.040523537,0.040674195,0.99859035,-0.006479033,-0.005955918,-0.052345116,0.9775009,-0.0016463673,0.002744584,-0.21090697,1
2472461714,0.013569096,0.0947271,-0.009631784,0.998582,-0.0059282947,-0.0050464226,-0.05266412,0.9775009,-0.0016463673,0.002744584,-0.21090697,1
2472506030,-0.10510318,-0.0852439,0.05628136,0.9985796,-0.005422004,-0.004249796,-0.052834004,0.9775009,-0.0016463673,0.002744584,-0.21090697,1
2472550056,-0.0818848,-0.12565829,0.05918148,0.99857616,-0.0049041742,-0.00364392,-0.05299365,0.9775009,-0.0016463673,0.002744584,-0.21090697,1
2472589754,0.200918,0.019294566,-0.048101626,0.99857163,-0.004131198,-0.0028775253,-0.05319346,0.9775009,-0.0016463673,0.002744584,-0.21090697,1
2472633969,-0.008280737,-0.17924306,-0.043979257,0.9985699,-0.0037128646,-0.0026416443,-0.0532674,0.9775009,-0.0016463673,0.002744584,-0.21090697,1
2472673745,0.2965284,0.32263926,-0.019296665,0.99857134,-0.0029579573,-0.001791182,-0.053323288,0.9775009,-0.0016463673,0.002744584,-0.21090697,1
2472718138,0.3077012,0.22582081,-0.045774087,0.9985653,-0.002690499,-0.0015794026,-0.05345665,0.9775009,-0.0016463673,0.002744584,-0.21090697,1
2472757726,-0.16421175,-0.04736249,-0.017039854,0.9985672,-0.0031005887,-0.0015652033,-0.053399034,0.9775009,-0.0016463673,0.002744584,-0.21090697,1
2472801784,-0.170199,-0.16704722,0.030282862,0.9985678,-0.0029823713,-0.0012709188,-0.053402998,0.9775009,-0.0016463673,0.002744584,-0.21090697,1
2472841993,-0.12298138,0.007882804,-0.020194596,0.99856454,-0.0027695189,-0.00069257274,-0.05348499,0.9775009,-0.0016463673,0.002744584,-0.21090697,1
2472885988,-0.12691364,0.10868913,-0.009469205,0.998563,-0.0027751764,-0.00017043795,-0.05351939,0.9775009,-0.0016463673,0.002744584,-0.21090697,1
2472926220,-0.053788193,0.06872158,0.008075679,0.9985595,-0.002774373,-3.740716e-06,-0.053585164,0.9775009,-0.0016463673,0.002744584,-0.21090697,1
2472969982,-0.033263836,0.11123099,-0.0099168755,0.99855596,-0.0030904838,0.00034212208,-0.05363171,0.9775009,-0.0016463673,0.002744584,-0.21090697,1
2473009971,-0.13765556,-0.16207372,0.028664589,0.9985531,-0.0032471633,0.00059562165,-0.053673852,0.9775009,-0.0016463673,0.002744584,-0.21090697,1
2473053975,0.0032856278,-0.002562888,0.04126837,0.9985461,-0.0034010815,0.0011469101,-0.053785406,0.9775009,-0.0016463673,0.002744584,-0.21090697,1
2473093977,-0.027629849,0.05698601,-0.0384068,0.99853617,-0.0037326266,0.0016573425,-0.053935103,0.9775009,-0.0016463673,0.002744584,-0.21090697,1
2473137978,-0.120017394,-0.036690198,0.026240004,0.9985315,-0.003911342,0.0018989125,-0.05400027,0.9775009,-0.0016463673,0.002744584,-0.21090697,1
2473178227,0.4015943,0.20111656,-0.09371414,0.99851847,-0.0035924243,0.0020661496,-0.05425501,0.9775009,-0.0016463673,0.002744584,-0.21090697,1
2473221779,0.31057316,0.091709234,-0.11793604,0.99851066,-0.0037053481,0.0018782535,-0.054398827,0.9775009,-0.0016463673,0.002744584,-0.21090697,1
2473261994,-0.122988105,-0.20781308,0.118027724,0.9985138,-0.0041611637,0.0015428612,-0.054317795,0.9775009,-0.0016463673,0.002744584,-0.21090697,1
2473306213,0.081525095,-0.11413763,0.07291547,0.99850374,-0.0038917675,0.0012763098,-0.05453031,0.9775009,-0.0016463673,0.002744584,-0.21090697,1
2473345786,-0.13118719,0.003806183,0.026240071,0.99848974,-0.0041832016,0.0009397668,-0.054771468,0.9775009,-0.0016463673,0.002744584,-0.21090697,1
2473390245,-0.053156033,-0.036525708,0.056167375,0.9984788,-0.004220549,0.00050093624,-0.05497337,0.9775009,-0.0016463673,0.002744584,-0.21090697,1
2473430163,0.02547589,0.09181943,-0.07297775,0.9984611,-0.0041876487,9.1076006e-05,-0.05529909,0.9775009,-0.0016463673,0.002744584,-0.21090697,1
2473474003,0.0067877704,-0.0035867915,-0.07995119,0.99845254,-0.0040190974,-0.00059880083,-0.055463225,0.9775009,-0.0016463673,0.002744584,-0.21090697,1
2473514050,-0.122212276,-0.13569497,0.030929206,0.9984511,-0.0038048471,-0.0011891068,-0.055493783,0.9775009,-0.0016463673,0.002744584,-0.21090697,1
2473557978,-0.10836639,-0.08722618,-0.0018004016,0.9984409,-0.0036881636,-0.0016229948,-0.055674788,0.9775009,-0.0016463673,0.002744584,-0.21090697,1
2473597958,0.09420424,0.12639946,0.0043007326,0.9984354,-0.0032696016,-0.0017993192,-0.055794835,0.9775009,-0.0016463673,0.002744584,-0.21090697,1
2473642023,0.11734644,0.22071324,0.006577367,0.9984262,-0.0031568506,-0.0020050071,-0.055956457,0.9775009,-0.0016463673,0.002744584,-0.21090697,1
2473682115,0.0059960624,-0.029133782,-0.018380297,0.9984151,-0.003499012,-0.0027008029,-0.056106858,0.9775009,-0.0016463673,0.002744584,-0.21090697,1
2473725782,-0.06873417,-0.055000566,0.005407268,0.9984104,-0.0035233775,-0.0031039622,-0.05616758,0.9775009,-0.0016463673,0.002744584,-0.21090697,1
2473765771,0.30749026,0.023457037,-0.066059865,0.9983997,-0.0029364799,-0.0034607195,-0.056369428,0.9775009,-0.0016463673,0.002744584,-0.21090697,1
2473810036,0.1535556,-0.036011115,-0.05949509,0.99839216,-0.0026614068,-0.0040534274,-0.056476116,0.9775009,-0.0016463673,0.002744584,-0.21090697,1
2473849790,0.062002804,-0.16094284,0.053631525,0.9983915,-0.0022003166,-0.004066092,-0.056507096,0.9775009,-0.0016463673,0.002744584,-0.21090697,1
2473893960,0.155994,-0.08316868,0.023854615,0.99838394,-0.0014659701,-0.004208481,-0.056653798,0.9775009,-0.0016463673,0.002744584,-0.21090697,1
2473933932,-0.16171327,-0.08198213,0.04447602,0.998382,-0.0011770864,-0.0039986814,-0.056711957,0.9775009,-0.0016463673,0.002744584,-0.21090697,1
2473974000,0.16166507,0.18152523,-0.050184876,0.99837404,-0.00040082578,-0.0034666583,-0.05689708,0.9775009,-0.0016463673,0.002744584,-0.21090697,1
2474017698,0.02501031,0.022464927,-0.031737793,0.99837476,-0.0004444746,-0.0029179316,-0.056914806,0.9775009,-0.0016463673,0.002744584,-0.21090697,1
2474058089,0.01908867,0.100053996,-0.013070073,0.99837726,-0.00028661508,-0.0018471293,-0.056915496,0.9775009,-0.0016463673,0.002744584,-0.21090697,1
2474098153,0.0131336795,0.12042782,-0.0059655462,0.9983808,-0.00037246573,-0.0008761565,-0.056876503,0.9775009,-0.0016463673,0.002744584,-0.21090697,1
2474137772,-0.0043559205,0.070240036,0.04785512,0.99838316,-0.00061551423,6.627938e-05,-0.056840267,0.9775009,-0.0016463673,0.002744584,-0.21090697,1
2474182166,0.055821914,0.11125946,0.033145793,0.99838275,-0.0008887396,0.0012890501,-0.05682835,0.9775009,-0.0016463673,0.002744584,-0.21090697,1
2474225702,0.12496404,0.12942527,0.033450667,0.9983826,-0.0012438113,0.0023333696,-0.05679166,0.9775009,-0.0016463673,0.002744584,-0.21090697,1
2474269949,0.03360248,0.11904913,0.02975188,0.9983841,-0.0017454046,0.0033335993,-0.056701805,0.9775009,-0.0016463673,0.002744584,-0.21090697,1
2474309997,-0.01453026,0.05811349,-0.028709508,0.99838454,-0.00229938,0.0040988973,-0.056624893,0.9775009,-0.0016463673,0.002744584,-0.21090697,1
2474354028,-0.10462561,-0.015630484,0.006332546,0.9983878,-0.0029960119,0.00494227,-0.05646642,0.9775009,-0.0016463673,0.002744584,-0.21090697,1
2474394025,-0.19930446,-0.14378901,-0.005967139,0.9983899,-0.0034675058,0.005757117,-0.056325573,0.9775009,-0.0016463673,0.002744584,-0.21090697,1
2474437954,-0.37163085,-0.27157107,0.044613678,0.9983969,-0.0039914884,0.006308338,-0.056106176,0.9775009,-0.0016463673,0.002744584,-0.21090697,1
2474481742,-0.24855083,-0.19523488,0.051885046,0.9984001,-0.004116044,0.0068925475,-0.0559721,0.9775009,-0.0016463673,0.002744584,-0.21090697,1
2474522007,0.014288185,0.10011648,-0.009015579,0.9983982,-0.003999315,0.0075313514,-0.055933524,0.9775009,-0.0016463673,0.002744584,-0.21090697,1
2474565981,0.025260422,0.115472145,-0.014308209,0.99840367,-0.004159449,0.007760963,-0.055791564,0.9775009,-0.0016463673,0.002744584,-0.21090697,1
2474605786,0.01984836,0.13580018,-0.01923363,0.9984094,-0.0043113017,0.007723254,-0.0556836,0.9775009,-0.0016463673,0.002744584,-0.21090697,1
2474649755,0.10283465,0.17580166,-0.056496143,0.9984134,-0.0046583647,0.007873088,-0.055562463,0.9775009,-0.0016463673,0.002744584,-0.21090697,1
2474689771,-0.08985382,-0.08870341,0.03567424,0.9984238,-0.0049008583,0.007827972,-0.05535902,0.9775009,-0.0016463673,0.002744584,-0.21090697,1
2474733987,-0.019502154,-0.037917648,0.041908707,0.99842894,-0.0048366096,0.007994994,-0.055250257,0.9775009,-0.0016463673,0.002744584,-0.21090697,1
2474773962,0.070498,0.061494127,-0.04629087,0.99842954,-0.004700894,0.008147585,-0.055226844,0.9775009,-0.0016463673,0.002744584,-0.21090697,1
2474818044,0.02152549,0.088868424,0.011789283,0.9984391,-0.00464817,0.008092989,-0.05506758,0.9775009,-0.0016463673,0.002744584,-0.21090697,1
2474857960,0.16947404,-0.014908464,-0.048087846,0.9984454,-0.0044746045,0.0077164588,-0.055020146,0.9775009,-0.0016463673,0.002744584,-0.21090697,1
2474901944,0.047286756,-0.0771716,-0.00021649961,0.99845725,-0.004172838,0.007375534,-0.05487584,0.9775009,-0.0016463673,0.002744584,-0.21090697,1
2474941775,0.21863993,0.03678388,-0.060216352,0.99846447,-0.0038490433,0.007195497,-0.054792207,0.9775009,-0.0016463673,0.002744584,-0.21090697,1
2474986000,0.119380504,-0.05426964,-0.037087847,0.9984755,-0.003625291,0.006863865,-0.054649517,0.9775009,-0.0016463673,0.002744584,-0.21090697,1
2475025781,-0.022783598,-0.17252442,0.06564562,0.9984922,-0.0034296461,0.0065597394,-0.05439442,0.9775009,-0.0016463673,0.002744584,-0.21090697,1
2475069765,0.016491208,-0.14226232,0.02998609,0.9985021,-0.0031619486,0.006069267,-0.054284904,0.9775009,-0.0016463673,0.002744584,-0.21090697,1
2475109783,0.009323391,0.0583348,0.07834831,0.99851227,-0.0029508779,0.0058115697,-0.05413633,0.9775009,-0.0016463673,0.002744584,-0.21090697,1
2475154041,0.1965715,0.1401012,0.023646057,0.99852246,-0.0026165552,0.00520321,-0.054027725,0.9775009,-0.0016463673,0.002744584,-0.21090697,1
2475193964,-0.19011953,-0.055501953,0.0832271,0.99853563,-0.0030481697,0.0042305235,-0.053847443,0.9775009,-0.0016463673,0.002744584,-0.21090697,1
2475237934,0.08476911,0.08696838,0.062012475,0.9985424,-0.0028081823,0.0037625888,-0.053767886,0.9775009,-0.0016463673,0.002744584,-0.21090697,1
2475277768,-0.15002918,-0.084379844,-0.017288567,0.9985481,-0.003419574,0.0028782596,-0.053682603,0.9775009,-0.0016463673,0.002744584,-0.21090697,1
2475318156,0.022825122,-0.055375308,-0.01345323,0.9985562,-0.0034818614,0.002447076,-0.053549636,0.9775009,-0.0016463673,0.002744584,-0.21090697,1
2475361780,-0.009476054,-0.117386565,-0.035552587,0.998563,-0.003791175,0.001873478,-0.0534234,0.9775009,-0.0016463673,0.002744584,-0.21090697,1
2475401764,-0.13662332,0.0046168417,0.01443979,0.998571,-0.0039792694,0.0017322213,-0.0532657,0.9775009,-0.0016463673,0.002744584,-0.21090697,1
2475445938,-0.08074428,-0.076221,0.0015291141,0.99857837,-0.0041376306,0.0012809028,-0.053126514,0.9775009,-0.0016463673,0.002744584,-0.21090697,1
2475485747,-0.06437376,0.14400752,0.028374627,0.99858123,-0.0040717223,0.0013303083,-0.053077806,0.9775009,-0.0016463673,0.002744584,-0.21090697,1
2475530044,-0.14096779,0.11448042,0.013054251,0.9985869,-0.0042037787,0.0012760519,-0.052961633,0.9775009,-0.0016463673,0.002744584,-0.21090697,1
2475569747,0.12204587,0.17568225,0.0046194256,0.9985916,-0.0038137466,0.0011690914,-0.05290659,0.9775009,-0.0016463673,0.002744584,-0.21090697,1
2475613932,-0.084992185,0.16101116,0.009038772,0.99860024,-0.004022769,0.0013767136,-0.052720133,0.9775009,-0.0016463673,0.002744584,-0.21090697,1
2475658050,-0.30081826,0.004285846,0.083302096,0.99861085,-0.0040267017,0.0014713809,-0.052518617,0.9775009,-0.0016463673,0.002744584,-0.21090697,1
2475697955,0.067169264,0.15465952,-0.019171707,0.998614,-0.003348367,0.0016350474,-0.052498996,0.9775009,-0.0016463673,0.002744584,-0.21090697,1
2475742030,-0.10939051,0.022027055,0.01042896,0.9986249,-0.0032472278,0.001710256,-0.05229514,0.9775009,-0.0016463673,0.002744584,-0.21090697,1
2475781939,-0.08490156,-0.025752222,0.0023812267,0.99863464,-0.002797606,0.0018601796,-0.052131698,0.9775009,-0.0016463673,0.002744584,-0.21090697,1
2475825766,0.018278122,-0.012365991,-0.02003102,0.9986466,-0.0023898971,0.002007409,-0.051915742,0.9775009,-0.0016463673,0.002744584,-0.21090697,1
2475866028,-0.17954023,-0.094502926,-0.0007067215,0.9986592,-0.002128855,0.0022614584,-0.051675268,0.9775009,-0.0016463673,0.002744584,-0.21090697,1
2475910015,-0.1963217,-0.15290485,0.02279233,0.9986752,-0.0017778743,0.0024049056,-0.051371768,0.9775009,-0.0016463673,0.002744584,-0.21090697,1
2475950235,0.17658372,0.2690644,-0.038246065,0.9986807,-0.0009004383,0.0031313396,-0.05124623,0.9775009,-0.0016463673,0.002744584,-0.21090697,1
2475994031,0.049684405,0.14955948,0.006745752,0.99869823,-0.00047185365,0.0033681903,-0.050894935,0.9775009,-0.0016463673,0.002744584,-0.21090697,1
2476033764,-0.025873037,0.17622206,0.035562593,0.99871546,3.2725737e-05,0.003464773,-0.05055147,0.9775009,-0.0016463673,0.002744584,-0.21090697,1
2476078011,-0.12861112,0.08121398,0.083735384,0.99873734,0.00043560175,0.0037149738,-0.050097045,0.9775009,-0.0016463673,0.002744584,-0.21090697,1
2476117981,-0.037743043,0.081761874,0.003829475,0.99875027,0.00082141487,0.0038655323,-0.049824145,0.9775009,-0.0016463673,0.002744584,-0.21090697,1
2476159564,-0.025711346,-0.033846423,0.010949139,0.99876505,0.0012877523,0.004323516,-0.049476627,0.9775009,-0.0016463673,0.002744584,-0.21090697,1
2476203365,0.026488839,-0.070884034,0.030475754,0.99878657,0.0013809262,0.0046747075,-0.04900732,0.9775009,-0.0016463673,0.002744584,-0.21090697,1
2476243386,-0.12013944,0.08788188,-0.0014863217,0.9987986,0.0011623459,0.00541841,-0.048688743,0.9775009,-0.0016463673,0.002744584,-0.21090697,1
2476283591,0.094551496,0.18292078,0.025659684,0.9988114,0.001451481,0.005929388,-0.04835772,0.9775009,-0.0016463673,0.002744584,-0.21090697,1
2476327604,0.017013496,0.14656875,0.008551686,0.99882954,0.0012204059,0.0062188734,-0.047952857,0.9775009,-0.0016463673,0.002744584,-0.21090697,1
2476371346,-0.08057035,0.013105409,0.07561954,0.99885243,0.0008792363,0.0064234654,-0.047454774,0.9775009,-0.0016463673,0.002744584,-0.21090697,1
2476411375,-0.2966469,-0.025833977,0.028585285,0.998869,0.00035250507,0.0064720903,-0.047104996,0.9775009,-0.0016463673,0.002744584,-0.21090697,1
2476455662,0.027318457,0.03863667,0.034080524,0.9988881,0.00041493433,0.0066987155,-0.04666385,0.9775009,-0.0016463673,0.002744584,-0.21090697,1
2476495626,-0.1129456,-0.08454792,0.055777706,0.9989066,0.00021196013,0.0066493764,-0.046275146,0.9775009,-0.0016463673,0.002744584,-0.21090697,1
2476535606,-0.14306149,0.060420536,0.018209333,0.99891806,-7.6358425e-05,0.00680766,-0.046004724,0.9775009,-0.0016463673,0.002744584,-0.21090697,1
2476579374,0.117971346,0.08573992,0.020852596,0.9989332,0.00013028689,0.006969645,-0.04565024,0.9775009,-0.0016463673,0.002744584,-0.21090697,1
2476619586,0.009016429,0.11825962,0.0008513753,0.99894667,6.218639e-05,0.0070349686,-0.045344487,0.9775009,-0.0016463673,0.002744584,-0.21090697,1
2476663625,0.08090477,0.041981507,0.0057617235,0.9989574,0.00043952992,0.0072286823,-0.045074925,0.9775009,-0.0016463673,0.002744584,-0.21090697,1
2476703701,-0.09096783,-0.023955546,0.0457154,0.99896985,0.0005075762,0.007348373,-0.044776473,0.9775009,-0.0016463673,0.002744584,-0.21090697,1
2476747607,0.19781205,0.11889036,-0.00844373,0.99897486,0.0010734528,0.007632534,-0.044609975,0.9775009,-0.0016463673,0.002744584,-0.21090697,1
2476787623,0.09574508,0.0338554,0.036186855,0.99898744,0.0010769007,0.0074130204,-0.04436347,0.9775009,-0.0016463673,0.002744584,-0.21090697,1
2476831644,0.037831265,-0.098761424,0.012284116,0.99899507,0.0010817291,0.007235376,-0.04422076,0.9775009,-0.0016463673,0.002744584,-0.21090697,1
2476871409,0.30656242,0.126524,-0.057382315,0.99899834,0.0011845345,0.007522331,-0.04409632,0.9775009,-0.0016463673,0.002744584,-0.21090697,1
2476911693,-0.27064973,-0.12678584,0.0874325,0.9990149,0.0005625458,0.0073877843,-0.04375414,0.9775009,-0.0016463673,0.002744584,-0.21090697,1
2476955697,-0.21723917,-0.038914252,0.001239608,0.9990179,0.0003221288,0.007490396,-0.043671302,0.9775009,-0.0016463673,0.002744584,-0.21090697,1
2476999605,-0.21682553,-0.10378537,0.04279416,0.9990281,-1.3565121e-06,0.007359029,-0.043458987,0.9775009,-0.0016463673,0.002744584,-0.21090697,1
2477043594,-0.26206818,-0.0016170442,0.029913904,0.99902856,-0.00048659972,0.007471542,-0.043426152,0.9775009,-0.0016463673,0.002744584,-0.21090697,1
2477083380,0.10780996,-0.00082333013,0.013574458,0.9990322,-0.0006373194,0.0071254205,-0.04340026,0.9775009,-0.0016463673,0.002744584,-0.21090697,1
2477127886,0.072543584,0.12346329,-0.020415278,0.99903274,-0.0014207056,0.006907447,-0.04340551,0.9775009,-0.0016463673,0.002744584,-0.21090697,1
2477171635,-0.043101028,0.09071597,-0.02468894,0.9990328,-0.002381721,0.006621678,-0.043406427,0.9775009,-0.0016463673,0.002744584,-0.21090697,1
2477215614,0.26206678,0.18350722,-0.02954395,0.9990318,-0.00277201,0.0064852955,-0.04342584,0.9775009,-0.0016463673,0.002744584,-0.21090697,1
2477255637,-0.09205488,-0.10949746,0.0024582688,0.9990337,-0.0038622038,0.0058662705,-0.043386642,0.9775009,-0.0016463673,0.002744584,-0.21090697,1
2477299617,0.012137775,-0.1669848,-0.03843605,0.99902827,-0.004276949,0.005485184,-0.043523457,0.9775009,-0.0016463673,0.002744584,-0.21090697,1
2477339632,0.083180234,0.14522414,0.03557788,0.9990248,-0.0046059145,0.005559358,-0.04355892,0.9775009,-0.0016463673,0.002744584,-0.21090697,1
2477383395,0.069530815,0.08354396,-0.003071455,0.99901706,-0.0048937486,0.0051787263,-0.043752305,0.9775009,-0.0016463673,0.002744584,-0.21090697,1
2477427697,0.053924996,0.013233257,0.029057844,0.9990115,-0.005080006,0.0046781534,-0.043915104,0.9775009,-0.0016463673,0.002744584,-0.21090697,1
2477471347,-0.15740557,-0.058289938,0.03565519,0.9990047,-0.0054845135,0.004175596,-0.04406931,0.9775009,-0.0016463673,0.002744584,-0.21090697,1
2477511394,-0.09670734,-0.10072954,-0.040579718,0.99899566,-0.005549376,0.0036794122,-0.044308957,0.9775009,-0.0016463673,0.002744584,-0.21090697,1
2477555364,-0.10330765,0.016483359,-0.043807436,0.99898887,-0.0058456575,0.003411133,-0.044447694,0.9775009,-0.0016463673,0.002744584,-0.21090697,1
2477595611,-0.076155245,-0.28494123,-0.0079286685,0.9989867,-0.005967907,0.0029092645,-0.04451403,0.9775009,-0.0016463673,0.002744584,-0.21090697,1
2477639371,-0.0153065175,-0.087555364,0.027198255,0.99897933,-0.006142289,0.0028772554,-0.04465747,0.9775009,-0.0016463673,0.002744584,-0.21090697,1
2477679599,-0.066160284,-0.058677077,0.01848137,0.99896973,-0.006276188,0.003032084,-0.0448451,0.9775009,-0.0016463673,0.002744584,-0.21090697,1
2477723339,-0.0018579978,0.08674491,0.013941711,0.9989596,-0.006207595,0.0033542146,-0.045054663,0.9775009,-0.0016463673,0.002744584,-0.21090697,1
2477763608,-0.0905582,0.059388142,0.041538797,0.99895144,-0.0062078973,0.0032900055,-0.045241702,0.9775009,-0.0016463673,0.002744584,-0.21090697,1
2477807713,-0.025924318,0.18282495,0.026674291,0.99894196,-0.0059825294,0.0036149968,-0.045455705,0.9775009,-0.0016463673,0.002744584,-0.21090697,1
2477847663,0.06796458,0.040240094,-0.025754768,0.9989352,-0.0058751223,0.0034691535,-0.045627177,0.9775009,-0.0016463673,0.002744584,-0.21090697,1
2477891749,0.29484528,0.25678238,-0.08967376,0.99892384,-0.005332,0.0038958457,-0.045909423,0.9775009,-0.0016463673,0.002744584,-0.21090697,1
2477931398,-0.101164445,-0.1267353,0.046177648,0.9989227,-0.0054046884,0.0037979593,-0.045933794,0.9775009,-0.0016463673,0.002744584,-0.21090697,1
2477975795,0.056830283,0.004377451,-0.005049373,0.9989105,-0.004865256,0.0041734567,-0.04622624,0.9775009,-0.0016463673,0.002744584,-0.21090697,1
2478019372,-0.27825752,-0.2628989,0.045263663,0.9989051,-0.0047824923,0.004047057,-0.046361268,0.9775009,-0.0016463673,0.002744584,-0.21090697,1
2478063598,0.009999985,-0.1993165,0.039656766,0.99889654,-0.003993026,0.0042847116,-0.04659991,0.9775009,-0.0016463673,0.002744584,-0.21090697,1
2478103381,0.024481984,0.09888348,0.013702061,0.99888456,-0.0035154903,0.004753419,-0.046849214,0.9775009,-0.0016463673,0.002744584,-0.21090697,1
2478143704,-0.15831661,0.023121515,-0.019232843,0.9988786,-0.0034276764,0.0046057217,-0.046996526,0.9775009,-0.0016463673,0.002744584,-0.21090697,1
2478183395,0.03390424,0.12938765,-0.093004376,0.99886894,-0.0031787332,0.0048180213,-0.047198042,0.9775009,-0.0016463673,0.002744584,-0.21090697,1
2478227606,0.024031233,-0.040213883,-0.03455578,0.9988631,-0.0030616124,0.005024188,-0.047308058,0.9775009,-0.0016463673,0.002744584,-0.21090697,1
2478267605,-0.14772366,0.00949195,-0.013077243,0.9988557,-0.0032934123,0.005392549,-0.047407147,0.9775009,-0.0016463673,0.002744584,-0.21090697,1
2478311409,-0.11878664,-0.14428464,0.07093871,0.99884903,-0.0035011887,0.005728408,-0.04749206,0.9775009,-0.0016463673,0.002744584,-0.21090697,1
2478351368,0.026796356,0.18213302,-0.016970666,0.99883133,-0.0035613568,0.0063947015,-0.047774237,0.9775009,-0.0016463673,0.002744584,-0.21090697,1
2478395621,-0.06998098,-0.03608185,0.06823454,0.9988275,-0.0037851864,0.0065678298,-0.047814295,0.9775009,-0.0016463673,0.002744584,-0.21090697,1
2478435696,-0.036326215,0.017592188,-0.029083394,0.9988149,-0.0038914317,0.0068230378,-0.048034105,0.9775009,-0.0016463673,0.002744584,-0.21090697,1
2478479327,0.076746,-0.073602095,-0.008528978,0.99880886,-0.0037867483,0.0069883238,-0.048142973,0.9775009,-0.0016463673,0.002744584,-0.21090697,1
2478519564,-0.21421076,-0.21829453,0.037150096,0.9988069,-0.004005913,0.0071079903,-0.048149254,0.9775009,-0.0016463673,0.002744584,-0.21090697,1
2478563691,-0.012797669,-0.20192958,0.0133268405,0.99880177,-0.0037120117,0.0070756227,-0.04828382,0.9775009,-0.0016463673,0.002744584,-0.21090697,1
2478603389,-0.03291507,0.0095358435,0.012299741,0.9987952,-0.0034222163,0.007242769,-0.048416153,0.9775009,-0.0016463673,0.002744584,-0.21090697,1
2478647701,-0.061271504,-0.039528605,0.04394285,0.9987965,-0.00333337,0.006933606,-0.04843894,0.9775009,-0.0016463673,0.002744584,-0.21090697,1
2478687624,-0.006601231,-0.044028953,0.03972525,0.9987927,-0.0028836539,0.0068234294,-0.04856178,0.9775009,-0.0016463673,0.002744584,-0.21090697,1
2478731558,0.03726491,-0.06988795,0.066890225,0.9987935,-0.0024486969,0.0066079064,-0.048600458,0.9775009,-0.0016463673,0.002744584,-0.21090697,1
2478771364,-0.0011571795,-0.0709393,-0.019930711,0.9987901,-0.0022582023,0.0064884867,-0.048696052,0.9775009,-0.0016463673,0.002744584,-0.21090697,1
2478815619,0.152652,-0.039000116,-0.067967124,0.9987839,-0.0017369078,0.006421532,-0.048851762,0.9775009,-0.0016463673,0.002744584,-0.21090697,1
2478855378,-0.18140283,-0.2730677,0.08011045,0.9987881,-0.0017710972,0.0063504307,-0.048773117,0.9775009,-0.0016463673,0.002744584,-0.21090697,1
2478899368,0.09328711,-0.12683871,-0.022020243,0.99878055,-0.001434192,0.0064444374,-0.04892611,0.9775009,-0.0016463673,0.002744584,-0.21090697,1
2478939368,0.044238474,0.042853713,0.007725949,0.9987711,-0.00120724,0.007010652,-0.049049955,0.9775009,-0.0016463673,0.002744584,-0.21090697,1
2478983637,0.04639081,0.096883535,-0.029773423,0.9987609,-0.0010408434,0.007341416,-0.049212836,0.9775009,-0.0016463673,0.002744584,-0.21090697,1
2479023355,0.2635629,0.08768648,-0.021848906,0.99875236,-0.0007362222,0.0075837946,-0.049353424,0.9775009,-0.0016463673,0.002744584,-0.21090697,1
2479067382,0.1591847,0.11464059,-0.02422931,0.9987424,-0.0006948788,0.008068175,-0.049477536,0.9775009,-0.0016463673,0.002744584,-0.21090697,1
2479107678,0.15252532,0.027074862,-0.06454566,0.9987354,-0.00095719384,0.008252554,-0.04958409,0.9775009,-0.0016463673,0.002744584,-0.21090697,1
2479151368,-0.05125533,-0.047766253,-0.023935137,0.9987289,-0.0010736712,0.00862446,-0.04965167,0.9775009,-0.0016463673,0.002744584,-0.21090697,1
2479191300,0.1501666,0.011010287,-0.037556835,0.9987194,-0.0009215715,0.00911023,-0.049757466,0.9775009,-0.0016463673,0.002744584,-0.21090697,1
2479235661,0.021931699,-0.070730254,-0.0042538666,0.9987118,-0.0009607413,0.009396278,-0.049856175,0.9775009,-0.0016463673,0.002744584,-0.21090697,1
2479275322,-0.07469268,0.011778638,0.0005908825,0.9987001,-0.0010317941,0.009820981,-0.050006054,0.9775009,-0.0016463673,0.002744584,-0.21090697,1
2479319648,-0.12689783,-0.010250866,0.064307235,0.99869305,-0.00095996365,0.010145781,-0.050084114,0.9775009,-0.0016463673,0.002744584,-0.21090697,1
2479359548,0.083296806,0.028569847,-0.028381612,0.99867904,-0.0006406307,0.010330694,-0.05032863,0.9775009,-0.0016463673,0.002744584,-0.21090697,1
2479403641,-0.07303664,0.014897088,0.0034556969,0.9986692,-0.0006232287,0.010421555,-0.05050505,0.9775009,-0.0016463673,0.002744584,-0.21090697,1
2479443393,0.059942983,-0.08267784,0.0099039115,0.99866337,-0.00028592817,0.010351636,-0.050640073,0.9775009,-0.0016463673,0.002744584,-0.21090697,1
2479487699,0.0057024136,-0.040833358,-0.022970555,0.9986493,-0.00018195031,0.010291645,-0.050928276,0.9775009,-0.0016463673,0.002744584,-0.21090697,1
2479527619,-0.1852189,-0.23619501,-0.0017554067,0.9986424,-0.00019187559,0.009941942,-0.051132474,0.9775009,-0.0016463673,0.002744584,-0.21090697,1
2479571367,-0.25106356,-0.19528668,-0.0015638361,0.9986315,-0.00032736058,0.009471778,-0.05143319,0.9775009,-0.0016463673,0.002744584,-0.21090697,1
2479611537,-0.08116074,-0.057159938,-0.012913086,0.9986176,-0.0001349977,0.009182557,-0.051756095,0.9775009,-0.0016463673,0.002744584,-0.21090697,1
2479655705,-0.107488796,0.042241756,-0.0036304004,0.99860466,-0.00043453727,0.008832832,-0.052062504,0.9775009,-0.0016463673,0.002744584,-0.21090697,1
2479695562,-0.077156216,-0.031950116,0.009333616,0.99858886,-0.00057456066,0.008417736,-0.052431412,0.9775009,-0.0016463673,0.002744584,-0.21090697,1
2479735579,-0.09968178,-0.17121851,-0.0391873,0.99857134,-0.0009244634,0.008064409,-0.05281695,0.9775009,-0.0016463673,0.002744584,-0.21090697,1
2479775581,0.10158533,-0.067486994,-0.05661562,0.99855304,-0.0010084402,0.008127361,-0.05314999,0.9775009,-0.0016463673,0.002744584,-0.21090697,1
2479819570,-0.061000302,-0.16371006,-0.05696972,0.9985347,-0.0015254696,0.007697795,-0.053544458,0.9775009,-0.0016463673,0.002744584,-0.21090697,1
2479859587,-0.08818868,-0.22727066,-0.010569556,0.9985161,-0.0017245382,0.007514125,-0.05390992,0.9775009,-0.0016463673,0.002744584,-0.21090697,1
2479903597,-0.12729016,-0.24243253,-0.023146193,0.9984929,-0.0020637307,0.0071300855,-0.054378815,0.9775009,-0.0016463673,0.002744584,-0.21090697,1
2479943624,-0.14415582,-0.22343889,0.0083736805,0.9984697,-0.002260641,0.0070907413,-0.054798406,0.9775009,-0.0016463673,0.002744584,-0.21090697,1
2479983584,0.2065845,0.11079626,-0.06670105,0.99843824,-0.0021104072,0.00736321,-0.055339944,0.9775009,-0.0016463673,0.002744584,-0.21090697,1
2480024418,0.16577347,0.14997552,-0.028504113,0.99841315,-0.0021440904,0.0074518123,-0.05577783,0.9775009,-0.0016463673,0.002744584,-0.21090697,1
2480068939,0.06968944,-0.019362755,-0.032464985,0.9983837,-0.0020421962,0.007437249,-0.056307547,0.9775009,-0.0016463673,0.002744584,-0.21090697,1
2480109198,0.2326036,0.16459925,-0.055661995,0.99835616,-0.0017783688,0.007723779,-0.056764126,0.9775009,-0.0016463673,0.002744584,-0.21090697,1
2480152950,0.16836748,0.060153678,-0.033129074,0.9983334,-0.0016003455,0.0078519005,-0.057151027,0.9775009,-0.0016463673,0.002744584,-0.21090697,1
2480192945,0.10378226,0.14158733,-0.047611564,0.9983134,-0.0013285346,0.008085091,-0.057472326,0.9775009,-0.0016463673,0.002744584,-0.21090697,1
2480233193,-0.07100662,0.07700123,-0.0072620334,0.9982979,-0.0011624513,0.0081148,-0.057740632,0.9775009,-0.0016463673,0.002744584,-0.21090697,1
2480272969,-0.08936449,-0.057650343,0.01130533,0.9982828,-0.00084691314,0.008042467,-0.058018263,0.9775009,-0.0016463673,0.002744584,-0.21090697,1
2480317330,-0.1379998,-0.04407847,0.036752902,0.99826485,-0.0006567147,0.008160327,-0.058312915,0.9775009,-0.0016463673,0.002744584,-0.21090697,1
2480357198,-0.047736,-0.04406558,-0.017819278,0.9982447,-0.00041480278,0.008289482,-0.058640566,0.9775009,-0.0016463673,0.002744584,-0.21090697,1
2480400992,-0.23546109,-0.15424411,0.05050299,0.9982369,-0.0005698715,0.0082845185,-0.058773015,0.9775009,-0.0016463673,0.002744584,-0.21090697,1
2480440940,0.19325562,0.09779664,-0.05425019,0.9982153,-0.00015891896,0.008688783,-0.0590828,0.9775009,-0.0016463673,0.002744584,-0.21090697,1
2480485239,-0.084614895,-0.070283175,-0.006068983,0.9982102,-0.0005278312,0.008729153,-0.059160408,0.9775009,-0.0016463673,0.002744584,-0.21090697,1
2480524974,0.2825681,0.15292281,-0.030293738,0.9981966,-3.8467453e-05,0.009253042,-0.05931284,0.9775009,-0.0016463673,0.002744584,-0.21090697,1
2480569020,0.23343524,0.15814513,-0.049205307,0.9981934,-0.00019680061,0.009368444,-0.059348024,0.9775009,-0.0016463673,0.002744584,-0.21090697,1
2480608979,0.044035498,-0.0031559672,0.033051018,0.99819744,-0.000424034,0.009488593,-0.05926015,0.9775009,-0.0016463673,0.002744584,-0.21090697,1
2480653258,0.293361,0.18356578,-0.004375574,0.9981911,-0.00014669103,0.010043418,-0.05927624,0.9775009,-0.0016463673,0.002744584,-0.21090697,1
2480692982,-0.17675841,-0.073678896,-0.004524376,0.99819547,-0.00059237797,0.010163652,-0.0591803,0.9775009,-0.0016463673,0.002744584,-0.21090697,1
2480737200,0.058880486,0.011331961,0.02515562,0.99819654,-0.00026752806,0.01079955,-0.059051286,0.9775009,-0.0016463673,0.002744584,-0.21090697,1
2480777197,-0.078865245,0.02264717,-0.08236346,0.99819267,-0.00022611929,0.011347557,-0.05901452,0.9775009,-0.0016463673,0.002744584,-0.21090697,1
2480820983,0.031128641,0.052118786,-0.050262608,0.9981984,0.0002404676,0.011819921,-0.058824904,0.9775009,-0.0016463673,0.002744584,-0.21090697,1
2480861218,-0.07118294,-0.10327572,0.03781633,0.9982111,0.00042271437,0.012120415,-0.058545865,0.9775009,-0.0016463673,0.002744584,-0.21090697,1
2480905205,0.10527087,0.019647237,-0.025021117,0.99821085,0.0007945432,0.012700063,-0.05842279,0.9775009,-0.0016463673,0.002744584,-0.21090697,1
2480945206,-0.20430186,-0.0474644,0.062162448,0.998227,0.0006281198,0.013020708,-0.058077365,0.9775009,-0.0016463673,0.002744584,-0.21090697,1
2480989242,-0.09212156,-0.02914628,0.056345444,0.99823564,0.0007443975,0.013439176,-0.057831362,0.9775009,-0.0016463673,0.002744584,-0.21090697,1
2481028957,0.05011482,0.17272991,0.032073405,0.99824107,0.0006298492,0.013929806,-0.05762336,0.9775009,-0.0016463673,0.002744584,-0.21090697,1
2481072997,0.14400172,0.2576562,0.013851787,0.99825275,0.000387691,0.014452941,-0.057293475,0.9775009,-0.0016463673,0.002744584,-0.21090697,1
2481113168,-0.05474942,0.10521725,0.026960395,0.9982766,-0.00023271872,0.01434546,-0.056904018,0.9775009,-0.0016463673,0.002744584,-0.21090697,1
2481157286,0.12580782,0.12913635,0.030395143,0.99829763,-0.0007510313,0.014580444,-0.05646876,0.9775009,-0.0016463673,0.002744584,-0.21090697,1
2481197240,-0.17260487,0.040257417,-0.008640768,0.9983202,-0.0017075073,0.014523986,-0.056061786,0.9775009,-0.0016463673,0.002744584,-0.21090697,1
2481241193,-0.13292041,0.05078957,-0.011158136,0.9983451,-0.002389488,0.014503429,-0.055598725,0.9775009,-0.0016463673,0.002744584,-0.21090697,1
2481280965,0.024109773,0.08516463,0.034041513,0.99837,-0.00270369,0.014505722,-0.055132564,0.9775009,-0.0016463673,0.002744584,-0.21090697,1
2481325244,-0.006725671,0.07753611,0.01328517,0.99839514,-0.0033615245,0.014389606,-0.054669943,0.9775009,-0.0016463673,0.002744584,-0.21090697,1
2481365189,-0.010598576,0.18711887,0.059685636,0.9984144,-0.003863874,0.014416531,-0.05427756,0.9775009,-0.0016463673,0.002744584,-0.21090697,1
2481409304,-0.0029422082,0.21443957,0.01561747,0.99843687,-0.004372695,0.014474301,-0.05380826,0.9775009,-0.0016463673,0.002744584,-0.21090697,1
2481448968,0.055462953,0.06728203,0.012039096,0.9984581,-0.004803767,0.014215551,-0.053445283,0.9775009,-0.0016463673,0.002744584,-0.21090697,1
2481489301,-0.19337463,-0.26179823,0.044387665,0.998479,-0.0055145146,0.014103844,-0.053013418,0.9775009,-0.0016463673,0.002744584,-0.21090697,1
2481529252,0.090864375,0.08113792,0.02425767,0.9984893,-0.0058062603,0.01459372,-0.052653942,0.9775009,-0.0016463673,0.002744584,-0.21090697,1
2481573291,0.06309861,0.0086240135,0.040901795,0.9985084,-0.006342663,0.014479083,-0.05226166,0.9775009,-0.0016463673,0.002744584,-0.21090697,1
2481613200,0.11406338,0.07888121,-0.013127992,0.9985246,-0.0069058617,0.014219087,-0.05195056,0.9775009,-0.0016463673,0.002744584,-0.21090697,1
2481657326,0.10005486,-0.0106737055,-0.013516879,0.99854743,-0.0072052768,0.013875715,-0.051561464,0.9775009,-0.0016463673,0.002744584,-0.21090697,1
2481697259,0.082286894,-0.041055135,-0.0029639807,0.99856275,-0.0075085512,0.013764541,-0.05125125,0.9775009,-0.0016463673,0.002744584,-0.21090697,1
2481741315,0.0005838033,-0.14046903,0.0116465315,0.99858594,-0.007865667,0.013422303,-0.050834253,0.9775009,-0.0016463673,0.002744584,-0.21090697,1
2481781164,0.28112823,0.13939586,-0.052274484,0.9985964,-0.0078054355,0.01371591,-0.05055979,0.9775009,-0.0016463673,0.002744584,-0.21090697,1
2481825220,0.053960145,-0.0025683977,-0.025565973,0.9986147,-0.008560776,0.013438129,-0.05014798,0.9775009,-0.0016463673,0.002744584,-0.21090697,1
2481865237,0.12552708,-0.0070596654,0.0149748605,0.99862945,-0.00900473,0.013338907,-0.049801413,0.9775009,-0.0016463673,0.002744584,-0.21090697,1
2481909192,-0.2040379,-0.1997179,0.044104237,0.9986465,-0.009778498,0.012922777,-0.049422685,0.9775009,-0.0016463673,0.002744584,-0.21090697,1
2481949213,0.22182311,0.06126841,-0.025890453,0.9986599,-0.009648936,0.012933689,-0.04917456,0.9775009,-0.0016463673,0.002744584,-0.21090697,1
2481993290,0.13206258,-0.058870174,-0.03286806,0.99867755,-0.009844087,0.01257569,-0.048869424,0.9775009,-0.0016463673,0.002744584,-0.21090697,1
2482033248,-0.13054453,0.034587186,0.00852301,0.9986915,-0.010121194,0.01243531,-0.048562452,0.9775009,-0.0016463673,0.002744584,-0.21090697,1
2482077210,0.13529865,0.12692282,-0.06447201,0.9987121,-0.009722336,0.012024787,-0.048322473,0.9775009,-0.0016463673,0.002744584,-0.21090697,1
2482117204,0.16821213,-0.02642756,0.005013126,0.99873614,-0.009598895,0.011389286,-0.04800385,0.9775009,-0.0016463673,0.002744584,-0.21090697,1
2482161173,0.08982252,-0.12271395,-0.021414429,0.9987573,-0.009655024,0.010606136,-0.047731217,0.9775009,-0.0016463673,0.002744584,-0.21090697,1
2482201159,0.2886819,0.016936008,-0.052338194,0.99877155,-0.00950025,0.010360859,-0.04751671,0.9775009,-0.0016463673,0.002744584,-0.21090697,1
2482245247,0.033609398,-0.26683798,-0.015673866,0.99879295,-0.0097225355,0.009273237,-0.047246974,0.9775009,-0.0016463673,0.002744584,-0.21090697,1
2482285222,0.20276444,0.13965994,-0.03570747,0.9988041,-0.009738799,0.00886103,-0.04708615,0.9775009,-0.0016463673,0.002744584,-0.21090697,1
2482329220,0.0090135215,0.111555874,-0.02142021,0.99882025,-0.0101414565,0.007972909,-0.046816777,0.9775009,-0.0016463673,0.002744584,-0.21090697,1
2482369230,0.12513565,-0.077295825,-0.025703289,0.9988379,-0.010465574,0.006799257,-0.046551373,0.9775009,-0.0016463673,0.002744584,-0.21090697,1
2482413234,-0.17748988,-0.16294155,0.050799817,0.9988559,-0.010889,0.0057541286,-0.046210535,0.9775009,-0.0016463673,0.002744584,-0.21090697,1
2482453286,0.12738237,-0.16169325,-0.03309951,0.9988703,-0.010665488,0.005269516,-0.046007052,0.9775009,-0.0016463673,0.002744584,-0.21090697,1
2482497318,-0.0231953,-0.14107372,0.022939483,0.99889016,-0.010565637,0.004892538,-0.045639977,0.9775009,-0.0016463673,0.002744584,-0.21090697,1
2482537293,-0.06507645,0.08450939,-0.013256787,0.9989075,-0.010376431,0.004873081,-0.045305423,0.9775009,-0.0016463673,0.002744584,-0.21090697,1
2482581267,0.15729108,0.2734608,-0.02721292,0.9989266,-0.009835498,0.0051004435,-0.044977278,0.9775009,-0.0016463673,0.002744584,-0.21090697,1
2482621276,-0.15307093,0.032171994,0.015639141,0.998944,-0.009817633,0.004842691,-0.04462357,0.9775009,-0.0016463673,0.002744584,-0.21090697,1
2482665179,-0.10825616,0.055928834,0.027834553,0.99896383,-0.009391796,0.004876234,-0.044264693,0.9775009,-0.0016463673,0.002744584,-0.21090697,1
2482705236,-0.030676318,-0.056044757,0.033340998,0.99898297,-0.008901463,0.004670083,-0.04395572,0.9775009,-0.0016463673,0.002744584,-0.21090697,1
2482749195,-0.22574078,-0.15862648,0.049098417,0.9990001,-0.008524395,0.004464311,-0.04366201,0.9775009,-0.0016463673,0.002744584,-0.21090697,1
2482789111,0.14377876,0.1805546,0.01955167,0.99901587,-0.008061163,0.0042430046,-0.043410692,0.9775009,-0.0016463673,0.002744584,-0.21090697,1
2482833132,0.18324855,0.061621923,0.029924477,0.99903303,-0.008082447,0.00338944,-0.04308416,0.9775009,-0.0016463673,0.002744584,-0.21090697,1
2482873166,0.05441402,0.013774034,0.0075395214,0.999043,-0.008126615,0.002928129,-0.042877525,0.9775009,-0.0016463673,0.002744584,-0.21090697,1
2482917177,0.04141709,-0.15146853,-0.00494058,0.9990549,-0.008294562,0.0022375523,-0.04260917,0.9775009,-0.0016463673,0.002744584,-0.21090697,1
2482957252,-0.12802649,-0.13414478,0.006263154,0.9990621,-0.008327758,0.002250243,-0.042433023,0.9775009,-0.0016463673,0.002744584,-0.21090697,1
2483001214,-0.10081717,-0.08470884,0.017212763,0.9990752,-0.008232908,0.0023295977,-0.04213927,0.9775009,-0.0016463673,0.002744584,-0.21090697,1
2483040975,-0.038931668,-0.11272399,0.010119578,0.99908423,-0.007947365,0.002808443,-0.0419492,0.9775009,-0.0016463673,0.002744584,-0.21090697,1
2483085142,0.019049358,0.016678723,0.052664127,0.99909633,-0.007361076,0.0036944842,-0.041698005,0.9775009,-0.0016463673,0.002744584,-0.21090697,1
2483124973,-0.2094767,-0.17503837,0.057194877,0.99910057,-0.0071424074,0.0043925005,-0.041566122,0.9775009,-0.0016463673,0.002744584,-0.21090697,1
2483169182,0.06507823,0.084979296,0.002472557,0.9991027,-0.006226618,0.0056074336,-0.04151571,0.9775009,-0.0016463673,0.002744584,-0.21090697,1
2483208982,0.09877041,0.22038801,0.01902887,0.99910706,-0.005648552,0.0062127234,-0.04140946,0.9775009,-0.0016463673,0.002744584,-0.21090697,1
2483253183,-0.0359706,0.16907205,-0.022348356,0.99910593,-0.0057426053,0.0066252593,-0.041359626,0.9775009,-0.0016463673,0.002744584,-0.21090697,1
2483293144,0.0025806297,0.034915075,-0.011295184,0.9991126,-0.005840323,0.006439829,-0.041212317,0.9775009,-0.0016463673,0.002744584,-0.21090697,1
2483337214,-0.05794449,-0.02785401,-0.02749263,0.9991164,-0.006032887,0.0064714025,-0.04108777,0.9775009,-0.0016463673,0.002744584,-0.21090697,1
2483377244,0.011258251,0.049172617,0.018479498,0.99911904,-0.0060866303,0.0066786637,-0.040983547,0.9775009,-0.0016463673,0.002744584,-0.21090697,1
2483421158,0.008911002,-0.072492644,0.0457728,0.999124,-0.0060603973,0.0066384072,-0.040871166,0.9775009,-0.0016463673,0.002744584,-0.21090697,1
2483460947,0.33307275,0.24049075,-0.017756172,0.9991204,-0.0057124863,0.00706333,-0.040937997,0.9775009,-0.0016463673,0.002744584,-0.21090697,1
2483505254,0.21625556,-0.033014785,-0.005368121,0.9991197,-0.0054522115,0.007161609,-0.04097532,0.9775009,-0.0016463673,0.002744584,-0.21090697,1
2483545127,0.19884403,-0.026766514,-0.06475406,0.9991166,-0.005197688,0.0074954783,-0.04102297,0.9775009,-0.0016463673,0.002744584,-0.21090697,1
2483588984,0.052310273,-0.094005875,0.0030449464,0.99911594,-0.004860605,0.0076365974,-0.041054666,0.9775009,-0.0016463673,0.002744584,-0.21090697,1
2483629143,-0.019238632,-0.011013191,0.015488061,0.99911326,-0.0045126625,0.007918058,-0.041104335,0.9775009,-0.0016463673,0.002744584,-0.21090697,1
2483672981,-0.074192286,0.113822505,-0.0006528071,0.99911046,-0.0043763663,0.0076921624,-0.041232005,0.9775009,-0.0016463673,0.002744584,-0.21090697,1
2483712959,-0.30838555,-0.2024828,0.019453071,0.9991133,-0.004396675,0.0068634874,-0.041307453,0.9775009,-0.0016463673,0.002744584,-0.21090697,1
2483757297,-0.03598838,0.051778015,-0.039757926,0.9991104,-0.004087298,0.006608787,-0.04145042,0.9775009,-0.0016463673,0.002744584,-0.21090697,1
2483797214,-0.18853839,-0.17084038,0.0023966625,0.9991117,-0.0039965846,0.0058816434,-0.041536313,0.9775009,-0.0016463673,0.002744584,-0.21090697,1
2483841213,0.073600866,-0.05503845,-0.011788467,0.9991082,-0.0035665608,0.005523679,-0.04171116,0.9775009,-0.0016463673,0.002744584,-0.21090697,1
2483880967,0.057270817,0.093737885,0.047697566,0.99910253,-0.0032904656,0.0055281823,-0.04186575,0.9775009,-0.0016463673,0.002744584,-0.21090697,1
2483922843,0.20101461,0.22007532,-0.0038057775,0.9990896,-0.0028239647,0.005643927,-0.042193726,0.9775009,-0.0016463673,0.002744584,-0.21090697,1
2483962928,0.1903725,0.13223073,-0.03164218,0.999082,-0.0026732753,0.005473027,-0.042403784,0.9775009,-0.0016463673,0.002744584,-0.21090697,1
2484006800,0.25448656,0.081797555,-0.056677844,0.99906987,-0.0026640976,0.005403955,-0.042697653,0.9775009,-0.0016463673,0.002744584,-0.21090697,1
2484046892,0.10793086,-0.051877923,-0.014946638,0.99905515,-0.0029147756,0.0055869273,-0.043002214,0.9775009,-0.0016463673,0.002744584,-0.21090697,1
2484090577,0.018113082,-0.14543356,-0.013661874,0.9990392,-0.0028521137,0.0055354773,-0.043384176,0.9775009,-0.0016463673,0.002744584,-0.21090697,1
2484130813,0.03211528,0.02653045,-0.025648057,0.99902207,-0.002612606,0.0059827664,-0.043728746,0.9775009,-0.0016463673,0.002744584,-0.21090697,1
2484170914,0.29542446,0.12621748,-0.0280292,0.9990039,-0.0017681615,0.0066101034,-0.044095736,0.9775009,-0.0016463673,0.002744584,-0.21090697,1
2484210772,0.2574655,0.145748,-0.088489644,0.9989799,-0.0012447964,0.0072586946,-0.044552367,0.9775009,-0.0016463673,0.002744584,-0.21090697,1
2484254772,0.20899561,0.121027246,-0.038081516,0.99896115,-0.00022568091,0.007947241,-0.044871345,0.9775009,-0.0016463673,0.002744584,-0.21090697,1
2484294811,0.25493056,-0.02196814,-0.06886064,0.99894065,0.0010166786,0.008627954,-0.045190368,0.9775009,-0.0016463673,0.002744584,-0.21090697,1
2484338749,-0.05437959,-0.104460195,-0.01892243,0.99892133,0.0019780498,0.009276858,-0.04545614,0.9775009,-0.0016463673,0.002744584,-0.21090697,1
2484378747,0.2224542,0.05192928,-0.023296338,0.9988933,0.0035119036,0.010284634,-0.045759615,0.9775009,-0.0016463673,0.002744584,-0.21090697,1
2484422816,-0.06327169,0.025396155,0.021415178,0.9988698,0.0045128595,0.010971241,-0.046027437,0.9775009,-0.0016463673,0.002744584,-0.21090697,1
2484462789,-0.13771768,0.021759495,0.03268777,0.9988475,0.005515845,0.011313523,-0.046318404,0.9775009,-0.0016463673,0.002744584,-0.21090697,1
2484506768,-0.028805522,0.168443,0.02613832,0.9988174,0.006856928,0.011936762,-0.04662981,0.9775009,-0.0016463673,0.002744584,-0.21090697,1
2484546718,-0.2211881,-0.049705885,0.01608627,0.9988003,0.00766184,0.011757472,-0.046915364,0.9775009,-0.0016463673,0.002744584,-0.21090697,1
2484590788,0.0439902,0.071244024,-0.030693142,0.99877244,0.009084457,0.012000687,-0.047192972,0.9775009,-0.0016463673,0.002744584,-0.21090697,1
2484630592,-0.0131050255,-0.038172055,0.022026494,0.9987571,0.0100244,0.011942138,-0.047341485,0.9775009,-0.0016463673,0.002744584,-0.21090697,1
2484674584,0.19269906,-0.007098077,-0.03622356,0.99873304,0.011119064,0.011961913,-0.04759836,0.9775009,-0.0016463673,0.002744584,-0.21090697,1
2484714548,0.24594185,0.20065627,-0.01327646,0.9987156,0.011924712,0.012163931,-0.047718193,0.9775009,-0.0016463673,0.002744584,-0.21090697,1
2484758836,0.20461093,0.022643942,-0.031906486,0.998702,0.012599601,0.011989994,-0.047873985,0.9775009,-0.0016463673,0.002744584,-0.21090697,1
2484798590,0.21327333,0.22238652,-0.008200482,0.9986813,0.013212065,0.012332306,-0.048052486,0.9775009,-0.0016463673,0.002744584,-0.21090697,1
2484842872,-0.04932072,0.00942938,-0.01614162,0.9986715,0.013459729,0.012324999,-0.048189547,0.9775009,-0.0016463673,0.002744584,-0.21090697,1
2484882735,0.25052327,0.06663427,-0.058863465,0.99865764,0.013904945,0.0124806,-0.04831154,0.9775009,-0.0016463673,0.002744584,-0.21090697,1
2484926913,0.030757908,-0.106915854,-0.049705368,0.9986526,0.013808502,0.012575998,-0.04841845,0.9775009,-0.0016463673,0.002744584,-0.21090697,1
2484966772,-0.05360976,-0.28942618,-0.023498764,0.9986482,0.013599614,0.012853997,-0.048494067,0.9775009,-0.0016463673,0.002744584,-0.21090697,1
2485010766,-0.08335973,-0.17595746,-0.016085966,0.9986385,0.01341493,0.013089618,-0.04868079,0.9775009,-0.0016463673,0.002744584,-0.21090697,1
2485050762,-0.3380751,-0.11025515,-0.00020731648,0.9986336,0.013148722,0.013152371,-0.0488371,0.9775009,-0.0016463673,0.002744584,-0.21090697,1
2485094821,-0.19954288,0.14356412,-0.006443834,0.99862665,0.013053155,0.013130781,-0.049009394,0.9775009,-0.0016463673,0.002744584,-0.21090697,1
2485134821,-0.20698386,-0.07428782,-0.001786214,0.9986243,0.012942027,0.012606598,-0.04922502,0.9775009,-0.0016463673,0.002744584,-0.21090697,1
2485178747,-0.16050416,0.03354095,0.0104760695,0.99861884,0.01280997,0.012595785,-0.049372986,0.9775009,-0.0016463673,0.002744584,-0.21090697,1
