timestamp,x,y,z,yaw,yawspeed,vx,vy,vz,acc_x,acc_y,acc_z,thrust[0],thrust[1],thrust[2]
2709104535,32.780785,-48.280495,-35.993393,-0.06924962,0.0,-0.12864704,0.031089973,-0.3017291,-0.16426836,0.045969196,-5.400834,0.0,0.0,0.0
2709209326,32.780785,-48.280495,-35.993393,-0.06924962,0.0,-0.13065109,0.030017281,-0.4064861,-0.26008087,0.06936226,-5.6250505,0.0,0.0,0.0
2709309668,32.780785,-48.280495,-35.993393,-0.06924962,0.0,-0.13033581,0.027755927,-0.50668114,-0.2195329,0.008258634,-5.837774,0.0,0.0,0.0
2709409671,32.780785,-48.280495,-35.993393,-0.06924962,0.0,-0.13095912,0.026186751,-0.60664505,-0.16920367,0.04605278,-6.038203,0.0,0.0,0.0
2709513989,32.780785,-48.280495,-35.993393,-0.06924962,0.0,-0.1317709,0.023573875,-0.7112679,-0.15243295,0.072058894,-6.2640243,0.0,0.0,0.0
2709614699,32.780785,-48.280495,-35.993393,-0.06924962,0.0,-0.13291606,0.021689415,-0.81184894,-0.18922254,0.041197583,-6.4641223,0.0,0.0,0.0
2709714968,32.780785,-48.280495,-35.993393,-0.06924962,0.0,-0.13345966,0.019272232,-0.9120498,-0.17414013,0.04018442,-6.681486,0.0,0.0,0.0
2709815430,32.780785,-48.280495,-35.993393,-0.06924962,0.0,-0.13440189,0.016992759,-1.0,-0.24196856,0.079191886,-6.8290176,0.0,0.0,0.0
2709919554,32.780785,-48.280495,-35.993393,-0.06924962,0.0,-0.1349781,0.013281822,-1.0,-0.12850648,0.023459705,-6.8303347,0.0,0.0,0.0
2710019715,32.780785,-48.280495,-35.993393,-0.06924962,0.0,-0.11744537,0.0066934587,-1.0,0.5433101,-0.08100631,-6.226258,0.0,0.0,0.0
2710119906,32.780785,-48.280495,-35.993393,-0.06924962,0.0,-0.081419565,-0.0026237487,-1.0,0.052847482,0.0125427665,-5.413636,0.0,0.0,0.0
2710224203,32.780785,-48.280495,-35.993393,-0.06924962,0.0,-0.041472625,-0.010375404,-1.0,0.5173301,-0.06523097,-4.9257364,0.0,0.0,0.0
2710325474,32.780785,-48.280495,-35.993393,-0.06924962,0.0,0.007023239,-0.019380951,-1.0,0.4569616,-0.014363552,-4.751317,0.0,0.0,0.0
2710424355,32.780785,-48.280495,-35.993393,-0.06924962,0.0,0.058084868,-0.026096152,-1.0,0.5103185,-0.03759302,-4.716296,0.0,0.0,0.0
2710529322,32.780785,-48.280495,-35.993393,-0.06924962,0.0,0.108490564,-0.03425007,-1.0,0.53441167,-0.072464414,-4.731406,0.0,0.0,0.0
2710935416,32.780785,-48.280495,-35.993393,-0.06924962,0.0,0.2523981,-0.059172057,-1.0,0.33017048,-0.1139446,-4.80541,0.0,0.0,0.0
2711039259,32.780785,-48.280495,-35.993393,-0.06924962,0.0,0.2696989,-0.06947861,-1.0,0.24978186,-0.14166592,-4.8306847,0.0,0.0,0.0
2712867728,32.780785,-48.280495,-35.993393,-0.06924962,0.0,0.098807335,-0.108613774,-1.0,0.09003541,-0.10037573,-4.967808,0.0,0.0,0.0
2712968645,32.780785,-48.280495,-35.993393,-0.06924962,0.0,0.0914978,-0.099789426,-1.0,0.117036246,-0.06290183,-4.9435472,0.0,0.0,0.0
2713072430,32.780785,-48.280495,-35.993393,-0.06924962,0.0,0.08508701,-0.09105568,-1.0,0.11153871,-0.08026144,-4.949734,0.0,0.0,0.0
2713173997,32.780785,-48.280495,-35.993393,-0.06924962,0.0,0.0800787,-0.08382587,-1.0,0.115599014,-0.07090954,-4.9506283,0.0,0.0,0.0
2713273347,32.780785,-48.280495,-35.993393,-0.06924962,0.0,0.074733354,-0.07808914,-1.0,0.090578325,-0.14190778,-4.937245,0.0,0.0,0.0
2713377692,32.780785,-48.280495,-35.993393,-0.06924962,0.0,0.06980114,-0.07358456,-1.0,0.13130766,-0.11138078,-4.966213,0.0,0.0,0.0
2713478610,32.780785,-48.280495,-35.993393,-0.06924962,0.0,0.06623516,-0.069732286,-1.0,0.12398471,-0.14151593,-4.935989,0.0,0.0,0.0
2713578125,32.780785,-48.280495,-35.993393,-0.06924962,0.0,0.06386871,-0.067137524,-1.0,0.15369657,-0.1048403,-4.9529047,0.0,0.0,0.0
2713681999,32.780785,-48.280495,-35.993393,-0.06924962,0.0,0.05817909,-0.06650333,-1.0,0.10919981,-0.16346733,-4.951396,0.0,0.0,0.0
2713783222,32.780785,-48.280495,-35.993393,-0.06924962,0.0,0.053355597,-0.06685486,-1.0,0.13028263,-0.09109569,-4.9513063,0.0,0.0,0.0
2713882914,32.780785,-48.280495,-35.993393,-0.06924962,0.0,0.050782584,-0.064608,-1.0,0.14000674,-0.10681754,-4.941795,0.0,0.0,0.0
2713983725,32.780785,-48.280495,-35.993393,-0.06924962,0.0,0.04960117,-0.061969757,-1.0,0.14325929,-0.13669065,-4.951609,0.0,0.0,0.0
2714087879,32.780785,-48.280495,-35.993393,-0.06924962,0.0,0.04774208,-0.05961418,-1.0,0.14918174,-0.13914162,-4.9697566,0.0,0.0,0.0
2714188590,32.780785,-48.280495,-35.993393,-0.06924962,0.0,0.04669113,-0.05759201,-1.0,0.14205228,-0.11399123,-4.9531283,0.0,0.0,0.0
2714288605,32.780785,-48.280495,-35.993393,-0.06924962,0.0,0.046466444,-0.05342445,-1.0,0.17058146,-0.08043544,-4.954015,0.0,0.0,0.0
2714392584,32.780785,-48.280495,-35.993393,-0.06924962,0.0,0.047017287,-0.049227905,-1.0,0.14047177,-0.084465936,-4.9642205,0.0,0.0,0.0
2714494260,32.780785,-48.280495,-35.993393,-0.06924962,0.0,0.04496975,-0.044694327,-1.0,0.14673553,-0.055089567,-4.9585385,0.0,0.0,0.0
2714593442,32.780785,-48.280495,-35.993393,-0.06924962,0.0,0.043969534,-0.04109211,-1.0,0.13552044,-0.1147911,-4.9572845,0.0,0.0,0.0
2714697368,32.780785,-48.280495,-35.993393,-0.06924962,0.0,0.0467926,-0.033423804,-1.0,0.16547859,-0.120611,-4.985935,0.0,0.0,0.0
2714798725,32.780785,-48.280495,-35.993393,-0.06924962,0.0,0.05020275,-0.026817322,-1.0,0.16677378,-0.1526443,-4.9928546,0.0,0.0,0.0
2714902397,32.780785,-48.280495,-35.993393,-0.06924962,0.0,0.052395247,-0.01861992,-1.0,0.15349531,-0.05941233,-4.976839,0.0,0.0,0.0
2715002252,32.780785,-48.280495,-35.993393,-0.06924962,0.0,0.05469284,-0.01252079,-1.0,0.16027567,-0.109714575,-4.9800873,0.0,0.0,0.0
2715107071,32.780785,-48.280495,-35.993393,-0.06924962,0.0,0.05959606,-0.0036891936,-1.0,0.18719055,-0.01752172,-4.9489174,0.0,0.0,0.0
2715207624,32.780785,-48.280495,-35.993393,-0.06924962,0.0,0.06372013,0.0038667677,-1.001185,0.17502283,0.0028908628,-4.967679,0.0,0.0,0.0
2715306764,32.780785,-48.280495,-35.993393,-0.06924962,0.0,0.06292648,0.010973358,-1.0070142,0.16531147,-0.0042829746,-4.964458,0.0,0.0,0.0
2715413215,32.780785,-48.280495,-35.993393,-0.06924962,0.0,0.06124859,0.018112564,-1.01324,0.1398972,-0.028433383,-4.9839587,0.0,0.0,0.0
2715516040,32.780785,-48.280495,-35.993393,-0.06924962,0.0,0.056671523,0.025693893,-1.0194256,0.12557176,0.01759341,-4.976049,0.0,0.0,0.0
2715616718,32.780785,-48.280495,-35.993393,-0.06924962,0.0,0.052054595,0.031905364,-1.0251564,0.12075898,-0.0073939874,-4.982988,0.0,0.0,0.0
2715717423,32.780785,-48.280495,-35.993393,-0.06924962,0.0,0.043933295,0.03768196,-1.0306654,0.10150125,0.003410635,-4.9854236,0.0,0.0,0.0
2715817610,32.780785,-48.280495,-35.993393,-0.06924962,0.0,0.036587525,0.042295266,-1.0359813,0.08770384,-0.020638391,-5.0134153,0.0,0.0,0.0
2715921435,32.780785,-48.280495,-35.993393,-0.06924962,0.0,0.028491592,0.046129417,-1.041467,0.07307863,-0.014945933,-5.0014153,0.0,0.0,0.0
2716022202,32.780785,-48.280495,-35.993393,-0.06924962,0.0,0.020471763,0.04905033,-1.0469453,0.059128355,-0.01178551,-5.005058,0.0,0.0,0.0
2716122189,32.780785,-48.280495,-35.993393,-0.06924962,0.0,0.0109588625,0.0520401,-1.052374,0.049212854,0.022404889,-5.004433,0.0,0.0,0.0
2716226165,32.780785,-48.280495,-35.993393,-0.06924962,0.0,0.0011089324,0.054772567,-1.0583329,0.031322543,-0.027976979,-5.010835,0.0,0.0,0.0
2716326667,32.780785,-48.280495,-35.993393,-0.06924962,0.0,-0.009592628,0.059766386,-1.0643715,0.031401347,0.037733372,-4.989083,0.0,0.0,0.0
2716426784,32.780785,-48.280495,-35.993393,-0.06924962,0.0,-0.019736098,0.061995123,-1.0705531,0.010090592,0.011922251,-4.9840417,0.0,0.0,0.0
2716530789,32.780785,-48.280495,-35.993393,-0.06924962,0.0,-0.03115158,0.06031723,-1.0767595,0.012912819,0.016471503,-5.010134,0.0,0.0,0.0
2716631546,32.780785,-48.280495,-35.993393,-0.06924962,0.0,-0.040950775,0.05837841,-1.0825356,0.009654977,-0.043963727,-5.019333,0.0,0.0,0.0
2716732328,32.780785,-48.280495,-35.993393,-0.06924962,0.0,-0.049945448,0.056214903,-1.0885001,-0.0077708443,-0.063120395,-5.014934,0.0,0.0,0.0
2716836218,32.780785,-48.280495,-35.993393,-0.06924962,0.0,-0.057019424,0.053507805,-1.0950156,-0.0018777127,-0.042447176,-5.0121913,0.0,0.0,0.0
2716936531,32.780785,-48.280495,-35.993393,-0.06924962,0.0,-0.061411668,0.050231744,-1.1013297,0.0134793855,-0.042866647,-5.0368505,0.0,0.0,0.0
2717036977,32.780785,-48.280495,-35.993393,-0.06924962,0.0,-0.06469135,0.045654677,-1.1076596,0.01770884,-0.015023464,-5.0133533,0.0,0.0,0.0
2717140994,32.780785,-48.280495,-35.993393,-0.06924962,0.0,-0.067061424,0.038682174,-1.1141025,0.02211256,-0.038017247,-5.03573,0.0,0.0,0.0
2717241619,32.780785,-48.280495,-35.993393,-0.06924962,0.0,-0.069869995,0.032104682,-1.1199194,0.035673436,-0.01398729,-5.045364,0.0,0.0,0.0
2717341833,32.780785,-48.280495,-35.993393,-0.06924962,0.0,-0.07487106,0.024715424,-1.1256684,0.021004325,-0.09155363,-5.048851,0.0,0.0,0.0
2717442173,32.780785,-48.280495,-35.993393,-0.06924962,0.0,-0.07680988,0.019420814,-1.1314367,0.027985767,-0.03122823,-5.038968,0.0,0.0,0.0
2717546454,32.780785,-48.280495,-35.993393,-0.06924962,0.0,-0.07613945,0.015441704,-1.137568,0.046682607,-0.0020739522,-5.027745,0.0,0.0,0.0
2717650145,32.780785,-48.280495,-35.993393,-0.06924962,0.0,-0.07414627,0.012245369,-1.1437135,0.06238385,-0.0535112,-5.057255,0.0,0.0,0.0
2717751802,32.780785,-48.280495,-35.993393,-0.06924962,0.0,-0.070971675,0.009672356,-1.1497494,0.049726784,-0.06220327,-5.0370584,0.0,0.0,0.0
2717850802,32.780785,-48.280495,-35.993393,-0.06924962,0.0,-0.06842766,0.008316994,-1.1558323,0.051024336,-0.07020437,-5.0464387,0.0,0.0,0.0
2717954792,32.780785,-48.280495,-35.993393,-0.06924962,0.0,-0.066833116,0.0075523374,-1.1622269,0.056563627,-0.032460522,-5.03814,0.0,0.0,0.0
2718055626,32.780785,-48.280495,-35.993393,-0.06924962,0.0,-0.06576405,0.007889366,-1.1683462,0.062197406,-0.044931542,-5.020196,0.0,0.0,0.0
2718156367,32.780785,-48.280495,-35.993393,-0.06924962,0.0,-0.06501751,0.008980178,-1.1742599,0.061756387,-0.0084413,-5.0234156,0.0,0.0,0.0
2718256634,32.780785,-48.280495,-35.993393,-0.06924962,0.0,-0.06395931,0.00998764,-1.1804577,0.06377792,-0.0094385585,-5.0067616,0.0,0.0,0.0
2718360861,32.780785,-48.280495,-35.993393,-0.06924962,0.0,-0.063267134,0.010705185,-1.1869148,0.06718713,-0.0022357185,-4.9856133,0.0,0.0,0.0
2718460794,32.780785,-48.280495,-35.993393,-0.06924962,0.0,-0.062491607,0.010045623,-1.1932621,0.062629044,0.020931546,-4.9879713,0.0,0.0,0.0
2718566282,32.780785,-48.280495,-35.993393,-0.06924962,0.0,-0.06113262,0.008505439,-1.2002071,0.07983285,-0.04149317,-5.0229673,0.0,0.0,0.0
2718669623,32.780785,-48.280495,-35.993393,-0.06924962,0.0,-0.059132192,0.006874657,-1.2074205,0.05002102,-0.07161384,-4.9914837,0.0,0.0,0.0
2718769222,32.780785,-48.280495,-35.993393,-0.06924962,0.0,-0.056972314,0.0055446625,-1.2143162,0.041640755,-0.05800252,-4.9937997,0.0,0.0,0.0
2718870468,32.780785,-48.280495,-35.993393,-0.06924962,0.0,-0.056102563,0.0034173965,-1.2212297,0.049026236,-0.0035641177,-4.988176,0.0,0.0,0.0
2718975057,32.780785,-48.280495,-35.993393,-0.06924962,0.0,-0.05580177,0.0013916015,-1.2282863,0.013879746,-0.058900867,-4.9883237,0.0,0.0,0.0
2719079434,32.780785,-48.280495,-35.993393,-0.06924962,0.0,-0.055870626,-0.001634407,-1.2354943,0.02429864,-0.05993232,-4.9793043,0.0,0.0,0.0
2719179002,32.780785,-48.280495,-35.993393,-0.06924962,0.0,-0.055943105,-0.004131317,-1.2426257,0.028861208,-0.048028693,-4.9678125,0.0,0.0,0.0
2719279115,32.780785,-48.280495,-35.993393,-0.06924962,0.0,-0.057099152,-0.009915161,-1.2496756,0.020050142,-0.022300625,-4.9699926,0.0,0.0,0.0
2719383752,32.780785,-48.280495,-35.993393,-0.06924962,0.0,-0.05825882,-0.015760612,-1.2571532,0.03401807,-0.060767878,-4.9930224,0.0,0.0,0.0
2719484210,32.780785,-48.280495,-35.993393,-0.06924962,0.0,-0.05832405,-0.021192933,-1.2643304,0.009346309,-0.063913725,-4.9634314,0.0,0.0,0.0
2719584414,32.780785,-48.280495,-35.993393,-0.06924962,0.0,-0.058034133,-0.025099562,-1.271612,0.021546943,-0.03535952,-4.98038,0.0,0.0,0.0
2719688407,32.780785,-48.280495,-35.993393,-0.06924962,0.0,-0.057240486,-0.03150673,-1.2792702,0.02699273,-0.10855746,-4.9784284,0.0,0.0,0.0
2719788963,32.780785,-48.280495,-35.993393,-0.06924962,0.0,-0.056098938,-0.03694992,-1.2861111,0.03330723,-0.062970474,-4.9893236,0.0,0.0,0.0
2719889390,32.780785,-48.280495,-35.993393,-0.06924962,0.0,-0.056142423,-0.041940115,-1.2861111,0.02067252,-0.04969052,-4.982321,0.0,0.0,0.0
2719989646,32.780785,-48.280495,-35.993393,-0.06924962,0.0,-0.05624752,-0.04592285,-1.2861111,0.013183988,-0.055192128,-4.9738426,0.0,0.0,0.0
2720094584,32.780785,-48.280495,-35.993393,-0.06924962,0.0,-0.056657027,-0.05007591,-1.2861111,0.004441398,-0.065439865,-4.9527364,0.0,0.0,0.0
2720198725,32.780785,-48.280495,-35.993393,-0.06924962,0.0,-0.05703392,-0.052739523,-1.2861111,0.02361052,-0.100285195,-4.97007,0.0,0.0,0.0
2720298263,32.780785,-48.280495,-35.993393,-0.06924962,0.0,-0.05829868,-0.055511855,-1.2861111,0.007341312,-0.08039821,-4.959268,0.0,0.0,0.0
2720399274,32.780785,-48.280495,-35.993393,-0.06924962,0.0,-0.05961418,-0.057106398,-1.2861111,0.000693517,-0.103969604,-4.95228,0.0,0.0,0.0
2720503392,32.780785,-48.280495,-35.993393,-0.06924962,0.0,-0.058121108,-0.059088707,-1.2861111,0.004070492,-0.077819206,-4.9439983,0.0,0.0,0.0
2720602942,32.780785,-48.280495,-35.993393,-0.06924962,0.0,-0.05688896,-0.059360504,-1.2861111,-0.0036212273,-0.09374942,-4.942093,0.0,0.0,0.0
2720704370,32.780785,-48.280495,-35.993393,-0.06924962,0.0,-0.055656813,-0.06387959,-1.2861111,0.018570233,-0.07893606,-4.9406,0.0,0.0,0.0
2720809207,32.780785,-48.280495,-35.993393,-0.06924962,0.0,-0.054797936,-0.065985106,-1.2861111,-0.024404831,-0.095095925,-4.9397397,0.0,0.0,0.0
2720912582,32.780785,-48.280495,-35.993393,-0.06924962,0.0,-0.0543993,-0.068134114,-1.2861111,0.0016026723,-0.063515596,-4.931752,0.0,0.0,0.0
2721014173,32.780785,-48.280495,-35.993393,-0.06924962,0.0,-0.05412388,-0.06849651,-1.2861111,-0.007714296,-0.060459845,-4.9469314,0.0,0.0,0.0
2721116834,32.780785,-48.280495,-35.993393,-0.06924962,0.0,-0.053772353,-0.06972141,-1.2861111,0.013803935,-0.06545464,-4.9533825,0.0,0.0,0.0
2721217342,32.780785,-48.280495,-35.993393,-0.06924962,0.0,-0.053355597,-0.068945885,-1.2861111,-0.0013810152,-0.0547877,-4.945932,0.0,0.0,0.0
2721317874,32.780785,-48.280495,-35.993393,-0.06924962,0.0,-0.051713943,-0.07031574,-1.2861111,0.010952461,-0.07417973,-4.956064,0.0,0.0,0.0
2721421870,32.780785,-48.280495,-35.993393,-0.06924962,0.0,-0.04983673,-0.06944599,-1.2861111,0.009745809,-0.009017483,-4.941191,0.0,0.0,0.0
2721522225,32.780785,-48.280495,-35.993393,-0.06924962,0.0,-0.04721298,-0.06727161,-1.2861111,0.0117435865,-0.010844849,-4.9240723,0.0,0.0,0.0
2721623848,32.780785,-48.280495,-35.993393,-0.06924962,0.0,-0.04482479,-0.0639267,-1.2861111,0.015156123,-0.017339783,-4.946723,0.0,0.0,0.0
2721722932,32.780785,-48.280495,-35.993393,-0.06924962,0.0,-0.043686867,-0.061092757,-1.2861111,0.009480811,-0.049484454,-4.9419866,0.0,0.0,0.0
2721826951,32.780785,-48.280495,-35.993393,-0.06924962,0.0,-0.042552564,-0.05682373,-1.2861111,0.018592823,-0.010441895,-4.940747,0.0,0.0,0.0
2721927460,32.780785,-48.280495,-35.993393,-0.06924962,0.0,-0.041374777,-0.052348137,-1.2861111,0.016539045,-0.045419116,-4.94002,0.0,0.0,0.0
2722028684,32.780785,-48.280495,-35.993393,-0.06924962,0.0,-0.040258598,-0.04682884,-1.2861111,0.008234324,-0.027220808,-4.943521,0.0,0.0,0.0
2722132405,32.780785,-48.280495,-35.993393,-0.06924962,0.0,-0.038881492,-0.04082756,-1.2861111,0.010626702,-0.0410223,-4.929482,0.0,0.0,0.0
2722236161,32.780785,-48.280495,-35.993393,-0.06924962,0.0,-0.03759861,-0.034007262,-1.2861111,0.010326264,-0.014757975,-4.950241,0.0,0.0,0.0
2722336635,32.780785,-48.280495,-35.993393,-0.06924962,0.0,-0.036112785,-0.026839064,-1.2861111,0.016585585,-0.057803717,-4.9589634,0.0,0.0,0.0
2722437737,32.780785,-48.280495,-35.993393,-0.06924962,0.0,-0.03523941,-0.019830322,-1.2861111,0.00483846,-0.07046504,-4.9363847,0.0,0.0,0.0
2722537490,32.780785,-48.280495,-35.993393,-0.06924962,0.0,-0.03521042,-0.013017273,-1.2861111,0.002571015,-0.03321555,-4.9451213,0.0,0.0,0.0
2722641377,32.780785,-48.280495,-35.993393,-0.06924962,0.0,-0.035601806,-0.0061426163,-1.2861111,0.025297722,-0.015132212,-4.9541054,0.0,0.0,0.0
2722742009,32.780785,-48.280495,-35.993393,-0.06924962,0.0,-0.03660202,0.0007247925,-1.2861111,0.007813615,-0.007817542,-4.915128,0.0,0.0,0.0
2722842209,32.780785,-48.280495,-35.993393,-0.06924962,0.0,-0.03678322,0.006030273,-1.2861111,0.02830736,0.025184445,-4.938254,0.0,0.0,0.0
2722946253,32.780785,-48.280495,-35.993393,-0.06924962,0.0,-0.03617077,0.009831809,-1.2861111,0.023169484,-0.05680095,-4.92596,0.0,0.0,0.0
2723046698,32.780785,-48.280495,-35.993393,-0.06924962,0.0,-0.034902383,0.012937546,-1.2861111,0.030357733,-0.02567321,-4.927312,0.0,0.0,0.0
2723146949,32.780785,-48.280495,-35.993393,-0.06924962,0.0,-0.032865714,0.015528679,-1.2861111,0.023563461,0.005283206,-4.914604,0.0,0.0,0.0
2723250988,32.780785,-48.280495,-35.993393,-0.06924962,0.0,-0.030267334,0.018358992,-1.2861111,0.043805867,-0.012932439,-4.9318566,0.0,0.0,0.0
2723351772,32.780785,-48.280495,-35.993393,-0.06924962,0.0,-0.027364539,0.0215662,-1.2861111,0.045411393,0.012557819,-4.9381742,0.0,0.0,0.0
2723452269,32.780785,-48.280495,-35.993393,-0.06924962,0.0,-0.023497771,0.024650192,-1.2861111,0.04411914,0.002859084,-4.940088,0.0,0.0,0.0
2723556954,32.780785,-48.280495,-35.993393,-0.06924962,0.0,-0.018638039,0.027563857,-1.2861111,0.06380153,-0.020725075,-4.951122,0.0,0.0,0.0
2723661191,32.780785,-48.280495,-35.993393,-0.06924962,0.0,-0.012397575,0.029937552,-1.2861111,0.08650436,0.019819822,-4.9694443,0.0,0.0,0.0
2723765157,32.780785,-48.280495,-35.993393,-0.06924962,0.0,-0.0052330014,0.031760406,-1.2861111,0.07446503,-0.03791671,-4.955154,0.0,0.0,0.0
2723865119,32.780785,-48.280495,-35.993393,-0.06924962,0.0,0.001931572,0.032456208,-1.2861111,0.07798726,-0.045764837,-4.954688,0.0,0.0,0.0
2723965768,32.780785,-48.280495,-35.993393,-0.06924962,0.0,0.009230232,0.03236561,-1.2861111,0.10437119,-0.03883472,-4.9645376,0.0,0.0,0.0
2724069819,32.780785,-48.280495,-35.993393,-0.06924962,0.0,0.018685149,0.033206366,-1.2861111,0.10590406,-0.03762184,-4.9529777,0.0,0.0,0.0
2724170010,32.780785,-48.280495,-35.993393,-0.06924962,0.0,0.028089331,0.03415222,-1.2861111,0.115891576,-0.048620436,-4.9690323,0.0,0.0,0.0
2724271012,32.780785,-48.280495,-35.993393,-0.06924962,0.0,0.039211273,0.033536147,-1.2861111,0.113931485,-0.045502093,-4.9648848,0.0,0.0,0.0
2724374487,32.780785,-48.280495,-35.993393,-0.06924962,0.0,0.050181005,0.032032203,-1.2861111,0.13305388,-0.03658279,-4.9901724,0.0,0.0,0.0
2724474806,32.780785,-48.280495,-35.993393,-0.06924962,0.0,0.059208296,0.03129654,-1.2861111,0.12767272,-0.0481462,-4.9648666,0.0,0.0,0.0
2724575530,32.780785,-48.280495,-35.993393,-0.06924962,0.0,0.06660118,0.03078556,-1.2861111,0.13423431,-0.021197148,-4.974481,0.0,0.0,0.0
2724679749,32.780785,-48.280495,-35.993393,-0.06924962,0.0,0.07248287,0.029850578,-1.2861111,0.1208126,0.022586329,-4.968897,0.0,0.0,0.0
2724780338,32.780785,-48.280495,-35.993393,-0.06924962,0.0,0.07621918,0.029125785,-1.2861111,0.11447075,-0.024613487,-4.9888744,0.0,0.0,0.0
2724879608,32.780785,-48.280495,-35.993393,-0.06924962,0.0,0.07922707,0.027788544,-1.2861111,0.10790629,-0.04575062,-4.9846935,0.0,0.0,0.0
2724981057,32.780785,-48.280495,-35.993393,-0.06924962,0.0,0.08082161,0.026639747,-1.2861111,0.09333925,-0.026699,-4.992831,0.0,0.0,0.0
2725085434,32.780785,-48.280495,-35.993393,-0.06924962,0.0,0.08027439,0.023508644,-1.2861111,0.08184967,0.0034139801,-4.9910407,0.0,0.0,0.0
2725189804,32.780785,-48.280495,-35.993393,-0.06924962,0.0,0.077773854,0.020714568,-1.2861111,0.075569145,-0.0017418775,-5.010888,0.0,0.0,0.0
2725289160,32.780785,-48.280495,-35.993393,-0.06924962,0.0,0.075566866,0.019308472,-1.2861111,0.06331043,-0.033290002,-4.9898863,0.0,0.0,0.0
2725393472,32.780785,-48.280495,-35.993393,-0.06924962,0.0,0.071859546,0.018438721,-1.2861111,0.0464627,0.022738198,-4.9661117,0.0,0.0,0.0
2725494745,32.780785,-48.280495,-35.993393,-0.06924962,0.0,0.069964215,0.015916442,-1.2861111,0.039963137,-0.016089289,-4.938193,0.0,0.0,0.0
2725594165,32.780785,-48.280495,-35.993393,-0.06924962,0.0,0.06624603,0.013887024,-1.2861111,0.039552707,-0.044895295,-4.964614,0.0,0.0,0.0
2725694621,32.780785,-48.280495,-35.993393,-0.06924962,0.0,0.0621582,0.008458328,-1.2861111,0.025595805,-0.007849028,-4.934393,0.0,0.0,0.0
2725799402,32.780785,-48.280495,-35.993393,-0.06924962,0.0,0.056243896,0.0033123016,-1.2861111,0.01049447,-0.09313398,-4.953437,0.0,0.0,0.0
2725903126,32.780785,-48.280495,-35.993393,-0.06924962,0.0,0.050278854,-0.0045263288,-1.2861111,0.011456205,-0.0315814,-4.9254317,0.0,0.0,0.0
2726003733,32.780785,-48.280495,-35.993393,-0.06924962,0.0,0.043309975,-0.010861015,-1.2861111,0.0063222116,-0.087993294,-4.9478498,0.0,0.0,0.0
2726107841,32.780785,-48.280495,-35.993393,-0.06924962,0.0,0.036293983,-0.020254325,-1.2861111,0.012653192,-0.07403901,-4.9382315,0.0,0.0,0.0
2726208385,32.780785,-48.280495,-35.993393,-0.06924962,0.0,0.02893734,-0.027389908,-1.2861111,0.0058157234,-0.0746532,-4.9290485,0.0,0.0,0.0
2726309218,32.780785,-48.280495,-35.993393,-0.06924962,0.0,0.022019194,-0.035485838,-1.2861111,-0.0061956947,-0.09798251,-4.9615912,0.0,0.0,0.0
2726413986,32.780785,-48.280495,-35.993393,-0.06924962,0.0,0.014524841,-0.040997885,-1.2861111,0.010067166,-0.015932165,-4.936879,0.0,0.0,0.0
2726513205,32.780785,-48.280495,-35.993393,-0.06924962,0.0,0.006247711,-0.04570541,-1.2861111,-0.006164875,-0.056575004,-4.945248,0.0,0.0,0.0
2726617415,32.780785,-48.280495,-35.993393,-0.06924962,0.0,-0.0017576218,-0.04785805,-1.2861111,0.0040633176,-0.046348795,-4.950359,0.0,0.0,0.0
2726717883,32.780785,-48.280495,-35.993393,-0.06924962,0.0,-0.009241104,-0.048735045,-1.2861111,-0.0014836764,-0.069395825,-4.949362,0.0,0.0,0.0
2726818451,32.780785,-48.280495,-35.993393,-0.06924962,0.0,-0.016101265,-0.047035407,-1.2861111,-0.016633777,-0.012960001,-4.933162,0.0,0.0,0.0
2726922016,32.780785,-48.280495,-35.993393,-0.06924962,0.0,-0.023878288,-0.044893645,-1.2861111,-0.019438623,0.029154964,-4.915082,0.0,0.0,0.0
2727022603,32.780785,-48.280495,-35.993393,-0.06924962,0.0,-0.03093052,-0.0409544,-1.2861111,-0.012218823,-0.029876726,-4.945672,0.0,0.0,0.0
2727123105,32.780785,-48.280495,-35.993393,-0.06924962,0.0,-0.038385008,-0.035590935,-1.2861111,-0.016386203,-0.020518586,-4.9238324,0.0,0.0,0.0
2727227079,32.780785,-48.280495,-35.993393,-0.06924962,0.0,-0.044614602,-0.028183555,-1.2861111,-0.02965312,-0.014259277,-4.927252,0.0,0.0,0.0
2727328045,32.780785,-48.280495,-35.993393,-0.06924962,0.0,-0.048499487,-0.018485831,-1.2861111,-0.03095833,0.044258118,-4.9120083,0.0,0.0,0.0
2727428260,32.780785,-48.280495,-35.993393,-0.06924962,0.0,-0.050728224,-0.007972717,-1.2861111,-0.010146143,0.024194615,-4.9066153,0.0,0.0,0.0
2727532371,32.780785,-48.280495,-35.993393,-0.06924962,0.0,-0.050931167,0.004134941,-1.2861111,-0.006326696,0.010310327,-4.9185443,0.0,0.0,0.0
2727633815,32.780785,-48.280495,-35.993393,-0.06924962,0.0,-0.050086785,0.015217018,-1.2861111,0.0046510454,0.05393679,-4.924396,0.0,0.0,0.0
2727737321,32.780785,-48.280495,-35.993393,-0.06924962,0.0,-0.047992133,0.025596047,-1.2861111,0.008698106,0.071952954,-4.912128,0.0,0.0,0.0
2727836532,32.780785,-48.280495,-35.993393,-0.06924962,0.0,-0.0458395,0.0341341,-1.2861111,0.017288374,0.070633255,-4.9055457,0.0,0.0,0.0
2727941501,32.780785,-48.280495,-35.993393,-0.06924962,0.0,-0.043940544,0.041266058,-1.2861111,0.02620961,0.030300193,-4.892208,0.0,0.0,0.0
2728041856,32.780785,-48.280495,-35.993393,-0.06924962,0.0,-0.04141464,0.048854638,-1.2861111,0.03226766,0.08493103,-4.878664,0.0,0.0,0.0
2728141479,32.780785,-48.280495,-35.993393,-0.06924962,0.0,-0.038385008,0.05832405,-1.2861111,0.049015705,0.08988724,-4.89392,0.0,0.0,0.0
2728245979,32.780785,-48.280495,-35.993393,-0.06924962,0.0,-0.036359213,0.066959955,-1.2861111,0.027907884,0.04743861,-4.9161363,0.0,0.0,0.0
2728346608,32.780785,-48.280495,-35.993393,-0.06924962,0.0,-0.03698616,0.07484207,-1.2861111,0.02336771,0.104838185,-4.914639,0.0,0.0,0.0
2728446971,32.780785,-48.280495,-35.993393,-0.06924962,0.0,-0.03669262,0.07972717,-1.2861111,0.023746753,0.016626492,-4.938859,0.0,0.0,0.0
2728547457,32.780785,-48.280495,-35.993393,-0.06924962,0.0,-0.036178015,0.08254299,-1.2861111,0.025424965,0.03851608,-4.9363337,0.0,0.0,0.0
2728651233,32.780785,-48.280495,-35.993393,-0.06924962,0.0,-0.036989782,0.08467025,-1.2861111,-0.006040557,0.00785044,-4.9397345,0.0,0.0,0.0
2728751775,32.780785,-48.280495,-35.993393,-0.06924962,0.0,-0.03891773,0.08592415,-1.2861111,-0.0122683495,0.008696767,-4.9265103,0.0,0.0,0.0
2728852653,32.780785,-48.280495,-35.993393,-0.06924962,0.0,-0.04158497,0.08571758,-1.2861111,-0.005251623,-0.007813685,-4.938232,0.0,0.0,0.0
2728956869,32.780785,-48.280495,-35.993393,-0.06924962,0.0,-0.044600103,0.08378963,-1.2861111,-0.02661803,-0.01953152,-4.947318,0.0,0.0,0.0
2729061051,32.780785,-48.280495,-35.993393,-0.06924962,0.0,-0.047488403,0.08195591,-1.2861111,-0.019008162,0.06543121,-4.9255714,0.0,0.0,0.0
2729160679,32.780785,-48.280495,-35.993393,-0.06924962,0.0,-0.049978066,0.08011856,-1.2861111,-0.030513292,-0.011682669,-4.931089,0.0,0.0,0.0
2729261707,32.780785,-48.280495,-35.993393,-0.06924962,0.0,-0.051742934,0.07730637,-1.2861111,-0.015620966,0.0225501,-4.9435854,0.0,0.0,0.0
2729365888,32.780785,-48.280495,-35.993393,-0.06924962,0.0,-0.05262356,0.07328377,-1.2861111,-0.02442439,0.0067659207,-4.9457765,0.0,0.0,0.0
2729466155,32.780785,-48.280495,-35.993393,-0.06924962,0.0,-0.0526598,0.069826506,-1.2861111,-0.02493985,0.013552131,-4.941884,0.0,0.0,0.0
2729566479,32.780785,-48.280495,-35.993393,-0.06924962,0.0,-0.05198574,0.067083165,-1.2861111,-0.028960045,0.04187903,-4.940528,0.0,0.0,0.0
2729670683,32.780785,-48.280495,-35.993393,-0.06924962,0.0,-0.05196762,0.06604309,-1.2861111,-4.433005e-05,0.05124289,-4.9611893,0.0,0.0,0.0
2729771124,32.780785,-48.280495,-35.993393,-0.06924962,0.0,-0.051989365,0.06547775,-1.2861111,-0.02179613,-0.007030165,-4.9753594,0.0,0.0,0.0
2729871123,32.780785,-48.280495,-35.993393,-0.06924962,0.0,-0.051268194,0.06549225,-1.2861111,-0.039750896,0.0154399015,-4.9381795,0.0,0.0,0.0
2729975137,32.780785,-48.280495,-35.993393,-0.06924962,0.0,-0.049829483,0.065097235,-1.2861111,-0.0074931816,0.008635145,-4.950463,0.0,0.0,0.0
2730076323,32.780785,-48.280495,-35.993393,-0.06924962,0.0,-0.04827118,0.06717014,-1.2861111,-0.0020125364,0.035186615,-4.9525886,0.0,0.0,0.0
2730180291,32.780785,-48.280495,-35.993393,-0.06924962,0.0,-0.046357725,0.06854,-1.2861111,0.0010531567,0.0602514,-4.936465,0.0,0.0,0.0
2730279734,32.780785,-48.280495,-35.993393,-0.06924962,0.0,-0.04467983,0.07059479,-1.2861111,-0.0037747407,0.048996225,-4.9317794,0.0,0.0,0.0
2730381498,32.780785,-48.280495,-35.993393,-0.06924962,0.0,-0.04274101,0.07243938,-1.2861111,0.027719142,0.09127392,-4.935375,0.0,0.0,0.0
2730484656,32.780785,-48.280495,-35.993393,-0.06924962,0.0,-0.040026665,0.07478771,-1.2861111,0.019539334,0.03075921,-4.960773,0.0,0.0,0.0
2730585359,32.780785,-48.280495,-35.993393,-0.06924962,0.0,-0.036808584,0.075722694,-1.2861111,0.018273396,0.026043266,-4.9369664,0.0,0.0,0.0
2730685499,32.780785,-48.280495,-35.993393,-0.06924962,0.0,-0.034007262,0.074921794,-1.2861111,0.03491858,0.012375658,-4.9537354,0.0,0.0,0.0
2730789927,32.780785,-48.280495,-35.993393,-0.06924962,0.0,-0.030553626,0.0723959,-1.2861111,0.029211693,-0.0022209263,-4.9422464,0.0,0.0,0.0
2730890936,32.780785,-48.280495,-35.993393,-0.06924962,0.0,-0.025759125,0.069065474,-1.2861111,0.029612334,0.030820675,-4.9309535,0.0,0.0,0.0
2730990152,32.780785,-48.280495,-35.993393,-0.06924962,0.0,-0.020837784,0.06456089,-1.2861111,0.03896724,0.01309261,-4.9325857,0.0,0.0,0.0
2731091806,32.780785,-48.280495,-35.993393,-0.06924962,0.0,-0.013995742,0.062053107,-1.2861111,0.044479933,0.029315209,-4.9269934,0.0,0.0,0.0
2731195459,32.780785,-48.280495,-35.993393,-0.06924962,0.0,-0.0071754456,0.058374785,-1.2861111,0.05973392,0.03074337,-4.93348,0.0,0.0,0.0
2731294810,32.780785,-48.280495,-35.993393,-0.06924962,0.0,-0.0027397156,0.0555336,-1.2861111,0.057738516,-0.0053140516,-4.9339914,0.0,0.0,0.0
2731399762,32.780785,-48.280495,-35.993393,-0.06924962,0.0,0.0016126633,0.051916886,-1.2861111,0.054679137,0.025430856,-4.8878903,0.0,0.0,0.0
2731499913,32.780785,-48.280495,-35.993393,-0.06924962,0.0,0.0060012816,0.051822662,-1.2861111,0.06865289,-0.030821571,-4.9172406,0.0,0.0,0.0
2731600516,32.780785,-48.280495,-35.993393,-0.06924962,0.0,0.010422516,0.05008316,-1.2861111,0.080736615,0.028480444,-4.8931394,0.0,0.0,0.0
2731700992,32.780785,-48.280495,-35.993393,-0.06924962,0.0,0.017449379,0.049017716,-1.2861111,0.08524519,-0.034486145,-4.9202933,0.0,0.0,0.0
2731804937,32.780785,-48.280495,-35.993393,-0.06924962,0.0,0.024251556,0.0461874,-1.2861111,0.09536407,0.009073038,-4.911015,0.0,0.0,0.0
2731905153,32.780785,-48.280495,-35.993393,-0.06924962,0.0,0.027929878,0.042668533,-1.2861111,0.074488975,-0.027527591,-4.912715,0.0,0.0,0.0
2732006486,32.780785,-48.280495,-35.993393,-0.06924962,0.0,0.031111717,0.03792839,-1.2861111,0.08610491,-0.024659345,-4.88844,0.0,0.0,0.0
2732109805,32.780785,-48.280495,-35.993393,-0.06924962,0.0,0.036942672,0.03243809,-1.2861111,0.08717618,-0.08610762,-4.939829,0.0,0.0,0.0
2732215839,32.780785,-48.280495,-35.993393,-0.06924962,0.0,0.041436385,0.025657654,-1.2861111,0.06816976,-0.03392815,-4.908046,0.0,0.0,0.0
2732318770,32.780785,-48.280495,-35.993393,-0.06924962,0.0,0.044342805,0.018235778,-1.2861111,0.08131607,-0.076235875,-4.947523,0.0,0.0,0.0
2732419014,32.780785,-48.280495,-35.993393,-0.06924962,0.0,0.046111297,0.01056385,-1.2861111,0.06312924,-0.069349274,-4.9014096,0.0,0.0,0.0
2732522998,32.780785,-48.280495,-35.993393,-0.06924962,0.0,0.047020912,0.0034137724,-1.2861111,0.07974332,-0.045632854,-4.9237313,0.0,0.0,0.0
2732623138,32.780785,-48.280495,-35.993393,-0.06924962,0.0,0.047263715,-0.0038269043,-1.2861111,0.07791911,-0.07899211,-4.927376,0.0,0.0,0.0
2732723826,32.780785,-48.280495,-35.993393,-0.06924962,0.0,0.047299955,-0.011317634,-1.2861111,0.059257306,-0.079964615,-4.9234877,0.0,0.0,0.0
2732827981,32.780785,-48.280495,-35.993393,-0.06924962,0.0,0.046687506,-0.018790245,-1.2861111,0.056841183,-0.110901155,-4.935684,0.0,0.0,0.0
2732928681,32.780785,-48.280495,-35.993393,-0.06924962,0.0,0.046513557,-0.025447464,-1.2861111,0.06536917,-0.066230334,-4.915454,0.0,0.0,0.0
2733028543,32.780785,-48.280495,-35.993393,-0.06924962,0.0,0.045698166,-0.031778526,-1.2861111,0.06384875,-0.088456504,-4.9305987,0.0,0.0,0.0
2733128876,32.780785,-48.280495,-35.993393,-0.06924962,0.0,0.04546261,-0.03752613,-1.2861111,0.076796755,-0.09091989,-4.940452,0.0,0.0,0.0
2733233892,32.780785,-48.280495,-35.993393,-0.06924962,0.0,0.043694112,-0.04279537,-1.2861111,0.043266036,-0.103707366,-4.937912,0.0,0.0,0.0
2733337761,32.780785,-48.280495,-35.993393,-0.06924962,0.0,0.04012451,-0.047089767,-1.2861111,0.04981937,-0.13610876,-4.953111,0.0,0.0,0.0
2733437415,32.780785,-48.280495,-35.993393,-0.06924962,0.0,0.035946082,-0.05031147,-1.2861111,0.047544684,-0.0657357,-4.9362144,0.0,0.0,0.0
2733538165,32.780785,-48.280495,-35.993393,-0.06924962,0.0,0.029575156,-0.052036475,-1.2861111,0.05533405,-0.08927457,-4.9640427,0.0,0.0,0.0
2733642244,32.780785,-48.280495,-35.993393,-0.06924962,0.0,0.022845458,-0.052108955,-1.2861111,0.019259764,-0.069664,-4.9278994,0.0,0.0,0.0
2733742695,32.780785,-48.280495,-35.993393,-0.06924962,0.0,0.015735244,-0.050014306,-1.2861111,0.01279262,-0.10302359,-4.9248805,0.0,0.0,0.0
2733842912,32.780785,-48.280495,-35.993393,-0.06924962,0.0,0.010433388,-0.047665976,-1.2861111,0.024400808,-0.07783411,-4.9260526,0.0,0.0,0.0
2733947269,32.780785,-48.280495,-35.993393,-0.06924962,0.0,0.00693264,-0.04463272,-1.2861111,0.023191815,-0.011039051,-4.9124284,0.0,0.0,0.0
2734048683,32.780785,-48.280495,-35.993393,-0.06924962,0.0,0.00364933,-0.042534444,-1.2861111,0.026132505,-0.04271069,-4.917876,0.0,0.0,0.0
2734147726,32.780785,-48.280495,-35.993393,-0.06924962,0.0,0.00063056947,-0.0416502,-1.2861111,0.0475844,-0.037584413,-4.9405055,0.0,0.0,0.0
2734251737,32.780785,-48.280495,-35.993393,-0.06924962,0.0,-0.0025367737,-0.041635703,-1.2861111,0.034116164,-0.09448031,-4.933975,0.0,0.0,0.0
2734352573,32.780785,-48.280495,-35.993393,-0.06924962,0.0,-0.005878067,-0.042871475,-1.2861111,0.03595091,-0.101575546,-4.9517813,0.0,0.0,0.0
2734453479,32.780785,-48.280495,-35.993393,-0.06924962,0.0,-0.008918571,-0.04616203,-1.2861111,0.04365353,-0.08945916,-4.9625463,0.0,0.0,0.0
2734553415,32.780785,-48.280495,-35.993393,-0.06924962,0.0,-0.010976982,-0.049949072,-1.1802788,0.055064254,-0.07720158,-4.752283,0.0,0.0,0.0
2734657404,32.780785,-48.280495,-35.993393,-0.06924962,0.0,-0.011074829,-0.053743362,-1.0443115,0.049164295,-0.13814709,-4.5747395,0.0,0.0,0.0
2734758566,32.780785,-48.280495,-35.993393,-0.06924962,0.0,-0.009284591,-0.056975935,-0.9237366,0.07395058,-0.017827647,-4.488833,0.0,0.0,0.0
2734858248,32.780785,-48.280495,-35.993393,-0.06924962,0.0,-0.006258583,-0.06047306,-0.8134117,0.08122813,-0.051455736,-4.471987,0.0,0.0,0.0
2734962307,29.233282,-47.995975,-35.927876,-0.06924962,0.0,-3.3724067,0.20565987,-0.64305496,-2.0303142,0.06399976,-4.3561854,0.0,0.0,0.0
2735063050,29.233282,-47.995975,-36.015076,-0.06924962,0.0,-3.3657243,0.2008871,-0.64305496,-2.141646,0.09999626,-4.597778,0.0,0.0,0.0
2735163364,31.16713,-46.31569,-36.091908,0.74823314,0.0,-1.5154142,1.7915891,-0.640934,-1.0302818,1.5679064,-4.701181,0.0,0.0,0.0
2735267501,31.197037,-46.2897,-36.091908,0.74823314,0.0,-1.4610511,1.8084224,-0.56184006,-0.8155268,1.5397305,-4.5708375,0.0,0.0,0.0
2735368114,31.2215,-46.268444,-36.091908,0.7475637,0.0,-1.3989655,1.8136845,-0.47939682,-0.6033155,1.458535,-4.535186,0.0,0.0,0.0
2735468200,31.240074,-46.252308,-36.091908,0.7469138,0.0,-1.3243046,1.804128,-0.40758514,-0.43063855,1.2651386,-4.5198693,0.0,0.0,0.0
2735572428,31.257206,-46.237423,-36.091908,0.74595314,0.0,-1.2319552,1.7772418,-0.34967422,-0.23164663,1.0986534,-4.5596266,0.0,0.0,0.0
2735672674,31.274147,-46.222702,-36.091908,0.74466676,0.0,-1.1266826,1.7326056,-0.3048973,-0.08598502,0.8721465,-4.611485,0.0,0.0,0.0
2735773149,31.295721,-46.203957,-36.091908,0.7439378,0.0,-1.0082752,1.6729044,-0.26750946,0.06393287,0.61154056,-4.7013574,0.0,0.0,0.0
2735873453,31.322533,-46.18066,-36.091908,0.7405629,0.0,-0.8775099,1.5988487,-0.23490524,0.1661698,0.46343234,-4.7705193,0.0,0.0,0.0
2735977942,31.357458,-46.150314,-36.091908,0.73842615,0.0,-0.73236114,1.5115112,-0.19839478,0.30968046,0.25739795,-4.7896156,0.0,0.0,0.0
2736081662,31.398584,-46.114582,-36.091908,0.73725915,0.0,-0.5814267,1.4167265,-0.167099,0.39367607,0.10141441,-4.7578526,0.0,0.0,0.0
2736182314,31.485962,-46.03866,-36.091908,0.733819,0.0,-0.39327422,1.3553365,-0.13972473,0.5032237,0.0566342,-4.7176676,0.0,0.0,0.0
2736282562,31.734936,-45.82233,-36.091908,0.7314424,0.0,-0.05516758,1.425424,-0.1088295,0.71074843,0.13716379,-4.6498566,0.0,0.0,0.0
2736386929,32.000175,-45.59187,-36.091908,0.7314424,0.0,0.29347572,1.5011612,-0.07903671,0.9431781,0.19328783,-4.648452,0.0,0.0,0.0
2736486984,32.2593,-45.36672,-36.091908,0.7269693,0.0,0.62386876,1.5784712,-0.048675537,1.1499599,0.27588186,-4.6013293,0.0,0.0,0.0
2736591273,32.53773,-45.124794,-36.091908,0.7248655,0.0,0.9605222,1.6678743,-0.019943237,1.3231585,0.36418247,-4.5643544,0.0,0.0,0.0
2736692561,32.816,-44.883007,-36.091908,0.72382987,0.0,1.2776152,1.7662141,0.0016517639,1.386383,0.4627014,-4.567197,0.0,0.0,0.0
2736796813,33.116123,-44.62224,-36.091908,0.721184,0.0,1.5955799,1.876861,0.026454926,1.5408949,0.5481833,-4.6119175,0.0,0.0,0.0
2736900330,33.276978,-44.48248,-36.091908,0.71962816,0.0,1.7603433,1.875502,0.045906067,1.4238739,0.5305393,-4.5743856,0.0,0.0,0.0
2737000612,33.361362,-44.409157,-36.091908,0.71962816,0.0,1.8272434,1.8103867,0.05769348,1.2902012,0.45938987,-4.638042,0.0,0.0,0.0
2737104648,33.458076,-44.325123,-36.091908,0.7170568,0.0,1.8817896,1.7536173,0.06481171,1.1922352,0.31131622,-4.7056394,0.0,0.0,0.0
2737205047,33.567284,-44.230236,-36.091908,0.71608293,0.0,1.925076,1.7059911,0.070323944,1.0189376,0.26248258,-4.73802,0.0,0.0,0.0
2737305660,33.688305,-44.12508,-36.091908,0.7155789,0.0,1.9576844,1.6684723,0.071819305,0.8450565,0.28562957,-4.7722225,0.0,0.0,0.0
2737406176,33.821915,-44.008987,-36.091908,0.7145325,0.0,1.9831156,1.6381651,0.070495605,0.7530309,0.26431885,-4.822896,0.0,0.0,0.0
2737510674,33.972385,-43.878246,-36.091908,0.7141115,0.0,2.0018733,1.6151855,0.06492233,0.6944994,0.22063303,-4.848893,0.0,0.0,0.0
2737615694,34.13318,-43.738537,-36.091908,0.7139177,0.0,2.0158834,1.5976636,0.05540085,0.6623741,0.16139512,-4.8445206,0.0,0.0,0.0
2737718589,34.29871,-43.59471,-36.091908,0.7135569,0.0,2.0233452,1.5882088,0.04918289,0.6489682,0.14553857,-4.869953,0.0,0.0,0.0
2737819338,34.46683,-43.448635,-36.091908,0.71343106,0.0,2.0278063,1.582501,0.052215576,0.52250886,0.2576738,-4.805522,0.0,0.0,0.0
2737923405,34.642338,-43.29614,-36.091908,0.7134142,0.0,2.0264544,1.5842333,0.054042816,0.4928446,0.27850443,-4.7658486,0.0,0.0,0.0
2738024102,34.81623,-43.145046,-36.091908,0.7134694,0.0,2.023606,1.5878717,0.055690765,0.57326746,0.20548421,-4.794253,0.0,0.0,0.0
2738124199,34.988113,-42.9957,-36.091908,0.71359456,0.0,2.0173438,1.5958227,0.06148529,0.5096134,0.270051,-4.8013334,0.0,0.0,0.0
2738228564,35.169937,-42.837715,-36.091908,0.7136681,0.0,2.0109513,1.6038715,0.06055832,0.50158936,0.25836954,-4.783146,0.0,0.0,0.0
2738329458,35.344654,-42.68591,-36.091908,0.7138531,0.0,2.0034242,1.6132612,0.054893494,0.44633275,0.3590434,-4.770495,0.0,0.0,0.0
2738432975,35.526768,-42.52767,-36.091908,0.71413004,0.0,1.9947158,1.6240171,0.052238464,0.5021611,0.31389964,-4.8337502,0.0,0.0,0.0
2738536676,35.71045,-42.368076,-36.091908,0.7143374,0.0,1.9854676,1.6353093,0.05091095,0.50027657,0.31092864,-4.7892766,0.0,0.0,0.0
2738641657,35.89497,-42.20775,-36.091908,0.71454257,0.0,1.9752914,1.647591,0.046691895,0.47312427,0.31319702,-4.794128,0.0,0.0,0.0
2738741807,36.0702,-42.055492,-36.091908,0.7146673,0.0,1.9647602,1.6601372,0.046775818,0.45686096,0.35159737,-4.8076177,0.0,0.0,0.0
2738841392,36.246628,-41.902195,-36.091908,0.7146673,0.0,1.9539245,1.6728681,0.049877167,0.39161652,0.42896003,-4.7651305,0.0,0.0,0.0
2738942609,36.425526,-41.746758,-36.091908,0.71525806,0.0,1.9426938,1.6859035,0.051239014,0.4675111,0.35325447,-4.769188,0.0,0.0,0.0
2739046563,36.610855,-41.585724,-36.091908,0.7154786,0.0,1.9322497,1.6978589,0.04888153,0.4006459,0.39590776,-4.792375,0.0,0.0,0.0
2739147433,36.788338,-41.431515,-36.091908,0.7157317,0.0,1.9215046,1.7100102,0.0478096,0.44599324,0.31227937,-4.8204846,0.0,0.0,0.0
2739247557,36.964615,-41.27835,-36.091908,0.7159635,0.0,1.9107885,1.7219764,0.04374695,0.37890473,0.4172399,-4.8344655,0.0,0.0,0.0
2739352927,37.149593,-41.11763,-36.091908,0.7160909,0.0,1.8997608,1.7341348,0.04689026,0.40519127,0.36925673,-4.8263535,0.0,0.0,0.0
2739456302,37.33312,-40.95816,-36.091908,0.716503,0.0,1.8890846,1.7457606,0.049900055,0.39048046,0.40076247,-4.7661295,0.0,0.0,0.0
2739555769,37.50948,-40.804928,-36.091908,0.71674526,0.0,1.8792492,1.7563425,0.051517487,0.39553446,0.40345597,-4.8023114,0.0,0.0,0.0
2739656678,37.687256,-40.650463,-36.091908,0.7168433,0.0,1.8686419,1.7676239,0.053173065,0.35248673,0.44747308,-4.837101,0.0,0.0,0.0
2739760673,37.872406,-40.489586,-36.091908,0.71718395,0.0,1.8582592,1.778532,0.05003357,0.33126917,0.45945394,-4.7705956,0.0,0.0,0.0
2739861861,38.051987,-40.33355,-36.091908,0.7173856,0.0,1.848855,1.7883095,0.04864502,0.32629818,0.44462806,-4.8355765,0.0,0.0,0.0
2739961646,38.231606,-40.177486,-36.091908,0.71748835,0.0,1.8408134,1.7965829,0.04731369,0.28741834,0.50897807,-4.8331933,0.0,0.0,0.0
2740065417,38.42019,-40.013626,-36.091908,0.7177752,0.0,1.8337756,1.8037729,0.04650879,0.37426528,0.39072952,-4.810419,0.0,0.0,0.0
2740166601,38.603363,-39.85447,-36.091908,0.71790826,0.0,1.828405,1.8092161,0.050685883,0.35683918,0.44842145,-4.8016286,0.0,0.0,0.0
2740266245,38.78924,-39.692963,-36.091908,0.71795774,0.0,1.8239838,1.8136736,0.05445099,0.2897019,0.4691926,-4.8228116,0.0,0.0,0.0
2740371267,38.98238,-39.52515,-36.091908,0.71795774,0.0,1.8205591,1.8171054,0.059783936,0.31776226,0.42944014,-4.7819576,0.0,0.0,0.0
2740475033,39.177723,-39.35542,-36.091908,0.7181737,0.0,1.8185152,1.819153,0.06334686,0.2805356,0.42907587,-4.810988,0.0,0.0,0.0
2740578972,39.37284,-39.185883,-36.091908,0.7181899,0.0,1.8182905,1.8193814,0.0688858,0.28569758,0.39727706,-4.8341756,0.0,0.0,0.0
2740679554,39.5623,-39.021263,-36.091908,0.7181899,0.0,1.8192472,1.818421,0.06802368,0.23396888,0.39620653,-4.816922,0.0,0.0,0.0
2740779799,39.756283,-38.85272,-36.091908,0.7181546,0.0,1.8217695,1.8158987,0.06342697,0.23164055,0.39424622,-4.8808947,0.0,0.0,0.0
2740884098,39.95912,-38.67647,-36.091908,0.71808326,0.0,1.8262415,1.8114014,0.06560135,0.26539272,0.3071063,-4.823909,0.0,0.0,0.0
2740984232,40.15669,-38.50481,-36.091908,0.71808326,0.0,1.8322355,1.8053385,0.06901932,0.33749098,0.24530503,-4.831472,0.0,0.0,0.0
2741088682,40.365253,-38.323593,-36.091908,0.71782124,0.0,1.8400053,1.7974129,0.061466217,0.30698925,0.26638874,-4.818056,0.0,0.0,0.0
2741189315,40.565006,-38.150032,-36.091908,0.717642,0.0,1.8487173,1.7884544,0.0565567,0.35575548,0.24708559,-4.8560853,0.0,0.0,0.0
2741297774,40.78219,-37.961323,-36.091908,0.71753776,0.0,1.8602234,1.7764881,0.05350876,0.35960883,0.24338749,-4.8537774,0.0,0.0,0.0
2741401415,40.989605,-37.781105,-36.091908,0.71753776,0.0,1.8712003,1.7649132,0.05334854,0.34434608,0.23254521,-4.779274,0.0,0.0,0.0
2741502718,41.192074,-37.605183,-36.091908,0.71691334,0.0,1.8827391,1.7526026,0.054950714,0.39781326,0.2203402,-4.8520784,0.0,0.0,0.0
2741602410,41.391937,-37.431522,-36.091908,0.71666783,0.0,1.8928064,1.7417234,0.0539093,0.33337098,0.25749344,-4.8041806,0.0,0.0,0.0
2741706375,41.601696,-37.249268,-36.091908,0.7163717,0.0,1.9032543,1.7303044,0.05142212,0.36184323,0.2918449,-4.8426933,0.0,0.0,0.0
2741807471,41.80357,-37.073864,-36.091908,0.716157,0.0,1.9113865,1.7213169,0.05095291,0.35826015,0.27798375,-4.855856,0.0,0.0,0.0
2741907002,42.00234,-36.901154,-36.091908,0.7160634,0.0,1.9198303,1.7118909,0.04578781,0.34198397,0.30319482,-4.839887,0.0,0.0,0.0
2742011378,42.208252,-36.72224,-36.091908,0.71578133,0.0,1.926705,1.7041538,0.042377472,0.36444184,0.23533624,-4.8468957,0.0,0.0,0.0
2742111812,42.408142,-36.548565,-36.091908,0.7156126,0.0,1.9329997,1.6970073,0.039276123,0.2923691,0.34354863,-4.82548,0.0,0.0,0.0
2742213412,42.605576,-36.377014,-36.091908,0.7156126,0.0,1.9373413,1.6920534,0.043102264,0.3088098,0.3320267,-4.852881,0.0,0.0,0.0
2742312982,42.80532,-36.20346,-36.091908,0.7153683,0.0,1.9418784,1.6868385,0.04324341,0.345356,0.26406,-4.804614,0.0,0.0,0.0
2742416717,43.01113,-36.024635,-36.091908,0.7153013,0.0,1.9441109,1.6842691,0.044200897,0.30595598,0.3061882,-4.7101674,0.0,0.0,0.0
2742517026,43.208904,-35.8528,-36.091908,0.7152758,0.0,1.9447632,1.6835153,0.04683304,0.24001025,0.42422312,-4.8021636,0.0,0.0,0.0
2742617789,43.407402,-35.680325,-36.091908,0.71531767,0.0,1.9420561,1.6866356,0.04390335,0.2642332,0.3442888,-4.7999897,0.0,0.0,0.0
2742721404,43.613834,-35.500957,-36.091908,0.7153717,0.0,1.9398419,1.6891832,0.033493042,0.22736864,0.4352675,-4.8296194,0.0,0.0,0.0
2742821945,43.812366,-35.328453,-36.091908,0.7153717,0.0,1.9366962,1.6927854,0.026237488,0.21186662,0.40697256,-4.765859,0.0,0.0,0.0
2742922271,44.013294,-35.153873,-36.091908,0.7155067,0.0,1.9346415,1.6951338,0.024391174,0.27044383,0.3685086,-4.728159,0.0,0.0,0.0
2743026185,44.220753,-34.973614,-36.091908,0.71556133,0.0,1.9334056,1.6965472,0.027748108,0.27496636,0.35808933,-4.683328,0.0,0.0,0.0
2743127448,44.42472,-34.796394,-36.091908,0.7155456,0.0,1.9353228,1.6943618,0.025691986,0.30388266,0.2550824,-4.720377,0.0,0.0,0.0
2743227552,44.626602,-34.620983,-36.091908,0.7154838,0.0,1.9383379,1.6909082,0.020153046,0.34017473,0.20150281,-4.690634,0.0,0.0,0.0
2743331052,44.838905,-34.436516,-36.091908,0.7153456,0.0,1.9450241,1.683211,0.009059906,0.33109015,0.20418161,-4.7616324,0.0,0.0,0.0
2743431860,45.045677,-34.256855,-36.091908,0.71516055,0.0,1.9535984,1.6732522,-0.0012626648,0.3302643,0.14179255,-4.736214,0.0,0.0,0.0
2743532311,45.25305,-34.076668,-36.091908,0.7148582,0.0,1.965003,1.6598508,-0.008533478,0.36251324,0.11263401,-4.719347,0.0,0.0,0.0
2743637382,45.468884,-33.889133,-36.091908,0.7145218,0.0,1.976607,1.6460146,-0.011882782,0.32809675,0.1308892,-4.789251,0.0,0.0,0.0
2743741326,45.687954,-33.698788,-36.091908,0.7141643,0.0,1.9889066,1.6311346,-0.013938904,0.36346874,0.09848849,-4.7719665,0.0,0.0,0.0
2743845911,45.905277,-33.50996,-36.091908,0.71400607,0.0,2.0003366,1.6170918,-0.017742157,0.32518926,0.12116777,-4.734573,0.0,0.0,0.0
2743949765,46.12448,-33.319496,-36.091908,0.7134259,0.0,2.0111868,1.6035815,-0.024349213,0.34408447,0.058093112,-4.773885,0.0,0.0,0.0
2744049396,46.33366,-33.13774,-36.091908,0.7131633,0.0,2.0199132,1.592572,-0.029022217,0.35048178,0.08424152,-4.741113,0.0,0.0,0.0
2744150699,46.543537,-32.955387,-36.091908,0.7129041,0.0,2.027799,1.5825227,-0.03691101,0.31229845,0.12067557,-4.7697196,0.0,0.0,0.0
2744254631,46.763348,-32.7644,-36.091908,0.7127202,0.0,2.0342677,1.5741949,-0.039539337,0.3556179,0.0761502,-4.763715,0.0,0.0,0.0
2744354266,46.972763,-32.582443,-36.091908,0.7126199,0.0,2.0389426,1.5681283,-0.029628754,0.30165854,0.08736036,-4.717845,0.0,0.0,0.0
2744455894,47.18284,-32.39991,-36.091908,0.71241415,0.0,2.0419433,1.5642182,-0.017131805,0.3176901,0.07200816,-4.632719,0.0,0.0,0.0
2744559718,47.39835,-32.212654,-36.091908,0.71235687,0.0,2.043277,1.5624822,-0.0052261353,0.29120168,0.12437708,-4.680443,0.0,0.0,0.0
2744663619,47.613995,-32.025284,-36.091908,0.71233773,0.0,2.0433965,1.5623337,-0.006362915,0.29218256,0.1329986,-4.6826,0.0,0.0,0.0
2744763805,47.822807,-31.84385,-36.091908,0.71234447,0.0,2.0422804,1.5637796,-0.0073776245,0.30960703,0.07317564,-4.6807623,0.0,0.0,0.0
2744864419,48.030277,-31.663582,-36.091908,0.7123714,0.0,2.040088,1.5666425,-0.0072135925,0.2654717,0.13556574,-4.6661205,0.0,0.0,0.0
2744968342,48.24598,-31.476166,-36.091908,0.7124812,0.0,2.0366197,1.5711508,-0.0059280396,0.30936646,0.082473755,-4.700129,0.0,0.0,0.0
2745068862,48.45434,-31.295124,-36.091908,0.71258163,0.0,2.0330102,1.575822,-0.004310608,0.23799832,0.14766811,-4.681111,0.0,0.0,0.0
2745169707,48.660954,-31.1156,-36.091908,0.71269834,0.0,2.0291617,1.5807687,-0.010982513,0.20390376,0.19064237,-4.6958113,0.0,0.0,0.0
2745269716,48.86937,-30.93451,-36.091908,0.7128091,0.0,2.0251498,1.5859076,-0.018791199,0.250566,0.13887313,-4.743551,0.0,0.0,0.0
2745369822,49.076107,-30.754877,-36.091908,0.7128682,0.0,2.0211346,1.5910192,-0.029468536,0.2682339,0.0905739,-4.721732,0.0,0.0,0.0
2745469462,49.28261,-30.575453,-36.091908,0.7130166,0.0,2.0163038,1.5971437,-0.03665924,0.22962569,0.1582483,-4.6842537,0.0,0.0,0.0
2745574245,49.498386,-30.38797,-36.091908,0.71316576,0.0,2.0108316,1.6040274,-0.04328537,0.26382947,0.1332011,-4.721563,0.0,0.0,0.0
2745674820,49.701946,-30.211103,-36.091908,0.71333146,0.0,2.0048556,1.6114873,-0.04851532,0.21078265,0.22082452,-4.70247,0.0,0.0,0.0
2745774407,49.903923,-30.035603,-36.091908,0.713518,0.0,1.9986515,1.6191719,-0.04673004,0.2243729,0.1931275,-4.713628,0.0,0.0,0.0
2745879016,50.11386,-29.853191,-36.091908,0.7137295,0.0,1.9907367,1.6288949,-0.041584015,0.3038427,0.18404198,-4.7204943,0.0,0.0,0.0
2745979386,50.312916,-29.68024,-36.091908,0.7139678,0.0,1.9829525,1.6383644,-0.039405823,0.27898166,0.13535276,-4.6879816,0.0,0.0,0.0
2746080356,50.513084,-29.506313,-36.091908,0.71421695,0.0,1.9739505,1.6491964,-0.0315094,0.2609898,0.22142164,-4.6712513,0.0,0.0,0.0
2746184585,50.71928,-29.327154,-36.091908,0.71435547,0.0,1.9650936,1.6597421,-0.024707794,0.22429445,0.24700558,-4.6639915,0.0,0.0,0.0
2746288388,50.92533,-29.148119,-36.091908,0.71484655,0.0,1.9536998,1.6731344,-0.014781952,0.28197345,0.20765659,-4.669671,0.0,0.0,0.0
2746388717,51.124615,-28.974966,-36.091908,0.71517915,0.0,1.944089,1.6842945,-0.008644104,0.20987076,0.24595417,-4.6481075,0.0,0.0,0.0
2746488997,51.320404,-28.80485,-36.091908,0.7153184,0.0,1.9327027,1.6973498,-0.0012931824,0.22520646,0.2903631,-4.6655855,0.0,0.0,0.0
2746589413,51.517754,-28.633371,-36.091908,0.7158436,0.0,1.9239508,1.7072595,0.004398346,0.29706934,0.19061539,-4.64357,0.0,0.0,0.0
2746693401,51.721558,-28.456295,-36.091908,0.71613884,0.0,1.9133688,1.719119,0.002029419,0.3214045,0.16667828,-4.6699476,0.0,0.0,0.0
2746793935,51.917557,-28.285992,-36.091908,0.7164681,0.0,1.9050481,1.7283293,-0.0010299683,0.25223497,0.24969792,-4.687332,0.0,0.0,0.0
2746894258,52.115204,-28.114256,-36.091908,0.7167461,0.0,1.896097,1.7381448,0.002506256,0.18153568,0.2971805,-4.6739407,0.0,0.0,0.0
2746998448,52.319748,-27.936535,-36.091908,0.71687806,0.0,1.8901101,1.7446553,0.009052277,0.28572,0.16265473,-4.6716986,0.0,0.0,0.0
2747098707,52.51452,-27.767302,-36.091908,0.71711814,0.0,1.8825833,1.7527729,0.01467514,0.21079792,0.24807577,-4.6454887,0.0,0.0,0.0
2747199039,52.711926,-27.59578,-36.091908,0.717297,0.0,1.879213,1.7563896,0.022335052,0.2785277,0.1685386,-4.6736436,0.0,0.0,0.0
2747303218,52.914997,-27.419333,-36.091908,0.71735334,0.0,1.8757592,1.7600733,0.033615112,0.20831265,0.21033527,-4.613694,0.0,0.0,0.0
2747404209,53.113262,-27.247065,-36.091908,0.7174665,0.0,1.8760093,1.7598088,0.03811264,0.2878085,0.14304501,-4.6397395,0.0,0.0,0.0
2747503855,53.30995,-27.076166,-36.091908,0.7174815,0.0,1.8762376,1.759566,0.0403862,0.24701865,0.121001154,-4.678071,0.0,0.0,0.0
2747607819,53.516212,-26.896946,-36.091908,0.71745396,0.0,1.8792782,1.7563154,0.047225952,0.23153628,0.1702471,-4.676632,0.0,0.0,0.0
2747709674,53.715446,-26.723835,-36.091908,0.7173762,0.0,1.8795573,1.7560182,0.056236267,0.25420734,0.11007162,-4.6732044,0.0,0.0,0.0
2747814191,53.92298,-26.543514,-36.091908,0.7172941,0.0,1.8827137,1.7526315,0.058563232,0.19206013,0.14185107,-4.624555,0.0,0.0,0.0
2747914121,54.12381,-26.369015,-36.091908,0.71726525,0.0,1.8841597,1.7510768,0.05966568,0.22819224,0.08283936,-4.6512685,0.0,0.0,0.0
2748018179,54.33271,-26.187508,-36.091908,0.7171427,0.0,1.8877583,1.7472011,0.06145096,0.22086833,0.09503308,-4.6945367,0.0,0.0,0.0
2748121758,54.541576,-26.006027,-36.091908,0.71712923,0.0,1.8905596,1.744166,0.06443024,0.22147702,0.109368496,-4.6202874,0.0,0.0,0.0
2748222201,54.745438,-25.828896,-36.091908,0.7169497,0.0,1.8948394,1.7395201,0.066093445,0.19846694,0.09504603,-4.629125,0.0,0.0,0.0
2748322941,54.947525,-25.653303,-36.091908,0.71687376,0.0,1.8968725,1.7373004,0.06806564,0.2050945,0.08905056,-4.619977,0.0,0.0,0.0
2748426775,55.157734,-25.470657,-36.091908,0.71687376,0.0,1.9008697,1.7329227,0.07227707,0.2507518,0.09046731,-4.6546736,0.0,0.0,0.0
2748527376,55.360085,-25.294838,-36.091908,0.71668154,0.0,1.9047147,1.7286953,0.073703766,0.26889756,0.060650438,-4.696557,0.0,0.0,0.0
2748627377,55.561085,-25.120193,-36.091908,0.71653646,0.0,1.9089874,1.7239786,0.07416916,0.29747817,0.0045589786,-4.622099,0.0,0.0,0.0
2748732568,55.77252,-24.936481,-36.091908,0.7164259,0.0,1.9126259,1.7199452,0.07291031,0.24092637,0.095444396,-4.654942,0.0,0.0,0.0
2748836150,55.98124,-24.755127,-36.091908,0.7162734,0.0,1.9170688,1.7149894,0.07265854,0.28311923,0.023652606,-4.6799903,0.0,0.0,0.0
2748935839,56.180973,-24.581581,-36.091908,0.71616197,0.0,1.920729,1.710889,0.07437515,0.2670652,0.041259464,-4.666283,0.0,0.0,0.0
2749036658,56.382065,-24.406855,-36.091908,0.7160193,0.0,1.9245559,1.7065836,0.06986618,0.28565884,0.020781908,-4.7152557,0.0,0.0,0.0
2749140714,56.588863,-24.227173,-36.091908,0.71592414,0.0,1.927571,1.7031753,0.061439514,0.24305813,0.06353393,-4.781766,0.0,0.0,0.0
2749241747,56.78824,-24.053938,-36.091908,0.7157969,0.0,1.9304739,1.6998866,0.05016327,0.21564576,0.06114023,-4.786124,0.0,0.0,0.0
2749341436,56.988926,-23.879564,-36.091908,0.7157162,0.0,1.9326808,1.6973734,0.03445816,0.1968216,0.08493952,-4.7878127,0.0,0.0,0.0
2749445604,57.196922,-23.69884,-36.091908,0.71564436,0.0,1.9337137,1.6961974,0.02035904,0.25128928,0.0032229077,-4.839049,0.0,0.0,0.0
2749547561,57.39861,-23.523598,-36.091908,0.71566015,0.0,1.9330215,1.6969856,0.011878967,0.22176012,0.033365726,-4.8412676,0.0,0.0,0.0
2749650593,57.60825,-23.341446,-36.091908,0.7156744,0.0,1.9310247,1.6992614,-0.0016937256,0.21159084,0.06053315,-4.814254,0.0,0.0,0.0
2749750486,57.81094,-23.165333,-36.091908,0.7156744,0.0,1.9281908,1.7024795,-0.012981415,0.17718893,0.086943485,-4.818645,0.0,0.0,0.0
2749855069,58.02222,-22.981752,-36.091908,0.7159553,0.0,1.9241501,1.7070385,-0.018081665,0.17518918,0.14126919,-4.853369,0.0,0.0,0.0
2749955598,58.222,-22.808168,-36.091908,0.7161631,0.0,1.9186996,1.713163,-0.014911652,0.14913288,0.13426517,-4.8345437,0.0,0.0,0.0
2750055314,58.421947,-22.634436,-36.091908,0.71638006,0.0,1.9135644,1.718896,-0.0062026978,0.13999118,0.15900843,-4.766647,0.0,0.0,0.0
2750160562,58.630943,-22.452845,-36.091908,0.7166025,0.0,1.9079075,1.7251745,-0.0023498535,0.1391785,0.12928532,-4.754863,0.0,0.0,0.0
2750264610,58.838676,-22.272348,-36.091908,0.71668756,0.0,1.9025476,1.7310798,-0.0018081665,0.18970858,0.10124747,-4.8005023,0.0,0.0,0.0
2750364815,59.040653,-22.096853,-36.091908,0.716975,0.0,1.8988295,1.7351658,-0.0033836365,0.15519221,0.089487635,-4.803211,0.0,0.0,0.0
2750464951,59.240078,-21.923576,-36.091908,0.7171336,0.0,1.8945242,1.7398607,-0.0037155151,0.16768596,0.07350639,-4.807294,0.0,0.0,0.0
2750569718,59.447487,-21.743362,-36.091908,0.71729356,0.0,1.8909292,1.7437674,-0.0046043396,0.14957039,0.15660286,-4.815035,0.0,0.0,0.0
2750670149,59.647606,-21.569483,-36.091908,0.71741706,0.0,1.8877764,1.747181,0.007003784,0.17006168,0.115786515,-4.781907,0.0,0.0,0.0
2750769461,59.846462,-21.396704,-36.091908,0.7174821,0.0,1.8862072,1.7488772,0.012050629,0.17621619,0.13099323,-4.776171,0.0,0.0,0.0
2750869833,60.04562,-21.223656,-36.091908,0.7174821,0.0,1.8838588,1.751403,0.016666412,0.18218754,0.12439539,-4.7774825,0.0,0.0,0.0
2750974586,60.25509,-21.041649,-36.091908,0.7177036,0.0,1.8826412,1.7527095,0.016819,0.13501966,0.16919482,-4.7771597,0.0,0.0,0.0
2751074007,60.45586,-20.867207,-36.091908,0.71773297,0.0,1.881746,1.7536807,0.01556778,0.16461204,0.13181917,-4.777555,0.0,0.0,0.0
2751176005,60.658867,-20.690811,-36.091908,0.7177824,0.0,1.8816265,1.7538003,0.012683868,0.21946438,0.047489986,-4.830795,0.0,0.0,0.0
2751280125,60.869553,-20.507753,-36.091908,0.71782106,0.0,1.8811191,1.7543474,0.008617401,0.13456064,0.119778626,-4.803198,0.0,0.0,0.0
2751383478,61.081184,-20.32387,-36.091908,0.71782106,0.0,1.8816446,1.7537822,0.009529114,0.15631582,0.05106378,-4.8525558,0.0,0.0,0.0
2751484079,61.28749,-20.144617,-36.091908,0.7178374,0.0,1.8805248,1.7549853,0.010379791,0.12245105,0.12397158,-4.834989,0.0,0.0,0.0
2751588111,61.50107,-19.95904,-36.091908,0.71791786,0.0,1.880224,1.7553042,0.010055542,0.18271497,0.034898523,-4.8542094,0.0,0.0,0.0
2751691621,61.71405,-19.773983,-36.091908,0.71793026,0.0,1.8800284,1.7555144,0.007827759,0.13588011,0.038424388,-4.793571,0.0,0.0,0.0
2751792671,61.920662,-19.594461,-36.091908,0.7179375,0.0,1.8812895,1.7541627,0.0075645447,0.13723089,0.06648194,-4.8318915,0.0,0.0,0.0
2751893036,62.126347,-19.415745,-36.091908,0.71790874,0.0,1.8821338,1.7532603,0.0060768127,0.13927233,0.08179608,-4.858592,0.0,0.0,0.0
2751997997,62.341766,-19.228573,-36.091908,0.7178445,0.0,1.885149,1.7500168,0.005493164,0.13794114,0.050807904,-4.8279443,0.0,0.0,0.0
2752101913,62.555805,-19.0426,-36.091908,0.7177475,0.0,1.8878633,1.7470924,0.001209259,0.11855989,0.07405016,-4.860439,0.0,0.0,0.0
2752201663,62.761723,-18.863682,-36.091908,0.71753496,0.0,1.892212,1.7423757,-0.0015716553,0.13478053,-0.0012181436,-4.8553896,0.0,0.0,0.0
2752302620,62.97147,-18.68143,-36.091908,0.71738833,0.0,1.8959411,1.7383187,-0.0011367798,0.14269398,0.0017447339,-4.880691,0.0,0.0,0.0
2752406986,63.18766,-18.493587,-36.091908,0.71738833,0.0,1.9012684,1.7324859,-0.007762909,0.18076418,-0.023969289,-4.904529,0.0,0.0,0.0
2752507357,63.399178,-18.309807,-36.091908,0.7170332,0.0,1.9046314,1.7287914,-0.011268616,0.10116655,0.02760568,-4.868527,0.0,0.0,0.0
2752607095,63.608536,-18.127893,-36.091908,0.716848,0.0,1.9091324,1.7238138,-0.008934021,0.16504608,-0.07794601,-4.855275,0.0,0.0,0.0
2752708185,63.820057,-17.944109,-36.091908,0.716848,0.0,1.91247,1.7201155,-0.004058838,0.10479778,-0.012262028,-4.8295264,0.0,0.0,0.0
2752813185,64.04099,-17.752146,-36.091908,0.71657664,0.0,1.9169674,1.7151018,-0.001411438,0.120167874,-0.0382523,-4.863215,0.0,0.0,0.0
2752916191,64.26127,-17.560745,-36.091908,0.7164148,0.0,1.920653,1.7109723,-4.196167e-05,0.14630559,-0.0672981,-4.8216224,0.0,0.0,0.0
2753016314,64.47259,-17.377132,-36.091908,0.7162109,0.0,1.92469,1.7064296,-0.00015258789,0.11197637,-0.037052844,-4.854311,0.0,0.0,0.0
2753117076,64.686806,-17.19101,-36.091908,0.71606356,0.0,1.9278466,1.702869,-0.007003784,0.1317725,-0.05268022,-4.892235,0.0,0.0,0.0
2753216953,64.89853,-17.007042,-36.091908,0.7159752,0.0,1.9317205,1.698466,-0.01883316,0.08836801,-0.046683516,-4.9089174,0.0,0.0,0.0
2753318165,65.11304,-16.82066,-36.091908,0.7156588,0.0,1.9362504,1.6933055,-0.035022736,0.06980747,-0.007957088,-4.9412766,0.0,0.0,0.0
2753421989,65.33374,-16.628897,-36.091908,0.7154367,0.0,1.9410812,1.6877626,-0.049930573,0.12544416,-0.06464557,-4.969725,0.0,0.0,0.0
2753526449,65.556526,-16.43532,-36.091908,0.71520656,0.0,1.9459264,1.6821762,-0.06680298,0.09881663,-0.052139126,-4.9702725,0.0,0.0,0.0
2753630794,65.779495,-16.241585,-36.091908,0.7149841,0.0,1.9505615,1.6767911,-0.07784653,0.11658586,-0.060688645,-5.0062156,0.0,0.0,0.0
2753730262,65.991585,-16.05731,-36.091908,0.71487266,0.0,1.9544754,1.6722322,-0.08350372,0.11602009,-0.09382722,-4.973996,0.0,0.0,0.0
2753830991,66.202576,-15.873981,-36.091908,0.7145829,0.0,1.9580775,1.6680193,-0.08909607,0.06931909,-0.009316877,-4.934158,0.0,0.0,0.0
2753935819,66.42207,-15.683262,-36.091908,0.7143885,0.0,1.9616725,1.663781,-0.089839935,0.10758771,-0.046999734,-4.9500165,0.0,0.0,0.0
2754039773,66.63896,-15.494806,-36.091908,0.71418047,0.0,1.9642963,1.6606808,-0.09116745,0.09846892,-0.016234657,-4.92052,0.0,0.0,0.0
2754139880,66.84855,-15.312703,-36.091908,0.71408653,0.0,1.9658039,1.6588987,-0.0921669,0.1659614,-0.100680575,-4.948536,0.0,0.0,0.0
2754244005,67.064,-15.125502,-36.091908,0.7140525,0.0,1.9664418,1.658144,-0.08904648,0.13438159,-0.06478204,-4.9296618,0.0,0.0,0.0
2754344429,67.27041,-14.946158,-36.091908,0.7140352,0.0,1.9660648,1.6585925,-0.08129883,0.06480371,0.037948932,-4.859711,0.0,0.0,0.0
2754444827,67.47778,-14.765967,-36.091908,0.71406984,0.0,1.9651951,1.659618,-0.07355499,0.15138912,-0.05076366,-4.904048,0.0,0.0,0.0
2754548611,67.691315,-14.580439,-36.091908,0.7141291,0.0,1.9637963,1.6612769,-0.07062912,0.11871492,-0.023754884,-4.9194455,0.0,0.0,0.0
2754650289,67.89768,-14.401132,-36.091908,0.71418566,0.0,1.962767,1.6624918,-0.07518005,0.083037,0.00847311,-4.88176,0.0,0.0,0.0
2754753830,68.10995,-14.216699,-36.091908,0.7141924,0.0,1.9620205,1.6633751,-0.077251434,0.09782419,0.014710174,-4.926627,0.0,0.0,0.0
2754853602,68.314415,-14.039036,-36.091908,0.7142484,0.0,1.9610348,1.664533,-0.075805664,0.07531582,0.0046212166,-4.9362516,0.0,0.0,0.0
2754958603,68.52889,-13.852684,-36.091908,0.71429366,0.0,1.9598243,1.665969,-0.064640045,0.09123955,0.044300742,-4.8958955,0.0,0.0,0.0
2755058946,68.73279,-13.67552,-36.091908,0.7143721,0.0,1.9581935,1.6678779,-0.05353546,0.104853965,0.00022410022,-4.8754635,0.0,0.0,0.0
2755159074,68.937744,-13.497437,-36.091908,0.7144705,0.0,1.9561279,1.6702979,-0.040008545,0.065351255,0.050990943,-4.8868446,0.0,0.0,0.0
2755260259,69.140396,-13.32136,-36.091908,0.71458936,0.0,1.954055,1.6727313,-0.032455444,0.084106326,-0.023346983,-4.858165,0.0,0.0,0.0
2755363584,69.35065,-13.138677,-36.091908,0.71470714,0.0,1.951801,1.6753578,-0.02381134,0.11527471,-0.031019833,-4.8650537,0.0,0.0,0.0
2755464291,69.55351,-12.96241,-36.091908,0.7148327,0.0,1.949641,1.6778728,-0.014835358,0.06165021,0.05162749,-4.8511252,0.0,0.0,0.0
2755564039,69.75426,-12.787982,-36.091908,0.7148879,0.0,1.9476405,1.6801858,-0.01260376,0.11183369,-0.024582073,-4.8765473,0.0,0.0,0.0
2755667880,69.96339,-12.60627,-36.091908,0.7150753,0.0,1.945343,1.6828486,-0.014286041,0.101634905,-0.007939497,-4.912746,0.0,0.0,0.0
