timestamp,states[0],states[1],states[2],states[3],states[4],states[5],states[6],states[7],states[8],states[9],states[10],states[11],states[12],states[13],states[14],states[15],states[16],states[17],states[18],states[19],states[20],states[21],states[22],states[23],n_states,vibe[0],vibe[1],vibe[2],covariances[0],covariances[1],covariances[2],covariances[3],covariances[4],covariances[5],covariances[6],covariances[7],covariances[8],covariances[9],covariances[10],covariances[11],covariances[12],covariances[13],covariances[14],covariances[15],covariances[16],covariances[17],covariances[18],covariances[19],covariances[20],covariances[21],covariances[22],covariances[23],control_mode_flags,pos_horiz_accuracy,pos_vert_accuracy,mag_test_ratio,vel_test_ratio,pos_test_ratio,hgt_test_ratio,tas_test_ratio,hagl_test_ratio,beta_test_ratio,time_slip,gps_check_fail_flags,filter_fault_flags,innovation_check_flags,solution_status_flags,nan_flags,health_flags,timeout_flags,pre_flt_fail
2708900395,0.99937356,-0.00417393,-0.0005285464,-0.035139687,0.031517327,-0.0154077895,0.013103363,32.98052,-48.31299,-5.55936,2.1529737e-05,-2.2343562e-05,-1.9914201e-05,0.00023296912,-0.0002314114,-0.0008057306,0.2412794,0.06465066,0.41174623,0.0,0.0,0.0,0.0,0.0,0.0,1.40724e-10,8.978831e-06,0.0006069543,6.4108764e-07,5.3678623e-06,5.368059e-06,3.67775e-05,0.0102647925,0.0102646155,0.009669775,0.034944378,0.03494424,0.056685988,1.0334813e-11,1.033538e-11,1.8282759e-11,5.187923e-08,5.1876228e-08,5.000004e-08,0.0,0.0,0.0,0.0,0.0,0.0,0.0,0.0,663,0.26436457,0.23808819,0.017797481,0.018830506,0.009443682,0.03697523,0.0,0.0,0.0,1.6e-05,0,0,0,831,0,0,0,0
2709103590,0.99937403,-0.0040971576,-0.0005119101,-0.035135973,0.030369485,-0.013952926,0.008819217,32.98456,-48.31086,-5.572268,2.1509204e-05,-2.2356018e-05,-1.9912803e-05,0.0002329704,-0.00023141128,-0.0008011437,0.2412794,0.06465066,0.41174623,0.0,0.0,0.0,0.0,0.0,0.0,2.1326518e-09,2.6314467e-05,0.001195014,6.410085e-07,5.3674803e-06,5.3676654e-06,3.674229e-05,0.010261515,0.010261334,0.0096805105,0.034933902,0.034933753,0.056820374,1.0335126e-11,1.0335689e-11,1.8276252e-11,5.1880143e-08,5.187714e-08,5.0000036e-08,0.0,0.0,0.0,0.0,0.0,0.0,0.0,0.0,663,0.2643249,0.23837024,0.060587473,0.0071946005,0.011511744,0.033180516,0.0,0.0,0.0,5e-06,0,0,0,831,0,0,0,0
2709304541,0.9993808,-0.0041793287,-0.0005420794,-0.034933303,0.030339332,-0.011108746,0.018033126,32.98497,-48.307266,-5.554478,2.1487063e-05,-2.2390914e-05,-1.9942081e-05,0.00023297773,-0.00023141353,-0.0008058679,0.2412794,0.06465066,0.41174623,0.0,0.0,0.0,0.0,0.0,0.0,4.5677798e-08,0.00026624041,0.0051543117,6.4061123e-07,5.369646e-06,5.369849e-06,3.670773e-05,0.010268017,0.010267834,0.009692639,0.034948528,0.03494837,0.056930907,1.03393075e-11,1.0339867e-11,1.8272104e-11,5.188107e-08,5.1878068e-08,5.0000036e-08,0.0,0.0,0.0,0.0,0.0,0.0,0.0,0.0,663,0.26438022,0.23860198,0.0045771324,0.024070004,0.013885177,0.009951705,0.0,0.0,0.0,0.000162,0,0,0,831,0,0,0,0
2709505328,0.99940145,-0.0028001019,0.00076791266,-0.034472145,0.02302849,-0.00079168193,0.014321487,32.989567,-48.304146,-5.5651565,2.147362e-05,-2.23909e-05,-1.9958094e-05,0.00023297807,-0.0002314117,-0.0008015111,0.2412794,0.06465066,0.41174623,0.0,0.0,0.0,0.0,0.0,0.0,3.5741074e-08,0.00022050203,0.004473873,6.3937716e-07,5.371862e-06,5.3718536e-06,3.6733614e-05,0.010281187,0.010280981,0.009704063,0.034984473,0.03498433,0.05704282,1.0339954e-11,1.0340507e-11,1.82762e-11,5.1881962e-08,5.187896e-08,5.000007e-08,0.0,0.0,0.0,0.0,0.0,0.0,0.0,0.0,663,0.26451617,0.23883638,0.060112253,0.007996854,0.015783815,0.033308048,0.0,0.0,0.0,0.00013,0,0,0,831,0,0,0,0
2709706016,0.99938226,-0.003990414,-0.0009714555,-0.034904476,0.027502526,-0.01039108,0.0073101586,32.991314,-48.30062,-5.5744276,2.14542e-05,-2.2405728e-05,-1.9948186e-05,0.00023297893,-0.00023140947,-0.00079778954,0.2412794,0.06465066,0.41174623,0.0,0.0,0.0,0.0,0.0,0.0,2.5884567e-08,0.00018781956,0.0039310367,6.4056024e-07,5.3742406e-06,5.3743415e-06,3.669765e-05,0.010299268,0.0102990735,0.009716013,0.035036914,0.035036795,0.057176135,1.0342151e-11,1.0342701e-11,1.8269965e-11,5.188287e-08,5.187987e-08,5.000007e-08,0.0,0.0,0.0,0.0,0.0,0.0,0.0,0.0,663,0.2647144,0.23911531,0.021217832,0.005154304,0.014552605,0.051004913,0.0,0.0,0.0,3.8e-05,0,0,0,831,0,0,0,0
2709906118,0.99937457,-0.0030833317,0.0003846173,-0.03522789,0.033190675,0.0022412748,-0.0008042412,32.993275,-48.293663,-5.6010633,2.1424128e-05,-2.24208e-05,-1.9899726e-05,0.00023297852,-0.00023140662,-0.0007885588,0.2412794,0.06465066,0.41174623,0.0,0.0,0.0,0.0,0.0,0.0,2.51761e-07,0.00029884788,0.0066768755,6.4097435e-07,5.376187e-06,5.3762365e-06,3.6722722e-05,0.010313278,0.010313089,0.009725669,0.035087183,0.03508708,0.057294965,1.0344097e-11,1.0344644e-11,1.8276079e-11,5.1883784e-08,5.1880782e-08,5.000007e-08,0.0,0.0,0.0,0.0,0.0,0.0,0.0,0.0,663,0.26490426,0.23936367,0.04178829,0.012543789,0.019609816,0.03265289,0.0,0.0,0.0,0.000139,0,0,0,831,0,0,0,0
2710111024,0.9987682,0.0050361864,0.038334493,-0.031102115,-0.063652925,0.03661527,-0.1565714,32.99355,-48.2871,-5.6334386,2.1407332e-05,-2.243459e-05,-2.0134485e-05,0.00023297578,-0.00023140069,-0.00078288896,0.2412794,0.06465066,0.41174623,0.0,0.0,0.0,0.0,0.0,0.0,7.7099423e-07,0.0007623199,0.012068785,6.3624583e-07,5.4264283e-06,5.3780523e-06,3.6673613e-05,0.0104397945,0.0104402965,0.009686893,0.035309482,0.035309374,0.056866057,1.0346441e-11,1.0346985e-11,1.8272016e-11,5.18847e-08,5.18817e-08,5.0000036e-08,0.0,0.0,0.0,0.0,0.0,0.0,0.0,0.0,663,0.2657421,0.23846605,0.06899003,0.022262145,0.02004385,0.027144937,0.0,0.0,0.0,0.000234,0,0,0,831,0,0,0,0
2710311608,0.9984374,-0.006537291,0.05056394,-0.02287825,-0.31092533,0.04010006,-0.8416975,32.930992,-48.265892,-5.832348,2.1364158e-05,-2.2443026e-05,-2.032106e-05,0.00023296586,-0.00023133303,-0.0007510774,0.2412794,0.06465066,0.41174623,0.0,0.0,0.0,0.0,0.0,0.0,1.1388797e-06,0.00089598313,0.01375924,6.251932e-07,5.453242e-06,5.3710637e-06,3.667979e-05,0.010810792,0.01082345,0.009696514,0.035388395,0.035388496,0.056983177,1.0346199e-11,1.0346726e-11,1.8277348e-11,5.1885305e-08,5.1882363e-08,5.0000036e-08,0.0,0.0,0.0,0.0,0.0,0.0,0.0,0.0,663,0.26603928,0.23871149,0.005095927,0.025693122,0.021327702,0.11730734,0.0,0.0,0.0,3e-05,0,0,0,831,0,0,0,0
2710516530,0.99973315,-0.013160776,-0.002411897,-0.018833676,-0.5107627,0.034391142,-1.1258515,32.84108,-48.23885,-6.175409,2.1282174e-05,-2.2404074e-05,-2.0364767e-05,0.00023320234,-0.00023103275,-0.0007094902,0.2412794,0.06465066,0.41174623,0.0,0.0,0.0,0.0,0.0,0.0,1.3821884e-06,0.0012061266,0.015683288,6.1163286e-07,5.3699623e-06,5.375344e-06,3.6797217e-05,0.010945002,0.010977877,0.009658507,0.035593607,0.03559467,0.0564611,1.0340698e-11,1.0341177e-11,1.8280964e-11,5.1884644e-08,5.18818e-08,5e-08,0.0,0.0,0.0,0.0,0.0,0.0,0.0,0.0,663,0.2668113,0.23761545,0.025209473,0.046567038,0.030472515,0.13224642,0.0,0.0,0.0,0.000152,0,0,0,831,0,0,0,0
2710921421,0.9980629,0.0070093926,-0.059612527,-0.016361218,-0.34220916,0.022621544,-1.1098896,32.637142,-48.22325,-6.8168674,2.1277747e-05,-2.2449309e-05,-2.0405829e-05,0.00023319019,-0.00023117899,-0.0006522862,0.2412794,0.06465066,0.41174623,0.0,0.0,0.0,0.0,0.0,0.0,9.083911e-07,0.0010755737,0.012870182,6.283702e-07,5.4689617e-06,5.3244917e-06,3.6603695e-05,0.010824441,0.01083246,0.0096813515,0.03573357,0.035737474,0.056749247,1.0332703e-11,1.0332996e-11,1.8266944e-11,5.1883106e-08,5.1880463e-08,5.0000036e-08,0.0,0.0,0.0,0.0,0.0,0.0,0.0,0.0,663,0.2673407,0.238221,0.024861898,0.024423633,0.023710655,0.0012122463,0.0,0.0,0.0,0.000233,0,0,0,831,0,0,0,0
2712943735,0.9997715,-0.0072310595,-0.00024341064,-0.02011992,0.11088324,-0.08883923,-0.96852064,32.754196,-48.173023,-8.445282,2.129193e-05,-2.2744543e-05,-2.0627773e-05,0.00023089422,-0.00023146252,-0.00078779174,0.2412794,0.06465066,0.41174623,0.0,0.0,0.0,0.0,0.0,0.0,2.5225947e-07,0.0010418482,0.013559654,6.1317513e-07,5.2940472e-06,5.2932965e-06,3.6655954e-05,0.010625355,0.010624336,0.009677648,0.036406506,0.036407847,0.05656989,1.0333784e-11,1.0333876e-11,1.8256088e-11,5.187948e-08,5.187923e-08,5e-08,0.0,0.0,0.0,0.0,0.0,0.0,0.0,0.0,663,0.26984134,0.23784426,0.0020392763,0.025691781,0.008328174,0.06243107,0.0,0.0,0.0,0.000156,0,0,0,831,0,0,0,0
2713148388,0.9997651,-0.0038311498,-0.0017129838,-0.02126571,0.07210341,-0.070396625,-0.96514136,32.774227,-48.193928,-8.632836,2.1309972e-05,-2.272751e-05,-2.067615e-05,0.00023089242,-0.00023143576,-0.00079152506,0.2412794,0.06465066,0.41174623,0.0,0.0,0.0,0.0,0.0,0.0,2.4233162e-07,0.0010810108,0.0134018855,6.1504943e-07,5.2973623e-06,5.294927e-06,3.669791e-05,0.010638807,0.010636465,0.009718448,0.036558017,0.0365589,0.05687038,1.033548e-11,1.0335445e-11,1.8261228e-11,5.1879233e-08,5.1879304e-08,5.0000036e-08,0.0,0.0,0.0,0.0,0.0,0.0,0.0,0.0,663,0.2704014,0.23847511,0.021639915,0.015613958,0.010227518,0.011535195,0.0,0.0,0.0,9e-06,0,0,0,831,0,0,0,0
2713348902,0.9997261,-0.0021719595,-0.005201679,-0.02271432,0.0440472,-0.047017716,-0.9844382,32.791546,-48.208267,-8.804303,2.1309497e-05,-2.2689535e-05,-2.0679414e-05,0.00023080148,-0.00023133679,-0.00079893856,0.2412794,0.06465066,0.41174623,0.0,0.0,0.0,0.0,0.0,0.0,2.6600915e-07,0.0012207238,0.014422725,6.1775035e-07,5.2986884e-06,5.2950513e-06,3.6661466e-05,0.010650123,0.010647355,0.009734282,0.036599934,0.03660018,0.057036355,1.03389805e-11,1.03388045e-11,1.8255446e-11,5.1879038e-08,5.1879432e-08,5.000007e-08,0.0,0.0,0.0,0.0,0.0,0.0,0.0,0.0,663,0.2705552,0.23882285,0.07526963,0.028777706,0.009697806,0.030208247,0.0,0.0,0.0,0.000524,0,0,0,831,0,0,0,0
2713549234,0.9996641,-0.003582058,-0.006950239,-0.024712283,0.024666224,-0.018208494,-0.97461283,32.797802,-48.218822,-8.966883,2.132132e-05,-2.269584e-05,-2.0693959e-05,0.00023066337,-0.00023134933,-0.0008091339,0.2412794,0.06465066,0.41174623,0.0,0.0,0.0,0.0,0.0,0.0,2.655124e-07,0.0012370248,0.015110886,6.217159e-07,5.2990836e-06,5.2948876e-06,3.668268e-05,0.010639702,0.010636962,0.0097495895,0.036609877,0.036609486,0.05718225,1.0340333e-11,1.0340012e-11,1.8260041e-11,5.1878835e-08,5.1879578e-08,5.000007e-08,0.0,0.0,0.0,0.0,0.0,0.0,0.0,0.0,663,0.27059075,0.2391281,0.004789617,0.008824595,0.011467425,0.071351916,0.0,0.0,0.0,5.2e-05,0,0,0,831,0,0,0,0
2713750164,0.99962866,-0.0055452604,-0.0061926376,-0.025952253,0.020807905,0.0031210878,-0.959149,32.81815,-48.217316,-9.108065,2.1278827e-05,-2.2602728e-05,-2.0719479e-05,0.00023030085,-0.0002310731,-0.0008255213,0.2412794,0.06465066,0.41174623,0.0,0.0,0.0,0.0,0.0,0.0,3.2346406e-07,0.0013622956,0.01686203,6.241777e-07,5.2998794e-06,5.296407e-06,3.6646547e-05,0.010635766,0.010633015,0.0096828975,0.036637187,0.036636226,0.056531396,1.0343479e-11,1.0343017e-11,1.8254294e-11,5.187866e-08,5.187979e-08,5e-08,0.0,0.0,0.0,0.0,0.0,0.0,0.0,0.0,663,0.27069062,0.23776332,0.02005797,0.06888473,0.012813583,0.024198508,0.0,0.0,0.0,0.000186,0,0,0,831,0,0,0,0
2713955050,0.99959445,-0.007809401,-0.0067026736,-0.026553448,-0.0029070235,0.0069784313,-0.9808941,32.81902,-48.228645,-9.30399,2.134011e-05,-2.2618833e-05,-2.0768588e-05,0.00023048565,-0.00023114544,-0.0008254336,0.2412794,0.06465066,0.41174623,0.0,0.0,0.0,0.0,0.0,0.0,3.1707762e-07,0.0013620723,0.0169541,6.2582603e-07,5.3060794e-06,5.3031886e-06,3.6690668e-05,0.010684971,0.010682437,0.009731792,0.036870826,0.036869302,0.056990128,1.0349601e-11,1.0348998e-11,1.8264782e-11,5.1878583e-08,5.1880093e-08,5.000007e-08,0.0,0.0,0.0,0.0,0.0,0.0,0.0,0.0,663,0.27155134,0.23872605,0.0023666127,0.047928452,0.015216365,0.029091809,0.0,0.0,0.0,0.000235,0,0,0,831,0,0,0,0
2714154990,0.9995545,-0.009172057,-0.007307138,-0.027448565,-0.01547421,0.004652961,-0.9718131,32.82487,-48.229397,-9.469398,2.1326774e-05,-2.2580007e-05,-2.076416e-05,0.0002302557,-0.00023102635,-0.00083540875,0.2412794,0.06465066,0.41174623,0.0,0.0,0.0,0.0,0.0,0.0,2.470443e-07,0.0012271425,0.014740187,6.278331e-07,5.3033336e-06,5.300813e-06,3.671089e-05,0.010643443,0.010641356,0.009663004,0.03673877,0.036736857,0.056232102,1.034621e-11,1.0345459e-11,1.8265528e-11,5.1878434e-08,5.188037e-08,5e-08,0.0,0.0,0.0,0.0,0.0,0.0,0.0,0.0,663,0.2710639,0.23713309,0.007719045,0.04149766,0.014181357,0.0358768,0.0,0.0,0.0,0.00021,0,0,0,831,0,0,0,0
2714355830,0.9995135,-0.009722146,-0.008990668,-0.028239466,-0.021393534,-0.008134825,-0.97299033,32.82376,-48.238895,-9.64999,2.1366632e-05,-2.2564147e-05,-2.0799647e-05,0.00023028138,-0.00023099568,-0.000838922,0.2412794,0.06465066,0.41174623,0.0,0.0,0.0,0.0,0.0,0.0,1.9550367e-07,0.0010766477,0.0130368,6.298896e-07,5.3047797e-06,5.3016392e-06,3.667338e-05,0.010634921,0.010633216,0.009678102,0.03672113,0.036718898,0.056385722,1.0347035e-11,1.0346136e-11,1.8257588e-11,5.187838e-08,5.1880708e-08,5e-08,0.0,0.0,0.0,0.0,0.0,0.0,0.0,0.0,663,0.2709982,0.23745678,0.01486209,0.01872268,0.017111018,0.03445495,0.0,0.0,0.0,0.000251,0,0,0,831,0,0,0,0
2714556538,0.99950325,-0.008478037,-0.0099226795,-0.028688166,-0.025852717,-0.010110875,-0.9805211,32.82968,-48.24468,-9.841642,2.136464e-05,-2.249845e-05,-2.0840298e-05,0.0002302571,-0.00023092036,-0.00083885656,0.2412794,0.06465066,0.41174623,0.0,0.0,0.0,0.0,0.0,0.0,2.0886871e-07,0.0010977206,0.012972058,6.310488e-07,5.3074286e-06,5.302943e-06,3.6698377e-05,0.010635964,0.010634703,0.00969644,0.036729172,0.036726728,0.056578908,1.0349769e-11,1.0348726e-11,1.8263828e-11,5.187839e-08,5.188111e-08,5.0000036e-08,0.0,0.0,0.0,0.0,0.0,0.0,0.0,0.0,663,0.27102748,0.23786321,0.027669957,0.04779893,0.01662005,0.041488465,0.0,0.0,0.0,0.00016,0,0,0,831,0,0,0,0
2714756575,0.99949634,-0.0058223614,-0.010994342,-0.029194875,-0.032490917,-0.019830868,-0.98166245,32.81354,-48.263866,-10.030956,2.1449165e-05,-2.2564256e-05,-2.0929698e-05,0.000230424,-0.00023096538,-0.0008404244,0.2412794,0.06465066,0.41174623,0.0,0.0,0.0,0.0,0.0,0.0,2.3398583e-07,0.0011790032,0.013822673,6.3249604e-07,5.310565e-06,5.3040276e-06,3.6663485e-05,0.010634771,0.010633655,0.009715997,0.036735374,0.03673283,0.056781802,1.03524125e-11,1.0351232e-11,1.8257871e-11,5.1878434e-08,5.188157e-08,5.000007e-08,0.0,0.0,0.0,0.0,0.0,0.0,0.0,0.0,663,0.27105018,0.23828933,0.025341362,0.059774056,0.021033375,0.06938755,0.0,0.0,0.0,0.000196,0,0,0,831,0,0,0,0
2714961383,0.9994412,-0.006213056,-0.011648439,-0.030708993,-0.02935009,-0.024287052,-0.97224486,32.81078,-48.27685,-10.239629,2.148017e-05,-2.2534447e-05,-2.0920123e-05,0.00023047911,-0.00023092557,-0.0008384564,0.2412794,0.06465066,0.41174623,0.0,0.0,0.0,0.0,0.0,0.0,2.8505718e-07,0.0014174128,0.015429733,6.359702e-07,5.314991e-06,5.308081e-06,3.6626087e-05,0.0106367525,0.010635714,0.009657355,0.036774237,0.036771666,0.056195073,1.0355985e-11,1.0354668e-11,1.8251973e-11,5.1878484e-08,5.1882083e-08,5e-08,0.0,0.0,0.0,0.0,0.0,0.0,0.0,0.0,663,0.27119347,0.237055,0.04397448,0.037341412,0.020495288,0.024662219,0.0,0.0,0.0,0.000199,0,0,0,831,0,0,0,0
2715162014,0.9993803,-0.007093343,-0.012977614,-0.031942725,-0.037209485,-0.029482497,-0.99032795,32.79561,-48.291164,-10.439353,2.1519909e-05,-2.2588212e-05,-2.0942094e-05,0.00023060782,-0.00023096042,-0.0008381958,0.2412794,0.06465066,0.41174623,0.0,0.0,0.0,0.0,0.0,0.0,2.9178057e-07,0.0014915605,0.01584878,6.393183e-07,5.317486e-06,5.309811e-06,3.6647398e-05,0.010637019,0.010636152,0.009675957,0.036748677,0.036746163,0.056377474,1.0356331e-11,1.0354886e-11,1.8256424e-11,5.187856e-08,5.1882605e-08,5e-08,0.0,0.0,0.0,0.0,0.0,0.0,0.0,0.0,663,0.2710993,0.23743941,0.009615172,0.04614861,0.022061434,0.0015264507,0.0,0.0,0.0,3.6e-05,0,0,0,831,0,0,0,0
2715362971,0.9992738,-0.008249309,-0.0153579805,-0.033883516,-0.019131757,-0.030298948,-0.99353826,32.80154,-48.299603,-10.65136,2.1508804e-05,-2.2515189e-05,-2.096519e-05,0.00023056121,-0.00023094361,-0.0008364834,0.2412794,0.06465066,0.41174623,0.0,0.0,0.0,0.0,0.0,0.0,2.7744164e-07,0.0014667447,0.01544952,6.4487324e-07,5.3282065e-06,5.3190465e-06,3.668662e-05,0.010687897,0.010686816,0.009726214,0.03699376,0.0369913,0.05686022,1.0362669e-11,1.0361099e-11,1.8266841e-11,5.1878718e-08,5.1883223e-08,5.000007e-08,0.0,0.0,0.0,0.0,0.0,0.0,0.0,0.0,663,0.27200195,0.2384538,0.00030970096,0.05559854,0.016499976,0.060266703,0.0,0.0,0.0,0.000192,0,0,0,831,0,0,0,0
2715563807,0.99917996,-0.007517564,-0.01684877,-0.036043998,0.004816723,-0.039619274,-0.99176615,32.808136,-48.31173,-10.845599,2.1522621e-05,-2.247642e-05,-2.1000056e-05,0.00023056494,-0.0002309113,-0.0008356162,0.2412794,0.06465066,0.41174623,0.0,0.0,0.0,0.0,0.0,0.0,2.2255817e-07,0.0012664447,0.013758591,6.5106735e-07,5.3292188e-06,5.3182234e-06,3.6702335e-05,0.010657223,0.010655776,0.009737212,0.036872346,0.036870003,0.056918085,1.0359349e-11,1.03576574e-11,1.8267516e-11,5.187881e-08,5.1883788e-08,5.000007e-08,0.0,0.0,0.0,0.0,0.0,0.0,0.0,0.0,663,0.27155542,0.23857512,0.06207552,0.026504574,0.013977145,0.008383582,0.0,0.0,0.0,0.000229,0,0,0,831,0,0,0,0
2715763868,0.99915326,-0.0051503074,-0.015777921,-0.03764738,0.024835115,-0.039322343,-0.99661285,32.82157,-48.321114,-11.01754,2.1506117e-05,-2.2424352e-05,-2.10637e-05,0.00023028442,-0.00023085663,-0.0008452831,0.2412794,0.06465066,0.41174623,0.0,0.0,0.0,0.0,0.0,0.0,1.7320271e-07,0.0010731604,0.011936737,6.555649e-07,5.332505e-06,5.3217655e-06,3.6724454e-05,0.010670927,0.010669248,0.009754841,0.036892246,0.036889985,0.05712263,1.0362033e-11,1.0360223e-11,1.8273631e-11,5.187893e-08,5.1884403e-08,5.000011e-08,0.0,0.0,0.0,0.0,0.0,0.0,0.0,0.0,663,0.27162886,0.2390034,0.04062453,0.02979381,0.015680864,0.05016908,0.0,0.0,0.0,0.000275,0,0,0,831,0,0,0,0
2715964697,0.99912304,-0.0029820993,-0.014734155,-0.03907901,0.03987805,-0.029551623,-1.0037427,32.829926,-48.328636,-11.210374,2.1490692e-05,-2.2435761e-05,-2.1072836e-05,0.00023027945,-0.0002308432,-0.0008481182,0.2412794,0.06465066,0.41174623,0.0,0.0,0.0,0.0,0.0,0.0,1.4118382e-07,0.0010114285,0.010882382,6.5949314e-07,5.334865e-06,5.3246035e-06,3.6745318e-05,0.010674636,0.010672724,0.009765974,0.036882848,0.03688064,0.05726685,1.0362356e-11,1.0360433e-11,1.8277458e-11,5.1879038e-08,5.1885003e-08,5.000007e-08,0.0,0.0,0.0,0.0,0.0,0.0,0.0,0.0,663,0.27159435,0.23930493,0.06237736,0.024829898,0.014852067,0.009449984,0.0,0.0,0.0,0.000318,0,0,0,831,0,0,0,0
2716165403,0.99908525,-0.0025230523,-0.014078265,-0.04030023,0.05937655,-0.018999472,-1.007854,32.846935,-48.33784,-11.406306,2.1503165e-05,-2.2403134e-05,-2.1112273e-05,0.00023017962,-0.0002308084,-0.00085070636,0.2412794,0.06465066,0.41174623,0.0,0.0,0.0,0.0,0.0,0.0,1.4942951e-07,0.0011215011,0.011377289,6.6317267e-07,5.338119e-06,5.328424e-06,3.6706624e-05,0.010682519,0.010680369,0.009776265,0.03689852,0.036896344,0.057425402,1.036453e-11,1.0362504e-11,1.8271069e-11,5.1879145e-08,5.1885618e-08,5.0000107e-08,0.0,0.0,0.0,0.0,0.0,0.0,0.0,0.0,663,0.2716521,0.23963597,0.01868962,0.021294722,0.011844042,0.032578547,0.0,0.0,0.0,0.000225,0,0,0,831,0,0,0,0
2716369422,0.99907815,-0.003284255,-0.012352538,-0.04098338,0.07327635,-0.0148368105,-1.0342395,32.866226,-48.352745,-11.621499,2.1562795e-05,-2.2371374e-05,-2.1128071e-05,0.00023014794,-0.00023074872,-0.0008483046,0.2412794,0.06465066,0.41174623,0.0,0.0,0.0,0.0,0.0,0.0,1.7808726e-07,0.0011835804,0.011518906,6.6506226e-07,5.340683e-06,5.3324948e-06,3.6730107e-05,0.010700205,0.010697932,0.00970225,0.03691631,0.03691415,0.05674754,1.0366484e-11,1.03643595e-11,1.8276852e-11,5.1879177e-08,5.1886207e-08,5e-08,0.0,0.0,0.0,0.0,0.0,0.0,0.0,0.0,663,0.2717176,0.23821743,0.005604953,0.04106837,0.012436736,0.012948088,0.0,0.0,0.0,0.000212,0,0,0,831,0,0,0,0
2716569984,0.9990668,-0.003792597,-0.009332771,-0.042001657,0.078940205,-0.00011486477,-1.0365576,32.8893,-48.341866,-11.810841,2.1466305e-05,-2.233542e-05,-2.1130883e-05,0.00023007453,-0.00023087829,-0.0008553102,0.2412794,0.06465066,0.41174623,0.0,0.0,0.0,0.0,0.0,0.0,1.7400541e-07,0.0011863228,0.011617187,6.6782496e-07,5.3441963e-06,5.3380145e-06,3.6752288e-05,0.010719569,0.010717335,0.009711825,0.036968663,0.036966506,0.056890488,1.0369286e-11,1.0367075e-11,1.8282473e-11,5.1879244e-08,5.188678e-08,5e-08,0.0,0.0,0.0,0.0,0.0,0.0,0.0,0.0,663,0.27191022,0.23851727,0.09904501,0.08511568,0.011026151,0.04000253,0.0,0.0,0.0,1e-06,0,0,0,831,0,0,0,0
2716770809,0.999087,-0.0027824254,-0.0068871626,-0.04207141,0.06842422,0.012168458,-1.0555507,32.90767,-48.340847,-12.0511465,2.1459915e-05,-2.2329263e-05,-2.1155933e-05,0.00023025334,-0.00023092363,-0.00084832474,0.2412794,0.06465066,0.41174623,0.0,0.0,0.0,0.0,0.0,0.0,1.7354401e-07,0.0012194621,0.01175273,6.678777e-07,5.352023e-06,5.346656e-06,3.679566e-05,0.010772662,0.010770518,0.009750138,0.03720099,0.037198827,0.057278015,1.0372736e-11,1.0370453e-11,1.8290034e-11,5.1879283e-08,5.1887326e-08,5.0000036e-08,0.0,0.0,0.0,0.0,0.0,0.0,0.0,0.0,663,0.27276328,0.23932825,0.011233693,0.0090962285,0.01080149,0.09632387,0.0,0.0,0.0,3.1e-05,0,0,0,831,0,0,0,0
2716971752,0.9990877,-0.003921682,-0.0051723095,-0.042211782,0.049620505,0.023340818,-1.0708561,32.915203,-48.335773,-12.259665,2.1444956e-05,-2.2365633e-05,-2.1134558e-05,0.00023038441,-0.0002308675,-0.0008470985,0.2412794,0.06465066,0.41174623,0.0,0.0,0.0,0.0,0.0,0.0,1.7782422e-07,0.0012162785,0.012393415,6.679909e-07,5.352237e-06,5.3475896e-06,3.6815392e-05,0.010757947,0.010756056,0.009752196,0.037106197,0.03710409,0.0572697,1.0368962e-11,1.0366615e-11,1.8289764e-11,5.187917e-08,5.188771e-08,5.000007e-08,0.0,0.0,0.0,0.0,0.0,0.0,0.0,0.0,663,0.27241564,0.23931089,0.0012815562,0.034589395,0.004582023,0.06671684,0.0,0.0,0.0,0.000174,0,0,0,831,0,0,0,0
2717172514,0.99909806,-0.0047433125,-0.0029764504,-0.042090837,0.02897969,0.03386437,-1.0697287,32.9253,-48.318794,-12.44832,2.136964e-05,-2.2354478e-05,-2.1175183e-05,0.00023038528,-0.0002309626,-0.0008535095,0.2412794,0.06465066,0.41174623,0.0,0.0,0.0,0.0,0.0,0.0,1.9709748e-07,0.0012935684,0.012865175,6.6770895e-07,5.355531e-06,5.3515014e-06,3.6837944e-05,0.010766545,0.010765276,0.00975905,0.037135094,0.037133075,0.057392225,1.0370538e-11,1.03681265e-11,1.8294824e-11,5.1879017e-08,5.1888048e-08,5.000007e-08,0.0,0.0,0.0,0.0,0.0,0.0,0.0,0.0,663,0.27252188,0.23956674,0.016948035,0.05840016,0.006113618,0.06868496,0.0,0.0,0.0,0.000135,0,0,0,831,0,0,0,0
2717372602,0.9990962,-0.006860588,-0.0036047557,-0.0417943,0.014457359,0.036765393,-1.0594811,32.94577,-48.304035,-12.643953,2.1321393e-05,-2.2247848e-05,-2.1240185e-05,0.00023022122,-0.00023127724,-0.0008576712,0.2412794,0.06465066,0.41174623,0.0,0.0,0.0,0.0,0.0,0.0,2.340284e-07,0.0014498676,0.014131863,6.6748e-07,5.3584886e-06,5.355449e-06,3.692008e-05,0.0107669365,0.010766598,0.00968781,0.03715921,0.03715733,0.056714408,1.0371876e-11,1.0369399e-11,1.8311975e-11,5.1878764e-08,5.1888293e-08,5e-08,0.0,0.0,0.0,0.0,0.0,0.0,0.0,0.0,663,0.2726106,0.23814787,0.028693326,0.08586238,0.009554253,0.018524185,0.0,0.0,0.0,0.000218,0,0,0,831,0,0,0,0
2717573371,0.99911124,-0.008924122,-0.005172311,-0.04086979,-0.013576794,0.023741122,-1.0815394,32.94006,-48.299335,-12.855805,2.1338088e-05,-2.229386e-05,-2.1282644e-05,0.00023023177,-0.00023110893,-0.0008581093,0.2412794,0.06465066,0.41174623,0.0,0.0,0.0,0.0,0.0,0.0,2.0127206e-07,0.0013209784,0.013434997,6.65094e-07,5.3606973e-06,5.3586846e-06,3.694197e-05,0.010775869,0.010776697,0.009696157,0.037156466,0.03715484,0.056819703,1.0371251e-11,1.0368704e-11,1.8314609e-11,5.1878455e-08,5.188843e-08,5e-08,0.0,0.0,0.0,0.0,0.0,0.0,0.0,0.0,663,0.27260098,0.23836884,0.07973552,0.0439173,0.0041241236,0.08630137,0.0,0.0,0.0,0.000193,0,0,0,831,0,0,0,0
2717774164,0.9991207,-0.010154575,-0.004783387,-0.040397372,-0.032140892,0.0108835185,-1.0961494,32.93589,-48.291527,-13.062063,2.1314632e-05,-2.2298034e-05,-2.1360565e-05,0.00023023158,-0.00023111489,-0.000861115,0.2412794,0.06465066,0.41174623,0.0,0.0,0.0,0.0,0.0,0.0,1.9818462e-07,0.0013428988,0.014019609,6.6408467e-07,5.3632452e-06,5.3622825e-06,3.6902646e-05,0.010786762,0.010788551,0.009704379,0.03717642,0.037175108,0.05694071,1.0372351e-11,1.0369729e-11,1.8306788e-11,5.1878096e-08,5.1888506e-08,5e-08,0.0,0.0,0.0,0.0,0.0,0.0,0.0,0.0,663,0.27267477,0.23862252,0.05173226,0.017252665,0.0059593595,0.040094875,0.0,0.0,0.0,0.000179,0,0,0,831,0,0,0,0
2717978939,0.9991446,-0.009146484,-0.004756761,-0.040046025,-0.04312348,-0.013291337,-1.1105503,32.94084,-48.289062,-13.285672,2.129895e-05,-2.2221058e-05,-2.139163e-05,0.00023014436,-0.00023136486,-0.0008617265,0.2412794,0.06465066,0.41174623,0.0,0.0,0.0,0.0,0.0,0.0,2.229124e-07,0.0013201378,0.014863115,6.630989e-07,5.372399e-06,5.3708245e-06,3.694543e-05,0.010848522,0.010851215,0.009742326,0.037445217,0.03744431,0.057327326,1.0377465e-11,1.0374766e-11,1.8315436e-11,5.1877738e-08,5.1888556e-08,5.0000036e-08,0.0,0.0,0.0,0.0,0.0,0.0,0.0,0.0,663,0.2736595,0.23943126,0.059089735,0.05893351,0.0075632427,0.023714436,0.0,0.0,0.0,0.000152,0,0,0,831,0,0,0,0
2718183029,0.99919826,-0.0066081514,-0.005203802,-0.039141804,-0.048873775,-0.015865918,-1.1201917,32.94277,-48.29289,-13.475322,2.1300075e-05,-2.2161628e-05,-2.1409698e-05,0.00022990092,-0.00023148708,-0.00086871325,0.2412794,0.06465066,0.41174623,0.0,0.0,0.0,0.0,0.0,0.0,2.5743904e-07,0.0013119082,0.0153845325,6.60228e-07,5.37179e-06,5.368672e-06,3.6966605e-05,0.010828875,0.010831924,0.009742978,0.03734136,0.03734086,0.057292275,1.0372856e-11,1.0370076e-11,1.8314334e-11,5.1877254e-08,5.1888463e-08,5.0000036e-08,0.0,0.0,0.0,0.0,0.0,0.0,0.0,0.0,663,0.27328047,0.23935805,0.053131443,0.058099706,0.013945417,0.026039446,0.0,0.0,0.0,0.000213,0,0,0,831,0,0,0,0
2718383787,0.99925077,-0.0046603824,-0.0068297856,-0.037811887,-0.053930365,-0.0152458595,-1.1357528,32.941822,-48.29451,-13.701803,2.1275566e-05,-2.2116641e-05,-2.1510286e-05,0.00022992975,-0.00023162695,-0.0008672533,0.2412794,0.06465066,0.41174623,0.0,0.0,0.0,0.0,0.0,0.0,2.9683974e-07,0.0014306208,0.016377818,6.5690494e-07,5.3751855e-06,5.370752e-06,3.6990532e-05,0.010841048,0.010844302,0.009750952,0.037377365,0.03737732,0.057403877,1.0374125e-11,1.0371259e-11,1.8318621e-11,5.187678e-08,5.1888367e-08,5.0000054e-08,0.0,0.0,0.0,0.0,0.0,0.0,0.0,0.0,663,0.27341303,0.23959106,0.12139017,0.044932436,0.017215814,0.0059448583,0.0,0.0,0.0,0.000209,0,0,0,831,0,0,0,0
2718584536,0.99929297,-0.0039869305,-0.009065889,-0.036270693,-0.051722314,-0.0063767578,-1.1641991,32.934723,-48.289986,-13.939463,2.1216183e-05,-2.2114113e-05,-2.167106e-05,0.00023017621,-0.00023166926,-0.0008636083,0.2412794,0.06465066,0.41174623,0.0,0.0,0.0,0.0,0.0,0.0,3.257276e-07,0.0015062967,0.016378602,6.535335e-07,5.377837e-06,5.3721024e-06,3.695195e-05,0.01085099,0.010853882,0.009756035,0.03738528,0.037385657,0.05747652,1.0373332e-11,1.0370379e-11,1.8308625e-11,5.1876267e-08,5.188822e-08,5.000007e-08,0.0,0.0,0.0,0.0,0.0,0.0,0.0,0.0,663,0.27344275,0.2397426,0.07933259,0.05457968,0.017210463,0.021375146,0.0,0.0,0.0,0.000158,0,0,0,831,0,0,0,0
2718785309,0.9993015,-0.0039500776,-0.010977445,-0.035502046,-0.044619102,-6.243721e-06,-1.1881208,32.92323,-48.288704,-14.174122,2.1197577e-05,-2.213303e-05,-2.1617358e-05,0.00023026527,-0.00023161314,-0.0008631541,0.2412794,0.06465066,0.41174623,0.0,0.0,0.0,0.0,0.0,0.0,3.1936554e-07,0.0014786313,0.015871197,6.512238e-07,5.3811254e-06,5.374091e-06,3.6973885e-05,0.010865106,0.0108673405,0.009685143,0.037417896,0.03741858,0.056779772,1.0374308e-11,1.0371268e-11,1.8313063e-11,5.1875762e-08,5.188809e-08,5e-08,0.0,0.0,0.0,0.0,0.0,0.0,0.0,0.0,663,0.27356258,0.23828506,0.059254915,0.030119384,0.006891759,0.04250248,0.0,0.0,0.0,0.000126,0,0,0,831,0,0,0,0
2718989200,0.9992915,-0.005616624,-0.011906151,-0.0352626,-0.033548065,0.0016104387,-1.208107,32.920567,-48.28338,-14.41587,2.115606e-05,-2.2107131e-05,-2.1630349e-05,0.00023032769,-0.00023171943,-0.00086526835,0.2412794,0.06465066,0.41174623,0.0,0.0,0.0,0.0,0.0,0.0,2.846127e-07,0.0013746463,0.014927962,6.507548e-07,5.390013e-06,5.3829376e-06,3.695366e-05,0.010929116,0.0109308,0.009732102,0.037697054,0.03769794,0.0572083,1.0379266e-11,1.0376154e-11,1.83094e-11,5.1875375e-08,5.1888e-08,5.000007e-08,0.0,0.0,0.0,0.0,0.0,0.0,0.0,0.0,663,0.2745815,0.23918256,0.0050928365,0.035447653,0.0066981497,0.022863442,0.0,0.0,0.0,2.2e-05,0,0,0,831,0,0,0,0
2719190179,0.99931765,-0.0064831064,-0.010708538,-0.034750644,-0.018467212,0.00093065883,-1.2258801,32.917526,-48.27571,-14.667459,2.1107006e-05,-2.210945e-05,-2.1623016e-05,0.00023054432,-0.00023175289,-0.00086119585,0.2412794,0.06465066,0.41174623,0.0,0.0,0.0,0.0,0.0,0.0,2.2789489e-07,0.0011865095,0.01412632,6.490409e-07,5.3899294e-06,5.3842064e-06,3.6914887e-05,0.010927631,0.010928658,0.009745023,0.03769623,0.037697177,0.05732321,1.0377986e-11,1.03748095e-11,1.8299744e-11,5.187498e-08,5.1887888e-08,5.000007e-08,0.0,0.0,0.0,0.0,0.0,0.0,0.0,0.0,663,0.2745786,0.23942266,0.031469733,0.038839895,0.0072660116,0.0399222,0.0,0.0,0.0,0.000201,0,0,0,831,0,0,0,0
2719390999,0.9993586,-0.005812078,-0.009021982,-0.034166973,-0.007196237,0.0057756407,-1.2391753,32.920135,-48.25869,-14.918832,2.100373e-05,-2.2093094e-05,-2.1637066e-05,0.00023086616,-0.00023188163,-0.0008594077,0.2412794,0.06465066,0.41174623,0.0,0.0,0.0,0.0,0.0,0.0,2.1994258e-07,0.0011564264,0.01379972,6.472222e-07,5.390486e-06,5.3856384e-06,3.693851e-05,0.010930827,0.0109314835,0.009678082,0.037721727,0.037722662,0.056650545,1.0378698e-11,1.0375464e-11,1.8304473e-11,5.1874647e-08,5.1887827e-08,5e-08,0.0,0.0,0.0,0.0,0.0,0.0,0.0,0.0,663,0.2746714,0.23801374,0.033296607,0.07729813,0.010249112,0.0041375607,0.0,0.0,0.0,0.00017099999,0,0,0,831,0,0,0,0
2719595741,0.9994131,-0.005708857,-0.008480833,-0.03269406,-0.0096995365,0.0032968214,-1.2549226,32.916252,-48.253822,-15.178001,2.0991198e-05,-2.2114977e-05,-2.1710322e-05,0.00023092353,-0.00023182225,-0.00085758726,0.2412794,0.06465066,0.41174623,0.0,0.0,0.0,0.0,0.0,0.0,2.0854812e-07,0.0010936852,0.013436233,6.4363746e-07,5.3963868e-06,5.3918216e-06,3.6980015e-05,0.010968906,0.010969452,0.009718397,0.037904967,0.037905812,0.056932602,1.0378991e-11,1.0375705e-11,1.8307642e-11,5.187441e-08,5.1887817e-08,5.0000036e-08,0.0,0.0,0.0,0.0,0.0,0.0,0.0,0.0,663,0.27533758,0.23860554,0.038529523,0.021369133,0.010427957,0.0039489414,0.0,0.0,0.0,0.000163,0,0,0,831,0,0,0,0
2719799816,0.99947,-0.005910686,-0.0075168423,-0.031120501,-0.008019647,0.009826351,-1.2617891,32.91353,-48.240227,-15.421744,2.092266e-05,-2.2129687e-05,-2.1725065e-05,0.00023108385,-0.00023182409,-0.0008590079,0.2412794,0.06465066,0.41174623,0.0,0.0,0.0,0.0,0.0,0.0,2.2935353e-07,0.001214239,0.013770489,6.3956276e-07,5.3975405e-06,5.3936815e-06,3.7004786e-05,0.010971902,0.010972302,0.009735553,0.03793677,0.037937548,0.05709386,1.037988e-11,1.0376545e-11,1.8312202e-11,5.187424e-08,5.1887852e-08,5.0000075e-08,0.0,0.0,0.0,0.0,0.0,0.0,0.0,0.0,663,0.2754529,0.23894322,0.028418966,0.047999322,0.011860859,0.05275761,0.0,0.0,0.0,0.000238,0,0,0,831,0,0,0,0
2720000377,0.9995023,-0.007492535,-0.007944925,-0.029596277,-0.0075754337,0.010449585,-1.2647641,32.9167,-48.233112,-15.657357,2.0895577e-05,-2.2100368e-05,-2.1766687e-05,0.0002310378,-0.00023189925,-0.00086294214,0.2412794,0.06465066,0.41174623,0.0,0.0,0.0,0.0,0.0,0.0,2.795343e-07,0.0013248454,0.015025937,6.3612197e-07,5.3989256e-06,5.395758e-06,3.6967347e-05,0.0109728575,0.010973216,0.009749715,0.037964877,0.03796559,0.057239525,1.0380725e-11,1.037735e-11,1.8304512e-11,5.1874174e-08,5.1887962e-08,5.000009e-08,0.0,0.0,0.0,0.0,0.0,0.0,0.0,0.0,663,0.27555484,0.23924783,0.046265442,0.048707493,0.009995024,0.03805435,0.0,0.0,0.0,-7e-06,0,0,0,831,0,0,0,0
2720205187,0.99952877,-0.007509165,-0.0094503155,-0.02822558,-0.0028910697,-0.0080479365,-1.2890904,32.91733,-48.226578,-15.945451,2.0864325e-05,-2.208972e-05,-2.1817204e-05,0.00023119648,-0.00023193874,-0.00085387443,0.2412794,0.06465066,0.41174623,0.0,0.0,0.0,0.0,0.0,0.0,2.7994352e-07,0.0012745457,0.014936434,6.332763e-07,5.4065863e-06,5.402508e-06,3.6949263e-05,0.011023944,0.011024008,0.009716534,0.038214166,0.03821483,0.05684369,1.038359e-11,1.0380178e-11,1.8298979e-11,5.187421e-08,5.1888176e-08,5.0000033e-08,0.0,0.0,0.0,0.0,0.0,0.0,0.0,0.0,663,0.27645794,0.23841915,0.011122511,0.04421904,0.010677813,0.057968203,0.0,0.0,0.0,1e-05,0,0,0,831,0,0,0,0
2720406162,0.9995336,-0.007948076,-0.009083932,-0.028054753,0.00048815343,-0.013171683,-1.2864326,32.92021,-48.22162,-16.198935,2.0830214e-05,-2.2073085e-05,-2.1874184e-05,0.00023122621,-0.00023199138,-0.0008554366,0.2412794,0.06465066,0.41174623,0.0,0.0,0.0,0.0,0.0,0.0,2.3887455e-07,0.0011932984,0.014247244,6.3312143e-07,5.4075185e-06,5.4040274e-06,3.6970556e-05,0.011018887,0.011018805,0.009735438,0.038236056,0.03823664,0.05701836,1.0384433e-11,1.0380987e-11,1.8303891e-11,5.1874352e-08,5.188845e-08,5.000007e-08,0.0,0.0,0.0,0.0,0.0,0.0,0.0,0.0,663,0.27653697,0.23878518,0.0009841333,0.019851357,0.008226082,0.025338676,0.0,0.0,0.0,0.000184,0,0,0,831,0,0,0,0
2720606143,0.9995256,-0.0076966975,-0.0086499015,-0.028538518,-0.0015327055,-0.015110067,-1.2931948,32.911133,-48.20221,-16.467823,2.0698053e-05,-2.2125303e-05,-2.1925525e-05,0.00023151269,-0.0002319464,-0.00085088745,0.2412794,0.06465066,0.41174623,0.0,0.0,0.0,0.0,0.0,0.0,1.9320944e-07,0.0011169356,0.012682753,6.343268e-07,5.248812e-06,5.245533e-06,3.6929796e-05,0.009746404,0.009746099,0.009587866,0.032461982,0.032462336,0.05662297,1.0282899e-11,1.0279394e-11,1.8296328e-11,5.1874128e-08,5.1888353e-08,5e-08,0.0,0.0,0.0,0.0,0.0,0.0,0.0,0.0,663,0.2548025,0.23795582,0.012971962,0.074776284,0.01162402,0.0065519856,0.0,0.0,0.0,0.000165,0,0,0,831,0,0,0,0
2720806808,0.9995151,-0.00806321,-0.00823195,-0.028926224,0.004203765,-0.022253655,-1.3019365,32.9118,-48.19903,-16.739658,2.0661133e-05,-2.2118658e-05,-2.1987249e-05,0.00023159506,-0.0002319677,-0.0008476961,0.2412794,0.06465066,0.41174623,0.0,0.0,0.0,0.0,0.0,0.0,2.1961209e-07,0.0011752736,0.013235345,6.35495e-07,5.2508644e-06,5.248123e-06,3.6949958e-05,0.009752729,0.009752283,0.009527075,0.03249833,0.03249861,0.05599552,1.0284615e-11,1.0281092e-11,1.8301334e-11,5.1874547e-08,5.1888883e-08,5e-08,0.0,0.0,0.0,0.0,0.0,0.0,0.0,0.0,663,0.25494498,0.23663373,0.031365853,0.020491807,0.010489118,0.006286337,0.0,0.0,0.0,3e-05,0,0,0,831,0,0,0,0
2721007777,0.9994814,-0.008565887,-0.008518695,-0.029849686,0.00896172,-0.038753785,-1.2961968,32.912354,-48.204685,-16.99463,2.0660695e-05,-2.2118295e-05,-2.20252e-05,0.00023156955,-0.00023196699,-0.0008491875,0.2412794,0.06465066,0.41174623,0.0,0.0,0.0,0.0,0.0,0.0,2.2954721e-07,0.0011648563,0.0134077715,6.3795994e-07,5.4126126e-06,5.410032e-06,3.6967976e-05,0.011019977,0.0110191945,0.009709645,0.038320407,0.038320668,0.056707717,1.0386998e-11,1.0383488e-11,1.8304528e-11,5.1875375e-08,5.1889785e-08,5.0000036e-08,0.0,0.0,0.0,0.0,0.0,0.0,0.0,0.0,663,0.27684125,0.23813382,0.020506367,0.020491807,0.010489118,0.027879152,0.0,0.0,0.0,0.000199,0,0,0,831,0,0,0,0
2721212682,0.99945706,-0.00788049,-0.0077832807,-0.031031467,-0.0007449471,-0.037045073,-1.283294,32.908707,-48.192646,-17.238306,2.0549718e-05,-2.214142e-05,-2.2021963e-05,0.0002316526,-0.0002320086,-0.0008552108,0.2412794,0.06465066,0.41174623,0.0,0.0,0.0,0.0,0.0,0.0,1.8832375e-07,0.0011173559,0.012485426,6.406152e-07,5.2558207e-06,5.2533105e-06,3.694323e-05,0.009754686,0.009753919,0.009589898,0.03260424,0.032604367,0.056474745,1.0283267e-11,1.0279715e-11,1.8295641e-11,5.1875585e-08,5.189007e-08,5e-08,0.0,0.0,0.0,0.0,0.0,0.0,0.0,0.0,663,0.25535977,0.23764415,0.03796046,0.038829286,0.012892873,0.003808507,0.0,0.0,0.0,0.000304,0,0,0,831,0,0,0,0
2721416664,0.9994388,-0.007396117,-0.006769962,-0.031961855,-0.003233048,-0.049388662,-1.2886144,32.904255,-48.199413,-17.499176,2.0546382e-05,-2.216593e-05,-2.2054443e-05,0.00023167396,-0.00023196213,-0.00085155567,0.2412794,0.06465066,0.41174623,0.0,0.0,0.0,0.0,0.0,0.0,1.6982581e-07,0.0010977453,0.01214321,6.4296484e-07,5.2588257e-06,5.256567e-06,3.696258e-05,0.009765208,0.0097642755,0.009531923,0.032646544,0.03264658,0.055874176,1.0285626e-11,1.0282056e-11,1.8300628e-11,5.187618e-08,5.1890737e-08,5e-08,0.0,0.0,0.0,0.0,0.0,0.0,0.0,0.0,663,0.2555252,0.2363772,0.026582161,0.05198031,0.008923273,0.015458289,0.0,0.0,0.0,0.000255,0,0,0,831,0,0,0,0
2721617458,0.99940157,-0.007923078,-0.006883043,-0.03296244,-0.003600367,-0.058441896,-1.2799445,32.903084,-48.210503,-17.755692,2.0545673e-05,-2.2165326e-05,-2.2117509e-05,0.00023167815,-0.00023197786,-0.00085195986,0.2412794,0.06465066,0.41174623,0.0,0.0,0.0,0.0,0.0,0.0,1.9134522e-07,0.0010983282,0.0134712625,6.4589784e-07,5.420668e-06,5.418631e-06,3.6919482e-05,0.011031668,0.0110305585,0.0097155385,0.03849264,0.038492516,0.05660217,1.0388011e-11,1.03844485e-11,1.82915e-11,5.1877038e-08,5.1891632e-08,5e-08,0.0,0.0,0.0,0.0,0.0,0.0,0.0,0.0,663,0.27746198,0.2379121,0.027861236,0.05198031,0.008923273,0.00075259834,0.0,0.0,0.0,0.00028,0,0,0,831,0,0,0,0
2721818009,0.9993899,-0.00790964,-0.006619803,-0.033370305,-0.0037072916,-0.06563701,-1.2940892,32.90372,-48.21251,-18.037374,2.0488787e-05,-2.2144126e-05,-2.2184071e-05,0.00023175745,-0.00023200453,-0.00084297627,0.2412794,0.06465066,0.41174623,0.0,0.0,0.0,0.0,0.0,0.0,2.491466e-07,0.0012949739,0.0150793865,6.472992e-07,5.2616892e-06,5.259765e-06,3.693958e-05,0.009755937,0.009754862,0.009567689,0.03264743,0.032647304,0.056220874,1.0286366e-11,1.0282759e-11,1.8296715e-11,5.187752e-08,5.1892158e-08,5.0000036e-08,0.0,0.0,0.0,0.0,0.0,0.0,0.0,0.0,663,0.25552833,0.23710941,0.053078957,0.023661828,0.007597357,0.060075335,0.0,0.0,0.0,3.1e-05,0,0,0,831,0,0,0,0
2722019000,0.9993867,-0.006381673,-0.0074604554,-0.0336133,-0.012736283,-0.07947937,-1.2977263,32.899803,-48.226032,-18.300905,2.0483558e-05,-2.2157234e-05,-2.2187318e-05,0.00023173893,-0.00023198155,-0.00084251194,0.2412794,0.06465066,0.41174623,0.0,0.0,0.0,0.0,0.0,0.0,1.9355868e-07,0.0010685829,0.012622604,6.4781506e-07,5.2702994e-06,5.267019e-06,3.6920406e-05,0.009804497,0.009803288,0.009618225,0.032866135,0.03286591,0.056689262,1.0291571e-11,1.0287957e-11,1.829356e-11,5.187828e-08,5.1892943e-08,5.0000036e-08,0.0,0.0,0.0,0.0,0.0,0.0,0.0,0.0,663,0.2563826,0.23809507,0.023721134,0.054640252,0.0053903693,0.10171296,0.0,0.0,0.0,0.000188,0,0,0,831,0,0,0,0
2722218948,0.9993832,-0.0041591963,-0.008777924,-0.033748,-0.0061474666,-0.08009461,-1.2902186,32.89518,-48.244835,-18.555511,2.0505795e-05,-2.2169894e-05,-2.2265596e-05,0.00023171872,-0.0002319294,-0.00084012456,0.2412794,0.06465066,0.41174623,0.0,0.0,0.0,0.0,0.0,0.0,2.1406197e-07,0.0011030658,0.013124121,6.485848e-07,5.2707232e-06,5.265703e-06,3.6937992e-05,0.009775744,0.009774811,0.009549446,0.032777227,0.032776922,0.05593024,1.02877065e-11,1.0284091e-11,1.8293148e-11,5.187896e-08,5.189365e-08,5e-08,0.0,0.0,0.0,0.0,0.0,0.0,0.0,0.0,663,0.25603545,0.23649575,0.02374547,0.0488495,0.0055875657,0.04187523,0.0,0.0,0.0,0.00017,0,0,0,831,0,0,0,0
2722419766,0.9993842,-0.0020940185,-0.008157303,-0.03406479,0.00078446016,-0.07546238,-1.2949103,32.896935,-48.263004,-18.811337,2.0514044e-05,-2.214881e-05,-2.2260965e-05,0.00023168973,-0.00023192907,-0.0008408643,0.2412794,0.06465066,0.41174623,0.0,0.0,0.0,0.0,0.0,0.0,2.1192169e-07,0.001156818,0.01427471,6.49082e-07,5.2724254e-06,5.2674486e-06,3.6898302e-05,0.009776565,0.0097759785,0.009565687,0.03277486,0.032774497,0.056089837,1.0287539e-11,1.0283936e-11,1.8284136e-11,5.187971e-08,5.1894418e-08,5e-08,0.0,0.0,0.0,0.0,0.0,0.0,0.0,0.0,663,0.2560261,0.23683293,0.002795749,0.017432863,0.0022446986,0.024831297,0.0,0.0,0.0,0.000172,0,0,0,831,0,0,0,0
2722620552,0.99937105,-0.0014530298,-0.007346026,-0.034663923,0.0016584143,-0.066730976,-1.3043731,32.900658,-48.28195,-19.105633,2.0533706e-05,-2.2125874e-05,-2.2266115e-05,0.00023169364,-0.00023187083,-0.00082884106,0.2412794,0.06465066,0.41174623,0.0,0.0,0.0,0.0,0.0,0.0,1.8377428e-07,0.0011910714,0.013636704,6.50585e-07,5.2746045e-06,5.2701575e-06,3.6918733e-05,0.009778574,0.009778337,0.00958178,0.032790698,0.032790314,0.05626726,1.02891385e-11,1.02855545e-11,1.82893e-11,5.1880498e-08,5.189521e-08,5.0000036e-08,0.0,0.0,0.0,0.0,0.0,0.0,0.0,0.0,663,0.2560879,0.23720722,0.051472828,0.023928177,0.0059865974,0.072364345,0.0,0.0,0.0,0.000174,0,0,0,831,0,0,0,0
2722821371,0.9993732,-0.0008346446,-0.006379538,-0.034812793,-0.0015706548,-0.053241182,-1.3092657,32.899895,-48.2915,-19.367075,2.0501091e-05,-2.2139877e-05,-2.230098e-05,0.00023170556,-0.00023189394,-0.00082910794,0.2412794,0.06465066,0.41174623,0.0,0.0,0.0,0.0,0.0,0.0,1.5721345e-07,0.0010264097,0.013215612,6.509328e-07,5.2765345e-06,5.2726677e-06,3.6879654e-05,0.009783696,0.009783696,0.009599605,0.032804165,0.032803804,0.056455765,1.0290649e-11,1.0287094e-11,1.8282171e-11,5.188131e-08,5.1896023e-08,5.0000033e-08,0.0,0.0,0.0,0.0,0.0,0.0,0.0,0.0,663,0.25614053,0.23760422,0.049693175,0.034303043,0.0062776254,0.0046135886,0.0,0.0,0.0,0.000193,0,0,0,831,0,0,0,0
2723025421,0.9993552,-0.0008008069,-0.0043858676,-0.035628337,-0.007994446,-0.038191933,-1.2962649,32.899014,-48.301155,-19.6355,2.0497897e-05,-2.2140313e-05,-2.231635e-05,0.0002317054,-0.00023188138,-0.0008264413,0.2412794,0.06465066,0.41174623,0.0,0.0,0.0,0.0,0.0,0.0,1.7443237e-07,0.0011826763,0.0141426325,6.530753e-07,5.278093e-06,5.275219e-06,3.68999e-05,0.00977796,0.00977811,0.009540655,0.03281535,0.032815043,0.055863068,1.0292106e-11,1.0288582e-11,1.8287441e-11,5.1882125e-08,5.1896837e-08,5e-08,0.0,0.0,0.0,0.0,0.0,0.0,0.0,0.0,663,0.25618428,0.2363537,0.06796259,0.013399149,0.003929269,0.030442746,0.0,0.0,0.0,0.000239,0,0,0,831,0,0,0,0
2723226248,0.9993363,-0.001641879,-0.0040199254,-0.036169462,-0.017262598,-0.024443483,-1.3001566,32.896927,-48.31183,-19.917255,2.0517291e-05,-2.2135711e-05,-2.2365832e-05,0.0002317028,-0.00023182917,-0.0008189776,0.2412794,0.06465066,0.41174623,0.0,0.0,0.0,0.0,0.0,0.0,1.7629804e-07,0.0011962887,0.013454909,6.548791e-07,5.279621e-06,5.2769833e-06,3.6918733e-05,0.009774064,0.009774255,0.009555512,0.03280652,0.03280632,0.05601627,1.0291761e-11,1.02882685e-11,1.8290655e-11,5.1882928e-08,5.189764e-08,5e-08,0.0,0.0,0.0,0.0,0.0,0.0,0.0,0.0,663,0.25615004,0.23667757,0.051316716,0.020691352,0.007942531,0.035597097,0.0,0.0,0.0,0.000265,0,0,0,831,0,0,0,0
2723426805,0.9993161,-0.003339979,-0.0049349186,-0.036493167,-0.03293028,-0.021357132,-1.3071406,32.88817,-48.318382,-20.211664,2.0519215e-05,-2.2157836e-05,-2.2414948e-05,0.00023171394,-0.0002317816,-0.0008111469,0.2412794,0.06465066,0.41174623,0.0,0.0,0.0,0.0,0.0,0.0,1.9901022e-07,0.0012310029,0.013773909,6.562659e-07,5.288577e-06,5.285844e-06,3.6958067e-05,0.009825647,0.009825872,0.009605532,0.033030827,0.03303075,0.056485415,1.0297279e-11,1.0293818e-11,1.8299588e-11,5.18838e-08,5.189851e-08,5.0000068e-08,0.0,0.0,0.0,0.0,0.0,0.0,0.0,0.0,663,0.25702447,0.2376666,0.07452405,0.021807682,0.0077576744,7.253389e-05,0.0,0.0,0.0,2.6e-05,0,0,0,831,0,0,0,0
2723627760,0.9993088,-0.004029559,-0.005284999,-0.036575295,-0.045108795,-0.015564568,-1.2998171,32.875393,-48.321518,-20.47458,2.0509906e-05,-2.219045e-05,-2.245813e-05,0.00023173443,-0.0002317644,-0.0008080888,0.2412794,0.06465066,0.41174623,0.0,0.0,0.0,0.0,0.0,0.0,1.8723395e-07,0.0012246335,0.014222261,6.5688795e-07,5.2889404e-06,5.2862233e-06,3.7035607e-05,0.009802071,0.00980229,0.009615529,0.032946076,0.032946095,0.056527484,1.0293813e-11,1.0290389e-11,1.831128e-11,5.1884566e-08,5.1899256e-08,5.000007e-08,0.0,0.0,0.0,0.0,0.0,0.0,0.0,0.0,663,0.2566947,0.23775509,0.0689955,0.021160178,0.0068086972,0.06585947,0.0,0.0,0.0,0.000182,0,0,0,831,0,0,0,0
2723828421,0.99931496,-0.0032812618,-0.0061909724,-0.036338452,-0.055833627,-0.01309045,-1.293825,32.863605,-48.320953,-20.7378,2.0478135e-05,-2.2201426e-05,-2.2524791e-05,0.00023173435,-0.00023177042,-0.00080570683,0.2412794,0.06465066,0.41174623,0.0,0.0,0.0,0.0,0.0,0.0,1.7339163e-07,0.001155545,0.013485678,6.5649584e-07,5.2924743e-06,5.289146e-06,3.699483e-05,0.009805857,0.009806119,0.009630547,0.032965407,0.032965504,0.056703355,1.0295653e-11,1.029227e-11,1.8303489e-11,5.1885387e-08,5.1900045e-08,5.0000068e-08,0.0,0.0,0.0,0.0,0.0,0.0,0.0,0.0,663,0.25677016,0.23812467,0.0041499827,0.03164496,0.0054984204,0.022689406,0.0,0.0,0.0,4.2e-05,0,0,0,831,0,0,0,0
2724032648,0.9993254,-0.0022454776,-0.006502712,-0.036074985,-0.06502248,-0.011325883,-1.2920601,32.84191,-48.327812,-20.984867,2.0514732e-05,-2.2263257e-05,-2.2549846e-05,0.00023177701,-0.00023174203,-0.00080910645,0.2412794,0.06465066,0.41174623,0.0,0.0,0.0,0.0,0.0,0.0,1.5262702e-07,0.0010553746,0.012846209,6.558766e-07,5.2955465e-06,5.2918444e-06,3.7075915e-05,0.009813696,0.009813906,0.009566798,0.03298173,0.03298189,0.05608116,1.0297322e-11,1.0293969e-11,1.8320328e-11,5.1886207e-08,5.190083e-08,5e-08,0.0,0.0,0.0,0.0,0.0,0.0,0.0,0.0,663,0.25683385,0.23681462,0.0011605298,0.047104012,0.0088454345,0.0039193,0.0,0.0,0.0,0.00027,0,0,0,831,0,0,0,0
2724233345,0.9993146,-0.0024703068,-0.0079430295,-0.036071844,-0.073991455,-0.0021338174,-1.2791543,32.81724,-48.32319,-21.229996,2.0474878e-05,-2.2333224e-05,-2.2579377e-05,0.00023184683,-0.00023177647,-0.00081277,0.2412794,0.06465066,0.41174623,0.0,0.0,0.0,0.0,0.0,0.0,1.5948854e-07,0.0011173056,0.0130122965,6.5616655e-07,5.298469e-06,5.2938562e-06,3.709309e-05,0.009810631,0.009810767,0.00958247,0.032978073,0.03297827,0.056238454,1.0297124e-11,1.0293806e-11,1.832267e-11,5.188701e-08,5.1901605e-08,5.0000033e-08,0.0,0.0,0.0,0.0,0.0,0.0,0.0,0.0,663,0.25681967,0.23714648,0.02549133,0.046090778,0.012647419,0.055970706,0.0,0.0,0.0,0.000162,0,0,0,831,0,0,0,0
2724434155,0.999294,-0.0032759141,-0.010461562,-0.035935994,-0.06564435,0.0029678494,-1.2750674,32.801155,-48.324493,-21.483881,2.048901e-05,-2.233011e-05,-2.2662158e-05,0.00023182851,-0.00023175184,-0.00081191945,0.2412794,0.06465066,0.41174623,0.0,0.0,0.0,0.0,0.0,0.0,1.7032538e-07,0.0010552487,0.012257141,6.565105e-07,5.304242e-06,5.297832e-06,3.7048798e-05,0.0098253,0.009825282,0.0096020205,0.033023193,0.033023432,0.056434825,1.0299709e-11,1.0296434e-11,1.831439e-11,5.188784e-08,5.190241e-08,5.0000068e-08,0.0,0.0,0.0,0.0,0.0,0.0,0.0,0.0,663,0.25699538,0.23756015,0.06575345,0.0376718,0.01177699,0.02291187,0.0,0.0,0.0,0.000167,0,0,0,831,0,0,0,0
2724638963,0.99926,-0.0036781083,-0.013149517,-0.03595965,-0.046877537,0.011340816,-1.2829915,32.787266,-48.321095,-21.757917,2.047288e-05,-2.232865e-05,-2.2698961e-05,0.00023182266,-0.0002317422,-0.0008091258,0.2412794,0.06465066,0.41174623,0.0,0.0,0.0,0.0,0.0,0.0,2.0047058e-07,0.0011708657,0.013027327,6.572273e-07,5.316384e-06,5.307525e-06,3.7085534e-05,0.009891514,0.009891352,0.00957272,0.033279788,0.033280037,0.056105148,1.0306004e-11,1.030278e-11,1.8322791e-11,5.188872e-08,5.1903257e-08,5e-08,0.0,0.0,0.0,0.0,0.0,0.0,0.0,0.0,663,0.2579919,0.23686525,0.067424454,0.015032242,0.010756853,0.040404048,0.0,0.0,0.0,0.000184,0,0,0,831,0,0,0,0
2724843016,0.9992328,-0.0048017097,-0.014213309,-0.036176935,-0.027932357,0.01193792,-1.2729846,32.774815,-48.314964,-22.018372,2.0444642e-05,-2.2357257e-05,-2.2707562e-05,0.0002318496,-0.00023175648,-0.0008089688,0.2412794,0.06465066,0.41174623,0.0,0.0,0.0,0.0,0.0,0.0,2.1710483e-07,0.001160097,0.014032703,6.580364e-07,5.3231543e-06,5.313582e-06,3.7058882e-05,0.009915524,0.009915482,0.009615375,0.03340942,0.033409644,0.056428447,1.03060355e-11,1.0302882e-11,1.8313363e-11,5.188954e-08,5.190405e-08,5.0000036e-08,0.0,0.0,0.0,0.0,0.0,0.0,0.0,0.0,663,0.25849384,0.23754673,0.013332524,0.025705151,0.0071307146,0.08238359,0.0,0.0,0.0,0.000238,0,0,0,831,0,0,0,0
2725043847,0.99926347,-0.0052569923,-0.014341856,-0.035203774,-0.00039556844,0.00891342,-1.275928,32.772293,-48.303864,-22.272123,2.037845e-05,-2.2354974e-05,-2.2803615e-05,0.00023185354,-0.00023180038,-0.00080874,0.2412794,0.06465066,0.41174623,0.0,0.0,0.0,0.0,0.0,0.0,1.9648904e-07,0.0011029373,0.0137198465,6.5577433e-07,5.3248414e-06,5.315509e-06,3.707909e-05,0.009918924,0.0099193165,0.009630339,0.03340933,0.033409506,0.05658461,1.0305554e-11,1.0302488e-11,1.8315863e-11,5.189036e-08,5.1904838e-08,5.0000068e-08,0.0,0.0,0.0,0.0,0.0,0.0,0.0,0.0,663,0.2584934,0.23787521,0.0362819,0.05101556,0.004569123,0.027754644,0.0,0.0,0.0,0.000227,0,0,0,831,0,0,0,0
2725244609,0.99928397,-0.0049033603,-0.014018789,-0.03480118,0.022406366,0.0019829131,-1.2796079,32.768414,-48.30327,-22.558155,2.0389754e-05,-2.2397851e-05,-2.2861883e-05,0.00023184734,-0.00023172036,-0.00079883536,0.2412794,0.06465066,0.41174623,0.0,0.0,0.0,0.0,0.0,0.0,1.7874147e-07,0.001142553,0.012769005,6.547081e-07,5.3267063e-06,5.3177705e-06,3.7038026e-05,0.009922045,0.009922943,0.009569695,0.033426173,0.033426337,0.055981874,1.03067225e-11,1.0303757e-11,1.8307685e-11,5.18912e-08,5.190564e-08,5e-08,0.0,0.0,0.0,0.0,0.0,0.0,0.0,0.0,663,0.2585585,0.23660488,0.023664657,0.032487806,0.005042011,0.068337284,0.0,0.0,0.0,0.00023,0,0,0,831,0,0,0,0
2725448595,0.9993139,-0.003634788,-0.013409481,-0.034333,0.045754585,-0.0012561757,-1.2851304,32.76488,-48.296932,-22.833277,2.0353997e-05,-2.246929e-05,-2.2909035e-05,0.00023188374,-0.00023169517,-0.0007936343,0.2412794,0.06465066,0.41174623,0.0,0.0,0.0,0.0,0.0,0.0,1.8259281e-07,0.0011160412,0.012639769,6.533856e-07,5.328084e-06,5.319562e-06,3.7059093e-05,0.009927676,0.009929281,0.009585817,0.03344143,0.033441618,0.056160636,1.0307806e-11,1.0304946e-11,1.8312182e-11,5.1892044e-08,5.1906454e-08,5e-08,0.0,0.0,0.0,0.0,0.0,0.0,0.0,0.0,663,0.25861758,0.23698236,0.015514098,0.05029009,0.009330745,0.036374085,0.0,0.0,0.0,0.00021,0,0,0,831,0,0,0,0
2725649315,0.99934703,-0.002234562,-0.011935768,-0.034032952,0.07009895,0.0009612532,-1.2951797,32.772926,-48.28533,-23.100096,2.0281997e-05,-2.248533e-05,-2.2995313e-05,0.00023189622,-0.0002317099,-0.00079073216,0.2412794,0.06465066,0.41174623,0.0,0.0,0.0,0.0,0.0,0.0,1.8528003e-07,0.0011243374,0.012629221,6.525563e-07,5.328621e-06,5.3215003e-06,3.701913e-05,0.009937339,0.009939576,0.009602712,0.033458058,0.033458296,0.05634318,1.03088805e-11,1.0306141e-11,1.8304311e-11,5.18929e-08,5.1907282e-08,5.000003e-08,0.0,0.0,0.0,0.0,0.0,0.0,0.0,0.0,663,0.25868195,0.23736718,0.04858181,0.05049993,0.011466089,0.027573049,0.0,0.0,0.0,0.000128,0,0,0,831,0,0,0,0
2725854040,0.9993817,-0.001341762,-0.0098853735,-0.033717666,0.080610044,0.017520424,-1.2951173,32.785446,-48.2729,-23.370934,2.022554e-05,-2.2501461e-05,-2.3026501e-05,0.00023191639,-0.00023173043,-0.00079026865,0.2412794,0.06465066,0.41174623,0.0,0.0,0.0,0.0,0.0,0.0,1.9147923e-07,0.0012233627,0.012343404,6.5133366e-07,5.3343383e-06,5.3290455e-06,3.6999503e-05,0.0099857105,0.009988022,0.009650996,0.033671234,0.033671573,0.05678495,1.0312043e-11,1.0309431e-11,1.8298802e-11,5.1893778e-08,5.1908135e-08,5.0000065e-08,0.0,0.0,0.0,0.0,0.0,0.0,0.0,0.0,663,0.2595049,0.23829593,0.030967528,0.033208296,0.016474744,0.028194273,0.0,0.0,0.0,6e-05,0,0,0,831,0,0,0,0
2726054948,0.9993972,-0.0022309266,-0.008477052,-0.03359103,0.09356989,0.023022115,-1.2942402,32.800316,-48.25819,-23.625412,2.0171026e-05,-2.2517812e-05,-2.3067281e-05,0.00023194878,-0.00023176799,-0.00079270534,0.2412794,0.06465066,0.41174623,0.0,0.0,0.0,0.0,0.0,0.0,1.9601167e-07,0.0012012775,0.013209173,6.5097544e-07,5.3363287e-06,5.3323906e-06,3.701996e-05,0.010000667,0.010003193,0.009587524,0.033714212,0.033714693,0.056157485,1.0313935e-11,1.0311446e-11,1.8303527e-11,5.189465e-08,5.190897e-08,5e-08,0.0,0.0,0.0,0.0,0.0,0.0,0.0,0.0,663,0.25967076,0.2369757,0.02547231,0.030451905,0.017852925,0.06610095,0.0,0.0,0.0,0.000164,0,0,0,831,0,0,0,0
2726259851,0.9994264,-0.00470377,-0.0066642235,-0.032870412,0.09374456,0.035136916,-1.287768,32.81786,-48.244164,-23.877361,2.0131733e-05,-2.2525279e-05,-2.3104927e-05,0.0002319783,-0.00023181013,-0.0007975097,0.2412794,0.06465066,0.41174623,0.0,0.0,0.0,0.0,0.0,0.0,1.9773395e-07,0.0012171575,0.01352724,6.489599e-07,5.342497e-06,5.3405665e-06,3.700114e-05,0.0100510325,0.0100532,0.009637511,0.033943627,0.03394427,0.056624766,1.03185915e-11,1.0316223e-11,1.8300065e-11,5.1895565e-08,5.190985e-08,5.0000065e-08,0.0,0.0,0.0,0.0,0.0,0.0,0.0,0.0,663,0.26055306,0.2379596,0.008110104,0.019329106,0.015150334,0.04129671,0.0,0.0,0.0,0.000266,0,0,0,831,0,0,0,0
2726459741,0.9994288,-0.008234557,-0.004815608,-0.032423016,0.095948264,0.020270796,-1.2795683,32.840454,-48.232124,-24.138798,2.0095758e-05,-2.249652e-05,-2.3166049e-05,0.00023194838,-0.00023180386,-0.00079434935,0.2412794,0.06465066,0.41174623,0.0,0.0,0.0,0.0,0.0,0.0,2.0353635e-07,0.0011771802,0.012971703,6.481122e-07,5.3401777e-06,5.3411e-06,3.7017948e-05,0.010024166,0.010026078,0.009572296,0.03385446,0.033855226,0.05588926,1.0314261e-11,1.0311997e-11,1.8299511e-11,5.189636e-08,5.1910632e-08,5e-08,0.0,0.0,0.0,0.0,0.0,0.0,0.0,0.0,663,0.26021084,0.2364091,0.006490861,0.02821829,0.0135267265,0.081986465,0.0,0.0,0.0,0.000163,0,0,0,831,0,0,0,0
2726660524,0.9994256,-0.0108398935,-0.002907135,-0.031977475,0.08490614,-0.006385955,-1.2866324,32.860092,-48.226418,-24.392042,2.0082842e-05,-2.2488239e-05,-2.3221337e-05,0.00023196463,-0.00023183286,-0.0007962851,0.2412794,0.06465066,0.41174623,0.0,0.0,0.0,0.0,0.0,0.0,2.6460063e-07,0.0013075721,0.014721878,6.471774e-07,5.3402823e-06,5.3437648e-06,3.6975878e-05,0.010029731,0.010030961,0.009591296,0.033854444,0.03385532,0.05606605,1.0313453e-11,1.0311275e-11,1.8290095e-11,5.1897185e-08,5.1911453e-08,5e-08,0.0,0.0,0.0,0.0,0.0,0.0,0.0,0.0,663,0.260211,0.23678271,0.00064509956,0.011133782,0.0133448625,0.0067147543,0.0,0.0,0.0,0.000133,0,0,0,831,0,0,0,0
2726861326,0.9994178,-0.011663334,-0.0025998645,-0.031961203,0.07782652,-0.035410482,-1.2904614,32.88112,-48.224068,-24.660793,2.0043213e-05,-2.2456916e-05,-2.3324757e-05,0.00023195214,-0.00023183455,-0.0007936858,0.2412794,0.06465066,0.41174623,0.0,0.0,0.0,0.0,0.0,0.0,2.3867617e-07,0.0011736604,0.013639229,6.477388e-07,5.3430867e-06,5.347354e-06,3.6995094e-05,0.01004689,0.010047389,0.009611288,0.03390624,0.033907164,0.056265585,1.0315587e-11,1.0313476e-11,1.8295164e-11,5.189804e-08,5.1912306e-08,5.000004e-08,0.0,0.0,0.0,0.0,0.0,0.0,0.0,0.0,663,0.26041007,0.23720367,0.0031332737,0.024496632,0.009546781,0.059870552,0.0,0.0,0.0,0.000148,0,0,0,831,0,0,0,0
2727065351,0.9994264,-0.009693209,-0.003320019,-0.032278735,0.061053514,-0.063557975,-1.2953043,32.900425,-48.231606,-24.921724,2.0029527e-05,-2.2418186e-05,-2.336385e-05,0.0002319355,-0.00023182435,-0.0007921128,0.2412794,0.06465066,0.41174623,0.0,0.0,0.0,0.0,0.0,0.0,2.402611e-07,0.0012761306,0.01383889,6.484516e-07,5.3456733e-06,5.348084e-06,3.695501e-05,0.010062289,0.0100618815,0.009632652,0.033950638,0.033951547,0.056473624,1.0317271e-11,1.0315203e-11,1.8287812e-11,5.1898898e-08,5.1913158e-08,5.0000065e-08,0.0,0.0,0.0,0.0,0.0,0.0,0.0,0.0,663,0.26058048,0.2376418,0.018075058,0.031326897,0.0068896804,0.0031456987,0.0,0.0,0.0,0.000169,0,0,0,831,0,0,0,0
2727266129,0.9994626,-0.0068083582,-0.002944464,-0.031929437,0.040059023,-0.08482653,-1.3183088,32.907288,-48.253315,-25.218254,2.007128e-05,-2.2447262e-05,-2.3486396e-05,0.00023188394,-0.00023174963,-0.00077990716,0.2412794,0.06465066,0.41174623,0.0,0.0,0.0,0.0,0.0,0.0,2.4261197e-07,0.0012679737,0.014302197,6.477868e-07,5.3478293e-06,5.3483286e-06,3.697754e-05,0.010080046,0.010079191,0.00957659,0.03399316,0.033993956,0.055898856,1.0318793e-11,1.0316747e-11,1.8292933e-11,5.1899747e-08,5.1914004e-08,5e-08,0.0,0.0,0.0,0.0,0.0,0.0,0.0,0.0,663,0.26074338,0.2364294,0.070819944,0.033563815,0.0030396779,0.05736564,0.0,0.0,0.0,0.000133,0,0,0,831,0,0,0,0
2727466910,0.9994876,-0.0038468407,-0.0023319265,-0.031693924,0.027759679,-0.101610824,-1.310959,32.91042,-48.27958,-25.483856,2.0109257e-05,-2.247266e-05,-2.3536115e-05,0.00023191769,-0.00023178301,-0.0007832933,0.2412794,0.06465066,0.41174623,0.0,0.0,0.0,0.0,0.0,0.0,2.0695741e-07,0.0011222186,0.013713184,6.469821e-07,5.35511e-06,5.3543886e-06,3.6958416e-05,0.0101309335,0.010129886,0.009629413,0.034232378,0.03423301,0.05636497,1.0322278e-11,1.0320242e-11,1.8287876e-11,5.1900624e-08,5.1914878e-08,5.0000036e-08,0.0,0.0,0.0,0.0,0.0,0.0,0.0,0.0,663,0.2616589,0.23741308,0.004302675,0.025146104,0.006496577,0.010366808,0.0,0.0,0.0,0.000104,0,0,0,831,0,0,0,0
2727667811,0.9995034,-0.0015355123,-0.0013887234,-0.031446245,0.0047447565,-0.09746906,-1.3052722,32.911728,-48.300148,-25.746037,2.0097423e-05,-2.24821e-05,-2.3635375e-05,0.00023191218,-0.00023177578,-0.0007815982,0.2412794,0.06465066,0.41174623,0.0,0.0,0.0,0.0,0.0,0.0,2.25182e-07,0.0013159283,0.014642065,6.4659656e-07,5.352619e-06,5.351487e-06,3.6976424e-05,0.010101152,0.010100508,0.0096422555,0.034136724,0.034137156,0.05642816,1.03174275e-11,1.0315388e-11,1.8287465e-11,5.190144e-08,5.191569e-08,5.0000036e-08,0.0,0.0,0.0,0.0,0.0,0.0,0.0,0.0,663,0.2612927,0.23754612,0.043993652,0.018874075,0.009742006,0.028264606,0.0,0.0,0.0,0.000226,0,0,0,831,0,0,0,0
2727868598,0.9995294,0.0018614165,-0.0012509098,-0.030592276,-0.007920045,-0.08725824,-1.3138248,32.915512,-48.316536,-26.04398,2.0064395e-05,-2.245473e-05,-2.3670455e-05,0.00023181419,-0.0002316806,-0.000768538,0.2412794,0.06465066,0.41174623,0.0,0.0,0.0,0.0,0.0,0.0,2.2881606e-07,0.001278583,0.014222995,6.443034e-07,5.351107e-06,5.3499693e-06,3.6995887e-05,0.010078198,0.010078085,0.009652908,0.034053747,0.03405399,0.056478385,1.0313109e-11,1.031106e-11,1.8286967e-11,5.1902248e-08,5.1916494e-08,5.0000036e-08,0.0,0.0,0.0,0.0,0.0,0.0,0.0,0.0,663,0.2609746,0.23765181,0.03933931,0.034467243,0.009208228,0.01621636,0.0,0.0,0.0,0.00022,0,0,0,831,0,0,0,0
2728072587,0.9995719,0.0029895853,-0.0016422874,-0.029058259,-0.02628424,-0.07264396,-1.3122743,32.911446,-48.348522,-26.316236,2.015997e-05,-2.245574e-05,-2.3705028e-05,0.0002318656,-0.00023167465,-0.00077041466,0.2412794,0.06465066,0.41174623,0.0,0.0,0.0,0.0,0.0,0.0,2.4007662e-07,0.0013340039,0.015033079,6.403629e-07,5.3571143e-06,5.3561425e-06,3.697936e-05,0.010122805,0.010123487,0.009622378,0.034270816,0.034270927,0.05615592,1.0317175e-11,1.0315111e-11,1.8283675e-11,5.1903132e-08,5.1917375e-08,5e-08,0.0,0.0,0.0,0.0,0.0,0.0,0.0,0.0,663,0.2618048,0.2369724,0.02508367,0.068479225,0.013791958,0.090863496,0.0,0.0,0.0,0.000209,0,0,0,831,0,0,0,0
2728273398,0.9995966,0.002960046,-0.0039600497,-0.027967343,-0.027307536,-0.05303385,-1.2967378,32.915928,-48.36761,-26.548016,2.0177142e-05,-2.2383156e-05,-2.3722823e-05,0.00023191373,-0.00023170862,-0.00078013074,0.2412794,0.06465066,0.41174623,0.0,0.0,0.0,0.0,0.0,0.0,2.1167658e-07,0.0012190866,0.013995109,6.377433e-07,5.3566732e-06,5.355251e-06,3.6940943e-05,0.010110866,0.010111883,0.009638861,0.03424442,0.034244493,0.056327105,1.03155965e-11,1.0313514e-11,1.827448e-11,5.190396e-08,5.19182e-08,5.0000025e-08,0.0,0.0,0.0,0.0,0.0,0.0,0.0,0.0,663,0.26170385,0.23733331,0.022368053,0.053835012,0.016082136,0.08788069,0.0,0.0,0.0,0.000211,0,0,0,831,0,0,0,0
2728473991,0.99960345,0.0039472203,-0.0064580687,-0.027123831,-0.030585762,-0.033361506,-1.3019569,32.907337,-48.373714,-26.828613,2.014222e-05,-2.241874e-05,-2.3792192e-05,0.00023186278,-0.00023168081,-0.00077290216,0.2412794,0.06465066,0.41174623,0.0,0.0,0.0,0.0,0.0,0.0,2.639593e-07,0.0013794763,0.015384503,6.362388e-07,5.3591143e-06,5.356925e-06,3.696281e-05,0.010118553,0.0101195555,0.009659025,0.034271106,0.03427122,0.05653631,1.0317116e-11,1.03150145e-11,1.8279708e-11,5.19048e-08,5.1919034e-08,5.000007e-08,0.0,0.0,0.0,0.0,0.0,0.0,0.0,0.0,663,0.2618059,0.23777366,0.12320251,0.040532675,0.010112017,0.007051015,0.0,0.0,0.0,1.3e-05,0,0,0,831,0,0,0,0
2728674946,0.9995797,0.004324838,-0.0069647906,-0.027806625,-0.01266546,-0.0073966533,-1.2903844,32.90891,-48.384953,-27.083654,2.01734e-05,-2.238001e-05,-2.3860037e-05,0.00023190747,-0.00023166621,-0.0007751251,0.2412794,0.06465066,0.41174623,0.0,0.0,0.0,0.0,0.0,0.0,2.4334403e-07,0.0012361051,0.01488981,6.3814326e-07,5.3607146e-06,5.358398e-06,3.6921072e-05,0.010120632,0.010121097,0.009676358,0.03429395,0.034294136,0.05672956,1.0318451e-11,1.0316336e-11,1.8272647e-11,5.190563e-08,5.1919862e-08,5.000006e-08,0.0,0.0,0.0,0.0,0.0,0.0,0.0,0.0,663,0.26189327,0.23817968,0.051045727,0.023675738,0.012526729,0.023164244,0.0,0.0,0.0,0.000167,0,0,0,831,0,0,0,0
