timestamp,noutputs,output[0],output[1],output[2],output[3],output[4],output[5],output[6],output[7],output[8],output[9],output[10],output[11],output[12],output[13],output[14],output[15]
2708890111,8,1460.0,1453.0,1444.0,1443.0,1445.0,1455.0,1461.0,1465.0,0.0,0.0,0.0,0.0,0.0,0.0,0.0,0.0
2709061340,8,1482.0,1474.0,1465.0,1463.0,1466.0,1475.0,1483.0,1486.0,0.0,0.0,0.0,0.0,0.0,0.0,0.0,0.0
2709105495,8,1489.0,1478.0,1472.0,1466.0,1473.0,1479.0,1490.0,1491.0,0.0,0.0,0.0,0.0,0.0,0.0,0.0,0.0
2709150250,8,1489.0,1487.0,1476.0,1479.0,1478.0,1491.0,1492.0,1498.0,0.0,0.0,0.0,0.0,0.0,0.0,0.0,0.0
2709170196,8,1485.0,1494.0,1473.0,1486.0,1474.0,1495.0,1486.0,1503.0,0.0,0.0,0.0,0.0,0.0,0.0,0.0,0.0
2709238162,8,1501.0,1489.0,1490.0,1486.0,1496.0,1498.0,1507.0,1501.0,0.0,0.0,0.0,0.0,0.0,0.0,0.0,0.0
2709262227,8,1490.0,1506.0,1490.0,1508.0,1493.0,1510.0,1492.0,1508.0,0.0,0.0,0.0,0.0,0.0,0.0,0.0,0.0
2709302233,8,1518.0,1494.0,1497.0,1484.0,1504.0,1503.0,1525.0,1513.0,0.0,0.0,0.0,0.0,0.0,0.0,0.0,0.0
2709346146,8,1525.0,1503.0,1512.0,1493.0,1510.0,1500.0,1523.0,1511.0,0.0,0.0,0.0,0.0,0.0,0.0,0.0,0.0
2709386173,8,1520.0,1525.0,1497.0,1508.0,1495.0,1522.0,1518.0,1539.0,0.0,0.0,0.0,0.0,0.0,0.0,0.0,0.0
2709435031,8,1534.0,1524.0,1511.0,1506.0,1509.0,1520.0,1531.0,1536.0,0.0,0.0,0.0,0.0,0.0,0.0,0.0,0.0
2709483009,8,1538.0,1529.0,1515.0,1512.0,1513.0,1527.0,1536.0,1544.0,0.0,0.0,0.0,0.0,0.0,0.0,0.0,0.0
2709522988,8,1537.0,1533.0,1525.0,1527.0,1527.0,1537.0,1540.0,1544.0,0.0,0.0,0.0,0.0,0.0,0.0,0.0,0.0
2709566958,8,1544.0,1540.0,1531.0,1530.0,1529.0,1538.0,1542.0,1548.0,0.0,0.0,0.0,0.0,0.0,0.0,0.0,0.0
2709611251,8,1550.0,1548.0,1537.0,1538.0,1536.0,1546.0,1549.0,1556.0,0.0,0.0,0.0,0.0,0.0,0.0,0.0,0.0
2709654972,8,1552.0,1550.0,1541.0,1543.0,1544.0,1553.0,1555.0,1560.0,0.0,0.0,0.0,0.0,0.0,0.0,0.0,0.0
2709695726,8,1566.0,1553.0,1545.0,1540.0,1547.0,1555.0,1567.0,1569.0,0.0,0.0,0.0,0.0,0.0,0.0,0.0,0.0
2709720051,8,1566.0,1560.0,1548.0,1546.0,1547.0,1558.0,1565.0,1572.0,0.0,0.0,0.0,0.0,0.0,0.0,0.0,0.0
2709763733,8,1572.0,1562.0,1552.0,1549.0,1554.0,1565.0,1574.0,1578.0,0.0,0.0,0.0,0.0,0.0,0.0,0.0,0.0
2709807765,8,1561.0,1559.0,1576.0,1575.0,1582.0,1568.0,1567.0,1553.0,0.0,0.0,0.0,0.0,0.0,0.0,0.0,0.0
2709855803,8,1540.0,1547.0,1599.0,1598.0,1612.0,1566.0,1553.0,1515.0,0.0,0.0,0.0,0.0,0.0,0.0,0.0,0.0
2709903809,8,1525.0,1537.0,1614.0,1617.0,1637.0,1570.0,1548.0,1491.0,0.0,0.0,0.0,0.0,0.0,0.0,0.0,0.0
2709943867,8,1513.0,1520.0,1609.0,1611.0,1641.0,1567.0,1545.0,1476.0,0.0,0.0,0.0,0.0,0.0,0.0,0.0,0.0
2709988635,8,1501.0,1497.0,1590.0,1584.0,1625.0,1546.0,1536.0,1459.0,0.0,0.0,0.0,0.0,0.0,0.0,0.0,0.0
2710032378,8,1488.0,1456.0,1564.0,1551.0,1617.0,1537.0,1544.0,1448.0,0.0,0.0,0.0,0.0,0.0,0.0,0.0,0.0
2710072578,8,1489.0,1443.0,1535.0,1512.0,1586.0,1515.0,1539.0,1446.0,0.0,0.0,0.0,0.0,0.0,0.0,0.0,0.0
2710116925,8,1483.0,1440.0,1507.0,1476.0,1535.0,1480.0,1512.0,1443.0,0.0,0.0,0.0,0.0,0.0,0.0,0.0,0.0
2710156607,8,1479.0,1423.0,1482.0,1444.0,1508.0,1460.0,1505.0,1440.0,0.0,0.0,0.0,0.0,0.0,0.0,0.0,0.0
2710200558,8,1483.0,1422.0,1472.0,1422.0,1484.0,1438.0,1495.0,1438.0,0.0,0.0,0.0,0.0,0.0,0.0,0.0,0.0
2710241337,8,1479.0,1419.0,1459.0,1409.0,1464.0,1427.0,1485.0,1438.0,0.0,0.0,0.0,0.0,0.0,0.0,0.0,0.0
2710285351,8,1462.0,1409.0,1451.0,1412.0,1465.0,1430.0,1477.0,1428.0,0.0,0.0,0.0,0.0,0.0,0.0,0.0,0.0
2710329397,8,1460.0,1404.0,1451.0,1410.0,1468.0,1428.0,1477.0,1422.0,0.0,0.0,0.0,0.0,0.0,0.0,0.0,0.0
2710353371,8,1460.0,1409.0,1454.0,1412.0,1465.0,1424.0,1471.0,1421.0,0.0,0.0,0.0,0.0,0.0,0.0,0.0,0.0
2710397435,8,1457.0,1406.0,1456.0,1412.0,1465.0,1419.0,1466.0,1413.0,0.0,0.0,0.0,0.0,0.0,0.0,0.0,0.0
2710445336,8,1459.0,1396.0,1448.0,1401.0,1466.0,1422.0,1477.0,1417.0,0.0,0.0,0.0,0.0,0.0,0.0,0.0,0.0
2710490149,8,1463.0,1413.0,1461.0,1415.0,1465.0,1419.0,1467.0,1417.0,0.0,0.0,0.0,0.0,0.0,0.0,0.0,0.0
2710538185,8,1466.0,1424.0,1461.0,1415.0,1454.0,1414.0,1459.0,1423.0,0.0,0.0,0.0,0.0,0.0,0.0,0.0,0.0
2710582219,8,1476.0,1430.0,1464.0,1410.0,1448.0,1407.0,1460.0,1426.0,0.0,0.0,0.0,0.0,0.0,0.0,0.0,0.0
2710954961,8,1474.0,1423.0,1466.0,1413.0,1460.0,1414.0,1468.0,1424.0,0.0,0.0,0.0,0.0,0.0,0.0,0.0,0.0
2710998996,8,1475.0,1426.0,1470.0,1417.0,1463.0,1416.0,1468.0,1425.0,0.0,0.0,0.0,0.0,0.0,0.0,0.0,0.0
2711043750,8,1474.0,1423.0,1471.0,1418.0,1467.0,1418.0,1470.0,1423.0,0.0,0.0,0.0,0.0,0.0,0.0,0.0,0.0
2712808595,8,1480.0,1423.0,1490.0,1428.0,1488.0,1420.0,1479.0,1415.0,0.0,0.0,0.0,0.0,0.0,0.0,0.0,0.0
2712832613,8,1482.0,1423.0,1490.0,1427.0,1487.0,1419.0,1479.0,1415.0,0.0,0.0,0.0,0.0,0.0,0.0,0.0,0.0
2712880557,8,1479.0,1423.0,1488.0,1428.0,1486.0,1420.0,1477.0,1415.0,0.0,0.0,0.0,0.0,0.0,0.0,0.0,0.0
2712921336,8,1480.0,1424.0,1488.0,1428.0,1486.0,1420.0,1477.0,1416.0,0.0,0.0,0.0,0.0,0.0,0.0,0.0,0.0
2712961388,8,1479.0,1423.0,1488.0,1428.0,1486.0,1420.0,1477.0,1416.0,0.0,0.0,0.0,0.0,0.0,0.0,0.0,0.0
2713005497,8,1476.0,1423.0,1484.0,1429.0,1485.0,1424.0,1477.0,1418.0,0.0,0.0,0.0,0.0,0.0,0.0,0.0,0.0
2713045364,8,1480.0,1428.0,1488.0,1430.0,1482.0,1420.0,1475.0,1419.0,0.0,0.0,0.0,0.0,0.0,0.0,0.0,0.0
2713089467,8,1477.0,1425.0,1484.0,1429.0,1482.0,1423.0,1476.0,1419.0,0.0,0.0,0.0,0.0,0.0,0.0,0.0,0.0
2713133336,8,1475.0,1428.0,1483.0,1432.0,1481.0,1426.0,1473.0,1421.0,0.0,0.0,0.0,0.0,0.0,0.0,0.0,0.0
2713178182,8,1476.0,1430.0,1484.0,1432.0,1478.0,1422.0,1470.0,1420.0,0.0,0.0,0.0,0.0,0.0,0.0,0.0,0.0
2713218221,8,1478.0,1430.0,1486.0,1431.0,1480.0,1421.0,1472.0,1420.0,0.0,0.0,0.0,0.0,0.0,0.0,0.0,0.0
2713266235,8,1480.0,1432.0,1488.0,1432.0,1480.0,1420.0,1471.0,1420.0,0.0,0.0,0.0,0.0,0.0,0.0,0.0,0.0
2713290144,8,1477.0,1429.0,1485.0,1432.0,1482.0,1425.0,1474.0,1421.0,0.0,0.0,0.0,0.0,0.0,0.0,0.0,0.0
2713334206,8,1479.0,1429.0,1488.0,1433.0,1484.0,1423.0,1474.0,1420.0,0.0,0.0,0.0,0.0,0.0,0.0,0.0,0.0
2713378161,8,1475.0,1426.0,1481.0,1430.0,1480.0,1425.0,1474.0,1421.0,0.0,0.0,0.0,0.0,0.0,0.0,0.0,0.0
2713426241,8,1475.0,1426.0,1484.0,1432.0,1484.0,1425.0,1475.0,1419.0,0.0,0.0,0.0,0.0,0.0,0.0,0.0,0.0
2713471032,8,1472.0,1422.0,1480.0,1431.0,1485.0,1429.0,1476.0,1419.0,0.0,0.0,0.0,0.0,0.0,0.0,0.0,0.0
2713514995,8,1478.0,1427.0,1489.0,1433.0,1486.0,1422.0,1475.0,1416.0,0.0,0.0,0.0,0.0,0.0,0.0,0.0,0.0
2713558998,8,1476.0,1426.0,1486.0,1433.0,1486.0,1425.0,1476.0,1418.0,0.0,0.0,0.0,0.0,0.0,0.0,0.0,0.0
2713583264,8,1477.0,1423.0,1486.0,1429.0,1485.0,1423.0,1477.0,1417.0,0.0,0.0,0.0,0.0,0.0,0.0,0.0,0.0
2713646931,8,1477.0,1424.0,1484.0,1429.0,1484.0,1424.0,1477.0,1419.0,0.0,0.0,0.0,0.0,0.0,0.0,0.0,0.0
2713687714,8,1476.0,1423.0,1487.0,1432.0,1489.0,1426.0,1479.0,1417.0,0.0,0.0,0.0,0.0,0.0,0.0,0.0,0.0
2713727867,8,1480.0,1429.0,1491.0,1434.0,1487.0,1423.0,1476.0,1418.0,0.0,0.0,0.0,0.0,0.0,0.0,0.0,0.0
2713751746,8,1478.0,1426.0,1488.0,1433.0,1487.0,1424.0,1476.0,1417.0,0.0,0.0,0.0,0.0,0.0,0.0,0.0,0.0
2713795728,8,1478.0,1422.0,1486.0,1428.0,1487.0,1423.0,1478.0,1417.0,0.0,0.0,0.0,0.0,0.0,0.0,0.0,0.0
2713839735,8,1474.0,1423.0,1482.0,1432.0,1487.0,1429.0,1479.0,1420.0,0.0,0.0,0.0,0.0,0.0,0.0,0.0,0.0
2713887865,8,1477.0,1421.0,1485.0,1428.0,1487.0,1424.0,1479.0,1417.0,0.0,0.0,0.0,0.0,0.0,0.0,0.0,0.0
2713931775,8,1478.0,1424.0,1487.0,1431.0,1487.0,1425.0,1478.0,1418.0,0.0,0.0,0.0,0.0,0.0,0.0,0.0,0.0
2713972575,8,1474.0,1422.0,1483.0,1431.0,1487.0,1428.0,1478.0,1418.0,0.0,0.0,0.0,0.0,0.0,0.0,0.0,0.0
2714016989,8,1473.0,1420.0,1481.0,1429.0,1486.0,1427.0,1479.0,1418.0,0.0,0.0,0.0,0.0,0.0,0.0,0.0,0.0
2714040565,8,1477.0,1427.0,1486.0,1431.0,1484.0,1424.0,1476.0,1420.0,0.0,0.0,0.0,0.0,0.0,0.0,0.0,0.0
2714088882,8,1476.0,1423.0,1481.0,1430.0,1485.0,1428.0,1479.0,1421.0,0.0,0.0,0.0,0.0,0.0,0.0,0.0,0.0
2714132544,8,1479.0,1425.0,1486.0,1430.0,1487.0,1426.0,1479.0,1420.0,0.0,0.0,0.0,0.0,0.0,0.0,0.0,0.0
2714180629,8,1476.0,1424.0,1484.0,1431.0,1486.0,1427.0,1478.0,1420.0,0.0,0.0,0.0,0.0,0.0,0.0,0.0,0.0
2714228568,8,1477.0,1422.0,1486.0,1430.0,1488.0,1425.0,1480.0,1418.0,0.0,0.0,0.0,0.0,0.0,0.0,0.0,0.0
2714269714,8,1477.0,1424.0,1487.0,1431.0,1488.0,1426.0,1479.0,1419.0,0.0,0.0,0.0,0.0,0.0,0.0,0.0,0.0
2714293316,8,1476.0,1421.0,1485.0,1429.0,1488.0,1426.0,1480.0,1418.0,0.0,0.0,0.0,0.0,0.0,0.0,0.0,0.0
2714337339,8,1478.0,1426.0,1488.0,1432.0,1486.0,1424.0,1476.0,1418.0,0.0,0.0,0.0,0.0,0.0,0.0,0.0,0.0
2714385443,8,1479.0,1425.0,1486.0,1428.0,1484.0,1422.0,1477.0,1419.0,0.0,0.0,0.0,0.0,0.0,0.0,0.0,0.0
2714429444,8,1482.0,1430.0,1491.0,1432.0,1486.0,1422.0,1476.0,1419.0,0.0,0.0,0.0,0.0,0.0,0.0,0.0,0.0
2714473389,8,1480.0,1428.0,1488.0,1431.0,1484.0,1424.0,1475.0,1421.0,0.0,0.0,0.0,0.0,0.0,0.0,0.0,0.0
2714514190,8,1478.0,1425.0,1485.0,1430.0,1485.0,1425.0,1478.0,1420.0,0.0,0.0,0.0,0.0,0.0,0.0,0.0,0.0
2714558527,8,1478.0,1425.0,1485.0,1429.0,1484.0,1423.0,1477.0,1420.0,0.0,0.0,0.0,0.0,0.0,0.0,0.0,0.0
2714602217,8,1476.0,1425.0,1485.0,1432.0,1486.0,1426.0,1477.0,1420.0,0.0,0.0,0.0,0.0,0.0,0.0,0.0,0.0
2714646180,8,1475.0,1424.0,1483.0,1431.0,1485.0,1427.0,1477.0,1420.0,0.0,0.0,0.0,0.0,0.0,0.0,0.0,0.0
2714689972,8,1474.0,1426.0,1482.0,1434.0,1486.0,1425.0,1476.0,1420.0,0.0,0.0,0.0,0.0,0.0,0.0,0.0,0.0
2714714191,8,1472.0,1426.0,1480.0,1434.0,1484.0,1431.0,1476.0,1423.0,0.0,0.0,0.0,0.0,0.0,0.0,0.0,0.0
2714758285,8,1474.0,1429.0,1481.0,1435.0,1483.0,1431.0,1476.0,1425.0,0.0,0.0,0.0,0.0,0.0,0.0,0.0,0.0
2714798931,8,1477.0,1430.0,1483.0,1434.0,1482.0,1428.0,1475.0,1424.0,0.0,0.0,0.0,0.0,0.0,0.0,0.0,0.0
2714842973,8,1472.0,1424.0,1476.0,1432.0,1483.0,1434.0,1479.0,1426.0,0.0,0.0,0.0,0.0,0.0,0.0,0.0,0.0
2714890991,8,1478.0,1428.0,1484.0,1433.0,1485.0,1429.0,1479.0,1424.0,0.0,0.0,0.0,0.0,0.0,0.0,0.0,0.0
2714934826,8,1475.0,1427.0,1482.0,1436.0,1487.0,1434.0,1479.0,1425.0,0.0,0.0,0.0,0.0,0.0,0.0,0.0,0.0
2714978928,8,1475.0,1433.0,1482.0,1437.0,1480.0,1430.0,1473.0,1427.0,0.0,0.0,0.0,0.0,0.0,0.0,0.0,0.0
2715002972,8,1475.0,1431.0,1483.0,1436.0,1482.0,1431.0,1475.0,1426.0,0.0,0.0,0.0,0.0,0.0,0.0,0.0,0.0
2715046919,8,1471.0,1429.0,1475.0,1435.0,1481.0,1436.0,1476.0,1430.0,0.0,0.0,0.0,0.0,0.0,0.0,0.0,0.0
2715087737,8,1470.0,1424.0,1471.0,1432.0,1482.0,1439.0,1481.0,1431.0,0.0,0.0,0.0,0.0,0.0,0.0,0.0,0.0
2715131778,8,1470.0,1429.0,1473.0,1435.0,1478.0,1436.0,1475.0,1430.0,0.0,0.0,0.0,0.0,0.0,0.0,0.0,0.0
2715175855,8,1473.0,1427.0,1476.0,1432.0,1480.0,1433.0,1478.0,1428.0,0.0,0.0,0.0,0.0,0.0,0.0,0.0,0.0
2715219843,8,1470.0,1429.0,1471.0,1433.0,1475.0,1435.0,1474.0,1431.0,0.0,0.0,0.0,0.0,0.0,0.0,0.0,0.0
2715263824,8,1470.0,1430.0,1469.0,1433.0,1475.0,1438.0,1475.0,1434.0,0.0,0.0,0.0,0.0,0.0,0.0,0.0,0.0
2715311778,8,1470.0,1429.0,1470.0,1433.0,1477.0,1438.0,1477.0,1433.0,0.0,0.0,0.0,0.0,0.0,0.0,0.0,0.0
2715352952,8,1469.0,1430.0,1468.0,1434.0,1474.0,1439.0,1475.0,1435.0,0.0,0.0,0.0,0.0,0.0,0.0,0.0,0.0
2715400586,8,1472.0,1436.0,1476.0,1439.0,1476.0,1437.0,1473.0,1434.0,0.0,0.0,0.0,0.0,0.0,0.0,0.0,0.0
2715444546,8,1471.0,1434.0,1474.0,1439.0,1477.0,1439.0,1474.0,1434.0,0.0,0.0,0.0,0.0,0.0,0.0,0.0,0.0
2715468549,8,1470.0,1432.0,1472.0,1436.0,1476.0,1437.0,1474.0,1433.0,0.0,0.0,0.0,0.0,0.0,0.0,0.0,0.0
2715512541,8,1470.0,1435.0,1473.0,1438.0,1474.0,1437.0,1471.0,1434.0,0.0,0.0,0.0,0.0,0.0,0.0,0.0,0.0
2715573307,8,1469.0,1436.0,1472.0,1439.0,1474.0,1439.0,1472.0,1435.0,0.0,0.0,0.0,0.0,0.0,0.0,0.0,0.0
2715593482,8,1470.0,1436.0,1472.0,1439.0,1475.0,1440.0,1473.0,1436.0,0.0,0.0,0.0,0.0,0.0,0.0,0.0,0.0
2715641713,8,1470.0,1436.0,1470.0,1438.0,1473.0,1439.0,1472.0,1437.0,0.0,0.0,0.0,0.0,0.0,0.0,0.0,0.0
2715689354,8,1470.0,1437.0,1470.0,1438.0,1472.0,1439.0,1471.0,1438.0,0.0,0.0,0.0,0.0,0.0,0.0,0.0,0.0
2715729596,8,1470.0,1440.0,1473.0,1442.0,1473.0,1440.0,1470.0,1439.0,0.0,0.0,0.0,0.0,0.0,0.0,0.0,0.0
2715773349,8,1470.0,1437.0,1472.0,1439.0,1473.0,1438.0,1471.0,1437.0,0.0,0.0,0.0,0.0,0.0,0.0,0.0,0.0
2715814161,8,1470.0,1438.0,1471.0,1440.0,1473.0,1441.0,1472.0,1440.0,0.0,0.0,0.0,0.0,0.0,0.0,0.0,0.0
2715858423,8,1472.0,1441.0,1471.0,1440.0,1471.0,1440.0,1471.0,1440.0,0.0,0.0,0.0,0.0,0.0,0.0,0.0,0.0
2715902011,8,1472.0,1441.0,1471.0,1440.0,1471.0,1440.0,1471.0,1441.0,0.0,0.0,0.0,0.0,0.0,0.0,0.0,0.0
2715946138,8,1472.0,1439.0,1470.0,1439.0,1472.0,1442.0,1474.0,1442.0,0.0,0.0,0.0,0.0,0.0,0.0,0.0,0.0
2715986160,8,1470.0,1439.0,1467.0,1439.0,1469.0,1441.0,1472.0,1442.0,0.0,0.0,0.0,0.0,0.0,0.0,0.0,0.0
2716030134,8,1469.0,1437.0,1467.0,1438.0,1471.0,1443.0,1473.0,1442.0,0.0,0.0,0.0,0.0,0.0,0.0,0.0,0.0
2716074419,8,1470.0,1439.0,1467.0,1438.0,1469.0,1442.0,1472.0,1443.0,0.0,0.0,0.0,0.0,0.0,0.0,0.0,0.0
2716118973,8,1468.0,1437.0,1464.0,1437.0,1468.0,1443.0,1472.0,1443.0,0.0,0.0,0.0,0.0,0.0,0.0,0.0,0.0
2716142975,8,1470.0,1441.0,1469.0,1439.0,1468.0,1439.0,1469.0,1441.0,0.0,0.0,0.0,0.0,0.0,0.0,0.0,0.0
2716190917,8,1470.0,1441.0,1469.0,1441.0,1470.0,1442.0,1471.0,1442.0,0.0,0.0,0.0,0.0,0.0,0.0,0.0,0.0
2716230934,8,1469.0,1441.0,1469.0,1442.0,1471.0,1443.0,1471.0,1442.0,0.0,0.0,0.0,0.0,0.0,0.0,0.0,0.0
2716278944,8,1467.0,1438.0,1466.0,1440.0,1471.0,1445.0,1473.0,1443.0,0.0,0.0,0.0,0.0,0.0,0.0,0.0,0.0
2716322933,8,1468.0,1439.0,1468.0,1442.0,1472.0,1444.0,1471.0,1441.0,0.0,0.0,0.0,0.0,0.0,0.0,0.0,0.0
2716363353,8,1465.0,1438.0,1464.0,1442.0,1470.0,1446.0,1471.0,1443.0,0.0,0.0,0.0,0.0,0.0,0.0,0.0,0.0
2716407913,8,1466.0,1437.0,1465.0,1440.0,1471.0,1445.0,1472.0,1442.0,0.0,0.0,0.0,0.0,0.0,0.0,0.0,0.0
2716431779,8,1468.0,1440.0,1470.0,1442.0,1471.0,1442.0,1469.0,1440.0,0.0,0.0,0.0,0.0,0.0,0.0,0.0,0.0
2716475829,8,1469.0,1443.0,1470.0,1443.0,1469.0,1441.0,1468.0,1441.0,0.0,0.0,0.0,0.0,0.0,0.0,0.0,0.0
2716535826,8,1468.0,1443.0,1469.0,1443.0,1468.0,1442.0,1467.0,1442.0,0.0,0.0,0.0,0.0,0.0,0.0,0.0,0.0
2716559780,8,1466.0,1438.0,1464.0,1440.0,1469.0,1445.0,1471.0,1443.0,0.0,0.0,0.0,0.0,0.0,0.0,0.0,0.0
2716607736,8,1471.0,1444.0,1473.0,1444.0,1471.0,1442.0,1473.0,1443.0,0.0,0.0,0.0,0.0,0.0,0.0,0.0,0.0
2716648526,8,1469.0,1442.0,1469.0,1441.0,1468.0,1441.0,1469.0,1442.0,0.0,0.0,0.0,0.0,0.0,0.0,0.0,0.0
2716692531,8,1470.0,1441.0,1469.0,1442.0,1468.0,1445.0,1470.0,1444.0,0.0,0.0,0.0,0.0,0.0,0.0,0.0,0.0
2716732547,8,1466.0,1437.0,1463.0,1439.0,1470.0,1447.0,1473.0,1442.0,0.0,0.0,0.0,0.0,0.0,0.0,0.0,0.0
2716776552,8,1466.0,1442.0,1467.0,1443.0,1469.0,1444.0,1468.0,1443.0,0.0,0.0,0.0,0.0,0.0,0.0,0.0,0.0
2716816692,8,1465.0,1439.0,1465.0,1442.0,1469.0,1445.0,1469.0,1442.0,0.0,0.0,0.0,0.0,0.0,0.0,0.0,0.0
2716864681,8,1466.0,1442.0,1469.0,1445.0,1471.0,1444.0,1470.0,1441.0,0.0,0.0,0.0,0.0,0.0,0.0,0.0,0.0
2716912635,8,1468.0,1438.0,1471.0,1444.0,1475.0,1445.0,1473.0,1440.0,0.0,0.0,0.0,0.0,0.0,0.0,0.0,0.0
2716957448,8,1468.0,1438.0,1470.0,1443.0,1476.0,1446.0,1474.0,1441.0,0.0,0.0,0.0,0.0,0.0,0.0,0.0,0.0
2716981370,8,1467.0,1441.0,1470.0,1444.0,1472.0,1444.0,1469.0,1441.0,0.0,0.0,0.0,0.0,0.0,0.0,0.0,0.0
2717025332,8,1467.0,1438.0,1466.0,1442.0,1473.0,1447.0,1473.0,1443.0,0.0,0.0,0.0,0.0,0.0,0.0,0.0,0.0
2717073335,8,1466.0,1440.0,1466.0,1444.0,1471.0,1448.0,1471.0,1444.0,0.0,0.0,0.0,0.0,0.0,0.0,0.0,0.0
2717121656,8,1467.0,1437.0,1464.0,1441.0,1472.0,1448.0,1474.0,1444.0,0.0,0.0,0.0,0.0,0.0,0.0,0.0,0.0
2717162198,8,1467.0,1437.0,1462.0,1440.0,1471.0,1449.0,1476.0,1446.0,0.0,0.0,0.0,0.0,0.0,0.0,0.0,0.0
2717186016,8,1468.0,1441.0,1466.0,1444.0,1472.0,1450.0,1475.0,1447.0,0.0,0.0,0.0,0.0,0.0,0.0,0.0,0.0
2717230509,8,1469.0,1440.0,1465.0,1443.0,1474.0,1451.0,1477.0,1448.0,0.0,0.0,0.0,0.0,0.0,0.0,0.0,0.0
2717278141,8,1472.0,1440.0,1470.0,1441.0,1475.0,1447.0,1478.0,1446.0,0.0,0.0,0.0,0.0,0.0,0.0,0.0,0.0
2717326236,8,1466.0,1437.0,1462.0,1442.0,1472.0,1452.0,1477.0,1448.0,0.0,0.0,0.0,0.0,0.0,0.0,0.0,0.0
2717370228,8,1472.0,1441.0,1471.0,1443.0,1474.0,1446.0,1475.0,1444.0,0.0,0.0,0.0,0.0,0.0,0.0,0.0,0.0
2717414186,8,1468.0,1436.0,1463.0,1441.0,1474.0,1452.0,1479.0,1447.0,0.0,0.0,0.0,0.0,0.0,0.0,0.0,0.0
2717458977,8,1469.0,1437.0,1466.0,1441.0,1475.0,1449.0,1478.0,1445.0,0.0,0.0,0.0,0.0,0.0,0.0,0.0,0.0
2717502952,8,1468.0,1441.0,1468.0,1446.0,1474.0,1450.0,1475.0,1446.0,0.0,0.0,0.0,0.0,0.0,0.0,0.0,0.0
2717526962,8,1466.0,1436.0,1463.0,1442.0,1474.0,1452.0,1476.0,1446.0,0.0,0.0,0.0,0.0,0.0,0.0,0.0,0.0
2717570935,8,1466.0,1438.0,1465.0,1445.0,1475.0,1453.0,1476.0,1446.0,0.0,0.0,0.0,0.0,0.0,0.0,0.0,0.0
2717610946,8,1467.0,1439.0,1468.0,1446.0,1477.0,1451.0,1476.0,1444.0,0.0,0.0,0.0,0.0,0.0,0.0,0.0,0.0
2717654951,8,1469.0,1440.0,1472.0,1446.0,1478.0,1448.0,1475.0,1443.0,0.0,0.0,0.0,0.0,0.0,0.0,0.0,0.0
2717695709,8,1470.0,1439.0,1471.0,1443.0,1475.0,1445.0,1474.0,1442.0,0.0,0.0,0.0,0.0,0.0,0.0,0.0,0.0
2717736137,8,1466.0,1437.0,1465.0,1444.0,1475.0,1453.0,1476.0,1446.0,0.0,0.0,0.0,0.0,0.0,0.0,0.0,0.0
2717783735,8,1467.0,1438.0,1468.0,1445.0,1476.0,1449.0,1474.0,1442.0,0.0,0.0,0.0,0.0,0.0,0.0,0.0,0.0
2717823623,8,1468.0,1438.0,1468.0,1443.0,1474.0,1446.0,1474.0,1442.0,0.0,0.0,0.0,0.0,0.0,0.0,0.0,0.0
2717867740,8,1465.0,1437.0,1467.0,1445.0,1477.0,1451.0,1475.0,1443.0,0.0,0.0,0.0,0.0,0.0,0.0,0.0,0.0
2717911740,8,1467.0,1439.0,1471.0,1445.0,1476.0,1447.0,1473.0,1440.0,0.0,0.0,0.0,0.0,0.0,0.0,0.0,0.0
2717959775,8,1469.0,1442.0,1472.0,1445.0,1474.0,1446.0,1472.0,1442.0,0.0,0.0,0.0,0.0,0.0,0.0,0.0,0.0
2718000537,8,1468.0,1439.0,1471.0,1444.0,1475.0,1444.0,1472.0,1440.0,0.0,0.0,0.0,0.0,0.0,0.0,0.0,0.0
2718044591,8,1469.0,1440.0,1472.0,1443.0,1477.0,1444.0,1474.0,1439.0,0.0,0.0,0.0,0.0,0.0,0.0,0.0,0.0
2718068577,8,1467.0,1435.0,1465.0,1438.0,1472.0,1444.0,1473.0,1441.0,0.0,0.0,0.0,0.0,0.0,0.0,0.0,0.0
2718128547,8,1473.0,1439.0,1476.0,1442.0,1478.0,1441.0,1475.0,1438.0,0.0,0.0,0.0,0.0,0.0,0.0,0.0,0.0
2718152575,8,1471.0,1438.0,1472.0,1439.0,1473.0,1439.0,1472.0,1438.0,0.0,0.0,0.0,0.0,0.0,0.0,0.0,0.0
2718196537,8,1470.0,1435.0,1471.0,1438.0,1474.0,1441.0,1474.0,1438.0,0.0,0.0,0.0,0.0,0.0,0.0,0.0,0.0
2718241672,8,1473.0,1439.0,1476.0,1441.0,1475.0,1439.0,1473.0,1437.0,0.0,0.0,0.0,0.0,0.0,0.0,0.0,0.0
2718285336,8,1474.0,1437.0,1475.0,1439.0,1476.0,1443.0,1479.0,1440.0,0.0,0.0,0.0,0.0,0.0,0.0,0.0,0.0
2718333389,8,1473.0,1435.0,1471.0,1437.0,1476.0,1442.0,1478.0,1440.0,0.0,0.0,0.0,0.0,0.0,0.0,0.0,0.0
2718373438,8,1472.0,1439.0,1469.0,1439.0,1472.0,1442.0,1474.0,1442.0,0.0,0.0,0.0,0.0,0.0,0.0,0.0,0.0
2718421626,8,1473.0,1437.0,1467.0,1434.0,1469.0,1440.0,1475.0,1442.0,0.0,0.0,0.0,0.0,0.0,0.0,0.0,0.0
2718445221,8,1472.0,1440.0,1470.0,1438.0,1469.0,1440.0,1472.0,1442.0,0.0,0.0,0.0,0.0,0.0,0.0,0.0,0.0
2718489339,8,1472.0,1435.0,1467.0,1434.0,1470.0,1440.0,1475.0,1441.0,0.0,0.0,0.0,0.0,0.0,0.0,0.0,0.0
2718530420,8,1471.0,1431.0,1466.0,1433.0,1474.0,1443.0,1480.0,1441.0,0.0,0.0,0.0,0.0,0.0,0.0,0.0,0.0
2718574146,8,1471.0,1435.0,1467.0,1435.0,1470.0,1440.0,1475.0,1441.0,0.0,0.0,0.0,0.0,0.0,0.0,0.0,0.0
2718618200,8,1472.0,1433.0,1465.0,1433.0,1471.0,1442.0,1478.0,1442.0,0.0,0.0,0.0,0.0,0.0,0.0,0.0,0.0
2718662249,8,1473.0,1438.0,1469.0,1436.0,1470.0,1440.0,1474.0,1442.0,0.0,0.0,0.0,0.0,0.0,0.0,0.0,0.0
2718710585,8,1471.0,1430.0,1462.0,1428.0,1468.0,1440.0,1478.0,1442.0,0.0,0.0,0.0,0.0,0.0,0.0,0.0,0.0
2718758159,8,1475.0,1437.0,1471.0,1436.0,1472.0,1438.0,1475.0,1440.0,0.0,0.0,0.0,0.0,0.0,0.0,0.0,0.0
2718798933,8,1474.0,1435.0,1468.0,1432.0,1468.0,1436.0,1474.0,1440.0,0.0,0.0,0.0,0.0,0.0,0.0,0.0,0.0
2718819379,8,1474.0,1435.0,1469.0,1433.0,1471.0,1438.0,1477.0,1440.0,0.0,0.0,0.0,0.0,0.0,0.0,0.0,0.0
2718862931,8,1471.0,1434.0,1466.0,1435.0,1472.0,1442.0,1476.0,1441.0,0.0,0.0,0.0,0.0,0.0,0.0,0.0,0.0
2718906943,8,1475.0,1437.0,1473.0,1436.0,1474.0,1437.0,1475.0,1438.0,0.0,0.0,0.0,0.0,0.0,0.0,0.0,0.0
2718950934,8,1473.0,1438.0,1471.0,1437.0,1471.0,1439.0,1474.0,1440.0,0.0,0.0,0.0,0.0,0.0,0.0,0.0,0.0
2718999331,8,1474.0,1434.0,1469.0,1431.0,1471.0,1437.0,1476.0,1439.0,0.0,0.0,0.0,0.0,0.0,0.0,0.0,0.0
2719042979,8,1474.0,1435.0,1470.0,1433.0,1471.0,1437.0,1475.0,1439.0,0.0,0.0,0.0,0.0,0.0,0.0,0.0,0.0
2719087747,8,1473.0,1435.0,1470.0,1433.0,1471.0,1437.0,1475.0,1439.0,0.0,0.0,0.0,0.0,0.0,0.0,0.0,0.0
2719135737,8,1475.0,1435.0,1470.0,1432.0,1471.0,1436.0,1475.0,1439.0,0.0,0.0,0.0,0.0,0.0,0.0,0.0,0.0
2719155734,8,1474.0,1433.0,1469.0,1431.0,1470.0,1436.0,1476.0,1439.0,0.0,0.0,0.0,0.0,0.0,0.0,0.0,0.0
2719199803,8,1474.0,1431.0,1468.0,1428.0,1471.0,1435.0,1477.0,1438.0,0.0,0.0,0.0,0.0,0.0,0.0,0.0,0.0
2719243889,8,1476.0,1433.0,1473.0,1431.0,1473.0,1433.0,1476.0,1435.0,0.0,0.0,0.0,0.0,0.0,0.0,0.0,0.0
2719288103,8,1476.0,1433.0,1472.0,1431.0,1472.0,1433.0,1476.0,1436.0,0.0,0.0,0.0,0.0,0.0,0.0,0.0,0.0
2719328644,8,1476.0,1431.0,1469.0,1428.0,1472.0,1435.0,1479.0,1437.0,0.0,0.0,0.0,0.0,0.0,0.0,0.0,0.0
2719372642,8,1479.0,1434.0,1476.0,1432.0,1475.0,1433.0,1478.0,1436.0,0.0,0.0,0.0,0.0,0.0,0.0,0.0,0.0
2719416591,8,1480.0,1432.0,1475.0,1428.0,1474.0,1431.0,1479.0,1435.0,0.0,0.0,0.0,0.0,0.0,0.0,0.0,0.0
2719460539,8,1478.0,1430.0,1473.0,1427.0,1473.0,1430.0,1478.0,1434.0,0.0,0.0,0.0,0.0,0.0,0.0,0.0,0.0
2719508566,8,1479.0,1430.0,1474.0,1427.0,1475.0,1431.0,1480.0,1434.0,0.0,0.0,0.0,0.0,0.0,0.0,0.0,0.0
2719552809,8,1480.0,1430.0,1475.0,1427.0,1476.0,1430.0,1480.0,1433.0,0.0,0.0,0.0,0.0,0.0,0.0,0.0,0.0
2719597445,8,1481.0,1430.0,1478.0,1427.0,1478.0,1429.0,1481.0,1432.0,0.0,0.0,0.0,0.0,0.0,0.0,0.0,0.0
2719617471,8,1479.0,1428.0,1476.0,1426.0,1479.0,1431.0,1483.0,1433.0,0.0,0.0,0.0,0.0,0.0,0.0,0.0,0.0
2719661428,8,1479.0,1427.0,1473.0,1425.0,1476.0,1432.0,1482.0,1434.0,0.0,0.0,0.0,0.0,0.0,0.0,0.0,0.0
2719709335,8,1481.0,1430.0,1477.0,1427.0,1478.0,1430.0,1482.0,1432.0,0.0,0.0,0.0,0.0,0.0,0.0,0.0,0.0
2719749353,8,1480.0,1422.0,1472.0,1422.0,1480.0,1433.0,1488.0,1433.0,0.0,0.0,0.0,0.0,0.0,0.0,0.0,0.0
2719797333,8,1482.0,1428.0,1475.0,1426.0,1479.0,1433.0,1485.0,1435.0,0.0,0.0,0.0,0.0,0.0,0.0,0.0,0.0
2719842191,8,1484.0,1425.0,1476.0,1422.0,1481.0,1431.0,1489.0,1434.0,0.0,0.0,0.0,0.0,0.0,0.0,0.0,0.0
2719886196,8,1482.0,1423.0,1470.0,1418.0,1475.0,1430.0,1487.0,1435.0,0.0,0.0,0.0,0.0,0.0,0.0,0.0,0.0
2719930165,8,1485.0,1424.0,1476.0,1418.0,1477.0,1425.0,1486.0,1431.0,0.0,0.0,0.0,0.0,0.0,0.0,0.0,0.0
2719954220,8,1486.0,1430.0,1477.0,1421.0,1474.0,1425.0,1482.0,1433.0,0.0,0.0,0.0,0.0,0.0,0.0,0.0,0.0
2720002254,8,1484.0,1429.0,1476.0,1422.0,1474.0,1426.0,1482.0,1433.0,0.0,0.0,0.0,0.0,0.0,0.0,0.0,0.0
2720046459,8,1484.0,1425.0,1475.0,1418.0,1475.0,1425.0,1485.0,1432.0,0.0,0.0,0.0,0.0,0.0,0.0,0.0,0.0
2720094882,8,1482.0,1430.0,1476.0,1424.0,1474.0,1428.0,1481.0,1433.0,0.0,0.0,0.0,0.0,0.0,0.0,0.0,0.0
2720119298,8,1483.0,1431.0,1479.0,1426.0,1477.0,1428.0,1481.0,1432.0,0.0,0.0,0.0,0.0,0.0,0.0,0.0,0.0
2720166943,8,1482.0,1429.0,1476.0,1425.0,1475.0,1428.0,1481.0,1433.0,0.0,0.0,0.0,0.0,0.0,0.0,0.0,0.0
2720210978,8,1483.0,1429.0,1476.0,1424.0,1476.0,1429.0,1483.0,1434.0,0.0,0.0,0.0,0.0,0.0,0.0,0.0,0.0
2720254934,8,1484.0,1430.0,1476.0,1422.0,1473.0,1426.0,1481.0,1434.0,0.0,0.0,0.0,0.0,0.0,0.0,0.0,0.0
2720302976,8,1484.0,1429.0,1477.0,1422.0,1475.0,1426.0,1482.0,1433.0,0.0,0.0,0.0,0.0,0.0,0.0,0.0,0.0
2720342940,8,1483.0,1430.0,1477.0,1423.0,1473.0,1425.0,1479.0,1432.0,0.0,0.0,0.0,0.0,0.0,0.0,0.0,0.0
2720387741,8,1478.0,1428.0,1471.0,1424.0,1472.0,1430.0,1479.0,1434.0,0.0,0.0,0.0,0.0,0.0,0.0,0.0,0.0
2720435773,8,1479.0,1424.0,1468.0,1420.0,1473.0,1432.0,1484.0,1436.0,0.0,0.0,0.0,0.0,0.0,0.0,0.0,0.0
2720459770,8,1478.0,1426.0,1469.0,1422.0,1473.0,1430.0,1481.0,1434.0,0.0,0.0,0.0,0.0,0.0,0.0,0.0,0.0
2720503733,8,1477.0,1427.0,1467.0,1423.0,1470.0,1431.0,1480.0,1436.0,0.0,0.0,0.0,0.0,0.0,0.0,0.0,0.0
2720547759,8,1480.0,1424.0,1469.0,1418.0,1472.0,1428.0,1483.0,1434.0,0.0,0.0,0.0,0.0,0.0,0.0,0.0,0.0
2720591760,8,1480.0,1427.0,1470.0,1421.0,1471.0,1429.0,1481.0,1435.0,0.0,0.0,0.0,0.0,0.0,0.0,0.0,0.0
2720636514,8,1480.0,1427.0,1471.0,1422.0,1474.0,1430.0,1482.0,1434.0,0.0,0.0,0.0,0.0,0.0,0.0,0.0,0.0
2720676557,8,1481.0,1430.0,1471.0,1420.0,1468.0,1425.0,1478.0,1434.0,0.0,0.0,0.0,0.0,0.0,0.0,0.0,0.0
2720720416,8,1478.0,1426.0,1465.0,1418.0,1467.0,1428.0,1480.0,1436.0,0.0,0.0,0.0,0.0,0.0,0.0,0.0,0.0
2720760540,8,1480.0,1425.0,1468.0,1419.0,1471.0,1429.0,1482.0,1435.0,0.0,0.0,0.0,0.0,0.0,0.0,0.0,0.0
2720804882,8,1480.0,1429.0,1468.0,1421.0,1468.0,1429.0,1480.0,1438.0,0.0,0.0,0.0,0.0,0.0,0.0,0.0,0.0
2720844567,8,1481.0,1429.0,1469.0,1419.0,1468.0,1427.0,1480.0,1436.0,0.0,0.0,0.0,0.0,0.0,0.0,0.0,0.0
2720888533,8,1478.0,1429.0,1469.0,1424.0,1470.0,1432.0,1480.0,1437.0,0.0,0.0,0.0,0.0,0.0,0.0,0.0,0.0
2720929493,8,1480.0,1429.0,1470.0,1422.0,1470.0,1429.0,1480.0,1436.0,0.0,0.0,0.0,0.0,0.0,0.0,0.0,0.0
2720969495,8,1479.0,1434.0,1473.0,1428.0,1470.0,1430.0,1477.0,1437.0,0.0,0.0,0.0,0.0,0.0,0.0,0.0,0.0
2721017470,8,1480.0,1432.0,1471.0,1424.0,1469.0,1429.0,1478.0,1437.0,0.0,0.0,0.0,0.0,0.0,0.0,0.0,0.0
2721041392,8,1478.0,1432.0,1470.0,1427.0,1471.0,1433.0,1479.0,1438.0,0.0,0.0,0.0,0.0,0.0,0.0,0.0,0.0
2721089407,8,1478.0,1433.0,1470.0,1427.0,1469.0,1433.0,1478.0,1439.0,0.0,0.0,0.0,0.0,0.0,0.0,0.0,0.0
2721129715,8,1477.0,1430.0,1465.0,1423.0,1468.0,1433.0,1479.0,1439.0,0.0,0.0,0.0,0.0,0.0,0.0,0.0,0.0
2721169387,8,1477.0,1429.0,1468.0,1424.0,1471.0,1433.0,1481.0,1438.0,0.0,0.0,0.0,0.0,0.0,0.0,0.0,0.0
2721214198,8,1479.0,1432.0,1471.0,1426.0,1471.0,1432.0,1479.0,1437.0,0.0,0.0,0.0,0.0,0.0,0.0,0.0,0.0
2721262058,8,1478.0,1428.0,1468.0,1423.0,1472.0,1433.0,1482.0,1438.0,0.0,0.0,0.0,0.0,0.0,0.0,0.0,0.0
2721306141,8,1479.0,1433.0,1471.0,1427.0,1470.0,1432.0,1479.0,1439.0,0.0,0.0,0.0,0.0,0.0,0.0,0.0,0.0
2721350181,8,1477.0,1432.0,1467.0,1426.0,1468.0,1434.0,1479.0,1441.0,0.0,0.0,0.0,0.0,0.0,0.0,0.0,0.0
2721394285,8,1479.0,1434.0,1469.0,1426.0,1468.0,1432.0,1478.0,1440.0,0.0,0.0,0.0,0.0,0.0,0.0,0.0,0.0
2721438191,8,1476.0,1431.0,1465.0,1425.0,1468.0,1435.0,1479.0,1441.0,0.0,0.0,0.0,0.0,0.0,0.0,0.0,0.0
2721479002,8,1477.0,1431.0,1466.0,1425.0,1468.0,1434.0,1479.0,1440.0,0.0,0.0,0.0,0.0,0.0,0.0,0.0,0.0
2721502966,8,1478.0,1431.0,1467.0,1426.0,1471.0,1436.0,1481.0,1441.0,0.0,0.0,0.0,0.0,0.0,0.0,0.0,0.0
2721550949,8,1479.0,1432.0,1471.0,1427.0,1472.0,1433.0,1480.0,1438.0,0.0,0.0,0.0,0.0,0.0,0.0,0.0,0.0
2721599411,8,1475.0,1427.0,1465.0,1423.0,1470.0,1434.0,1480.0,1440.0,0.0,0.0,0.0,0.0,0.0,0.0,0.0,0.0
2721642934,8,1477.0,1432.0,1466.0,1424.0,1467.0,1434.0,1479.0,1441.0,0.0,0.0,0.0,0.0,0.0,0.0,0.0,0.0
2721686935,8,1478.0,1432.0,1471.0,1427.0,1471.0,1433.0,1478.0,1438.0,0.0,0.0,0.0,0.0,0.0,0.0,0.0,0.0
2721708015,8,1478.0,1431.0,1466.0,1424.0,1468.0,1434.0,1481.0,1441.0,0.0,0.0,0.0,0.0,0.0,0.0,0.0,0.0
2721755735,8,1480.0,1431.0,1468.0,1424.0,1470.0,1433.0,1481.0,1441.0,0.0,0.0,0.0,0.0,0.0,0.0,0.0,0.0
2721799746,8,1482.0,1433.0,1470.0,1423.0,1468.0,1429.0,1479.0,1439.0,0.0,0.0,0.0,0.0,0.0,0.0,0.0,0.0
2721839748,8,1479.0,1430.0,1466.0,1422.0,1467.0,1431.0,1479.0,1440.0,0.0,0.0,0.0,0.0,0.0,0.0,0.0,0.0
2721888028,8,1481.0,1431.0,1469.0,1422.0,1467.0,1428.0,1478.0,1437.0,0.0,0.0,0.0,0.0,0.0,0.0,0.0,0.0
2721935774,8,1480.0,1433.0,1469.0,1423.0,1466.0,1428.0,1477.0,1439.0,0.0,0.0,0.0,0.0,0.0,0.0,0.0,0.0
2721955760,8,1479.0,1431.0,1466.0,1421.0,1465.0,1430.0,1479.0,1440.0,0.0,0.0,0.0,0.0,0.0,0.0,0.0,0.0
2722016566,8,1481.0,1431.0,1468.0,1421.0,1467.0,1429.0,1479.0,1439.0,0.0,0.0,0.0,0.0,0.0,0.0,0.0,0.0
2722040539,8,1479.0,1433.0,1467.0,1423.0,1466.0,1431.0,1479.0,1441.0,0.0,0.0,0.0,0.0,0.0,0.0,0.0,0.0
2722084578,8,1477.0,1434.0,1467.0,1426.0,1465.0,1432.0,1476.0,1440.0,0.0,0.0,0.0,0.0,0.0,0.0,0.0,0.0
2722128656,8,1479.0,1436.0,1471.0,1427.0,1466.0,1429.0,1474.0,1438.0,0.0,0.0,0.0,0.0,0.0,0.0,0.0,0.0
2722176875,8,1477.0,1432.0,1467.0,1424.0,1466.0,1432.0,1477.0,1439.0,0.0,0.0,0.0,0.0,0.0,0.0,0.0,0.0
2722216573,8,1481.0,1433.0,1470.0,1423.0,1467.0,1428.0,1478.0,1438.0,0.0,0.0,0.0,0.0,0.0,0.0,0.0,0.0
2722261351,8,1481.0,1435.0,1470.0,1424.0,1465.0,1428.0,1476.0,1439.0,0.0,0.0,0.0,0.0,0.0,0.0,0.0,0.0
2722301331,8,1479.0,1436.0,1470.0,1426.0,1468.0,1432.0,1476.0,1438.0,0.0,0.0,0.0,0.0,0.0,0.0,0.0,0.0
2722345643,8,1478.0,1432.0,1468.0,1424.0,1467.0,1430.0,1476.0,1438.0,0.0,0.0,0.0,0.0,0.0,0.0,0.0,0.0
2722393700,8,1476.0,1434.0,1465.0,1426.0,1465.0,1433.0,1475.0,1441.0,0.0,0.0,0.0,0.0,0.0,0.0,0.0,0.0
2722437419,8,1479.0,1436.0,1470.0,1427.0,1465.0,1430.0,1474.0,1439.0,0.0,0.0,0.0,0.0,0.0,0.0,0.0,0.0
2722457341,8,1479.0,1437.0,1471.0,1428.0,1465.0,1429.0,1473.0,1438.0,0.0,0.0,0.0,0.0,0.0,0.0,0.0,0.0
2722502420,8,1475.0,1434.0,1466.0,1427.0,1465.0,1432.0,1474.0,1440.0,0.0,0.0,0.0,0.0,0.0,0.0,0.0,0.0
2722550041,8,1476.0,1433.0,1468.0,1426.0,1467.0,1431.0,1476.0,1438.0,0.0,0.0,0.0,0.0,0.0,0.0,0.0,0.0
2722594223,8,1477.0,1432.0,1466.0,1424.0,1465.0,1431.0,1476.0,1439.0,0.0,0.0,0.0,0.0,0.0,0.0,0.0,0.0
2722638185,8,1476.0,1432.0,1466.0,1425.0,1465.0,1431.0,1475.0,1439.0,0.0,0.0,0.0,0.0,0.0,0.0,0.0,0.0
2722678136,8,1476.0,1436.0,1470.0,1430.0,1468.0,1433.0,1474.0,1439.0,0.0,0.0,0.0,0.0,0.0,0.0,0.0,0.0
2722722215,8,1474.0,1435.0,1467.0,1429.0,1466.0,1433.0,1472.0,1439.0,0.0,0.0,0.0,0.0,0.0,0.0,0.0,0.0
2722762980,8,1474.0,1432.0,1466.0,1427.0,1466.0,1432.0,1474.0,1437.0,0.0,0.0,0.0,0.0,0.0,0.0,0.0,0.0
2722810936,8,1473.0,1434.0,1466.0,1429.0,1464.0,1433.0,1471.0,1439.0,0.0,0.0,0.0,0.0,0.0,0.0,0.0,0.0
2722854974,8,1473.0,1435.0,1467.0,1431.0,1467.0,1434.0,1472.0,1438.0,0.0,0.0,0.0,0.0,0.0,0.0,0.0,0.0
2722878973,8,1474.0,1435.0,1468.0,1429.0,1465.0,1431.0,1471.0,1438.0,0.0,0.0,0.0,0.0,0.0,0.0,0.0,0.0
2722923003,8,1474.0,1432.0,1466.0,1428.0,1468.0,1434.0,1475.0,1438.0,0.0,0.0,0.0,0.0,0.0,0.0,0.0,0.0
2722966934,8,1473.0,1436.0,1466.0,1430.0,1464.0,1433.0,1471.0,1439.0,0.0,0.0,0.0,0.0,0.0,0.0,0.0,0.0
2723010990,8,1470.0,1433.0,1461.0,1429.0,1464.0,1438.0,1473.0,1442.0,0.0,0.0,0.0,0.0,0.0,0.0,0.0,0.0
2723054936,8,1471.0,1433.0,1462.0,1428.0,1464.0,1436.0,1473.0,1441.0,0.0,0.0,0.0,0.0,0.0,0.0,0.0,0.0
2723099612,8,1473.0,1429.0,1462.0,1426.0,1468.0,1438.0,1479.0,1441.0,0.0,0.0,0.0,0.0,0.0,0.0,0.0,0.0
2723143735,8,1470.0,1431.0,1459.0,1426.0,1463.0,1436.0,1474.0,1441.0,0.0,0.0,0.0,0.0,0.0,0.0,0.0,0.0
2723188025,8,1474.0,1431.0,1464.0,1426.0,1466.0,1434.0,1476.0,1440.0,0.0,0.0,0.0,0.0,0.0,0.0,0.0,0.0
2723227862,8,1474.0,1433.0,1465.0,1427.0,1465.0,1434.0,1475.0,1440.0,0.0,0.0,0.0,0.0,0.0,0.0,0.0,0.0
2723271791,8,1471.0,1431.0,1461.0,1426.0,1464.0,1436.0,1475.0,1441.0,0.0,0.0,0.0,0.0,0.0,0.0,0.0,0.0
2723319791,8,1473.0,1433.0,1464.0,1428.0,1466.0,1435.0,1474.0,1440.0,0.0,0.0,0.0,0.0,0.0,0.0,0.0,0.0
2723340586,8,1471.0,1431.0,1459.0,1427.0,1464.0,1438.0,1476.0,1443.0,0.0,0.0,0.0,0.0,0.0,0.0,0.0,0.0
2723388543,8,1470.0,1430.0,1459.0,1427.0,1466.0,1440.0,1477.0,1442.0,0.0,0.0,0.0,0.0,0.0,0.0,0.0,0.0
2723432550,8,1474.0,1435.0,1466.0,1428.0,1465.0,1433.0,1473.0,1440.0,0.0,0.0,0.0,0.0,0.0,0.0,0.0,0.0
2723476915,8,1474.0,1434.0,1466.0,1430.0,1468.0,1436.0,1475.0,1440.0,0.0,0.0,0.0,0.0,0.0,0.0,0.0,0.0
2723520536,8,1476.0,1429.0,1467.0,1424.0,1469.0,1433.0,1479.0,1438.0,0.0,0.0,0.0,0.0,0.0,0.0,0.0,0.0
2723560593,8,1473.0,1432.0,1462.0,1427.0,1466.0,1438.0,1478.0,1443.0,0.0,0.0,0.0,0.0,0.0,0.0,0.0,0.0
2723605378,8,1476.0,1435.0,1466.0,1428.0,1465.0,1434.0,1475.0,1442.0,0.0,0.0,0.0,0.0,0.0,0.0,0.0,0.0
2723653335,8,1474.0,1434.0,1467.0,1429.0,1468.0,1435.0,1475.0,1439.0,0.0,0.0,0.0,0.0,0.0,0.0,0.0,0.0
2723693651,8,1474.0,1435.0,1468.0,1431.0,1469.0,1436.0,1475.0,1439.0,0.0,0.0,0.0,0.0,0.0,0.0,0.0,0.0
2723737437,8,1474.0,1432.0,1467.0,1428.0,1468.0,1434.0,1475.0,1438.0,0.0,0.0,0.0,0.0,0.0,0.0,0.0,0.0
2723761198,8,1475.0,1433.0,1469.0,1430.0,1471.0,1436.0,1477.0,1439.0,0.0,0.0,0.0,0.0,0.0,0.0,0.0,0.0
2723805334,8,1472.0,1430.0,1464.0,1428.0,1468.0,1437.0,1477.0,1440.0,0.0,0.0,0.0,0.0,0.0,0.0,0.0,0.0
2723850109,8,1473.0,1430.0,1466.0,1428.0,1471.0,1436.0,1478.0,1438.0,0.0,0.0,0.0,0.0,0.0,0.0,0.0,0.0
2723894204,8,1472.0,1431.0,1465.0,1428.0,1468.0,1435.0,1475.0,1438.0,0.0,0.0,0.0,0.0,0.0,0.0,0.0,0.0
2723934256,8,1474.0,1433.0,1466.0,1428.0,1467.0,1435.0,1475.0,1440.0,0.0,0.0,0.0,0.0,0.0,0.0,0.0,0.0
2723982563,8,1471.0,1431.0,1463.0,1428.0,1467.0,1436.0,1475.0,1439.0,0.0,0.0,0.0,0.0,0.0,0.0,0.0,0.0
2724030139,8,1470.0,1430.0,1462.0,1428.0,1467.0,1438.0,1476.0,1440.0,0.0,0.0,0.0,0.0,0.0,0.0,0.0,0.0
2724054421,8,1474.0,1435.0,1466.0,1430.0,1467.0,1436.0,1475.0,1440.0,0.0,0.0,0.0,0.0,0.0,0.0,0.0,0.0
2724102161,8,1475.0,1430.0,1465.0,1427.0,1470.0,1437.0,1480.0,1441.0,0.0,0.0,0.0,0.0,0.0,0.0,0.0,0.0
2724142975,8,1472.0,1436.0,1465.0,1431.0,1466.0,1437.0,1473.0,1442.0,0.0,0.0,0.0,0.0,0.0,0.0,0.0,0.0
2724183117,8,1472.0,1432.0,1462.0,1428.0,1467.0,1439.0,1478.0,1443.0,0.0,0.0,0.0,0.0,0.0,0.0,0.0,0.0
2724230789,8,1472.0,1431.0,1463.0,1428.0,1467.0,1438.0,1477.0,1441.0,0.0,0.0,0.0,0.0,0.0,0.0,0.0,0.0
2724271367,8,1472.0,1432.0,1462.0,1429.0,1468.0,1440.0,1477.0,1443.0,0.0,0.0,0.0,0.0,0.0,0.0,0.0,0.0
2724318954,8,1476.0,1432.0,1463.0,1428.0,1468.0,1439.0,1479.0,1443.0,0.0,0.0,0.0,0.0,0.0,0.0,0.0,0.0
2724362976,8,1475.0,1437.0,1467.0,1432.0,1468.0,1438.0,1476.0,1443.0,0.0,0.0,0.0,0.0,0.0,0.0,0.0,0.0
2724383006,8,1476.0,1436.0,1468.0,1432.0,1469.0,1438.0,1477.0,1443.0,0.0,0.0,0.0,0.0,0.0,0.0,0.0,0.0
2724427731,8,1475.0,1435.0,1465.0,1430.0,1469.0,1440.0,1479.0,1444.0,0.0,0.0,0.0,0.0,0.0,0.0,0.0,0.0
2724471835,8,1474.0,1434.0,1464.0,1429.0,1467.0,1439.0,1478.0,1444.0,0.0,0.0,0.0,0.0,0.0,0.0,0.0,0.0
2724515772,8,1476.0,1435.0,1465.0,1428.0,1466.0,1437.0,1477.0,1444.0,0.0,0.0,0.0,0.0,0.0,0.0,0.0,0.0
2724559739,8,1478.0,1435.0,1468.0,1427.0,1468.0,1434.0,1477.0,1441.0,0.0,0.0,0.0,0.0,0.0,0.0,0.0,0.0
2724607720,8,1479.0,1433.0,1468.0,1427.0,1469.0,1435.0,1480.0,1442.0,0.0,0.0,0.0,0.0,0.0,0.0,0.0,0.0
2724648535,8,1472.0,1430.0,1458.0,1426.0,1466.0,1441.0,1480.0,1445.0,0.0,0.0,0.0,0.0,0.0,0.0,0.0,0.0
2724692575,8,1478.0,1435.0,1467.0,1428.0,1468.0,1437.0,1479.0,1444.0,0.0,0.0,0.0,0.0,0.0,0.0,0.0,0.0
2724732623,8,1477.0,1431.0,1463.0,1424.0,1468.0,1437.0,1482.0,1444.0,0.0,0.0,0.0,0.0,0.0,0.0,0.0,0.0
2724780583,8,1475.0,1431.0,1464.0,1427.0,1470.0,1439.0,1481.0,1443.0,0.0,0.0,0.0,0.0,0.0,0.0,0.0,0.0
2724804538,8,1478.0,1430.0,1466.0,1428.0,1470.0,1439.0,1481.0,1444.0,0.0,0.0,0.0,0.0,0.0,0.0,0.0,0.0
2724848575,8,1476.0,1432.0,1463.0,1427.0,1469.0,1440.0,1481.0,1444.0,0.0,0.0,0.0,0.0,0.0,0.0,0.0,0.0
2724892577,8,1476.0,1430.0,1463.0,1426.0,1469.0,1439.0,1482.0,1443.0,0.0,0.0,0.0,0.0,0.0,0.0,0.0,0.0
2724933308,8,1479.0,1432.0,1466.0,1426.0,1469.0,1437.0,1482.0,1443.0,0.0,0.0,0.0,0.0,0.0,0.0,0.0,0.0
2724973376,8,1477.0,1433.0,1465.0,1428.0,1470.0,1439.0,1482.0,1445.0,0.0,0.0,0.0,0.0,0.0,0.0,0.0,0.0
2725017520,8,1478.0,1431.0,1464.0,1424.0,1468.0,1438.0,1483.0,1445.0,0.0,0.0,0.0,0.0,0.0,0.0,0.0,0.0
2725065341,8,1479.0,1429.0,1463.0,1423.0,1470.0,1438.0,1485.0,1444.0,0.0,0.0,0.0,0.0,0.0,0.0,0.0,0.0
2725105331,8,1480.0,1433.0,1466.0,1426.0,1470.0,1438.0,1484.0,1445.0,0.0,0.0,0.0,0.0,0.0,0.0,0.0,0.0
2725149500,8,1481.0,1435.0,1468.0,1426.0,1468.0,1435.0,1481.0,1444.0,0.0,0.0,0.0,0.0,0.0,0.0,0.0,0.0
2725190114,8,1484.0,1434.0,1470.0,1424.0,1469.0,1433.0,1483.0,1443.0,0.0,0.0,0.0,0.0,0.0,0.0,0.0,0.0
2725238239,8,1482.0,1438.0,1470.0,1428.0,1467.0,1434.0,1479.0,1445.0,0.0,0.0,0.0,0.0,0.0,0.0,0.0,0.0
2725282178,8,1483.0,1435.0,1471.0,1426.0,1469.0,1433.0,1481.0,1442.0,0.0,0.0,0.0,0.0,0.0,0.0,0.0,0.0
2725326196,8,1480.0,1436.0,1467.0,1426.0,1467.0,1436.0,1480.0,1445.0,0.0,0.0,0.0,0.0,0.0,0.0,0.0,0.0
2725370115,8,1481.0,1435.0,1468.0,1427.0,1468.0,1436.0,1481.0,1444.0,0.0,0.0,0.0,0.0,0.0,0.0,0.0,0.0
2725414178,8,1481.0,1437.0,1469.0,1426.0,1466.0,1433.0,1478.0,1444.0,0.0,0.0,0.0,0.0,0.0,0.0,0.0,0.0
2725438241,8,1481.0,1434.0,1471.0,1426.0,1470.0,1433.0,1480.0,1441.0,0.0,0.0,0.0,0.0,0.0,0.0,0.0,0.0
2725483015,8,1480.0,1433.0,1467.0,1424.0,1467.0,1433.0,1480.0,1442.0,0.0,0.0,0.0,0.0,0.0,0.0,0.0,0.0
2725527089,8,1479.0,1431.0,1469.0,1426.0,1467.0,1433.0,1478.0,1442.0,0.0,0.0,0.0,0.0,0.0,0.0,0.0,0.0
2725575022,8,1482.0,1433.0,1470.0,1423.0,1468.0,1430.0,1480.0,1440.0,0.0,0.0,0.0,0.0,0.0,0.0,0.0,0.0
2725619223,8,1480.0,1437.0,1470.0,1428.0,1466.0,1433.0,1476.0,1442.0,0.0,0.0,0.0,0.0,0.0,0.0,0.0,0.0
2725666932,8,1479.0,1435.0,1469.0,1426.0,1466.0,1431.0,1476.0,1440.0,0.0,0.0,0.0,0.0,0.0,0.0,0.0,0.0
2725707889,8,1479.0,1435.0,1468.0,1426.0,1466.0,1432.0,1477.0,1442.0,0.0,0.0,0.0,0.0,0.0,0.0,0.0,0.0
2725751811,8,1480.0,1433.0,1468.0,1424.0,1467.0,1431.0,1479.0,1440.0,0.0,0.0,0.0,0.0,0.0,0.0,0.0,0.0
2725775841,8,1480.0,1431.0,1466.0,1425.0,1465.0,1432.0,1476.0,1442.0,0.0,0.0,0.0,0.0,0.0,0.0,0.0,0.0
2725820162,8,1477.0,1430.0,1463.0,1423.0,1467.0,1435.0,1481.0,1442.0,0.0,0.0,0.0,0.0,0.0,0.0,0.0,0.0
2725859908,8,1479.0,1431.0,1466.0,1422.0,1467.0,1432.0,1480.0,1441.0,0.0,0.0,0.0,0.0,0.0,0.0,0.0,0.0
2725907589,8,1480.0,1431.0,1467.0,1422.0,1467.0,1431.0,1480.0,1441.0,0.0,0.0,0.0,0.0,0.0,0.0,0.0,0.0
2725947770,8,1481.0,1435.0,1469.0,1424.0,1466.0,1430.0,1477.0,1440.0,0.0,0.0,0.0,0.0,0.0,0.0,0.0,0.0
2725992523,8,1481.0,1433.0,1468.0,1423.0,1466.0,1429.0,1478.0,1440.0,0.0,0.0,0.0,0.0,0.0,0.0,0.0,0.0
2726040558,8,1479.0,1430.0,1468.0,1423.0,1469.0,1432.0,1481.0,1439.0,0.0,0.0,0.0,0.0,0.0,0.0,0.0,0.0
2726088567,8,1482.0,1431.0,1471.0,1423.0,1470.0,1430.0,1481.0,1438.0,0.0,0.0,0.0,0.0,0.0,0.0,0.0,0.0
2726128602,8,1481.0,1426.0,1467.0,1419.0,1470.0,1431.0,1485.0,1439.0,0.0,0.0,0.0,0.0,0.0,0.0,0.0,0.0
2726172622,8,1482.0,1429.0,1470.0,1421.0,1470.0,1430.0,1483.0,1438.0,0.0,0.0,0.0,0.0,0.0,0.0,0.0,0.0
2726216902,8,1481.0,1429.0,1468.0,1422.0,1472.0,1433.0,1484.0,1440.0,0.0,0.0,0.0,0.0,0.0,0.0,0.0,0.0
2726240554,8,1479.0,1426.0,1464.0,1420.0,1470.0,1435.0,1485.0,1441.0,0.0,0.0,0.0,0.0,0.0,0.0,0.0,0.0
2726285334,8,1479.0,1428.0,1466.0,1422.0,1471.0,1436.0,1485.0,1441.0,0.0,0.0,0.0,0.0,0.0,0.0,0.0,0.0
2726329382,8,1481.0,1425.0,1468.0,1420.0,1474.0,1433.0,1486.0,1438.0,0.0,0.0,0.0,0.0,0.0,0.0,0.0,0.0
2726377474,8,1478.0,1428.0,1465.0,1423.0,1471.0,1437.0,1484.0,1441.0,0.0,0.0,0.0,0.0,0.0,0.0,0.0,0.0
2726417564,8,1476.0,1421.0,1461.0,1418.0,1472.0,1437.0,1487.0,1440.0,0.0,0.0,0.0,0.0,0.0,0.0,0.0,0.0
2726461414,8,1477.0,1426.0,1463.0,1420.0,1469.0,1435.0,1483.0,1440.0,0.0,0.0,0.0,0.0,0.0,0.0,0.0,0.0
2726506262,8,1477.0,1425.0,1462.0,1420.0,1470.0,1437.0,1485.0,1441.0,0.0,0.0,0.0,0.0,0.0,0.0,0.0,0.0
2726546121,8,1481.0,1427.0,1467.0,1420.0,1471.0,1433.0,1485.0,1440.0,0.0,0.0,0.0,0.0,0.0,0.0,0.0,0.0
2726590161,8,1474.0,1421.0,1458.0,1418.0,1471.0,1438.0,1486.0,1441.0,0.0,0.0,0.0,0.0,0.0,0.0,0.0,0.0
2726630162,8,1477.0,1427.0,1461.0,1420.0,1467.0,1435.0,1483.0,1442.0,0.0,0.0,0.0,0.0,0.0,0.0,0.0,0.0
2726673993,8,1476.0,1423.0,1460.0,1417.0,1468.0,1435.0,1484.0,1440.0,0.0,0.0,0.0,0.0,0.0,0.0,0.0,0.0
2726718172,8,1478.0,1422.0,1461.0,1416.0,1470.0,1434.0,1487.0,1440.0,0.0,0.0,0.0,0.0,0.0,0.0,0.0,0.0
2726758440,8,1477.0,1423.0,1458.0,1416.0,1466.0,1435.0,1485.0,1443.0,0.0,0.0,0.0,0.0,0.0,0.0,0.0,0.0
2726798269,8,1478.0,1426.0,1462.0,1418.0,1467.0,1433.0,1483.0,1441.0,0.0,0.0,0.0,0.0,0.0,0.0,0.0,0.0
2726842932,8,1479.0,1426.0,1461.0,1418.0,1467.0,1434.0,1484.0,1442.0,0.0,0.0,0.0,0.0,0.0,0.0,0.0,0.0
2726882933,8,1476.0,1423.0,1459.0,1417.0,1467.0,1434.0,1484.0,1441.0,0.0,0.0,0.0,0.0,0.0,0.0,0.0,0.0
2726926957,8,1478.0,1423.0,1459.0,1415.0,1466.0,1433.0,1485.0,1442.0,0.0,0.0,0.0,0.0,0.0,0.0,0.0,0.0
2726975239,8,1479.0,1425.0,1463.0,1416.0,1467.0,1431.0,1483.0,1439.0,0.0,0.0,0.0,0.0,0.0,0.0,0.0,0.0
2726994978,8,1479.0,1427.0,1463.0,1418.0,1466.0,1431.0,1482.0,1440.0,0.0,0.0,0.0,0.0,0.0,0.0,0.0,0.0
2727038939,8,1483.0,1426.0,1467.0,1416.0,1468.0,1428.0,1484.0,1438.0,0.0,0.0,0.0,0.0,0.0,0.0,0.0,0.0
2727083886,8,1480.0,1426.0,1463.0,1415.0,1465.0,1429.0,1483.0,1440.0,0.0,0.0,0.0,0.0,0.0,0.0,0.0,0.0
2727123771,8,1479.0,1422.0,1461.0,1413.0,1467.0,1431.0,1485.0,1440.0,0.0,0.0,0.0,0.0,0.0,0.0,0.0,0.0
2727171613,8,1479.0,1423.0,1462.0,1414.0,1466.0,1429.0,1483.0,1438.0,0.0,0.0,0.0,0.0,0.0,0.0,0.0,0.0
2727215784,8,1480.0,1421.0,1462.0,1413.0,1468.0,1429.0,1485.0,1437.0,0.0,0.0,0.0,0.0,0.0,0.0,0.0,0.0
2727264032,8,1479.0,1424.0,1464.0,1417.0,1468.0,1430.0,1482.0,1437.0,0.0,0.0,0.0,0.0,0.0,0.0,0.0,0.0
2727308603,8,1479.0,1424.0,1463.0,1416.0,1467.0,1429.0,1482.0,1438.0,0.0,0.0,0.0,0.0,0.0,0.0,0.0,0.0
2727348580,8,1479.0,1421.0,1463.0,1413.0,1468.0,1429.0,1485.0,1436.0,0.0,0.0,0.0,0.0,0.0,0.0,0.0,0.0
2727392586,8,1477.0,1419.0,1462.0,1414.0,1470.0,1430.0,1485.0,1435.0,0.0,0.0,0.0,0.0,0.0,0.0,0.0,0.0
2727436408,8,1478.0,1424.0,1463.0,1416.0,1467.0,1429.0,1482.0,1437.0,0.0,0.0,0.0,0.0,0.0,0.0,0.0,0.0
2727456619,8,1480.0,1423.0,1466.0,1415.0,1469.0,1428.0,1483.0,1435.0,0.0,0.0,0.0,0.0,0.0,0.0,0.0,0.0
2727504641,8,1478.0,1427.0,1467.0,1420.0,1468.0,1428.0,1479.0,1435.0,0.0,0.0,0.0,0.0,0.0,0.0,0.0,0.0
2727544625,8,1478.0,1423.0,1464.0,1415.0,1467.0,1427.0,1481.0,1435.0,0.0,0.0,0.0,0.0,0.0,0.0,0.0,0.0
2727588817,8,1478.0,1417.0,1461.0,1412.0,1471.0,1430.0,1488.0,1435.0,0.0,0.0,0.0,0.0,0.0,0.0,0.0,0.0
2727633390,8,1481.0,1421.0,1469.0,1415.0,1472.0,1427.0,1485.0,1433.0,0.0,0.0,0.0,0.0,0.0,0.0,0.0,0.0
2727677333,8,1483.0,1419.0,1468.0,1412.0,1472.0,1425.0,1487.0,1433.0,0.0,0.0,0.0,0.0,0.0,0.0,0.0,0.0
2727717333,8,1483.0,1419.0,1469.0,1412.0,1472.0,1424.0,1486.0,1432.0,0.0,0.0,0.0,0.0,0.0,0.0,0.0,0.0
2727761392,8,1482.0,1419.0,1469.0,1413.0,1473.0,1425.0,1486.0,1431.0,0.0,0.0,0.0,0.0,0.0,0.0,0.0,0.0
2727809346,8,1482.0,1416.0,1470.0,1412.0,1477.0,1425.0,1489.0,1429.0,0.0,0.0,0.0,0.0,0.0,0.0,0.0,0.0
2727850155,8,1481.0,1417.0,1468.0,1413.0,1475.0,1428.0,1489.0,1432.0,0.0,0.0,0.0,0.0,0.0,0.0,0.0,0.0
2727898143,8,1485.0,1415.0,1470.0,1409.0,1477.0,1425.0,1492.0,1431.0,0.0,0.0,0.0,0.0,0.0,0.0,0.0,0.0
2727918139,8,1484.0,1411.0,1468.0,1405.0,1476.0,1422.0,1491.0,1428.0,0.0,0.0,0.0,0.0,0.0,0.0,0.0,0.0
2727966230,8,1485.0,1418.0,1472.0,1410.0,1474.0,1421.0,1487.0,1429.0,0.0,0.0,0.0,0.0,0.0,0.0,0.0,0.0
2728010196,8,1487.0,1418.0,1472.0,1409.0,1474.0,1421.0,1489.0,1430.0,0.0,0.0,0.0,0.0,0.0,0.0,0.0,0.0
2728054176,8,1485.0,1417.0,1470.0,1409.0,1474.0,1423.0,1489.0,1430.0,0.0,0.0,0.0,0.0,0.0,0.0,0.0,0.0
2728102161,8,1485.0,1414.0,1466.0,1405.0,1472.0,1423.0,1491.0,1432.0,0.0,0.0,0.0,0.0,0.0,0.0,0.0,0.0
2728142001,8,1488.0,1416.0,1469.0,1405.0,1471.0,1420.0,1490.0,1431.0,0.0,0.0,0.0,0.0,0.0,0.0,0.0,0.0
2728186931,8,1487.0,1418.0,1470.0,1407.0,1472.0,1421.0,1490.0,1432.0,0.0,0.0,0.0,0.0,0.0,0.0,0.0,0.0
2728206933,8,1488.0,1416.0,1470.0,1406.0,1473.0,1421.0,1491.0,1431.0,0.0,0.0,0.0,0.0,0.0,0.0,0.0,0.0
2728270936,8,1488.0,1416.0,1468.0,1406.0,1473.0,1424.0,1493.0,1434.0,0.0,0.0,0.0,0.0,0.0,0.0,0.0,0.0
2728294929,8,1488.0,1419.0,1471.0,1408.0,1472.0,1421.0,1490.0,1432.0,0.0,0.0,0.0,0.0,0.0,0.0,0.0,0.0
2728339062,8,1487.0,1417.0,1468.0,1408.0,1474.0,1426.0,1494.0,1436.0,0.0,0.0,0.0,0.0,0.0,0.0,0.0,0.0
2728387019,8,1488.0,1419.0,1471.0,1410.0,1475.0,1425.0,1493.0,1434.0,0.0,0.0,0.0,0.0,0.0,0.0,0.0,0.0
2728435737,8,1486.0,1419.0,1466.0,1407.0,1469.0,1424.0,1490.0,1436.0,0.0,0.0,0.0,0.0,0.0,0.0,0.0,0.0
2728479777,8,1488.0,1422.0,1469.0,1409.0,1469.0,1422.0,1487.0,1435.0,0.0,0.0,0.0,0.0,0.0,0.0,0.0,0.0
2728523824,8,1485.0,1424.0,1468.0,1413.0,1470.0,1427.0,1488.0,1438.0,0.0,0.0,0.0,0.0,0.0,0.0,0.0,0.0
2728568023,8,1484.0,1423.0,1465.0,1411.0,1468.0,1427.0,1487.0,1438.0,0.0,0.0,0.0,0.0,0.0,0.0,0.0,0.0
2728611784,8,1485.0,1426.0,1468.0,1414.0,1468.0,1425.0,1485.0,1438.0,0.0,0.0,0.0,0.0,0.0,0.0,0.0,0.0
2728631831,8,1486.0,1426.0,1467.0,1413.0,1467.0,1426.0,1485.0,1439.0,0.0,0.0,0.0,0.0,0.0,0.0,0.0,0.0
2728676558,8,1482.0,1425.0,1462.0,1414.0,1466.0,1430.0,1486.0,1442.0,0.0,0.0,0.0,0.0,0.0,0.0,0.0,0.0
2728720556,8,1486.0,1426.0,1469.0,1415.0,1469.0,1427.0,1486.0,1439.0,0.0,0.0,0.0,0.0,0.0,0.0,0.0,0.0
2728764611,8,1483.0,1427.0,1466.0,1416.0,1467.0,1429.0,1484.0,1440.0,0.0,0.0,0.0,0.0,0.0,0.0,0.0,0.0
2728812554,8,1480.0,1427.0,1463.0,1416.0,1464.0,1429.0,1482.0,1441.0,0.0,0.0,0.0,0.0,0.0,0.0,0.0,0.0
2728852824,8,1482.0,1431.0,1466.0,1418.0,1465.0,1430.0,1482.0,1442.0,0.0,0.0,0.0,0.0,0.0,0.0,0.0,0.0
2728900539,8,1480.0,1426.0,1461.0,1415.0,1465.0,1431.0,1483.0,1441.0,0.0,0.0,0.0,0.0,0.0,0.0,0.0,0.0
2728944566,8,1479.0,1422.0,1458.0,1413.0,1466.0,1433.0,1487.0,1442.0,0.0,0.0,0.0,0.0,0.0,0.0,0.0,0.0
2728985413,8,1480.0,1424.0,1464.0,1415.0,1467.0,1430.0,1484.0,1439.0,0.0,0.0,0.0,0.0,0.0,0.0,0.0,0.0
2729025416,8,1482.0,1426.0,1465.0,1416.0,1468.0,1430.0,1484.0,1440.0,0.0,0.0,0.0,0.0,0.0,0.0,0.0,0.0
2729073369,8,1480.0,1429.0,1466.0,1419.0,1467.0,1430.0,1481.0,1440.0,0.0,0.0,0.0,0.0,0.0,0.0,0.0,0.0
2729113366,8,1481.0,1427.0,1467.0,1418.0,1469.0,1431.0,1484.0,1439.0,0.0,0.0,0.0,0.0,0.0,0.0,0.0,0.0
2729153451,8,1480.0,1428.0,1464.0,1418.0,1467.0,1432.0,1483.0,1441.0,0.0,0.0,0.0,0.0,0.0,0.0,0.0,0.0
2729198116,8,1479.0,1426.0,1461.0,1419.0,1469.0,1436.0,1486.0,1443.0,0.0,0.0,0.0,0.0,0.0,0.0,0.0,0.0
2729242201,8,1478.0,1425.0,1462.0,1418.0,1468.0,1434.0,1485.0,1441.0,0.0,0.0,0.0,0.0,0.0,0.0,0.0,0.0
2729266152,8,1481.0,1422.0,1464.0,1416.0,1472.0,1433.0,1489.0,1440.0,0.0,0.0,0.0,0.0,0.0,0.0,0.0,0.0
2729314240,8,1481.0,1422.0,1461.0,1414.0,1470.0,1434.0,1489.0,1442.0,0.0,0.0,0.0,0.0,0.0,0.0,0.0,0.0
2729358600,8,1483.0,1428.0,1465.0,1417.0,1467.0,1431.0,1485.0,1442.0,0.0,0.0,0.0,0.0,0.0,0.0,0.0,0.0
2729402163,8,1482.0,1427.0,1463.0,1417.0,1468.0,1433.0,1486.0,1444.0,0.0,0.0,0.0,0.0,0.0,0.0,0.0,0.0
2729446191,8,1485.0,1427.0,1460.0,1414.0,1468.0,1435.0,1489.0,1444.0,0.0,0.0,0.0,0.0,0.0,0.0,0.0,0.0
2729486931,8,1483.0,1426.0,1462.0,1414.0,1466.0,1431.0,1487.0,1444.0,0.0,0.0,0.0,0.0,0.0,0.0,0.0,0.0
2729530957,8,1486.0,1425.0,1466.0,1413.0,1469.0,1429.0,1489.0,1441.0,0.0,0.0,0.0,0.0,0.0,0.0,0.0,0.0
2729575311,8,1485.0,1425.0,1466.0,1413.0,1468.0,1429.0,1488.0,1441.0,0.0,0.0,0.0,0.0,0.0,0.0,0.0,0.0
2729598980,8,1482.0,1423.0,1462.0,1413.0,1469.0,1432.0,1489.0,1442.0,0.0,0.0,0.0,0.0,0.0,0.0,0.0,0.0
2729642945,8,1487.0,1421.0,1466.0,1410.0,1471.0,1429.0,1492.0,1440.0,0.0,0.0,0.0,0.0,0.0,0.0,0.0,0.0
2729686951,8,1485.0,1426.0,1466.0,1414.0,1469.0,1429.0,1488.0,1441.0,0.0,0.0,0.0,0.0,0.0,0.0,0.0,0.0
2729727092,8,1485.0,1425.0,1465.0,1413.0,1469.0,1430.0,1489.0,1442.0,0.0,0.0,0.0,0.0,0.0,0.0,0.0,0.0
2729771871,8,1484.0,1421.0,1463.0,1412.0,1472.0,1433.0,1493.0,1442.0,0.0,0.0,0.0,0.0,0.0,0.0,0.0,0.0
2729815740,8,1486.0,1426.0,1467.0,1415.0,1470.0,1431.0,1489.0,1442.0,0.0,0.0,0.0,0.0,0.0,0.0,0.0,0.0
2729864019,8,1487.0,1422.0,1463.0,1409.0,1469.0,1430.0,1493.0,1443.0,0.0,0.0,0.0,0.0,0.0,0.0,0.0,0.0
2729911753,8,1482.0,1420.0,1461.0,1411.0,1470.0,1433.0,1492.0,1441.0,0.0,0.0,0.0,0.0,0.0,0.0,0.0,0.0
2729936026,8,1485.0,1422.0,1464.0,1411.0,1468.0,1429.0,1489.0,1440.0,0.0,0.0,0.0,0.0,0.0,0.0,0.0,0.0
2729983734,8,1489.0,1424.0,1470.0,1411.0,1471.0,1426.0,1490.0,1438.0,0.0,0.0,0.0,0.0,0.0,0.0,0.0,0.0
2730024546,8,1488.0,1423.0,1468.0,1412.0,1471.0,1428.0,1491.0,1440.0,0.0,0.0,0.0,0.0,0.0,0.0,0.0,0.0
2730072583,8,1485.0,1420.0,1463.0,1410.0,1470.0,1431.0,1492.0,1441.0,0.0,0.0,0.0,0.0,0.0,0.0,0.0,0.0
2730116911,8,1489.0,1424.0,1470.0,1412.0,1472.0,1426.0,1491.0,1438.0,0.0,0.0,0.0,0.0,0.0,0.0,0.0,0.0
2730136591,8,1489.0,1424.0,1472.0,1413.0,1473.0,1426.0,1490.0,1438.0,0.0,0.0,0.0,0.0,0.0,0.0,0.0,0.0
2730180541,8,1487.0,1424.0,1468.0,1413.0,1472.0,1429.0,1491.0,1440.0,0.0,0.0,0.0,0.0,0.0,0.0,0.0,0.0
2730224968,8,1487.0,1424.0,1470.0,1414.0,1474.0,1429.0,1491.0,1438.0,0.0,0.0,0.0,0.0,0.0,0.0,0.0,0.0
2730268576,8,1486.0,1422.0,1469.0,1414.0,1474.0,1429.0,1491.0,1438.0,0.0,0.0,0.0,0.0,0.0,0.0,0.0,0.0
2730313405,8,1486.0,1426.0,1469.0,1416.0,1472.0,1430.0,1489.0,1439.0,0.0,0.0,0.0,0.0,0.0,0.0,0.0,0.0
2730357509,8,1484.0,1424.0,1470.0,1416.0,1473.0,1429.0,1487.0,1436.0,0.0,0.0,0.0,0.0,0.0,0.0,0.0,0.0
2730405759,8,1485.0,1424.0,1470.0,1416.0,1474.0,1429.0,1488.0,1437.0,0.0,0.0,0.0,0.0,0.0,0.0,0.0,0.0
2730449468,8,1486.0,1419.0,1469.0,1412.0,1476.0,1430.0,1493.0,1437.0,0.0,0.0,0.0,0.0,0.0,0.0,0.0,0.0
2730489435,8,1485.0,1423.0,1470.0,1414.0,1473.0,1429.0,1489.0,1437.0,0.0,0.0,0.0,0.0,0.0,0.0,0.0,0.0
2730534190,8,1487.0,1424.0,1473.0,1416.0,1474.0,1427.0,1488.0,1435.0,0.0,0.0,0.0,0.0,0.0,0.0,0.0,0.0
2730578141,8,1482.0,1419.0,1465.0,1413.0,1473.0,1431.0,1490.0,1437.0,0.0,0.0,0.0,0.0,0.0,0.0,0.0,0.0
2730602177,8,1485.0,1421.0,1470.0,1414.0,1475.0,1428.0,1490.0,1435.0,0.0,0.0,0.0,0.0,0.0,0.0,0.0,0.0
2730650151,8,1482.0,1423.0,1468.0,1416.0,1473.0,1430.0,1488.0,1437.0,0.0,0.0,0.0,0.0,0.0,0.0,0.0,0.0
2730698152,8,1484.0,1420.0,1467.0,1412.0,1473.0,1429.0,1491.0,1436.0,0.0,0.0,0.0,0.0,0.0,0.0,0.0,0.0
2730742200,8,1487.0,1422.0,1470.0,1414.0,1474.0,1428.0,1490.0,1436.0,0.0,0.0,0.0,0.0,0.0,0.0,0.0,0.0
2730786156,8,1484.0,1421.0,1465.0,1413.0,1473.0,1431.0,1491.0,1439.0,0.0,0.0,0.0,0.0,0.0,0.0,0.0,0.0
2730826940,8,1482.0,1420.0,1464.0,1411.0,1471.0,1429.0,1489.0,1438.0,0.0,0.0,0.0,0.0,0.0,0.0,0.0,0.0
2730871015,8,1485.0,1421.0,1465.0,1410.0,1469.0,1426.0,1488.0,1438.0,0.0,0.0,0.0,0.0,0.0,0.0,0.0,0.0
2730914910,8,1487.0,1420.0,1467.0,1408.0,1470.0,1424.0,1490.0,1436.0,0.0,0.0,0.0,0.0,0.0,0.0,0.0,0.0
2730954949,8,1485.0,1423.0,1467.0,1412.0,1470.0,1427.0,1488.0,1437.0,0.0,0.0,0.0,0.0,0.0,0.0,0.0,0.0
2730978932,8,1482.0,1419.0,1462.0,1410.0,1469.0,1430.0,1489.0,1439.0,0.0,0.0,0.0,0.0,0.0,0.0,0.0,0.0
2731022933,8,1482.0,1421.0,1464.0,1414.0,1471.0,1431.0,1489.0,1439.0,0.0,0.0,0.0,0.0,0.0,0.0,0.0,0.0
2731071098,8,1484.0,1423.0,1466.0,1413.0,1470.0,1429.0,1488.0,1439.0,0.0,0.0,0.0,0.0,0.0,0.0,0.0,0.0
2731111773,8,1484.0,1416.0,1463.0,1407.0,1472.0,1428.0,1493.0,1437.0,0.0,0.0,0.0,0.0,0.0,0.0,0.0,0.0
2731151903,8,1485.0,1420.0,1468.0,1412.0,1474.0,1430.0,1487.0,1437.0,0.0,0.0,0.0,0.0,0.0,0.0,0.0,0.0
2731195761,8,1482.0,1422.0,1467.0,1414.0,1471.0,1427.0,1486.0,1435.0,0.0,0.0,0.0,0.0,0.0,0.0,0.0,0.0
2731236115,8,1482.0,1418.0,1466.0,1412.0,1473.0,1429.0,1490.0,1435.0,0.0,0.0,0.0,0.0,0.0,0.0,0.0,0.0
2731279836,8,1480.0,1419.0,1464.0,1413.0,1472.0,1431.0,1488.0,1437.0,0.0,0.0,0.0,0.0,0.0,0.0,0.0,0.0
2731327776,8,1481.0,1423.0,1469.0,1417.0,1473.0,1429.0,1491.0,1434.0,0.0,0.0,0.0,0.0,0.0,0.0,0.0,0.0
2731368628,8,1483.0,1419.0,1469.0,1414.0,1476.0,1428.0,1490.0,1433.0,0.0,0.0,0.0,0.0,0.0,0.0,0.0,0.0
2731416652,8,1481.0,1419.0,1467.0,1415.0,1475.0,1430.0,1489.0,1434.0,0.0,0.0,0.0,0.0,0.0,0.0,0.0,0.0
2731440706,8,1483.0,1422.0,1471.0,1417.0,1476.0,1429.0,1487.0,1433.0,0.0,0.0,0.0,0.0,0.0,0.0,0.0,0.0
2731484919,8,1482.0,1416.0,1466.0,1411.0,1475.0,1429.0,1490.0,1434.0,0.0,0.0,0.0,0.0,0.0,0.0,0.0,0.0
2731528665,8,1483.0,1421.0,1467.0,1413.0,1471.0,1427.0,1486.0,1435.0,0.0,0.0,0.0,0.0,0.0,0.0,0.0,0.0
2731572617,8,1481.0,1419.0,1463.0,1411.0,1471.0,1429.0,1489.0,1437.0,0.0,0.0,0.0,0.0,0.0,0.0,0.0,0.0
2731613375,8,1485.0,1419.0,1468.0,1411.0,1472.0,1425.0,1489.0,1434.0,0.0,0.0,0.0,0.0,0.0,0.0,0.0,0.0
2731661223,8,1488.0,1423.0,1473.0,1412.0,1472.0,1421.0,1486.0,1433.0,0.0,0.0,0.0,0.0,0.0,0.0,0.0,0.0
2731701484,8,1484.0,1418.0,1467.0,1410.0,1472.0,1426.0,1489.0,1434.0,0.0,0.0,0.0,0.0,0.0,0.0,0.0,0.0
2731741350,8,1484.0,1421.0,1469.0,1411.0,1470.0,1422.0,1485.0,1432.0,0.0,0.0,0.0,0.0,0.0,0.0,0.0,0.0
2731785377,8,1485.0,1418.0,1469.0,1409.0,1472.0,1423.0,1488.0,1432.0,0.0,0.0,0.0,0.0,0.0,0.0,0.0,0.0
2731829342,8,1484.0,1420.0,1468.0,1411.0,1472.0,1426.0,1489.0,1434.0,0.0,0.0,0.0,0.0,0.0,0.0,0.0,0.0
2731870152,8,1489.0,1420.0,1472.0,1408.0,1472.0,1419.0,1486.0,1434.0,0.0,0.0,0.0,0.0,0.0,0.0,0.0,0.0
2731914142,8,1485.0,1419.0,1467.0,1409.0,1471.0,1424.0,1488.0,1434.0,0.0,0.0,0.0,0.0,0.0,0.0,0.0,0.0
2731958188,8,1484.0,1419.0,1468.0,1411.0,1472.0,1425.0,1488.0,1433.0,0.0,0.0,0.0,0.0,0.0,0.0,0.0,0.0
2732006138,8,1489.0,1420.0,1473.0,1409.0,1473.0,1421.0,1490.0,1432.0,0.0,0.0,0.0,0.0,0.0,0.0,0.0,0.0
2732046194,8,1486.0,1424.0,1473.0,1415.0,1474.0,1424.0,1486.0,1433.0,0.0,0.0,0.0,0.0,0.0,0.0,0.0,0.0
2732086135,8,1483.0,1419.0,1467.0,1410.0,1471.0,1424.0,1486.0,1432.0,0.0,0.0,0.0,0.0,0.0,0.0,0.0,0.0
2732130182,8,1484.0,1421.0,1470.0,1413.0,1473.0,1425.0,1487.0,1433.0,0.0,0.0,0.0,0.0,0.0,0.0,0.0,0.0
2732175070,8,1489.0,1421.0,1475.0,1412.0,1475.0,1421.0,1489.0,1431.0,0.0,0.0,0.0,0.0,0.0,0.0,0.0,0.0
2732198954,8,1487.0,1418.0,1471.0,1409.0,1474.0,1423.0,1491.0,1432.0,0.0,0.0,0.0,0.0,0.0,0.0,0.0,0.0
2732243396,8,1486.0,1421.0,1469.0,1412.0,1473.0,1427.0,1490.0,1436.0,0.0,0.0,0.0,0.0,0.0,0.0,0.0,0.0
2732287093,8,1486.0,1419.0,1470.0,1411.0,1474.0,1425.0,1490.0,1433.0,0.0,0.0,0.0,0.0,0.0,0.0,0.0,0.0
2732331066,8,1489.0,1420.0,1474.0,1410.0,1475.0,1421.0,1490.0,1431.0,0.0,0.0,0.0,0.0,0.0,0.0,0.0,0.0
2732375712,8,1486.0,1420.0,1470.0,1410.0,1472.0,1423.0,1488.0,1433.0,0.0,0.0,0.0,0.0,0.0,0.0,0.0,0.0
2732419630,8,1487.0,1421.0,1471.0,1412.0,1473.0,1423.0,1488.0,1433.0,0.0,0.0,0.0,0.0,0.0,0.0,0.0,0.0
2732443736,8,1485.0,1421.0,1468.0,1412.0,1473.0,1427.0,1489.0,1435.0,0.0,0.0,0.0,0.0,0.0,0.0,0.0,0.0
2732487625,8,1486.0,1420.0,1468.0,1408.0,1470.0,1423.0,1489.0,1434.0,0.0,0.0,0.0,0.0,0.0,0.0,0.0,0.0
2732527763,8,1486.0,1423.0,1468.0,1411.0,1469.0,1424.0,1487.0,1436.0,0.0,0.0,0.0,0.0,0.0,0.0,0.0,0.0
2732587779,8,1486.0,1421.0,1469.0,1411.0,1471.0,1424.0,1488.0,1434.0,0.0,0.0,0.0,0.0,0.0,0.0,0.0,0.0
2732631738,8,1482.0,1423.0,1467.0,1415.0,1470.0,1428.0,1486.0,1437.0,0.0,0.0,0.0,0.0,0.0,0.0,0.0,0.0
2732651738,8,1485.0,1422.0,1468.0,1411.0,1470.0,1425.0,1487.0,1435.0,0.0,0.0,0.0,0.0,0.0,0.0,0.0,0.0
2732696542,8,1484.0,1423.0,1467.0,1413.0,1470.0,1426.0,1487.0,1436.0,0.0,0.0,0.0,0.0,0.0,0.0,0.0,0.0
2732736625,8,1483.0,1424.0,1466.0,1414.0,1469.0,1428.0,1486.0,1438.0,0.0,0.0,0.0,0.0,0.0,0.0,0.0,0.0
2732784816,8,1481.0,1425.0,1466.0,1417.0,1469.0,1429.0,1484.0,1438.0,0.0,0.0,0.0,0.0,0.0,0.0,0.0,0.0
2732828609,8,1484.0,1428.0,1470.0,1418.0,1470.0,1428.0,1484.0,1438.0,0.0,0.0,0.0,0.0,0.0,0.0,0.0,0.0
2732872573,8,1482.0,1427.0,1468.0,1417.0,1468.0,1427.0,1483.0,1437.0,0.0,0.0,0.0,0.0,0.0,0.0,0.0,0.0
2732912535,8,1480.0,1423.0,1466.0,1417.0,1471.0,1431.0,1485.0,1437.0,0.0,0.0,0.0,0.0,0.0,0.0,0.0,0.0
2732952666,8,1481.0,1429.0,1468.0,1420.0,1469.0,1430.0,1482.0,1439.0,0.0,0.0,0.0,0.0,0.0,0.0,0.0,0.0
2732993353,8,1478.0,1425.0,1462.0,1417.0,1466.0,1432.0,1482.0,1440.0,0.0,0.0,0.0,0.0,0.0,0.0,0.0,0.0
2733041224,8,1481.0,1429.0,1466.0,1419.0,1467.0,1431.0,1483.0,1441.0,0.0,0.0,0.0,0.0,0.0,0.0,0.0,0.0
2733089342,8,1481.0,1427.0,1467.0,1419.0,1470.0,1431.0,1484.0,1439.0,0.0,0.0,0.0,0.0,0.0,0.0,0.0,0.0
2733133331,8,1479.0,1431.0,1465.0,1421.0,1466.0,1432.0,1480.0,1441.0,0.0,0.0,0.0,0.0,0.0,0.0,0.0,0.0
2733173351,8,1483.0,1427.0,1465.0,1417.0,1468.0,1432.0,1486.0,1442.0,0.0,0.0,0.0,0.0,0.0,0.0,0.0,0.0
2733194190,8,1479.0,1428.0,1465.0,1420.0,1468.0,1432.0,1482.0,1440.0,0.0,0.0,0.0,0.0,0.0,0.0,0.0,0.0
2733242200,8,1483.0,1427.0,1465.0,1419.0,1466.0,1431.0,1482.0,1441.0,0.0,0.0,0.0,0.0,0.0,0.0,0.0,0.0
2733286202,8,1482.0,1428.0,1466.0,1419.0,1468.0,1431.0,1484.0,1441.0,0.0,0.0,0.0,0.0,0.0,0.0,0.0,0.0
2733326578,8,1481.0,1431.0,1467.0,1421.0,1467.0,1432.0,1481.0,1442.0,0.0,0.0,0.0,0.0,0.0,0.0,0.0,0.0
2733370140,8,1480.0,1426.0,1462.0,1418.0,1467.0,1433.0,1483.0,1441.0,0.0,0.0,0.0,0.0,0.0,0.0,0.0,0.0
2733418141,8,1480.0,1430.0,1466.0,1421.0,1467.0,1431.0,1481.0,1440.0,0.0,0.0,0.0,0.0,0.0,0.0,0.0,0.0
2733466153,8,1476.0,1424.0,1458.0,1417.0,1466.0,1435.0,1484.0,1442.0,0.0,0.0,0.0,0.0,0.0,0.0,0.0,0.0
2733487008,8,1478.0,1426.0,1463.0,1420.0,1469.0,1434.0,1484.0,1441.0,0.0,0.0,0.0,0.0,0.0,0.0,0.0,0.0
2733550981,8,1479.0,1426.0,1463.0,1418.0,1468.0,1433.0,1484.0,1441.0,0.0,0.0,0.0,0.0,0.0,0.0,0.0,0.0
2733570959,8,1478.0,1427.0,1463.0,1421.0,1469.0,1435.0,1484.0,1442.0,0.0,0.0,0.0,0.0,0.0,0.0,0.0,0.0
2733618795,8,1480.0,1430.0,1467.0,1422.0,1468.0,1432.0,1481.0,1440.0,0.0,0.0,0.0,0.0,0.0,0.0,0.0,0.0
2733658986,8,1477.0,1425.0,1461.0,1419.0,1468.0,1436.0,1484.0,1442.0,0.0,0.0,0.0,0.0,0.0,0.0,0.0,0.0
2733706794,8,1477.0,1426.0,1458.0,1417.0,1464.0,1434.0,1482.0,1443.0,0.0,0.0,0.0,0.0,0.0,0.0,0.0,0.0
2733747709,8,1478.0,1422.0,1461.0,1416.0,1470.0,1435.0,1487.0,1441.0,0.0,0.0,0.0,0.0,0.0,0.0,0.0,0.0
2733791740,8,1477.0,1428.0,1462.0,1420.0,1466.0,1434.0,1481.0,1442.0,0.0,0.0,0.0,0.0,0.0,0.0,0.0,0.0
2733835749,8,1475.0,1425.0,1460.0,1419.0,1466.0,1434.0,1482.0,1440.0,0.0,0.0,0.0,0.0,0.0,0.0,0.0,0.0
2733879849,8,1479.0,1425.0,1464.0,1417.0,1467.0,1430.0,1483.0,1438.0,0.0,0.0,0.0,0.0,0.0,0.0,0.0,0.0
2733924066,8,1477.0,1426.0,1461.0,1419.0,1468.0,1435.0,1483.0,1441.0,0.0,0.0,0.0,0.0,0.0,0.0,0.0,0.0
2733967894,8,1480.0,1429.0,1466.0,1420.0,1467.0,1431.0,1481.0,1440.0,0.0,0.0,0.0,0.0,0.0,0.0,0.0,0.0
2734015771,8,1477.0,1427.0,1463.0,1419.0,1466.0,1431.0,1480.0,1439.0,0.0,0.0,0.0,0.0,0.0,0.0,0.0,0.0
2734040548,8,1478.0,1429.0,1464.0,1421.0,1466.0,1431.0,1479.0,1440.0,0.0,0.0,0.0,0.0,0.0,0.0,0.0,0.0
2734084908,8,1477.0,1429.0,1464.0,1421.0,1465.0,1431.0,1478.0,1439.0,0.0,0.0,0.0,0.0,0.0,0.0,0.0,0.0
2734128539,8,1475.0,1429.0,1462.0,1421.0,1464.0,1433.0,1478.0,1440.0,0.0,0.0,0.0,0.0,0.0,0.0,0.0,0.0
2734172563,8,1476.0,1430.0,1465.0,1422.0,1466.0,1431.0,1477.0,1438.0,0.0,0.0,0.0,0.0,0.0,0.0,0.0,0.0
2734220532,8,1477.0,1430.0,1462.0,1425.0,1465.0,1435.0,1476.0,1440.0,0.0,0.0,0.0,0.0,0.0,0.0,0.0,0.0
2734260669,8,1476.0,1432.0,1466.0,1425.0,1465.0,1431.0,1476.0,1439.0,0.0,0.0,0.0,0.0,0.0,0.0,0.0,0.0
2734281379,8,1476.0,1427.0,1464.0,1421.0,1468.0,1433.0,1481.0,1439.0,0.0,0.0,0.0,0.0,0.0,0.0,0.0,0.0
2734325415,8,1472.0,1427.0,1460.0,1424.0,1467.0,1438.0,1481.0,1438.0,0.0,0.0,0.0,0.0,0.0,0.0,0.0,0.0
2734389480,8,1476.0,1430.0,1465.0,1424.0,1469.0,1435.0,1480.0,1441.0,0.0,0.0,0.0,0.0,0.0,0.0,0.0,0.0
2734409832,8,1476.0,1428.0,1463.0,1422.0,1468.0,1436.0,1482.0,1441.0,0.0,0.0,0.0,0.0,0.0,0.0,0.0,0.0
2734453334,8,1475.0,1428.0,1463.0,1423.0,1469.0,1436.0,1481.0,1441.0,0.0,0.0,0.0,0.0,0.0,0.0,0.0,0.0
2734497373,8,1473.0,1425.0,1461.0,1419.0,1466.0,1432.0,1478.0,1437.0,0.0,0.0,0.0,0.0,0.0,0.0,0.0,0.0
2734538198,8,1467.0,1418.0,1453.0,1412.0,1458.0,1425.0,1472.0,1432.0,0.0,0.0,0.0,0.0,0.0,0.0,0.0,0.0
2734586232,8,1462.0,1416.0,1451.0,1409.0,1452.0,1418.0,1463.0,1425.0,0.0,0.0,0.0,0.0,0.0,0.0,0.0,0.0
2734634154,8,1455.0,1405.0,1441.0,1400.0,1448.0,1414.0,1461.0,1419.0,0.0,0.0,0.0,0.0,0.0,0.0,0.0,0.0
2734658137,8,1456.0,1411.0,1448.0,1404.0,1447.0,1409.0,1455.0,1416.0,0.0,0.0,0.0,0.0,0.0,0.0,0.0,0.0
2734722190,8,1448.0,1405.0,1437.0,1399.0,1440.0,1408.0,1450.0,1414.0,0.0,0.0,0.0,0.0,0.0,0.0,0.0,0.0
2734746237,8,1449.0,1405.0,1439.0,1398.0,1439.0,1405.0,1448.0,1412.0,0.0,0.0,0.0,0.0,0.0,0.0,0.0,0.0
2734794194,8,1448.0,1403.0,1438.0,1396.0,1438.0,1403.0,1448.0,1410.0,0.0,0.0,0.0,0.0,0.0,0.0,0.0,0.0
2734838179,8,1449.0,1403.0,1438.0,1396.0,1438.0,1404.0,1449.0,1411.0,0.0,0.0,0.0,0.0,0.0,0.0,0.0,0.0
2734879062,8,1447.0,1401.0,1436.0,1395.0,1439.0,1406.0,1450.0,1411.0,0.0,0.0,0.0,0.0,0.0,0.0,0.0,0.0
2734926907,8,1503.0,1413.0,1391.0,1309.0,1355.0,1363.0,1467.0,1467.0,0.0,0.0,0.0,0.0,0.0,0.0,0.0,0.0
2734971008,8,1482.0,1410.0,1410.0,1345.0,1389.0,1381.0,1461.0,1447.0,0.0,0.0,0.0,0.0,0.0,0.0,0.0,0.0
2734994962,8,1473.0,1409.0,1421.0,1363.0,1408.0,1390.0,1459.0,1436.0,0.0,0.0,0.0,0.0,0.0,0.0,0.0,0.0
2735060068,8,1468.0,1421.0,1442.0,1397.0,1434.0,1409.0,1460.0,1433.0,0.0,0.0,0.0,0.0,0.0,0.0,0.0,0.0
2735083771,8,1471.0,1417.0,1455.0,1405.0,1454.0,1416.0,1470.0,1428.0,0.0,0.0,0.0,0.0,0.0,0.0,0.0,0.0
2735127743,8,1211.0,1524.0,1225.0,1621.0,1347.0,1698.0,1334.0,1602.0,0.0,0.0,0.0,0.0,0.0,0.0,0.0,0.0
2735171734,8,1224.0,1493.0,1255.0,1606.0,1384.0,1675.0,1352.0,1562.0,0.0,0.0,0.0,0.0,0.0,0.0,0.0,0.0
2735215855,8,1266.0,1468.0,1305.0,1572.0,1412.0,1624.0,1373.0,1514.0,0.0,0.0,0.0,0.0,0.0,0.0,0.0,0.0
2735259734,8,1322.0,1470.0,1344.0,1528.0,1404.0,1555.0,1382.0,1497.0,0.0,0.0,0.0,0.0,0.0,0.0,0.0,0.0
2735303734,8,1358.0,1476.0,1365.0,1502.0,1395.0,1518.0,1388.0,1492.0,0.0,0.0,0.0,0.0,0.0,0.0,0.0,0.0
2735343763,8,1389.0,1490.0,1391.0,1489.0,1387.0,1485.0,1385.0,1486.0,0.0,0.0,0.0,0.0,0.0,0.0,0.0,0.0
2735388537,8,1412.0,1497.0,1407.0,1475.0,1382.0,1461.0,1387.0,1482.0,0.0,0.0,0.0,0.0,0.0,0.0,0.0,0.0
2735432621,8,1423.0,1493.0,1416.0,1465.0,1383.0,1446.0,1389.0,1474.0,0.0,0.0,0.0,0.0,0.0,0.0,0.0,0.0
2735476568,8,1429.0,1481.0,1421.0,1456.0,1392.0,1441.0,1400.0,1466.0,0.0,0.0,0.0,0.0,0.0,0.0,0.0,0.0
2735516570,8,1432.0,1475.0,1422.0,1450.0,1396.0,1439.0,1406.0,1465.0,0.0,0.0,0.0,0.0,0.0,0.0,0.0,0.0
2735536613,8,1433.0,1471.0,1420.0,1448.0,1400.0,1442.0,1413.0,1466.0,0.0,0.0,0.0,0.0,0.0,0.0,0.0,0.0
2735600974,8,1440.0,1464.0,1427.0,1440.0,1406.0,1435.0,1419.0,1459.0,0.0,0.0,0.0,0.0,0.0,0.0,0.0,0.0
2735645337,8,1441.0,1451.0,1424.0,1431.0,1413.0,1435.0,1430.0,1455.0,0.0,0.0,0.0,0.0,0.0,0.0,0.0,0.0
2735669390,8,1445.0,1451.0,1426.0,1429.0,1415.0,1435.0,1434.0,1457.0,0.0,0.0,0.0,0.0,0.0,0.0,0.0,0.0
2735733338,8,1450.0,1445.0,1428.0,1424.0,1421.0,1436.0,1444.0,1457.0,0.0,0.0,0.0,0.0,0.0,0.0,0.0,0.0
2735757330,8,1450.0,1441.0,1425.0,1421.0,1422.0,1437.0,1448.0,1457.0,0.0,0.0,0.0,0.0,0.0,0.0,0.0,0.0
2735797439,8,1457.0,1442.0,1431.0,1420.0,1426.0,1434.0,1452.0,1457.0,0.0,0.0,0.0,0.0,0.0,0.0,0.0,0.0
2735841350,8,1461.0,1432.0,1431.0,1411.0,1431.0,1432.0,1462.0,1454.0,0.0,0.0,0.0,0.0,0.0,0.0,0.0,0.0
