timestamp,time_utc_usec,lat,lon,alt,alt_ellipsoid,s_variance_m_s,c_variance_rad,eph,epv,hdop,vdop,noise_per_ms,jamming_indicator,vel_m_s,vel_n_m_s,vel_e_m_s,vel_d_m_s,cog_rad,timestamp_time_relative,fix_type,vel_ned_valid,satellites_used
2708765101,1686676682799672,371025314,-763880875,-623,-36393,0.223,0.75880474,0.48000002,1.2340001,0.58,1.05,104,22,0.030000001,-0.002,0.030000001,0.028,5.351387,0,4,1,19
2709150329,1686676683199672,371025314,-763880873,-592,-36362,0.18400002,0.7588213,0.48000002,1.2360001,0.59999996,1.0699999,104,22,0.032,-0.031000001,0.007,-0.001,5.351387,0,4,1,18
2709346534,1686676683399672,371025314,-763880872,-576,-36346,0.25100002,0.75883037,0.48000002,1.2360001,0.58,1.05,104,22,0.027,0.008,-0.026,-0.045,5.351387,0,4,1,19
2709550613,1686676683599672,371025314,-763880872,-553,-36323,0.277,0.7588403,0.48000002,1.2360001,0.58,1.05,104,22,0.010000001,0.009000001,0.003,0.026,5.351387,0,4,1,19
2709748534,1686676683799672,371025314,-763880870,-519,-36289,0.27100003,0.7588501,0.47900003,1.2360001,0.58,1.05,104,16,0.015000001,0.008,0.013,-0.05,5.351387,0,4,1,19
2709953500,1686676683999673,371025314,-763880869,-486,-36256,0.27400002,0.75886005,0.47800002,1.2360001,0.58,1.05,104,16,0.004,0.003,-0.002,-0.062000003,5.351387,0,4,1,19
2710149894,1686676684199671,371025310,-763880867,-409,-36179,0.22200002,0.4678751,0.47800002,1.2360001,0.58,1.05,104,16,0.36200002,-0.347,0.102000006,-0.21900001,3.5429134,0,4,1,19
2710354485,1686676684399671,371025304,-763880862,-239,-36009,0.27800003,0.50782114,0.47800002,1.2360001,0.58,1.05,104,16,0.349,-0.317,0.147,-0.785,3.1587994,0,4,1,19
2710551509,1686676684599671,371025295,-763880861,109,-35661,0.26200002,0.31975216,0.47800002,1.2290001,0.58,1.05,104,16,0.52000004,-0.509,-0.108,-1.273,3.295718,0,4,1,19
2710954808,1686676684999672,371025276,-763880860,635,-35135,0.252,0.38419825,0.47900003,1.22,0.58,1.05,104,16,0.44000003,-0.43500003,-0.065000005,-0.832,3.2499316,0,4,1,19
2712949488,1686676686999671,371025295,-763880865,2725,-33045,0.303,0.7186415,0.48800004,1.207,0.59999996,1.05,104,18,0.165,0.13700001,-0.09200001,-0.96000004,4.928095,0,4,1,18
2713146497,1686676687199670,371025298,-763880867,2958,-32813,0.296,0.7186798,0.49,1.2060001,0.59999996,1.05,104,18,0.14,0.13100001,-0.049000002,-0.99200004,4.928095,0,4,1,18
2713347522,1686676687399670,371025299,-763880869,3177,-32593,0.296,0.7187185,0.49,1.2030001,0.58,1.05,104,18,0.042000003,0.016,-0.039,-1.013,4.928095,0,4,1,19
2713546619,1686676687599670,371025302,-763880869,3365,-32405,0.291,0.7187562,0.49,1.2040001,0.58,1.05,104,18,0.202,0.185,0.081,-0.96900004,4.928095,0,4,1,19
2713752680,1686676687799670,371025303,-763880871,3580,-32191,0.293,0.7188,0.49100003,1.2,0.59999996,1.05,104,16,0.11400001,-0.052,-0.102000006,-1.141,4.928095,0,4,1,18
2713952285,1686676687999671,371025303,-763880872,3720,-32050,0.287,0.7188304,0.49,1.1980001,0.58,1.05,104,16,0.07300001,0.044000003,0.058000002,-0.794,4.928095,0,4,1,19
2714153712,1686676688199670,371025302,-763880873,3926,-31844,0.291,0.71887,0.49,1.1930001,0.58,1.05,104,16,0.047000002,-0.006,-0.047000002,-1.039,4.928095,0,4,1,19
2714353479,1686676688399670,371025303,-763880874,4136,-31634,0.293,0.7189112,0.49100003,1.192,0.58,1.05,104,16,0.09900001,0.095000006,0.029000001,-1.077,4.928095,0,4,1,19
2714551481,1686676688599670,371025301,-763880876,4316,-31454,0.29700002,0.72303456,0.492,1.19,0.58,1.05,104,16,0.23200001,-0.18200001,-0.143,-1.054,4.372051,0,4,1,19
2714747491,1686676688799670,371025300,-763880878,4442,-31328,0.27800003,0.72306645,0.49100003,1.1830001,0.58,1.05,104,18,0.052,0.025,-0.046000004,-0.84300005,4.372051,0,4,1,19
2714954582,1686676688999670,371025299,-763880880,4645,-31126,0.29000002,0.7231028,0.49100003,1.1830001,0.58,1.05,104,18,0.156,-0.149,-0.047000002,-0.94400007,4.372051,0,4,1,19
2715152574,1686676689199669,371025300,-763880880,4808,-30962,0.28800002,0.723141,0.49100003,1.184,0.58,1.05,104,18,0.112,0.108,0.029000001,-1.0,4.372051,0,4,1,19
2715353484,1686676689399669,371025302,-763880880,5019,-30751,0.29500002,0.72318256,0.49100003,1.1850001,0.58,1.05,104,18,0.049000002,0.031000001,-0.038000003,-1.0940001,4.372051,0,4,1,19
2715552307,1686676689599669,371025303,-763880882,5177,-30594,0.293,0.72321814,0.49100003,1.184,0.58,1.05,104,18,0.08400001,0.080000006,0.027,-0.93600005,4.372051,0,4,1,19
2715753475,1686676689799669,371025304,-763880882,5342,-30429,0.298,0.7232541,0.49100003,1.1830001,0.58,1.05,104,16,0.043,-0.035,0.025,-0.94400007,4.372051,0,4,1,19
2715951482,1686676689999670,371025304,-763880882,5526,-30244,0.287,0.7232897,0.49100003,1.179,0.58,1.05,104,16,0.085,0.07700001,-0.035,-0.93500006,4.372051,0,4,1,19
2716150773,1686676690199669,371025305,-763880884,5716,-30054,0.287,0.7233265,0.49100003,1.176,0.58,1.05,104,16,0.155,0.097,-0.12100001,-0.961,4.372051,0,4,1,19
2716350652,1686676690399669,371025307,-763880883,5901,-29869,0.28800002,0.7562174,0.492,1.177,0.58,1.05,104,16,0.238,0.13100001,0.19800001,-0.95800006,5.755874,0,4,1,19
2716552536,1686676690599669,371025309,-763880882,6110,-29660,0.284,0.756255,0.492,1.1750001,0.58,1.05,104,16,0.07300001,0.067,0.028,-1.0350001,5.755874,0,4,1,19
2716753485,1686676690799669,371025309,-763880881,6350,-29420,0.298,0.75629735,0.49300003,1.1750001,0.58,1.05,104,27,0.057000004,-0.025,0.051000003,-1.166,5.755874,0,4,1,19
2716954532,1686676690999670,371025309,-763880878,6659,-29111,0.287,0.75634277,0.49300003,1.171,0.58,1.05,104,27,0.178,0.065000005,0.16600001,-1.2420001,5.755874,0,4,1,19
2717154711,1686676691199669,371025311,-763880875,6912,-28858,0.28500003,0.6955184,0.492,1.171,0.58,1.05,104,27,0.254,0.23500001,0.097,-1.2,6.2531347,0,4,1,19
2717351522,1686676691399668,371025312,-763880875,7138,-28632,0.29200003,0.6955613,0.492,1.1680001,0.58,1.05,104,27,0.097,-0.097,-0.012,-1.0830001,6.2531347,0,4,1,19
2717554461,1686676691599668,371025311,-763880874,7370,-28400,0.289,0.69560564,0.492,1.166,0.58,1.05,104,27,0.059000004,-0.029000001,0.052,-1.125,6.2531347,0,4,1,19
2717752300,1686676691799668,371025312,-763880874,7641,-28130,0.29200003,0.6956536,0.492,1.1680001,0.58,1.05,104,16,0.119,0.117000006,0.020000001,-1.21,6.2531347,0,4,1,19
2717955323,1686676691999669,371025314,-763880876,7891,-27879,0.296,0.695706,0.492,1.166,0.58,1.05,104,16,0.052,0.051000003,-0.012,-1.33,6.2531347,0,4,1,19
2718149794,1686676692199668,371025315,-763880877,8160,-27610,0.29900002,0.6957585,0.492,1.1680001,0.59999996,1.05,104,16,0.047000002,0.015000001,0.045,-1.3280001,6.2531347,0,4,1,18
2718354483,1686676692399668,371025315,-763880877,8407,-27364,0.30200002,0.6958104,0.49300003,1.169,0.59999996,1.0699999,104,16,0.149,-0.080000006,0.125,-1.3110001,6.2531347,0,4,1,18
2718554509,1686676692599668,371025312,-763880876,8671,-27099,0.296,0.69586223,0.49400002,1.166,0.58,1.05,104,16,0.117000006,-0.106000006,0.049000002,-1.309,6.2531347,0,4,1,19
2718755478,1686676692799668,371025311,-763880875,8935,-26835,0.28300002,0.6959112,0.49400002,1.164,0.58,1.05,104,17,0.087000005,0.002,0.087000005,-1.2420001,6.2531347,0,4,1,19
2718951742,1686676692999669,371025311,-763880873,9151,-26619,0.28,0.6959631,0.49400002,1.1620001,0.59999996,1.05,104,17,0.104,-0.036000002,0.098000005,-1.309,6.2531347,0,4,1,18
2719151812,1686676693199668,371025311,-763880870,9422,-26348,0.277,0.6960137,0.49300003,1.161,0.58,1.05,104,17,0.2,0.016,0.19900002,-1.269,6.2531347,0,4,1,19
2719349487,1686676693399668,371025310,-763880868,9700,-26070,0.28100002,0.696065,0.49300003,1.1580001,0.58,1.05,104,17,0.057000004,-0.056,0.011000001,-1.3010001,6.2531347,0,4,1,19
2719552605,1686676693599668,371025309,-763880867,9971,-25799,0.289,0.69611895,0.49300003,1.1580001,0.58,1.05,104,17,0.13100001,-0.035,0.126,-1.3640001,6.2531347,0,4,1,19
2719754484,1686676693799667,371025309,-763880866,10249,-25521,0.29200003,0.6961757,0.49400002,1.1580001,0.58,1.05,104,25,0.075,0.063,0.041,-1.442,6.2531347,0,4,1,19
2719955477,1686676693999668,371025309,-763880865,10537,-25233,0.293,0.696232,0.49400002,1.1570001,0.58,1.05,104,25,0.060000002,0.034,0.05,-1.4300001,6.2531347,0,4,1,19
2720154472,1686676694199667,371025310,-763880865,10796,-24975,0.29200003,0.6962848,0.49400002,1.156,0.58,1.05,104,25,0.059000004,0.024,0.054,-1.335,6.2531347,0,4,1,19
2720354195,1686676694399667,371025308,-763880864,11070,-24700,0.28800002,0.69633937,0.49400002,1.1550001,0.58,1.05,104,25,0.101,-0.09200001,0.043,-1.3850001,6.2531347,0,4,1,19
2720548532,1686676694599667,371025307,-763880863,11357,-24413,0.28300002,0.6963933,0.49400002,1.154,0.58,1.05,104,25,0.172,0.028,0.17,-1.358,6.2531347,0,4,1,19
2720749478,1686676694799667,371025308,-763880862,11628,-24142,0.28,0.6964443,0.49400002,1.151,0.58,1.05,104,17,0.041,0.029000001,0.029000001,-1.296,6.2531347,0,4,1,19
2720953501,1686676694999668,371025308,-763880862,11908,-23862,0.286,0.6964949,0.49400002,1.151,0.58,1.05,104,17,0.060000002,0.0050000004,0.060000002,-1.281,6.2531347,0,4,1,19
2721154519,1686676695199667,371025307,-763880861,12154,-23616,0.29200003,0.69654757,0.49400002,1.153,0.58,1.05,104,17,0.056,-0.017,0.054,-1.34,6.2531347,0,4,1,19
2721350725,1686676695399667,371025307,-763880862,12477,-23293,0.284,0.6966064,0.49400002,1.149,0.59999996,1.05,104,17,0.076000005,-0.041,-0.064,-1.491,6.2531347,0,4,1,18
2721558995,1686676695599667,371025307,-763880863,12746,-23024,0.29200003,0.6966593,0.49400002,1.1500001,0.58,1.05,104,17,0.05,0.05,0.0,-1.345,6.2531347,0,4,1,19
2721748526,1686676695799667,371025307,-763880864,13049,-22721,0.28300002,0.69671375,0.49400002,1.1470001,0.58,1.05,104,15,0.061000004,-0.003,-0.061000004,-1.381,6.2531347,0,4,1,19
2721955792,1686676695999668,371025307,-763880866,13352,-22419,0.29000002,0.6967733,0.49400002,1.1470001,0.58,1.05,104,15,0.078,-0.021000002,-0.075,-1.5090001,6.2531347,0,4,1,19
2722153596,1686676696199666,371025306,-763880869,13649,-22121,0.28300002,0.69683224,0.49400002,1.144,0.58,1.05,104,15,0.136,-0.024,-0.133,-1.4940001,6.2531347,0,4,1,19
2722354490,1686676696399666,371025307,-763880872,13926,-21844,0.28800002,0.6968843,0.49400002,1.1450001,0.59999996,1.05,104,15,0.10300001,0.046000004,-0.09200001,-1.317,6.2531347,0,4,1,18
2722551482,1686676696599666,371025308,-763880875,14190,-21580,0.291,0.6969396,0.49400002,1.1450001,0.58,1.05,104,15,0.10700001,0.038000003,-0.1,-1.404,6.2531347,0,4,1,19
2722751489,1686676696799666,371025308,-763880877,14499,-21271,0.289,0.6969911,0.49500003,1.146,0.58,1.05,104,16,0.047000002,-0.035,0.030000001,-1.309,6.2531347,0,4,1,19
2722955807,1686676696999667,371025307,-763880877,14805,-20965,0.298,0.6970438,0.49500003,1.148,0.58,1.05,104,16,0.033,-0.017,-0.028,-1.3390001,6.2531347,0,4,1,19
2723152316,1686676697199666,371025307,-763880879,15106,-20664,0.29200003,0.6970979,0.49500003,1.1470001,0.58,1.05,104,16,0.061000004,-0.015000001,-0.059000004,-1.3720001,6.2531347,0,4,1,19
2723353651,1686676697399666,371025306,-763880880,15433,-20337,0.293,0.69715255,0.49500003,1.146,0.58,1.05,104,16,0.075,-0.075,-0.007,-1.3900001,6.2531347,0,4,1,19
2723549494,1686676697599666,371025304,-763880880,15689,-20081,0.294,0.69720596,0.49500003,1.1450001,0.58,1.05,104,16,0.10300001,-0.101,0.019000001,-1.3520001,6.2531347,0,4,1,19
2723750859,1686676697799666,371025303,-763880880,15970,-19800,0.294,0.6972611,0.49500003,1.144,0.58,1.05,104,21,0.09200001,-0.062000003,0.068,-1.4030001,6.2531347,0,4,1,19
2723955488,1686676697999667,371025301,-763880880,16242,-19528,0.29500002,0.6973145,0.49500003,1.143,0.55,1.01,104,21,0.18800001,-0.178,-0.062000003,-1.3410001,6.2531347,0,4,1,20
2724151482,1686676698199666,371025298,-763880880,16531,-19239,0.294,0.697366,0.49500003,1.143,0.55,1.01,104,21,0.21300001,-0.186,0.10300001,-1.294,6.2531347,0,4,1,20
2724351482,1686676698399666,371025296,-763880879,16837,-18933,0.29700002,0.69742095,0.49500003,1.143,0.55,1.01,104,21,0.044000003,-0.037,-0.024,-1.3950001,6.2531347,0,4,1,20
2724551778,1686676698599665,371025295,-763880879,17140,-18631,0.291,0.697473,0.49500003,1.1420001,0.55,1.01,104,21,0.047000002,-0.015000001,0.045,-1.3240001,6.2531347,0,4,1,20
2724753513,1686676698799665,371025295,-763880878,17420,-18350,0.296,0.6975246,0.49500003,1.141,0.55,1.01,104,17,0.098000005,-0.068,0.071,-1.312,6.2531347,0,4,1,20
2724954642,1686676698999666,371025295,-763880876,17684,-18086,0.293,0.6975777,0.49600002,1.1420001,0.58,1.05,104,17,0.13900001,0.031000001,0.136,-1.3410001,6.2531347,0,4,1,19
2725150484,1686676699199665,371025295,-763880875,17953,-17817,0.294,0.6976276,0.49600002,1.1420001,0.58,1.05,104,17,0.065000005,-0.059000004,-0.028,-1.269,6.2531347,0,4,1,19
2725354529,1686676699399665,371025294,-763880874,18212,-17558,0.293,0.6976761,0.497,1.1420001,0.58,1.05,104,17,0.106000006,-0.080000006,0.07,-1.228,6.2531347,0,4,1,19
2725554610,1686676699599665,371025294,-763880872,18494,-17276,0.289,0.697729,0.497,1.143,0.58,1.05,104,17,0.148,0.062000003,0.135,-1.34,6.2531347,0,4,1,19
2725751740,1686676699799665,371025295,-763880869,18762,-17008,0.28500003,0.69778156,0.49800003,1.144,0.58,1.05,104,29,0.124000005,0.076000005,0.097,-1.33,6.2531347,0,4,1,19
2725951798,1686676699999666,371025297,-763880867,19002,-16768,0.284,0.697829,0.497,1.144,0.58,1.05,104,29,0.12200001,0.076000005,0.095000006,-1.1980001,6.2531347,0,4,1,19
2726152853,1686676700199665,371025298,-763880866,19321,-16449,0.287,0.69788206,0.49800003,1.144,0.58,1.05,104,29,0.135,0.112,0.076000005,-1.345,6.2531347,0,4,1,19
2726353701,1686676700399665,371025301,-763880865,19565,-16205,0.28800002,0.6979353,0.49800003,1.1470001,0.58,1.05,104,29,0.193,0.18100001,0.066,-1.345,6.2531347,0,4,1,19
2726551553,1686676700599665,371025304,-763880864,19799,-15971,0.29000002,0.6979837,0.49800003,1.1470001,0.58,1.05,104,29,0.09,0.089,-0.010000001,-1.2270001,6.2531347,0,4,1,19
2726750486,1686676700799665,371025306,-763880865,20045,-15725,0.289,0.69803447,0.49800003,1.1470001,0.58,1.05,104,16,0.13800001,0.135,0.025,-1.2850001,6.2531347,0,4,1,19
2726951480,1686676700999665,371025308,-763880866,20293,-15477,0.284,0.69809014,0.49800003,1.146,0.58,1.05,104,16,0.14500001,0.136,-0.052,-1.4100001,6.2531347,0,4,1,19
2727148558,1686676701199664,371025309,-763880870,20544,-15226,0.28300002,0.69814754,0.497,1.144,0.58,1.05,104,16,0.162,-0.026,-0.16000001,-1.45,6.2531347,0,4,1,19
2727345642,1686676701399664,371025308,-763880874,20783,-14987,0.282,0.6981983,0.497,1.1420001,0.55,1.01,104,16,0.15900001,-0.030000001,-0.156,-1.2870001,6.2531347,0,4,1,20
2727553478,1686676701599664,371025308,-763880878,21023,-14747,0.284,0.6982509,0.49600002,1.1400001,0.58,1.05,104,16,0.051000003,0.001,-0.051000003,-1.335,6.2531347,0,4,1,19
2727750573,1686676701799664,371025309,-763880880,21306,-14464,0.279,0.6983027,0.49600002,1.139,0.58,1.05,104,16,0.064,0.064,-0.004,-1.319,6.2531347,0,4,1,19
2727954508,1686676701999665,371025310,-763880883,21510,-14260,0.284,0.719769,0.49600002,1.138,0.58,1.05,104,16,0.24300002,-0.044000003,-0.23900001,-1.258,5.418322,0,4,1,19
2728155272,1686676702199664,371025310,-763880887,21818,-13952,0.284,0.7198186,0.49600002,1.1370001,0.58,1.05,104,16,0.12200001,0.104,-0.064,-1.297,5.418322,0,4,1,19
2728351485,1686676702399664,371025311,-763880887,22089,-13681,0.28300002,0.7198711,0.49500003,1.133,0.58,1.05,104,16,0.133,-0.115,0.067,-1.3740001,5.418322,0,4,1,19
2728552709,1686676702599664,371025310,-763880888,22357,-13414,0.29200003,0.71992034,0.49500003,1.1340001,0.58,1.05,104,16,0.07700001,0.044000003,-0.064,-1.286,5.418322,0,4,1,19
2728753709,1686676702799664,371025311,-763880889,22634,-13136,0.29700002,0.719973,0.49500003,1.1340001,0.58,1.05,104,35,0.037,-0.019000001,0.033,-1.3850001,5.418322,0,4,1,19
2728961648,1686676702999665,371025310,-763880889,22915,-12855,0.29900002,0.7200273,0.49500003,1.1340001,0.58,1.05,104,35,0.071,-0.017,-0.069000006,-1.424,5.418322,0,4,1,19
2729154669,1686676703199664,371025310,-763880889,23172,-12598,0.29500002,0.72007936,0.49500003,1.1340001,0.58,1.05,104,35,0.108,-0.035,0.102000006,-1.3640001,5.418322,0,4,1,19
2729351480,1686676703399663,371025310,-763880888,23445,-12325,0.293,0.72012943,0.49500003,1.133,0.58,1.05,104,35,0.044000003,-0.035,0.026,-1.314,5.418322,0,4,1,19
2729554419,1686676703599663,371025310,-763880889,23678,-12092,0.296,0.72017884,0.49500003,1.1340001,0.58,1.05,104,35,0.051000003,0.05,-0.009000001,-1.297,5.418322,0,4,1,19
2729752603,1686676703799663,371025311,-763880888,23896,-11874,0.28,0.7202281,0.49500003,1.128,0.58,1.05,104,16,0.117000006,-0.079,0.086,-1.2850001,5.418322,0,4,1,19
2729936814,1686676703999664,371025310,-763880888,24184,-11586,0.286,0.7202774,0.49400002,1.1270001,0.58,1.05,104,16,0.041,-0.032,-0.027,-1.299,5.418322,0,4,1,19
2730157486,1686676704199663,371025310,-763880889,24419,-11351,0.289,0.72032285,0.49400002,1.126,0.58,1.05,104,16,0.023000002,-0.022000002,-0.008,-1.189,5.418322,0,4,1,19
2730350496,1686676704399663,371025309,-763880889,24750,-11020,0.275,0.72037673,0.49300003,1.121,0.58,1.05,104,16,0.055000003,-0.054,-0.008,-1.4150001,5.418322,0,4,1,19
2730551484,1686676704599663,371025309,-763880889,25015,-10755,0.294,0.7204258,0.49300003,1.123,0.58,1.05,104,16,0.15300001,-0.006,0.15300001,-1.2800001,5.418322,0,4,1,19
2730750528,1686676704799663,371025309,-763880887,25301,-10469,0.298,0.72047764,0.49300003,1.1220001,0.58,1.05,104,16,0.14600001,-0.117000006,0.08800001,-1.3560001,5.418322,0,4,1,19
2730951481,1686676704999664,371025307,-763880887,25555,-10215,0.3,0.7205305,0.49300003,1.1220001,0.58,1.05,104,16,0.16600001,-0.165,-0.018000001,-1.378,5.418322,0,4,1,19
2731155785,1686676705199663,371025306,-763880887,25826,-9944,0.30400002,0.72057784,0.49300003,1.1240001,0.55,1.01,104,16,0.049000002,0.013,0.048,-1.2440001,5.418322,0,4,1,20
2731349485,1686676705399663,371025306,-763880888,26117,-9653,0.29900002,0.72062635,0.49300003,1.1220001,0.55,1.01,104,16,0.1,-0.097,-0.025,-1.2700001,5.418322,0,4,1,20
2731553493,1686676705599663,371025304,-763880888,26390,-9380,0.291,0.7206785,0.49300003,1.12,0.55,1.01,104,16,0.20300001,-0.18400002,0.085,-1.355,5.418322,0,4,1,20
2731750476,1686676705799662,371025303,-763880887,26684,-9086,0.29200003,0.7207314,0.49300003,1.1190001,0.55,1.01,104,16,0.13700001,0.024,0.135,-1.3850001,5.418322,0,4,1,20
2731953519,1686676705999663,371025302,-763880885,26965,-8805,0.29000002,0.72078305,0.49300003,1.1170001,0.55,1.01,104,16,0.22100002,-0.18400002,0.12200001,-1.3390001,5.418322,0,4,1,20
2732154583,1686676706199662,371025300,-763880882,27235,-8535,0.296,0.720833,0.49300003,1.118,0.55,1.01,104,16,0.136,0.0,0.136,-1.302,5.418322,0,4,1,20
2732358811,1686676706399662,371025301,-763880880,27468,-8302,0.28100002,0.7208817,0.492,1.1140001,0.55,1.01,104,16,0.117000006,-0.043,0.109000005,-1.276,5.418322,0,4,1,20
2732551531,1686676706599662,371025300,-763880878,27755,-8015,0.28800002,0.7209342,0.492,1.113,0.55,1.01,104,16,0.16900001,-0.066,0.155,-1.3720001,5.418322,0,4,1,20
2732753058,1686676706799662,371025300,-763880875,28018,-7752,0.29900002,0.7209824,0.492,1.116,0.55,1.01,104,43,0.13100001,-0.069000006,0.11100001,-1.2600001,5.418322,0,4,1,20
2732956627,1686676706999663,371025299,-763880873,28296,-7474,0.30200002,0.7210314,0.49300003,1.1170001,0.55,1.01,104,43,0.113000005,-0.049000002,0.102000006,-1.284,5.418322,0,4,1,20
2733150488,1686676707199662,371025300,-763880872,28590,-7180,0.30100003,0.72108275,0.49300003,1.1190001,0.55,1.01,104,43,0.119,0.106000006,0.054,-1.342,5.418322,0,4,1,20
2733354954,1686676707399662,371025303,-763880872,28854,-6916,0.303,0.72113246,0.49400002,1.1220001,0.55,1.01,104,43,0.11100001,0.1,0.048,-1.3050001,5.418322,0,4,1,20
2733554500,1686676707599662,371025305,-763880872,29128,-6642,0.291,0.72117716,0.49400002,1.12,0.58,1.05,104,43,0.064,0.057000004,-0.029000001,-1.1730001,5.418322,0,4,1,19
2733752533,1686676707799662,371025305,-763880872,29391,-6379,0.30400002,0.7212266,0.49400002,1.1220001,0.55,1.01,104,15,0.11100001,-0.095000006,0.057000004,-1.2930001,5.418322,0,4,1,20
2733952563,1686676707999663,371025305,-763880871,29655,-6115,0.293,0.7212744,0.49500003,1.121,0.55,1.01,104,15,0.15400001,0.041,0.148,-1.246,5.418322,0,4,1,20
2734153180,1686676708199661,371025307,-763880868,29972,-5798,0.28800002,0.7213238,0.49500003,1.12,0.58,1.05,104,15,0.10300001,0.061000004,0.083000004,-1.296,5.418322,0,4,1,19
2734350573,1686676708399661,371025308,-763880866,30265,-5505,0.28300002,0.7213784,0.49500003,1.118,0.58,1.05,104,15,0.162,0.024,0.16000001,-1.4310001,5.418322,0,4,1,19
2734550581,1686676708599661,371025308,-763880865,30550,-5220,0.28500003,0.7214306,0.49500003,1.1170001,0.58,1.05,104,15,0.125,-0.123,0.021000002,-1.3670001,5.418322,0,4,1,19
2734751487,1686676708799661,371025307,-763880864,30816,-4954,0.29900002,0.7214814,0.49500003,1.12,0.58,1.05,104,19,0.13000001,-0.091000006,0.09200001,-1.3290001,5.418322,0,4,1,19
2734959274,1686676708999662,371025307,-763880862,31035,-4735,0.30100003,0.72152466,0.49600002,1.123,0.58,1.05,104,19,0.062000003,-0.006,0.062000003,-1.1350001,5.418322,0,4,1,19
2735152950,1686676709199661,371025306,-763880861,31300,-4470,0.30400002,0.72156477,0.497,1.126,0.58,1.05,104,19,0.086,-0.042000003,0.075,-1.0550001,5.418322,0,4,1,19
2735353479,1686676709399661,371025303,-763880859,31480,-4290,0.29500002,0.5002426,0.49800003,1.128,0.58,1.05,104,19,0.37100002,-0.356,0.104,-0.897,3.6890917,0,4,1,19
2735537501,1686676709599661,371025294,-763880854,31750,-4020,0.27,0.22848679,0.49800003,1.126,0.58,1.05,104,19,0.754,-0.62200004,0.42600003,-1.0550001,2.7390628,0,4,1,19
2735758192,1686676709799661,371025282,-763880841,31813,-3958,0.19900002,0.14388669,0.497,1.1190001,0.58,1.05,104,17,1.1400001,-0.81600004,0.79600006,-0.47400004,2.4735787,0,4,1,19
2735955483,1686676709999662,371025267,-763880821,31886,-3884,0.17400001,0.12255143,0.49600002,1.113,0.58,1.05,104,17,1.4510001,-0.897,1.141,-0.158,2.3364491,0,4,1,19
2736151503,1686676710199661,371025249,-763880794,31886,-3884,0.17,0.10093901,0.49500003,1.107,0.55,1.01,104,17,1.7830001,-1.097,1.4050001,-0.16000001,2.2752237,0,4,1,20
2736354976,1686676710399661,371025231,-763880766,31837,-3933,0.16800001,0.105165504,0.49500003,1.103,0.55,1.01,104,17,1.8880001,-1.041,1.575,-0.066,2.2170727,0,4,1,20
2736552537,1686676710599660,371025216,-763880738,31760,-4011,0.143,0.12087731,0.49600002,1.1010001,0.58,1.05,104,17,1.7830001,-0.78300005,1.6020001,-0.029000001,2.1340823,0,4,1,19
2736756818,1686676710799660,371025204,-763880709,31706,-4064,0.14600001,0.12673324,0.49600002,1.0990001,0.55,1.01,104,16,1.6800001,-0.63500005,1.5560001,-0.042000003,2.0501413,0,4,1,20
2736953507,1686676710999661,371025198,-763880680,31634,-4136,0.15,0.14718762,0.497,1.0990001,0.55,1.01,104,16,1.4970001,-0.16100001,1.4890001,-0.065000005,1.8914396,0,4,1,20
2737150500,1686676711199660,371025201,-763880652,31561,-4209,0.147,0.13104472,0.497,1.092,0.58,1.05,104,16,1.5870001,0.323,1.554,0.023000002,1.5976253,0,4,1,19
2737338178,1686676711399660,371025212,-763880623,31439,-4332,0.157,0.11067935,0.497,1.0860001,0.58,1.05,104,16,1.8180001,0.75600004,1.654,0.08400001,1.3311446,0,4,1,19
2737555018,1686676711599660,371025230,-763880589,31351,-4419,0.16900001,0.08279143,0.497,1.079,0.58,1.05,104,16,2.111,1.205,1.733,0.080000006,1.0946,0,4,1,19
2737751873,1686676711799660,371025256,-763880556,31283,-4487,0.18900001,0.0739208,0.497,1.075,0.58,1.05,104,16,2.3470001,1.5480001,1.7630001,0.015000001,0.9574562,0,4,1,19
2737956171,1686676711999661,371025285,-763880523,31194,-4577,0.194,0.071787134,0.497,1.072,0.58,1.05,104,16,2.3820002,1.6330001,1.7350001,0.085,0.88367516,0,4,1,19
2738160270,1686676712199660,371025316,-763880491,31109,-4661,0.193,0.06980514,0.497,1.069,0.58,1.05,104,16,2.4550002,1.677,1.7930001,-0.003,0.84990567,0,4,1,19
2738330165,1686676712399660,371025347,-763880454,31081,-4689,0.201,0.06794165,0.49800003,1.07,0.58,1.05,104,16,2.5180001,1.815,1.746,-0.079,0.8062482,0,4,1,19
2738537393,1686676712599660,371025380,-763880425,30966,-4804,0.194,0.06736377,0.49800003,1.069,0.58,1.05,104,16,2.4250002,1.792,1.6350001,0.025,0.7721715,0,4,1,19
2738737998,1686676712799659,371025414,-763880394,30865,-4905,0.19800001,0.064257085,0.49800003,1.07,0.58,1.05,104,19,2.569,1.9130001,1.7140001,0.069000006,0.7501093,0,4,1,19
2738967500,1686676712999660,371025448,-763880364,30738,-5033,0.186,0.06124639,0.49800003,1.069,0.55,1.01,104,19,2.522,1.8640001,1.6990001,0.148,0.744227,0,4,1,20
2739152533,1686676713199659,371025482,-763880334,30591,-5179,0.18200001,0.062112775,0.49800003,1.069,0.58,1.05,104,19,2.506,1.8320001,1.71,0.011000001,0.74758035,0,4,1,19
2739353331,1686676713399659,371025515,-763880301,30515,-5255,0.193,0.063680254,0.49800003,1.0710001,0.58,1.05,104,19,2.479,1.8030001,1.7010001,0.072000004,0.75198865,0,4,1,19
2739552828,1686676713599659,371025548,-763880268,30409,-5361,0.19800001,0.061516568,0.499,1.075,0.58,1.05,104,19,2.5890002,1.8980001,1.761,0.004,0.7498901,0,4,1,19
2739750218,1686676713799659,371025581,-763880231,30378,-5392,0.18800001,0.060516845,0.5,1.0780001,0.58,1.05,104,24,2.605,1.8850001,1.7980001,-0.048,0.75605005,0,4,1,19
2739950490,1686676713999660,371025615,-763880192,30350,-5420,0.18900001,0.05899387,0.50100005,1.08,0.55,1.01,104,24,2.67,1.9240001,1.8510001,0.014,0.7611576,0,4,1,20
2740151526,1686676714199659,371025650,-763880156,30260,-5510,0.192,0.059842974,0.50200003,1.0810001,0.55,1.01,104,24,2.628,1.927,1.7870001,0.081,0.7543018,0,4,1,20
2740359741,1686676714399659,371025684,-763880119,30192,-5578,0.19500001,0.06452394,0.50200003,1.082,0.58,1.05,104,24,2.6100001,1.858,1.8330001,0.147,0.7657771,0,4,1,19
2740555526,1686676714599659,371025718,-763880083,30103,-5667,0.193,0.05950909,0.503,1.082,0.58,1.05,104,24,2.7050002,1.9070001,1.9190001,0.087000005,0.77840596,0,4,1,19
2740752921,1686676714799659,371025752,-763880042,30076,-5694,0.19800001,0.059735462,0.504,1.085,0.58,1.05,104,18,2.759,1.922,1.9800001,0.015000001,0.7895738,0,4,1,19
2740953477,1686676714999660,371025786,-763880001,30021,-5749,0.19900002,0.058264673,0.505,1.087,0.58,1.05,104,18,2.775,1.9520001,1.9710001,0.16800001,0.78992355,0,4,1,19
2741150475,1686676715199658,371025820,-763879958,29977,-5793,0.19800001,0.06194138,0.507,1.087,0.58,1.05,104,18,2.776,1.8770001,2.045,0.117000006,0.8082902,0,4,1,19
2741354497,1686676715399658,371025854,-763879914,29909,-5862,0.193,0.059675246,0.508,1.087,0.55,1.01,104,18,2.8690002,1.945,2.1090002,0.123,0.8175591,0,4,1,20
2741539850,1686676715599658,371025888,-763879871,29837,-5933,0.2,0.06281894,0.509,1.087,0.55,1.01,104,18,2.8390002,1.9280001,2.0830002,0.071,0.82073337,0,4,1,20
2741754737,1686676715799658,371025921,-763879828,29771,-5999,0.19900002,0.063731045,0.51000005,1.09,0.55,1.01,104,16,2.7580001,1.863,2.035,0.18900001,0.82514256,0,4,1,20
2741939455,1686676715999659,371025955,-763879785,29691,-6079,0.194,0.061625477,0.51100004,1.0910001,0.58,1.05,104,16,2.696,1.881,1.932,0.136,0.81121796,0,4,1,19
2742153754,1686676716199658,371025988,-763879742,29672,-6098,0.19800001,0.060007207,0.512,1.093,0.58,1.05,104,16,2.7680001,1.945,1.9700001,0.14500001,0.80107397,0,4,1,19
2742337799,1686676716399658,371026022,-763879701,29629,-6141,0.2,0.060638145,0.513,1.095,0.58,1.05,104,16,2.615,1.914,1.7820001,0.128,0.775148,0,4,1,19
2742554478,1686676716599658,371026057,-763879660,29590,-6180,0.20300001,0.058295913,0.514,1.098,0.58,1.05,104,16,2.801,2.065,1.8930001,0.2,0.7574854,0,4,1,19
2742747500,1686676716799658,371026094,-763879619,29553,-6217,0.19100001,0.057726588,0.51500005,1.1,0.58,1.05,104,15,2.693,2.012,1.7900001,0.11800001,0.74184483,0,4,1,19
2742954493,1686676716999659,371026131,-763879580,29553,-6218,0.17600001,0.053591203,0.514,1.0960001,0.55,1.01,104,15,2.8240001,2.1460001,1.835,0.083000004,0.7229598,0,4,1,20
2743152537,1686676717199658,371026168,-763879538,29534,-6236,0.18800001,0.05804284,0.514,1.095,0.55,1.01,104,15,2.7580001,2.0800002,1.8110001,0.009000001,0.719847,0,4,1,20
2743348807,1686676717399658,371026204,-763879496,29567,-6203,0.187,0.05827462,0.514,1.095,0.55,1.01,104,15,2.778,1.983,1.9460001,0.069000006,0.7484968,0,4,1,20
2743552564,1686676717599657,371026239,-763879452,29577,-6193,0.19000001,0.057758003,0.51500005,1.095,0.55,1.01,104,15,2.8030002,2.0300002,1.932,0.11400001,0.7547196,0,4,1,20
2743749787,1686676717799657,371026274,-763879409,29602,-6168,0.187,0.06033271,0.51600003,1.0940001,0.55,1.01,104,16,2.749,1.9740001,1.9130001,0.012,0.76205766,0,4,1,20
2743955479,1686676717999658,371026309,-763879366,29645,-6125,0.18300001,0.057459377,0.51500005,1.0910001,0.55,1.01,104,16,2.832,2.0440001,1.96,0.046000004,0.7633237,0,4,1,20
2744155532,1686676718199657,371026345,-763879322,29670,-6101,0.178,0.05719461,0.51500005,1.0890001,0.55,1.01,104,16,2.8300002,2.042,1.96,-0.039,0.7640414,0,4,1,20
2744359619,1686676718399657,371026382,-763879282,29662,-6108,0.18,0.05670679,0.51500005,1.0860001,0.55,1.01,104,16,2.755,2.078,1.8090001,0.011000001,0.7394717,0,4,1,20
2744556109,1686676718599657,371026419,-763879244,29646,-6124,0.18100001,0.055410884,0.51500005,1.0840001,0.55,1.01,104,16,2.818,2.1260002,1.8500001,-0.002,0.7273162,0,4,1,20
2744753489,1686676718799657,371026457,-763879207,29670,-6100,0.18800001,0.055523634,0.51500005,1.0830001,0.55,1.01,104,15,2.8200002,2.17,1.8000001,-0.1,0.70951504,0,4,1,20
2744957671,1686676718999658,371026495,-763879169,29695,-6075,0.192,0.058367297,0.51500005,1.0830001,0.55,1.01,104,15,2.772,2.084,1.8290001,0.003,0.7148254,0,4,1,20
2745158480,1686676719199657,371026532,-763879130,29707,-6063,0.186,0.055518396,0.51500005,1.0830001,0.55,1.01,104,15,2.8230002,2.151,1.8290001,-0.035,0.70948833,0,4,1,20
2745351510,1686676719399657,371026570,-763879091,29708,-6062,0.18900001,0.05541368,0.51600003,1.0840001,0.55,1.01,104,15,2.7960002,2.1820002,1.748,0.010000001,0.69193155,0,4,1,20
2745555100,1686676719599657,371026608,-763879056,29691,-6079,0.18300001,0.056137815,0.51600003,1.0840001,0.55,1.01,104,15,2.7210002,2.105,1.725,-0.076000005,0.6892868,0,4,1,20
2745754772,1686676719799657,371026645,-763879022,29670,-6100,0.192,0.056554075,0.51600003,1.0840001,0.55,1.01,104,16,2.7680001,2.177,1.7090001,-0.10700001,0.67726904,0,4,1,20
2745956262,1686676719999657,371026685,-763878987,29633,-6137,0.17500001,0.054884844,0.51500005,1.0840001,0.55,1.01,104,16,2.812,2.2010002,1.7500001,-0.043,0.67426497,0,4,1,20
2746152919,1686676720199656,371026725,-763878953,29616,-6154,0.19700001,0.055991206,0.51500005,1.0860001,0.55,1.01,104,16,2.782,2.2180002,1.6800001,-0.037,0.66128826,0,4,1,20
2746350556,1686676720399656,371026763,-763878919,29605,-6165,0.20300001,0.058647946,0.517,1.0890001,0.55,1.01,104,16,2.6750002,2.1200001,1.6300001,-0.033,0.65842384,0,4,1,20
2746554504,1686676720599656,371026801,-763878883,29631,-6140,0.20700002,0.058551606,0.51900005,1.093,0.55,1.01,104,16,2.7680001,2.2020001,1.6780001,-0.031000001,0.6547077,0,4,1,20
2746751490,1686676720799656,371026840,-763878849,29576,-6194,0.187,0.060777422,0.52000004,1.0960001,0.55,1.01,104,17,2.703,2.115,1.6840001,-0.105000004,0.66346365,0,4,1,20
2746955845,1686676720999657,371026877,-763878816,29557,-6213,0.19800001,0.060886156,0.521,1.1,0.55,1.01,104,17,2.6390002,2.043,1.6700001,-0.009000001,0.67460656,0,4,1,20
2747152579,1686676721199656,371026912,-763878781,29531,-6239,0.19100001,0.060816344,0.522,1.103,0.55,1.01,104,17,2.697,1.9740001,1.838,-0.07700001,0.71304584,0,4,1,20
2747356849,1686676721399656,371026947,-763878743,29473,-6298,0.194,0.05766201,0.523,1.107,0.55,1.01,104,17,2.7410002,2.0110002,1.863,0.014,0.7313653,0,4,1,20
2747557860,1686676721599656,371026983,-763878704,29427,-6343,0.18200001,0.059720624,0.523,1.1060001,0.55,1.01,104,17,2.729,2.019,1.8360001,-0.052,0.734631,0,4,1,20
2747754506,1686676721799656,371027018,-763878664,29412,-6358,0.18100001,0.06067026,0.523,1.1060001,0.55,1.01,104,18,2.7210002,1.9570001,1.891,-0.060000002,0.75161237,0,4,1,20
2747951550,1686676721999657,371027053,-763878624,29363,-6407,0.18100001,0.06027564,0.523,1.1060001,0.55,1.01,104,18,2.749,1.9470001,1.9410001,-0.022000002,0.76815635,0,4,1,20
2748151483,1686676722199656,371027089,-763878584,29296,-6475,0.178,0.05757963,0.523,1.105,0.55,1.01,104,18,2.7910001,2.003,1.9440001,0.069000006,0.7693109,0,4,1,20
2748355307,1686676722399655,371027124,-763878543,29299,-6471,0.18300001,0.06042626,0.523,1.103,0.55,1.01,104,18,2.73,1.914,1.9470001,0.104,0.7812645,0,4,1,20
2748552887,1686676722599655,371027159,-763878501,29337,-6433,0.15900001,0.055161826,0.521,1.098,0.55,1.01,104,18,2.867,2.066,1.988,-0.028,0.7729075,0,4,1,20
2748753487,1686676722799655,371027194,-763878463,29314,-6456,0.155,0.056665078,0.51900005,1.092,0.55,1.01,104,16,2.7470002,1.9610001,1.9230001,0.010000001,0.7742973,0,4,1,20
2748952614,1686676722999656,371027229,-763878424,29251,-6520,0.163,0.056909773,0.518,1.0910001,0.55,1.01,104,16,2.7240002,1.9230001,1.9290001,0.086,0.78076166,0,4,1,20
2749158797,1686676723199655,371027263,-763878384,29162,-6608,0.165,0.056597535,0.518,1.092,0.55,1.01,104,16,2.762,1.9210001,1.9840001,0.09200001,0.7913434,0,4,1,20
2749350479,1686676723399655,371027298,-763878344,29089,-6681,0.155,0.054620076,0.51600003,1.093,0.55,1.01,104,16,2.8040001,1.9970001,1.968,0.053000003,0.784278,0,4,1,20
2749551867,1686676723599655,371027336,-763878303,29026,-6745,0.15200001,0.052300707,0.514,1.0910001,0.55,1.01,104,16,2.887,2.112,1.9690001,0.026,0.76618135,0,4,1,20
2749755870,1686676723799655,371027373,-763878265,28967,-6803,0.163,0.056510266,0.513,1.092,0.55,1.01,104,17,2.7080002,2.0180001,1.8050001,-0.030000001,0.74886,0,4,1,20
2749952533,1686676723999656,371027410,-763878227,28958,-6812,0.16000001,0.05714644,0.512,1.088,0.55,1.01,104,17,2.7740002,2.045,1.8750001,-0.048,0.74539375,0,4,1,20
2750153480,1686676724199655,371027448,-763878188,28918,-6852,0.155,0.055759426,0.51100004,1.0860001,0.55,1.01,104,17,2.822,2.0730002,1.914,-0.063,0.74549675,0,4,1,20
2750353483,1686676724399655,371027485,-763878149,28884,-6886,0.162,0.055735514,0.51000005,1.0860001,0.55,1.01,104,17,2.755,2.035,1.8570001,-0.037,0.7424426,0,4,1,20
2750557477,1686676724599655,371027521,-763878110,28852,-6919,0.162,0.05648409,0.51000005,1.087,0.55,1.01,104,17,2.7280002,1.9760001,1.881,-0.027,0.7517265,0,4,1,20
2750755485,1686676724799654,371027557,-763878071,28798,-6972,0.165,0.056088597,0.51000005,1.088,0.55,1.01,104,16,2.8330002,2.081,1.922,0.007,0.7486174,0,4,1,20
2750954660,1686676724999655,371027595,-763878030,28745,-7025,0.16800001,0.061156508,0.51000005,1.087,0.55,1.01,104,16,2.8230002,2.0270002,1.9650002,0.051000003,0.7585382,0,4,1,20
2751152682,1686676725199654,371027632,-763877988,28695,-7076,0.18200001,0.06148969,0.51100004,1.087,0.55,1.01,104,16,2.8100002,2.046,1.9250001,0.007,0.75676984,0,4,1,20
2751352572,1686676725399654,371027670,-763877949,28652,-7119,0.18,0.05879752,0.512,1.087,0.55,1.01,104,16,2.838,2.094,1.9160001,0.074,0.7483628,0,4,1,20
2751553487,1686676725599654,371027706,-763877908,28627,-7143,0.178,0.061305385,0.513,1.088,0.55,1.01,104,16,2.749,1.9690001,1.9180001,0.017,0.76008457,0,4,1,20
2751753491,1686676725799654,371027742,-763877866,28584,-7186,0.179,0.063029945,0.514,1.0890001,0.55,1.01,104,16,2.811,2.043,1.9310001,0.057000004,0.75857204,0,4,1,20
2751951487,1686676725999655,371027779,-763877824,28525,-7246,0.17400001,0.063405715,0.514,1.088,0.55,1.01,104,16,2.7700002,1.988,1.9290001,0.068,0.7645112,0,4,1,20
2752151549,1686676726199654,371027816,-763877781,28446,-7324,0.17,0.05881864,0.51500005,1.087,0.55,1.01,104,16,2.818,2.022,1.9620001,0.095000006,0.7677178,0,4,1,20
2752360017,1686676726399654,371027854,-763877738,28409,-7361,0.17500001,0.061369438,0.51500005,1.087,0.55,1.01,104,16,2.8630002,2.082,1.9650002,0.039,0.76227355,0,4,1,20
2752556245,1686676726599654,371027891,-763877696,28387,-7383,0.17,0.055782463,0.51500005,1.085,0.55,1.01,104,16,2.8370001,2.015,1.9980001,-0.003,0.7728035,0,4,1,20
2752753482,1686676726799654,371027928,-763877653,28331,-7439,0.185,0.057119213,0.51500005,1.085,0.55,1.01,104,18,2.772,1.963,1.9570001,0.069000006,0.77826774,0,4,1,20
2752953515,1686676726999654,371027964,-763877611,28305,-7466,0.185,0.055785783,0.51500005,1.085,0.55,1.01,104,18,2.834,2.0170002,1.991,0.031000001,0.77862936,0,4,1,20
2753154525,1686676727199653,371028000,-763877567,28294,-7477,0.19000001,0.05636261,0.51500005,1.085,0.55,1.01,104,18,2.857,1.9840001,2.055,0.060000002,0.7909336,0,4,1,20
2753351513,1686676727399653,371028037,-763877522,28290,-7480,0.193,0.054245528,0.51500005,1.085,0.55,1.01,104,18,2.9510002,2.082,2.092,0.124000005,0.7892488,0,4,1,20
2753551859,1686676727599653,371028073,-763877478,28259,-7511,0.19000001,0.057798147,0.51600003,1.085,0.55,1.01,104,18,2.818,2.029,1.9560001,-0.012,0.77857125,0,4,1,20
2753754628,1686676727799653,371028109,-763877436,28233,-7537,0.18400002,0.058506925,0.51600003,1.085,0.55,1.01,104,19,2.7810001,1.9770001,1.955,-0.003,0.77919346,0,4,1,20
2753955246,1686676727999654,371028146,-763877394,28233,-7538,0.17500001,0.055666227,0.51600003,1.085,0.55,1.01,104,19,2.782,2.0440001,1.8870001,-0.16800001,0.7611232,0,4,1,20
2754153753,1686676728199653,371028183,-763877353,28257,-7513,0.16900001,0.05472567,0.51500005,1.082,0.55,1.01,104,19,2.7800002,2.052,1.876,-0.046000004,0.7504046,0,4,1,20
2754349640,1686676728399653,371028220,-763877313,28247,-7524,0.17,0.05671028,0.514,1.0780001,0.55,1.01,104,19,2.759,2.0270002,1.871,-0.063,0.74796134,0,4,1,20
2754550479,1686676728599653,371028256,-763877271,28279,-7491,0.16900001,0.05874481,0.514,1.074,0.55,1.01,104,19,2.726,1.9760001,1.8780001,-0.10300001,0.75390345,0,4,1,20
2754750804,1686676728799653,371028293,-763877230,28298,-7472,0.171,0.057286937,0.513,1.0710001,0.55,1.01,104,18,2.772,2.065,1.8500001,-0.017,0.74168706,0,4,1,20
2754950827,1686676728999654,371028330,-763877191,28322,-7448,0.178,0.059925526,0.513,1.07,0.55,1.01,104,18,2.6790001,2.026,1.7530001,-0.143,0.72774744,0,4,1,20
2755155625,1686676729199653,371028366,-763877152,28356,-7414,0.194,0.060259234,0.514,1.07,0.55,1.01,104,18,2.6950002,2.0370002,1.764,-0.124000005,0.7206319,0,4,1,20
2755359465,1686676729399652,371028402,-763877115,28350,-7420,0.19900002,0.06037582,0.51600003,1.072,0.55,1.01,104,18,2.683,2.016,1.771,-0.096,0.72079927,0,4,1,20
2755552923,1686676729599652,371028439,-763877076,28364,-7407,0.19000001,0.058909573,0.517,1.074,0.55,1.01,104,18,2.713,2.051,1.7760001,-0.007,0.7170156,0,4,1,20
2755754482,1686676729799652,371028476,-763877037,28360,-7410,0.18100001,0.0587202,0.518,1.075,0.55,1.01,104,16,2.6890001,2.045,1.7450001,-0.003,0.71154904,0,4,1,20
2755954521,1686676729999653,371028513,-763876999,28337,-7433,0.187,0.060510386,0.518,1.077,0.55,1.01,104,16,2.684,2.01,1.7800001,0.051000003,0.71808726,0,4,1,20
2756155480,1686676730199652,371028548,-763876960,28308,-7462,0.19000001,0.0611586,0.52000004,1.079,0.55,1.01,104,16,2.6480002,1.9860001,1.751,0.020000001,0.7204478,0,4,1,20
2756354708,1686676730399652,371028584,-763876921,28287,-7484,0.192,0.06060725,0.521,1.0830001,0.55,1.01,104,16,2.67,2.026,1.7390001,0.056,0.7147318,0,4,1,20
2756555152,1686676730599652,371028619,-763876881,28250,-7520,0.18800001,0.062377367,0.522,1.085,0.55,1.01,104,16,2.6560001,2.0070002,1.7400001,-0.019000001,0.7145582,0,4,1,20
2756752876,1686676730799652,371028654,-763876844,28234,-7536,0.186,0.0639527,0.523,1.0860001,0.55,1.01,104,19,2.538,1.9150001,1.6660001,0.009000001,0.7153153,0,4,1,20
2756953482,1686676730999653,371028688,-763876807,28260,-7511,0.193,0.066779606,0.52400005,1.088,0.55,1.01,104,19,2.578,1.988,1.6420001,-0.120000005,0.7031413,0,4,1,20
2757150483,1686676731199652,371028723,-763876770,28282,-7489,0.18200001,0.06596053,0.52500004,1.088,0.55,1.01,104,19,2.5530002,1.9100001,1.6930001,0.001,0.7145018,0,4,1,20
2757351486,1686676731399652,371028757,-763876732,28284,-7487,0.18300001,0.063512355,0.52500004,1.0890001,0.55,1.01,104,19,2.558,1.9050001,1.7070001,-0.016,0.7229656,0,4,1,20
2757551476,1686676731599652,371028791,-763876694,28278,-7492,0.18300001,0.062401976,0.526,1.0910001,0.55,1.01,104,19,2.6030002,1.9610001,1.7120001,-0.13000001,0.7202146,0,4,1,20
2757750952,1686676731799651,371028826,-763876657,28274,-7496,0.18800001,0.0610099,0.527,1.093,0.55,1.01,104,16,2.6100001,1.9790001,1.702,-0.12200001,0.71514475,0,4,1,20
2757952697,1686676731999652,371028860,-763876621,28256,-7515,0.18300001,0.06265208,0.527,1.095,0.55,1.01,104,16,2.5860002,1.9300001,1.7210001,-0.15,0.72161573,0,4,1,20
2758157633,1686676732199651,371028894,-763876583,28266,-7504,0.17300001,0.06108303,0.527,1.0940001,0.55,1.01,104,16,2.627,1.9460001,1.764,-0.142,0.72929835,0,4,1,20
2758353769,1686676732399651,371028928,-763876546,28278,-7492,0.17600001,0.061761614,0.527,1.0940001,0.55,1.01,104,16,2.581,1.9620001,1.677,-0.108,0.71811604,0,4,1,20
2758553531,1686676732599651,371028964,-763876510,28302,-7468,0.16900001,0.06098302,0.526,1.0910001,0.55,1.01,104,16,2.509,1.8950001,1.6450001,-0.17600001,0.7164183,0,4,1,20
2758758910,1686676732799651,371028999,-763876472,28298,-7472,0.179,0.058498897,0.52500004,1.09,0.55,1.01,104,15,2.6660001,2.033,1.725,-0.003,0.7095894,0,4,1,20
2758955028,1686676732999652,371029035,-763876435,28262,-7509,0.18200001,0.060329046,0.52500004,1.0890001,0.55,1.01,104,15,2.5730002,1.9970001,1.6220001,-0.009000001,0.695935,0,4,1,20
2759159840,1686676733199651,371029069,-763876399,28253,-7517,0.179,0.0636834,0.526,1.0890001,0.55,1.01,104,15,2.47,1.8590001,1.6270001,-0.065000005,0.7070698,0,4,1,20
2759352840,1686676733399651,371029103,-763876363,28240,-7530,0.18100001,0.06260845,0.526,1.0890001,0.55,1.01,104,15,2.595,1.991,1.664,-0.028,0.7014841,0,4,1,20
2759561492,1686676733599651,371029139,-763876326,28223,-7547,0.18200001,0.06276954,0.526,1.09,0.55,1.01,104,15,2.592,1.9970001,1.6520001,-0.027,0.69633067,0,4,1,20
2759754497,1686676733799651,371029174,-763876289,28175,-7595,0.18300001,0.06372144,0.527,1.092,0.55,1.01,104,25,2.5730002,1.9570001,1.6710001,0.026,0.70159215,0,4,1,20
2759950486,1686676733999652,371029209,-763876252,28124,-7647,0.18200001,0.061945397,0.528,1.093,0.55,1.01,104,25,2.6390002,1.9930001,1.7300001,-0.002,0.7085733,0,4,1,20
2760151241,1686676734199650,371029245,-763876215,28081,-7690,0.18100001,0.062251877,0.528,1.093,0.55,1.01,104,25,2.608,2.006,1.667,0.003,0.70095575,0,4,1,20
2760348010,1686676734399650,371029281,-763876178,28022,-7748,0.18300001,0.062246814,0.528,1.093,0.55,1.01,104,25,2.6220002,1.9860001,1.7120001,0.063,0.706208,0,4,1,20
2760551797,1686676734599650,371029317,-763876140,27968,-7803,0.18200001,0.064006105,0.528,1.093,0.55,1.01,104,25,2.5630002,1.9420002,1.672,0.015000001,0.70851845,0,4,1,20
2760751807,1686676734799650,371029351,-763876102,27962,-7808,0.18,0.06040078,0.52900004,1.092,0.55,1.01,104,16,2.6190002,1.9520001,1.746,-0.017,0.71997845,0,4,1,20
2760953505,1686676734999651,371029385,-763876063,27948,-7823,0.18300001,0.059822727,0.52900004,1.092,0.55,1.01,104,16,2.6250002,1.9820001,1.7210001,0.074,0.717394,0,4,1,20
2761153484,1686676735199650,371029420,-763876023,27949,-7822,0.18200001,0.05908847,0.52900004,1.092,0.55,1.01,104,16,2.657,2.009,1.7390001,0.068,0.7153469,0,4,1,20
2761353987,1686676735399650,371029454,-763875984,27970,-7801,0.177,0.059096497,0.52900004,1.09,0.55,1.01,104,16,2.607,2.0270002,1.639,-0.069000006,0.6973817,0,4,1,20
2761551568,1686676735599650,371029488,-763875947,28011,-7759,0.18100001,0.061486725,0.528,1.088,0.55,1.01,104,16,2.5540001,1.8970001,1.71,0.057000004,0.7151287,0,4,1,20
2761755382,1686676735799650,371029521,-763875910,28016,-7755,0.178,0.06291266,0.528,1.0840001,0.55,1.01,104,32,2.584,1.9300001,1.718,0.069000006,0.72116965,0,4,1,20
2761955662,1686676735999651,371029555,-763875874,27998,-7772,0.162,0.059036106,0.527,1.08,0.55,1.01,104,32,2.641,1.9940001,1.7310001,0.027,0.7178329,0,4,1,20
2762152714,1686676736199650,371029589,-763875837,27964,-7806,0.17400001,0.058279157,0.526,1.0780001,0.55,1.01,104,32,2.6190002,1.9640001,1.733,0.061000004,0.7204218,0,4,1,20
2762354116,1686676736399650,371029624,-763875798,27952,-7818,0.18100001,0.059784852,0.52500004,1.077,0.55,1.01,104,32,2.618,1.9560001,1.7400001,0.14,0.7237943,0,4,1,20
2762557138,1686676736599649,371029659,-763875758,27893,-7877,0.17300001,0.055221166,0.52500004,1.075,0.55,1.01,104,32,2.808,2.028,1.9430001,0.10700001,0.7459524,0,4,1,20
2762751515,1686676736799649,371029697,-763875715,27896,-7874,0.185,0.05100829,0.52400005,1.0730001,0.55,1.01,104,15,3.101,2.358,2.0140002,-0.11100001,0.724302,0,4,1,20
2762955485,1686676736999650,371029743,-763875665,28039,-7731,0.201,0.041675843,0.523,1.069,0.55,1.01,104,15,3.8610003,3.0340002,2.387,-0.887,0.68859816,0,4,1,20
2763151556,1686676737199649,371029800,-763875605,28274,-7497,0.21200001,0.036787525,0.52400005,1.0660001,0.55,1.01,104,15,4.538,3.558,2.8160002,-1.245,0.6771837,0,4,1,20
2763339760,1686676737399649,371029867,-763875535,28538,-7232,0.215,0.032578837,0.52400005,1.0630001,0.55,1.01,104,15,5.2040005,4.0010004,3.328,-1.4180001,0.6872556,0,4,1,20
2763556340,1686676737599649,371029939,-763875454,28847,-6924,0.21300001,0.030390719,0.526,1.064,0.55,1.01,104,15,5.7120004,4.257,3.8090003,-1.47,0.7128181,0,4,1,20
2763754595,1686676737799649,371030016,-763875365,29185,-6585,0.25100002,0.034120314,0.526,1.064,0.55,1.01,104,15,5.9880004,4.307,4.1610003,-1.4410001,0.7416167,0,4,1,20
2763953484,1686676737999650,371030091,-763875270,29465,-6305,0.19500001,0.027434304,0.52400005,1.062,0.57,1.03,104,15,5.8350005,4.0010004,4.247,-1.4070001,0.7905702,0,4,1,19
2764155530,1686676738199649,371030161,-763875174,29663,-6108,0.171,0.027236909,0.523,1.059,0.57,1.03,104,15,5.7330003,3.6680002,4.406,-1.363,0.8414314,0,4,1,19
2764354821,1686676738399649,371030226,-763875075,29911,-5859,0.172,0.028406627,0.522,1.056,0.57,1.03,104,15,5.6470003,3.338,4.5550003,-1.3510001,0.8964845,0,4,1,19
2764551616,1686676738599649,371030283,-763874967,30159,-5612,0.187,0.02806908,0.522,1.056,0.57,1.03,104,15,5.7970004,3.035,4.939,-1.3460001,0.9692111,0,4,1,19
2764756085,1686676738799649,371030335,-763874852,30395,-5376,0.18200001,0.027427673,0.522,1.054,0.57,1.03,104,16,5.9540005,2.7,5.306,-1.4050001,1.0476111,0,4,1,19
2764961045,1686676738999649,371030382,-763874728,30638,-5132,0.178,0.026568098,0.521,1.052,0.57,1.03,104,16,6.168,2.4810002,5.6470003,-1.33,1.1141117,0,4,1,19
2765149516,1686676739199648,371030425,-763874597,30887,-4883,0.179,0.025177594,0.521,1.051,0.57,1.03,104,16,6.432,2.3300002,5.9960003,-1.266,1.1680803,0,4,1,19
2765353921,1686676739399648,371030466,-763874459,31096,-4674,0.17300001,0.024671623,0.52000004,1.0500001,0.57,1.03,104,16,6.6070004,2.2610002,6.209,-1.25,1.2014004,0,4,1,19
2765550536,1686676739599648,371030509,-763874317,31317,-4453,0.17,0.02418328,0.51900005,1.047,0.57,1.03,104,16,6.834,2.2770002,6.4440002,-1.307,1.2200891,0,4,1,19
2765730908,1686676739799648,371030550,-763874170,31586,-4184,0.17,0.022878822,0.517,1.0450001,0.57,1.03,104,19,6.959,2.282,6.5740004,-1.4250001,1.2308316,0,4,1,19
2765952039,1686676739999649,371030592,-763874019,31843,-3927,0.16700001,0.02253604,0.51500005,1.0430001,0.57,1.03,104,19,7.0320005,2.298,6.6460004,-1.4990001,1.2353866,0,4,1,19
2766153658,1686676740199648,371030634,-763873868,32095,-3675,0.164,0.022331137,0.513,1.0400001,0.57,1.03,104,19,7.0260005,2.3390002,6.6250005,-1.5600001,1.2328606,0,4,1,19
2766351914,1686676740399648,371030677,-763873718,32390,-3381,0.16600001,0.023291243,0.512,1.039,0.57,1.03,104,19,6.952,2.3600001,6.5400004,-1.536,1.2276624,0,4,1,19
2766553413,1686676740599648,371030720,-763873569,32657,-3114,0.16600001,0.022650184,0.51100004,1.0370001,0.57,1.03,104,19,6.977,2.361,6.5650005,-1.5380001,1.2263161,0,4,1,19
2766762334,1686676740799648,371030763,-763873419,32963,-2807,0.165,0.022312462,0.509,1.0350001,0.57,1.03,104,16,7.0530005,2.4290001,6.622,-1.5130001,1.2217013,0,4,1,19
2766951487,1686676740999649,371030807,-763873268,33217,-2553,0.165,0.022413343,0.508,1.034,0.55,1.02,104,16,7.0350003,2.3850002,6.6190004,-1.4350001,1.2237983,0,4,1,20
2767155651,1686676741199647,371030850,-763873118,33470,-2300,0.16700001,0.022430098,0.507,1.0320001,0.55,1.02,104,16,7.0730004,2.2840002,6.6940002,-1.511,1.2354224,0,4,1,20
2767352535,1686676741399647,371030892,-763872968,33731,-2039,0.16700001,0.022597998,0.50600004,1.031,0.55,1.02,104,16,7.038,2.2940001,6.6530004,-1.4920001,1.237519,0,4,1,20
2767552579,1686676741599647,371030933,-763872817,34010,-1761,0.16600001,0.022398682,0.50600004,1.029,0.55,1.02,104,16,7.0940003,2.24,6.7310004,-1.4820001,1.2452888,0,4,1,20
2767737662,1686676741799647,371030974,-763872665,34271,-1499,0.16600001,0.022274414,0.505,1.028,0.55,1.02,104,17,7.1330004,2.26,6.7650003,-1.5430001,1.2472616,0,4,1,20
2767953014,1686676741999648,371031015,-763872513,34513,-1257,0.16600001,0.02246867,0.504,1.0270001,0.55,1.02,104,17,7.0750003,2.226,6.715,-1.4860001,1.2494723,0,4,1,20
2768138789,1686676742199647,371031057,-763872362,34765,-1006,0.165,0.022510208,0.503,1.0250001,0.55,1.02,104,17,7.0610003,2.232,6.6990004,-1.3750001,1.2493035,0,4,1,20
2768354474,1686676742399647,371031098,-763872211,35002,-769,0.15900001,0.023204152,0.50200003,1.0250001,0.55,1.02,104,17,7.129,2.259,6.761,-1.452,1.2487112,0,4,1,20
2768555499,1686676742599647,371031140,-763872060,35269,-501,0.15900001,0.023310266,0.50100005,1.026,0.55,1.02,104,17,7.097,2.279,6.721,-1.4260001,1.2456133,0,4,1,20
2768751910,1686676742799647,371031182,-763871909,35539,-232,0.156,0.022266211,0.5,1.024,0.55,1.02,104,16,7.0660005,2.3200002,6.675,-1.4030001,1.2395003,0,4,1,20
2768956852,1686676742999648,371031224,-763871756,35798,28,0.15300001,0.021981722,0.499,1.0220001,0.55,1.02,104,16,7.1640005,2.2340002,6.807,-1.3970001,1.2487043,0,4,1,20
2769150513,1686676743199647,371031265,-763871605,36006,236,0.15400001,0.022159746,0.49800003,1.021,0.55,1.02,104,16,7.0910006,2.286,6.7120004,-1.4020001,1.2447579,0,4,1,20
2769359601,1686676743399647,371031307,-763871454,36251,481,0.16000001,0.022122571,0.49800003,1.021,0.55,1.02,104,16,7.1180005,2.282,6.7430005,-1.3490001,1.2445973,0,4,1,20
2769550521,1686676743599646,371031349,-763871302,36473,702,0.16100001,0.02208871,0.497,1.021,0.55,1.02,104,16,7.1240005,2.305,6.7400002,-1.373,1.2424347,0,4,1,20
2769750931,1686676743799646,371031392,-763871152,36701,931,0.156,0.022722265,0.497,1.023,0.55,1.02,104,20,7.1010003,2.348,6.701,-1.338,1.2369659,0,4,1,20
2769955449,1686676743999647,371031435,-763871001,36945,1175,0.162,0.022695038,0.497,1.024,0.55,1.02,104,20,7.1050005,2.357,6.7030005,-1.3570001,1.2341864,0,4,1,20
2770152563,1686676744199646,371031479,-763870850,37189,1418,0.162,0.022626273,0.497,1.026,0.55,1.02,104,20,7.135,2.348,6.7380004,-1.4590001,1.2350508,0,4,1,20
2770353229,1686676744399646,371031523,-763870700,37437,1667,0.16000001,0.022358714,0.497,1.026,0.55,1.02,104,20,7.0090003,2.345,6.6050005,-1.274,1.2316114,0,4,1,20
2770550517,1686676744599646,371031566,-763870550,37690,1920,0.16000001,0.022026926,0.49600002,1.026,0.55,1.02,104,20,7.1150002,2.3720002,6.708,-1.4150001,1.2311528,0,4,1,20
2770747487,1686676744799646,371031610,-763870399,37919,2149,0.16000001,0.021935996,0.49600002,1.026,0.55,1.02,104,16,7.1450005,2.4220002,6.722,-1.373,1.2271315,0,4,1,20
2770947491,1686676744999647,371031655,-763870248,38157,2387,0.15900001,0.021977184,0.49500003,1.0250001,0.55,1.02,104,16,7.135,2.3470001,6.7380004,-1.3640001,1.2326518,0,4,1,20
2771150986,1686676745199646,371031698,-763870096,38395,2624,0.15900001,0.022157302,0.49500003,1.0250001,0.55,1.02,104,16,7.0850005,2.311,6.6970005,-1.36,1.2363698,0,4,1,20
2771344572,1686676745399646,371031741,-763869945,38627,2856,0.164,0.02254267,0.49500003,1.026,0.55,1.02,104,16,7.169,2.4090002,6.7520003,-1.248,1.231122,0,4,1,20
2771545484,1686676745599646,371031785,-763869793,38883,3113,0.163,0.022331137,0.49500003,1.028,0.55,1.02,104,16,7.2360005,2.397,6.8280005,-1.3560001,1.2324722,0,4,1,20
2771753483,1686676745799646,371031829,-763869641,39127,3357,0.165,0.022585431,0.49500003,1.0300001,0.55,1.02,104,16,7.1530004,2.3990002,6.7380004,-1.44,1.2301314,0,4,1,20
2771953502,1686676745999646,371031873,-763869489,39355,3584,0.163,0.021948736,0.49600002,1.0300001,0.55,1.02,104,16,7.1640005,2.375,6.7590003,-1.3570001,1.2319021,0,4,1,20
2772150961,1686676746199645,371031916,-763869337,39596,3825,0.164,0.02241404,0.49600002,1.0320001,0.55,1.02,104,16,7.234,2.3490002,6.8420005,-1.3720001,1.2370971,0,4,1,20
2772350683,1686676746399645,371031958,-763869183,39847,4077,0.162,0.022434287,0.49600002,1.033,0.55,1.02,104,16,7.2170005,2.3430002,6.826,-1.3410001,1.2390234,0,4,1,20
2772551560,1686676746599645,371032001,-763869030,40087,4316,0.163,0.02252993,0.497,1.0350001,0.55,1.02,104,16,7.1940002,2.321,6.8100004,-1.289,1.2410892,0,4,1,20
2772755613,1686676746799645,371032043,-763868878,40316,4545,0.16600001,0.022714412,0.497,1.0370001,0.55,1.02,104,16,7.1830006,2.331,6.794,-1.36,1.2405368,0,4,1,20
2772952896,1686676746999646,371032085,-763868725,40547,4776,0.165,0.022732388,0.49800003,1.039,0.55,1.02,104,16,7.1970005,2.256,6.834,-1.3620001,1.2477859,0,4,1,20
2773149786,1686676747199645,371032127,-763868570,40768,4997,0.164,0.022368139,0.499,1.042,0.55,1.02,104,16,7.2820005,2.371,6.885,-1.2720001,1.2422092,0,4,1,20
2773346523,1686676747399645,371032170,-763868416,40993,5222,0.163,0.022310019,0.499,1.0430001,0.55,1.02,104,16,7.2580004,2.3620002,6.8630004,-1.4000001,1.2403765,0,4,1,20
2773550484,1686676747599645,371032212,-763868261,41232,5461,0.165,0.02251562,0.5,1.0450001,0.55,1.02,104,16,7.2420006,2.3390002,6.854,-1.2930001,1.2413766,0,4,1,20
2773750942,1686676747799645,371032255,-763868106,41514,5743,0.163,0.0223828,0.5,1.047,0.55,1.02,104,17,7.2570004,2.279,6.8900003,-1.5100001,1.2478147,0,4,1,20
2773951627,1686676747999646,371032297,-763867951,41786,6015,0.164,0.02287568,0.50100005,1.0500001,0.55,1.02,104,17,7.2300005,2.2910001,6.8570004,-1.409,1.2481241,0,4,1,20
2774147836,1686676748199645,371032339,-763867797,42038,6267,0.16100001,0.021821328,0.50100005,1.049,0.55,1.02,104,17,7.222,2.3360002,6.834,-1.3700001,1.2436942,0,4,1,20
2774353110,1686676748399644,371032383,-763867642,42286,6516,0.15900001,0.021680305,0.5,1.049,0.55,1.02,104,17,7.2400002,2.3630002,6.8440003,-1.47,1.2402346,0,4,1,20
2774554544,1686676748599644,371032427,-763867489,42559,6789,0.16100001,0.021737028,0.5,1.0480001,0.55,1.02,104,17,7.2360005,2.3660002,6.8380003,-1.3670001,1.2385631,0,4,1,20
2774747580,1686676748799644,371032470,-763867335,42791,7020,0.16100001,0.02154574,0.499,1.047,0.55,1.02,104,17,7.301,2.3830001,6.9020004,-1.284,1.2384518,0,4,1,20
2774951111,1686676748999645,371032514,-763867180,43027,7256,0.157,0.022569899,0.499,1.049,0.55,1.02,104,17,7.3170004,2.3860002,6.9170003,-1.3610001,1.238551,0,4,1,20
2775154748,1686676749199644,371032558,-763867026,43282,7511,0.156,0.02264617,0.499,1.051,0.55,1.02,104,17,7.2460003,2.397,6.839,-1.4740001,1.2354478,0,4,1,20
2775351587,1686676749399644,371032604,-763866871,43531,7760,0.162,0.02216062,0.499,1.054,0.55,1.02,104,17,7.3810005,2.5370002,6.932,-1.3950001,1.2253395,0,4,1,20
2775545610,1686676749599644,371032650,-763866715,43773,8003,0.16100001,0.02186304,0.499,1.0550001,0.55,1.02,104,17,7.347,2.5200002,6.9010005,-1.44,1.2222655,0,4,1,20
2775745695,1686676749799644,371032697,-763866561,44040,8269,0.157,0.021697234,0.499,1.056,0.55,1.02,104,16,7.3760004,2.6430001,6.886,-1.4030001,1.2105329,0,4,1,20
2775946478,1686676749999645,371032748,-763866405,44254,8483,0.162,0.021441368,0.49800003,1.057,0.55,1.02,104,16,7.4110003,2.801,6.8610005,-1.404,1.1925888,0,4,1,20
2776146488,1686676750199644,371032799,-763866251,44496,8725,0.164,0.021565637,0.49800003,1.0580001,0.55,1.02,104,16,7.3960004,2.759,6.8620005,-1.4480001,1.189957,0,4,1,20
2776347486,1686676750399644,371032849,-763866097,44720,8949,0.164,0.021696012,0.49800003,1.059,0.55,1.02,104,16,7.3670006,2.7110002,6.8500004,-1.2830001,1.1925474,0,4,1,20
2776546983,1686676750599644,371032898,-763865943,44973,9202,0.15900001,0.020304462,0.497,1.0550001,0.55,1.02,104,16,7.347,2.6090002,6.8680005,-1.4300001,1.2029185,0,4,1,20
2776744582,1686676750799643,371032946,-763865789,45198,9427,0.163,0.021969156,0.497,1.056,0.55,1.02,104,17,7.3240004,2.582,6.854,-1.289,1.2076725,0,4,1,20
2776949604,1686676750999644,371032993,-763865634,45351,9580,0.15900001,0.02050849,0.497,1.054,0.55,1.02,104,17,7.3410006,2.46,6.9160004,-1.2750001,1.2221769,0,4,1,20
2777146494,1686676751199643,371033037,-763865479,45554,9783,0.162,0.022187147,0.497,1.0550001,0.55,1.02,104,17,7.287,2.391,6.8830004,-1.2210001,1.2311002,0,4,1,20
2777354574,1686676751399643,371033080,-763865324,45796,10025,0.15900001,0.021194404,0.497,1.051,0.55,1.02,104,17,7.2170005,2.2900002,6.8440003,-1.3290001,1.2422919,0,4,1,20
2777551504,1686676751599643,371033122,-763865170,46027,10256,0.162,0.023076916,0.497,1.0530001,0.55,1.02,104,17,7.2520003,2.342,6.8630004,-1.4150001,1.2420696,0,4,1,20
2777751499,1686676751799643,371033165,-763865015,46289,10518,0.16000001,0.02173825,0.497,1.052,0.55,1.02,104,16,7.2130003,2.3040001,6.8350005,-1.3520001,1.2444227,0,4,1,20
2777956125,1686676751999644,371033207,-763864860,46566,10795,0.163,0.022516143,0.49800003,1.054,0.55,1.02,104,16,7.2920003,2.342,6.905,-1.3770001,1.2439955,0,4,1,20
2778151371,1686676752199643,371033251,-763864706,46811,11040,0.16000001,0.020677786,0.497,1.051,0.55,1.02,104,16,7.247,2.4710002,6.8120003,-1.376,1.2295699,0,4,1,20
2778345488,1686676752399643,371033294,-763864552,47066,11295,0.163,0.022937639,0.49800003,1.052,0.55,1.02,104,16,7.2040005,2.3130002,6.8230004,-1.416,1.2384111,0,4,1,20
2778550485,1686676752599643,371033337,-763864399,47324,11553,0.164,0.022538656,0.49800003,1.0530001,0.55,1.02,104,16,7.168,2.367,6.7660003,-1.371,1.2357093,0,4,1,20
2778747490,1686676752799643,371033381,-763864247,47582,11812,0.164,0.022493802,0.499,1.054,0.55,1.02,104,16,7.1600003,2.427,6.7360005,-1.4300001,1.228849,0,4,1,20
2778951512,1686676752999644,371033426,-763864094,47837,12066,0.164,0.02217493,0.499,1.0550001,0.55,1.02,104,16,7.2490005,2.5110002,6.801,-1.516,1.2212443,0,4,1,20
2779130994,1686676753199642,371033471,-763863941,48143,12372,0.163,0.022177897,0.499,1.056,0.55,1.02,104,16,7.247,2.4910002,6.806,-1.46,1.2203873,0,4,1,20
2779351379,1686676753399642,371033518,-763863789,48369,12598,0.163,0.022256961,0.5,1.057,0.55,1.02,104,16,7.2050004,2.545,6.741,-1.355,1.2136036,0,4,1,20
2779552607,1686676753599642,371033562,-763863636,48655,12885,0.163,0.02245907,0.5,1.0580001,0.55,1.02,104,16,7.1930003,2.368,6.7920003,-1.4580001,1.2274932,0,4,1,20
2779752207,1686676753799642,371033606,-763863483,48916,13145,0.164,0.02218069,0.5,1.059,0.55,1.02,104,16,7.261,2.4810002,6.8240004,-1.386,1.224016,0,4,1,20
2779954534,1686676753999643,371033651,-763863330,49183,13412,0.16100001,0.020831026,0.499,1.056,0.55,1.02,104,16,7.2050004,2.4220002,6.7850003,-1.5300001,1.226643,0,4,1,20
2780155478,1686676754199642,371033694,-763863178,49413,13642,0.164,0.023111997,0.499,1.0580001,0.55,1.02,104,16,7.208,2.358,6.8120003,-1.396,1.2332909,0,4,1,20
2780351481,1686676754399642,371033736,-763863025,49706,13935,0.15900001,0.020988107,0.499,1.0550001,0.55,1.02,104,16,7.156,2.24,6.7960005,-1.452,1.246268,0,4,1,20
2780558788,1686676754599642,371033778,-763862872,49935,14164,0.16700001,0.023170292,0.499,1.0580001,0.55,1.02,104,16,7.2430005,2.361,6.8480005,-1.5020001,1.2417188,0,4,1,20
2780751892,1686676754799642,371033823,-763862719,50174,14403,0.163,0.020251403,0.49800003,1.0530001,0.55,1.02,104,17,7.162,2.4290001,6.7380004,-1.475,1.2298968,0,4,1,20
2780949491,1686676754999643,371033867,-763862567,50427,14656,0.165,0.022786668,0.49800003,1.0550001,0.55,1.02,104,17,7.1940002,2.4420002,6.767,-1.429,1.2266229,0,4,1,20
2781150185,1686676755199642,371033912,-763862415,50668,14897,0.16800001,0.022527313,0.49800003,1.056,0.55,1.02,104,17,7.208,2.4490001,6.7790003,-1.4440001,1.2250029,0,4,1,20
2781349461,1686676755399642,371033958,-763862262,50915,15144,0.16700001,0.021639813,0.49800003,1.056,0.55,1.02,104,17,7.2900004,2.528,6.8380003,-1.48,1.2194891,0,4,1,20
2781547484,1686676755599641,371034003,-763862110,51183,15412,0.162,0.021615379,0.49800003,1.054,0.55,1.02,104,17,7.188,2.5010002,6.7390003,-1.394,1.2168487,0,4,1,20
2781752136,1686676755799641,371034049,-763861957,51421,15650,0.16800001,0.022609692,0.49800003,1.057,0.55,1.02,104,16,7.301,2.5200002,6.853,-1.365,1.2178711,0,4,1,20
