timestamp,rollspeed,pitchspeed,yawspeed,q[0],q[1],q[2],q[3],delta_q_reset[0],delta_q_reset[1],delta_q_reset[2],delta_q_reset[3],quat_reset_counter
2708900395,0.0007056645,-0.0011875895,-0.0003236127,0.99937385,-0.004185577,-0.0005391468,-0.035128266,0.5940975,-0.005084869,-0.042636596,-0.8032462,1
2709067784,0.00079119415,-0.000544199,-0.0012805604,0.9993754,-0.0041767107,-0.0005832867,-0.03508663,0.5940975,-0.005084869,-0.042636596,-0.8032462,1
2709108705,-0.09121775,0.042700674,0.003209716,0.99937594,-0.0043184874,-0.00053780875,-0.03505424,0.5940975,-0.005084869,-0.042636596,-0.8032462,1
2709152566,0.06272893,-0.0706334,-0.0074116793,0.99937433,-0.0041729505,-0.00068637717,-0.035116944,0.5940975,-0.005084869,-0.042636596,-0.8032462,1
2709192560,-0.021137401,0.019647434,-0.013064982,0.9993598,-0.0040645613,-0.00030645987,-0.035545465,0.5940975,-0.005084869,-0.042636596,-0.8032462,1
2709236588,0.13819292,0.033135675,-0.0896464,0.9993756,-0.0036655634,-8.970071e-06,-0.03514198,0.5940975,-0.005084869,-0.042636596,-0.8032462,1
2709280576,0.08184531,0.022698235,0.047297355,0.9993944,-0.0030470977,0.0006996594,-0.034658745,0.5940975,-0.005084869,-0.042636596,-0.8032462,1
2709320593,-0.03460458,0.013477141,0.006305743,0.99939156,-0.0030254456,0.00076932646,-0.034738235,0.5940975,-0.005084869,-0.042636596,-0.8032462,1
2709360543,0.021775084,-0.048302554,-0.048794147,0.9994024,-0.0030022599,0.00013459873,-0.034438103,0.5940975,-0.005084869,-0.042636596,-0.8032462,1
2709404546,-0.042984754,-0.057498775,0.011567451,0.9993914,-0.0034937495,-0.0009859155,-0.034695633,0.5940975,-0.005084869,-0.042636596,-0.8032462,1
2709449344,-0.0022113938,0.007994935,-0.0046856543,0.9993872,-0.004022596,-0.0016120697,-0.034734182,0.5940975,-0.005084869,-0.042636596,-0.8032462,1
2709489214,0.0033428187,0.040754106,-0.009853913,0.99938303,-0.004268501,-0.0016782158,-0.0348223,0.5940975,-0.005084869,-0.042636596,-0.8032462,1
2709533393,0.026506493,0.021860885,-0.00064667617,0.9993816,-0.0040401695,-0.000992191,-0.03491728,0.5940975,-0.005084869,-0.042636596,-0.8032462,1
2709573369,0.01845625,0.030183222,-0.007777134,0.9993802,-0.0036681814,-0.0001563763,-0.035014614,0.5940975,-0.005084869,-0.042636596,-0.8032462,1
2709617444,0.03589773,0.050435133,-0.0035659762,0.99937814,-0.003214116,0.00063463434,-0.03510841,0.5940975,-0.005084869,-0.042636596,-0.8032462,1
2709657358,0.04467915,0.01812607,-0.009353096,0.9993769,-0.0029084214,0.0010245141,-0.03516126,0.5940975,-0.005084869,-0.042636596,-0.8032462,1
2709701982,0.014572009,-0.033609066,-0.0052882144,0.99937975,-0.0029624517,0.00067375525,-0.035084035,0.5940975,-0.005084869,-0.042636596,-0.8032462,1
2709741971,-0.010809121,-0.026320415,0.003922999,0.99938005,-0.0032318295,0.00021989677,-0.03505775,0.5940975,-0.005084869,-0.042636596,-0.8032462,1
2709786010,-0.042280283,-0.026937846,-0.00027642003,0.9993831,-0.0032451448,0.00052257703,-0.034966264,0.5940975,-0.005084869,-0.042636596,-0.8032462,1
2709825992,0.055352915,0.2787446,-0.021757213,0.9993891,-0.0020989308,0.0045581134,-0.03458702,0.5940975,-0.005084869,-0.042636596,-0.8032462,1
2709869996,0.11932436,0.54018605,0.06410975,0.99932307,0.00040736745,0.014927708,-0.033619896,0.5940975,-0.005084869,-0.042636596,-0.8032462,1
2709909950,0.20263958,0.47574478,0.035869125,0.999077,0.0033985586,0.02775655,-0.032606803,0.5940975,-0.005084869,-0.042636596,-0.8032462,1
2709951032,-0.007240465,0.6451048,0.11118203,0.9986501,0.0051824995,0.041117545,-0.031313006,0.5940975,-0.005084869,-0.042636596,-0.8032462,1
2709990956,-0.09412263,0.36715084,-0.055994667,0.9983006,0.005274211,0.049637247,-0.030072875,0.5940975,-0.005084869,-0.042636596,-0.8032462,1
2710030929,-0.024952525,0.119832635,0.01259767,0.99814737,0.0028146238,0.05382915,-0.02822019,0.5940975,-0.005084869,-0.042636596,-0.8032462,1
2710070925,0.07678142,-0.078899726,0.046132017,0.99813616,-0.00078263367,0.055050846,-0.026325818,0.5940975,-0.005084869,-0.042636596,-0.8032462,1
2710114924,-0.44877166,-0.12805864,0.14054184,0.998222,-0.0047054985,0.054095242,-0.024586752,0.5940975,-0.005084869,-0.042636596,-0.8032462,1
2710154953,-0.22480404,-0.35891885,0.113566004,0.9985271,-0.007393899,0.048509013,-0.023149457,0.5940975,-0.005084869,-0.042636596,-0.8032462,1
2710198841,0.024848923,-0.6375033,0.07564877,0.99903715,-0.0099324435,0.036747143,-0.021814907,0.5940975,-0.005084869,-0.042636596,-0.8032462,1
2710239590,-0.23113853,-0.70257604,-0.03695808,0.99943614,-0.011716216,0.023466056,-0.020967048,0.5940975,-0.005084869,-0.042636596,-0.8032462,1
2710279809,-0.2112263,-0.61019003,-0.011592909,0.99964285,-0.012538583,0.012212208,-0.020193525,0.5940975,-0.005084869,-0.042636596,-0.8032462,1
2710323752,-0.26290607,-0.41006953,0.012934012,0.9997167,-0.01343197,0.0025286477,-0.019489434,0.5940975,-0.005084869,-0.042636596,-0.8032462,1
2710363791,-0.080446795,-0.55157167,-0.070949316,0.9997129,-0.013579645,-0.0056024645,-0.018929256,0.5940975,-0.005084869,-0.042636596,-0.8032462,1
2710407843,-0.13496841,-0.5087331,0.080570795,0.99964654,-0.013881152,-0.013598113,-0.01814652,0.5940975,-0.005084869,-0.042636596,-0.8032462,1
2710447852,-0.14084087,-0.26581207,-0.13666365,0.9995618,-0.013692011,-0.019377781,-0.017701145,0.5940975,-0.005084869,-0.042636596,-0.8032462,1
2710488620,-0.016406223,-0.30102456,-0.15565126,0.9994622,-0.012783042,-0.02477131,-0.017277248,0.5940975,-0.005084869,-0.042636596,-0.8032462,1
2710528560,0.1936248,-0.15849091,-0.11551205,0.9993658,-0.010254207,-0.02965767,-0.016830822,0.5940975,-0.005084869,-0.042636596,-0.8032462,1
2710572533,0.4882352,-0.19044931,0.05715444,0.9991977,-0.006891821,-0.035840753,-0.016493814,0.5940975,-0.005084869,-0.042636596,-0.8032462,1
2710953390,-0.013371414,0.055945482,0.04489169,0.99815387,0.002912979,-0.058425043,-0.016336137,0.5940975,-0.005084869,-0.042636596,-0.8032462,1
2710997470,-0.12303116,0.042490732,0.07590149,0.998282,0.0013807944,-0.056232117,-0.01640684,0.5940975,-0.005084869,-0.042636596,-0.8032462,1
2711038171,-0.07347258,0.11650868,-0.03216878,0.9984255,-2.6496466e-05,-0.053592633,-0.01656849,0.5940975,-0.005084869,-0.042636596,-0.8032462,1
2712798790,0.12046425,0.022455057,0.026923824,0.9997757,-0.0067988564,-0.00027198967,-0.020057,0.5940975,-0.005084869,-0.042636596,-0.8032462,1
2712838939,0.1408999,-0.017882176,0.032822754,0.9997771,-0.0060391244,-0.0004994548,-0.020225646,0.5940975,-0.005084869,-0.042636596,-0.8032462,1
2712882979,0.06871271,-0.01656622,-0.042403612,0.9997746,-0.005278982,-0.0007911688,-0.020549728,0.5940975,-0.005084869,-0.042636596,-0.8032462,1
2712923795,0.02553038,0.012141425,-0.05927672,0.9997722,-0.0045981877,-0.0011091449,-0.02081269,0.5940975,-0.005084869,-0.042636596,-0.8032462,1
2712963814,0.10492603,-0.10864126,-0.04596705,0.99976796,-0.003923657,-0.0015235776,-0.021126732,0.5940975,-0.005084869,-0.042636596,-0.8032462,1
2713003751,-0.07744387,0.017943999,-0.15182792,0.9997598,-0.003549065,-0.0018527065,-0.02155271,0.5940975,-0.005084869,-0.042636596,-0.8032462,1
2713047880,0.1842443,-0.114712894,0.17999329,0.9997589,-0.0028148643,-0.00267755,-0.021613508,0.5940975,-0.005084869,-0.042636596,-0.8032462,1
2713087767,0.12651533,-0.027862955,0.041079737,0.9997469,-0.0026097167,-0.0031842752,-0.022120362,0.5940975,-0.005084869,-0.042636596,-0.8032462,1
2713131832,0.04531277,-0.09101556,-0.046992797,0.99973357,-0.0024232143,-0.004004078,-0.022601487,0.5940975,-0.005084869,-0.042636596,-0.8032462,1
2713172588,0.24216595,0.11371044,0.07342238,0.9997264,-0.0019998958,-0.0046963943,-0.022826597,0.5940975,-0.005084869,-0.042636596,-0.8032462,1
2713212634,0.06432756,0.055949856,0.09407757,0.9997138,-0.0022814018,-0.005439311,-0.023189565,0.5940975,-0.005084869,-0.042636596,-0.8032462,1
2713256574,-0.09379131,0.065228924,-0.23075382,0.99969274,-0.002547413,-0.0059600766,-0.023928152,0.5940975,-0.005084869,-0.042636596,-0.8032462,1
2713296527,-0.0668154,0.08876086,-0.08432381,0.9996834,-0.0028047906,-0.0064907377,-0.02415063,0.5940975,-0.005084869,-0.042636596,-0.8032462,1
2713340625,-0.054801736,0.062617965,-0.033363104,0.9996719,-0.0031227963,-0.006738807,-0.02451665,0.5940975,-0.005084869,-0.042636596,-0.8032462,1
2713380550,-0.10584371,-0.05273826,0.031014467,0.99966335,-0.0035763576,-0.0069353,-0.02474327,0.5940975,-0.005084869,-0.042636596,-0.8032462,1
2713424570,-0.018161489,0.1846144,0.03742683,0.9996565,-0.003877083,-0.0066598323,-0.025053158,0.5940975,-0.005084869,-0.042636596,-0.8032462,1
2713465201,0.01613208,-0.016896773,0.10559506,0.9996481,-0.004394639,-0.0068358276,-0.025254942,0.5940975,-0.005084869,-0.042636596,-0.8032462,1
2713509338,-0.16379273,0.06400439,-0.122308835,0.9996354,-0.005082329,-0.006483195,-0.02571824,0.5940975,-0.005084869,-0.042636596,-0.8032462,1
2713549234,-0.09336248,0.12456252,-0.053274583,0.9996313,-0.005391146,-0.0063710045,-0.02583894,0.5940975,-0.005084869,-0.042636596,-0.8032462,1
2713593334,-0.064080775,0.026021024,0.008751182,0.99962527,-0.005914256,-0.0063270913,-0.025970235,0.5940975,-0.005084869,-0.042636596,-0.8032462,1
2713633358,-0.17039248,-0.03197802,0.0027007645,0.99961925,-0.0063726422,-0.006398559,-0.026075063,0.5940975,-0.005084869,-0.042636596,-0.8032462,1
2713677495,0.110099465,0.16568914,0.058920614,0.9996154,-0.006517756,-0.0062010977,-0.026234709,0.5940975,-0.005084869,-0.042636596,-0.8032462,1
2713718130,0.07804607,0.12322725,0.10896327,0.9996061,-0.007056729,-0.006399584,-0.026402518,0.5940975,-0.005084869,-0.042636596,-0.8032462,1
2713758163,-0.08165708,-0.042792033,0.14619207,0.9995986,-0.0075016785,-0.006656432,-0.026497869,0.5940975,-0.005084869,-0.042636596,-0.8032462,1
2713798156,0.051383745,-0.15607432,0.07774447,0.9995887,-0.007683881,-0.0070040966,-0.026726667,0.5940975,-0.005084869,-0.042636596,-0.8032462,1
2713842035,-0.100009285,-0.022888605,-0.030060874,0.99957573,-0.008332165,-0.007100449,-0.026991008,0.5940975,-0.005084869,-0.042636596,-0.8032462,1
2713882149,0.16366655,-0.0072340975,-0.0059224907,0.999571,-0.008376719,-0.007237208,-0.027115723,0.5940975,-0.005084869,-0.042636596,-0.8032462,1
2713926164,-0.20044015,-0.14445661,-0.01607231,0.99955726,-0.009069155,-0.007512837,-0.027326949,0.5940975,-0.005084869,-0.042636596,-0.8032462,1
2713966970,-0.11605796,-0.09504386,-0.16795173,0.9995477,-0.009157247,-0.0074479617,-0.027662277,0.5940975,-0.005084869,-0.042636596,-0.8032462,1
2714010967,0.08829573,-0.03809798,0.11205193,0.99955076,-0.009182964,-0.007518326,-0.027525133,0.5940975,-0.005084869,-0.042636596,-0.8032462,1
2714054988,-0.13778745,0.06464471,-0.038585935,0.9995369,-0.009534907,-0.0076864804,-0.027858224,0.5940975,-0.005084869,-0.042636596,-0.8032462,1
2714094920,0.054271307,-0.042484965,-0.025768526,0.99952924,-0.009391016,-0.00821725,-0.028027173,0.5940975,-0.005084869,-0.042636596,-0.8032462,1
2714138928,-0.12848577,-0.060922466,0.016689723,0.9995206,-0.009665419,-0.00861891,-0.028123558,0.5940975,-0.005084869,-0.042636596,-0.8032462,1
2714178962,-0.011075215,0.033765495,-0.0038907137,0.99951434,-0.00962416,-0.008892137,-0.02827565,0.5940975,-0.005084869,-0.042636596,-0.8032462,1
2714223030,0.08855035,0.0063870987,0.006468532,0.9995115,-0.009486215,-0.009039326,-0.028376468,0.5940975,-0.005084869,-0.042636596,-0.8032462,1
2714263628,0.060324814,0.096762255,0.031557426,0.9995118,-0.009312473,-0.008964502,-0.028447382,0.5940975,-0.005084869,-0.042636596,-0.8032462,1
2714307834,0.09030666,0.043408677,-0.08632502,0.9995067,-0.009035971,-0.00920367,-0.028637655,0.5940975,-0.005084869,-0.042636596,-0.8032462,1
2714351627,0.13976191,-0.083453685,0.13079172,0.99950993,-0.008592899,-0.009654169,-0.02851116,0.5940975,-0.005084869,-0.042636596,-0.8032462,1
2714395737,-0.15124254,-0.14056534,-0.059229285,0.9994973,-0.008465853,-0.010118351,-0.028829832,0.5940975,-0.005084869,-0.042636596,-0.8032462,1
2714439595,-0.1269654,-0.079076596,0.009743682,0.9994959,-0.007919968,-0.010497374,-0.028897652,0.5940975,-0.005084869,-0.042636596,-0.8032462,1
2714479739,-0.023916166,-0.16951694,0.043144066,0.99949324,-0.007252351,-0.010901965,-0.029015115,0.5940975,-0.005084869,-0.042636596,-0.8032462,1
2714524591,-0.039593022,0.07544379,0.03894679,0.9994896,-0.006681091,-0.011032696,-0.029227274,0.5940975,-0.005084869,-0.042636596,-0.8032462,1
2714564581,0.048852004,-0.12805492,0.10802201,0.99948764,-0.0060797743,-0.011311617,-0.029317915,0.5940975,-0.005084869,-0.042636596,-0.8032462,1
2714608533,-0.24957389,-0.03865633,-0.16210897,0.9994749,-0.005931442,-0.011287205,-0.029789772,0.5940975,-0.005084869,-0.042636596,-0.8032462,1
2714648584,-0.08545356,-0.0998722,-0.13052078,0.99947315,-0.005541955,-0.011293401,-0.029920751,0.5940975,-0.005084869,-0.042636596,-0.8032462,1
2714692569,-0.022737926,-0.085703634,0.08927273,0.9994736,-0.005353562,-0.011330535,-0.029926065,0.5940975,-0.005084869,-0.042636596,-0.8032462,1
2714732693,0.122131124,-0.19008327,0.0357728,0.9994646,-0.005359663,-0.011467128,-0.030175213,0.5940975,-0.005084869,-0.042636596,-0.8032462,1
2714773381,-0.18029359,-0.06918824,-0.19312209,0.9994469,-0.005966651,-0.011414312,-0.030660823,0.5940975,-0.005084869,-0.042636596,-0.8032462,1
2714813386,-0.1237239,0.016987849,-0.20930836,0.99943167,-0.0064216927,-0.011644308,-0.0309782,0.5940975,-0.005084869,-0.042636596,-0.8032462,1
2714857341,0.110441305,-0.11310921,0.08836394,0.99942607,-0.00649536,-0.012037274,-0.030990342,0.5940975,-0.005084869,-0.042636596,-0.8032462,1
2714897334,-0.06718715,-0.06899605,-0.024348512,0.99940807,-0.006937305,-0.012200811,-0.031410694,0.5940975,-0.005084869,-0.042636596,-0.8032462,1
2714941376,0.28132567,0.059836376,0.14269596,0.99940157,-0.0067575905,-0.012373301,-0.031588104,0.5940975,-0.005084869,-0.042636596,-0.8032462,1
2714981227,0.28350008,0.028392855,0.16475232,0.9993842,-0.007054329,-0.012822173,-0.03189177,0.5940975,-0.005084869,-0.042636596,-0.8032462,1
2715025409,0.09119137,-0.012729766,-0.05153784,0.99935704,-0.007537543,-0.013185272,-0.032478996,0.5940975,-0.005084869,-0.042636596,-0.8032462,1
2715066020,0.26834363,0.14505026,0.13037801,0.9993463,-0.007577672,-0.013466197,-0.032686837,0.5940975,-0.005084869,-0.042636596,-0.8032462,1
2715106163,-0.07430831,-0.0217032,0.09154549,0.9993166,-0.008327079,-0.014177405,-0.033108234,0.5940975,-0.005084869,-0.042636596,-0.8032462,1
2715146202,-0.050441686,-0.14609754,0.040925685,0.99929374,-0.008377573,-0.01475035,-0.033532698,0.5940975,-0.005084869,-0.042636596,-0.8032462,1
2715190179,0.13755286,-0.0094228955,0.14781879,0.99927783,-0.008250387,-0.015123204,-0.03386991,0.5940975,-0.005084869,-0.042636596,-0.8032462,1
2715234197,-0.17600134,0.04971714,-0.12777348,0.99924386,-0.008455969,-0.015603108,-0.03459431,0.5940975,-0.005084869,-0.042636596,-0.8032462,1
2715274150,0.16898416,0.030879676,-0.019308193,0.99923146,-0.007864895,-0.016122406,-0.034853213,0.5940975,-0.005084869,-0.042636596,-0.8032462,1
2715319023,-0.110728934,-0.013792797,-0.06124076,0.99920493,-0.008012736,-0.016556706,-0.035372984,0.5940975,-0.005084869,-0.042636596,-0.8032462,1
2715359007,0.16200913,0.09656396,-0.051823407,0.9991941,-0.007423295,-0.016707417,-0.035733093,0.5940975,-0.005084869,-0.042636596,-0.8032462,1
2715403017,-0.0024346805,0.06421107,-0.13138345,0.999175,-0.007343244,-0.016817234,-0.036230396,0.5940975,-0.005084869,-0.042636596,-0.8032462,1
2715442990,0.04193008,0.02533395,-0.04782141,0.9991689,-0.007042202,-0.01675228,-0.036488727,0.5940975,-0.005084869,-0.042636596,-0.8032462,1
2715486770,-0.10751424,0.0039903778,-0.10647095,0.9991565,-0.006763572,-0.016550748,-0.036968473,0.5940975,-0.005084869,-0.042636596,-0.8032462,1
2715527238,0.20984209,0.032346796,-0.023418829,0.9991566,-0.005991225,-0.016226098,-0.03724431,0.5940975,-0.005084869,-0.042636596,-0.8032462,1
2715571588,0.049194902,0.053022906,-0.080915816,0.99914855,-0.005474855,-0.015852438,-0.037697334,0.5940975,-0.005084869,-0.042636596,-0.8032462,1
2715611768,0.17207403,0.03723261,-0.012431115,0.9991459,-0.0048625236,-0.01565629,-0.037930813,0.5940975,-0.005084869,-0.042636596,-0.8032462,1
2715655766,0.08130298,-0.010754701,-0.05108478,0.9991361,-0.004281538,-0.015506598,-0.038317498,0.5940975,-0.005084869,-0.042636596,-0.8032462,1
2715695670,0.12977044,0.09777574,-0.03031673,0.99913096,-0.0038750365,-0.015216586,-0.03861062,0.5940975,-0.005084869,-0.042636596,-0.8032462,1
2715739793,0.064498425,0.10491814,-0.089209735,0.99912107,-0.003567957,-0.015009892,-0.038976006,0.5940975,-0.005084869,-0.042636596,-0.8032462,1
2715783800,-0.05109953,0.010892872,-0.050769422,0.99911547,-0.0032716054,-0.014824709,-0.039216146,0.5940975,-0.005084869,-0.042636596,-0.8032462,1
2715824421,0.053146563,0.09840511,-0.05904938,0.99910915,-0.0028537004,-0.014508971,-0.039524473,0.5940975,-0.005084869,-0.042636596,-0.8032462,1
2715868525,-0.051965263,0.049012363,-0.070052415,0.99910206,-0.0026362543,-0.014348121,-0.039776463,0.5940975,-0.005084869,-0.042636596,-0.8032462,1
2715908371,0.10350667,0.010879053,0.0043318383,0.99909806,-0.0022398592,-0.014228357,-0.03994642,0.5940975,-0.005084869,-0.042636596,-0.8032462,1
2715952641,-0.07018387,0.028936164,-0.08287966,0.99908704,-0.0023680488,-0.014102076,-0.040257625,0.5940975,-0.005084869,-0.042636596,-0.8032462,1
2715992604,0.07599794,0.05896069,0.029377585,0.99908644,-0.0021862134,-0.01408769,-0.040288642,0.5940975,-0.005084869,-0.042636596,-0.8032462,1
2716036548,-0.058113866,0.007834694,-0.022841962,0.99907696,-0.0023945437,-0.013975039,-0.040550552,0.5940975,-0.005084869,-0.042636596,-0.8032462,1
2716076402,0.19397876,0.10075351,0.0263356,0.9990781,-0.0022739405,-0.013576419,-0.04066515,0.5940975,-0.005084869,-0.042636596,-0.8032462,1
2716117669,-0.16520919,-0.0667388,-0.052165,0.99907,-0.0028917154,-0.013400486,-0.040879797,0.5940975,-0.005084869,-0.042636596,-0.8032462,1
2716161327,-0.047427893,-0.052586917,0.035067316,0.9990712,-0.0030455592,-0.012949002,-0.040987205,0.5940975,-0.005084869,-0.042636596,-0.8032462,1
2716205331,0.09694592,0.027271478,0.061943974,0.9990738,-0.003171629,-0.012318149,-0.041106597,0.5940975,-0.005084869,-0.042636596,-0.8032462,1
2716245228,-0.03010918,-0.112694144,0.022268863,0.9990698,-0.0036486043,-0.011819869,-0.041310918,0.5940975,-0.005084869,-0.042636596,-0.8032462,1
2716285381,-0.11051944,0.15659872,-0.15028988,0.9990651,-0.0039128275,-0.011000192,-0.041625954,0.5940975,-0.005084869,-0.042636596,-0.8032462,1
2716325661,0.09120769,0.04710414,0.097793356,0.9990745,-0.0036803132,-0.01051068,-0.041548647,0.5940975,-0.005084869,-0.042636596,-0.8032462,1
2716365330,0.03426112,-0.040732767,0.037823945,0.9990709,-0.0036904162,-0.009815115,-0.041803736,0.5940975,-0.005084869,-0.042636596,-0.8032462,1
2716406145,-0.07996349,0.12448166,-0.12142271,0.99906856,-0.0037102748,-0.0089904135,-0.042041775,0.5940975,-0.005084869,-0.042636596,-0.8032462,1
2716450181,-0.15934426,0.05012907,-0.112359084,0.99906915,-0.0036136527,-0.008450071,-0.042146802,0.5940975,-0.005084869,-0.042636596,-0.8032462,1
2716490146,0.07131176,0.0045447,-0.038488723,0.99907416,-0.0032443244,-0.008061801,-0.042134773,0.5940975,-0.005084869,-0.042636596,-0.8032462,1
2716534199,-0.06676261,-0.07052027,-0.118046276,0.9990712,-0.003184554,-0.0076122233,-0.04229553,0.5940975,-0.005084869,-0.042636596,-0.8032462,1
2716578009,-0.09533566,-0.119476385,-0.05324388,0.9990751,-0.0030978795,-0.007156546,-0.042287447,0.5940975,-0.005084869,-0.042636596,-0.8032462,1
2716618149,0.023858555,0.17072496,-0.072034314,0.99907935,-0.0029865964,-0.006576967,-0.042289447,0.5940975,-0.005084869,-0.042636596,-0.8032462,1
2716662925,-0.06352781,0.05832337,-0.06526823,0.99907994,-0.0032252101,-0.006321763,-0.042297497,0.5940975,-0.005084869,-0.042636596,-0.8032462,1
2716702908,0.1166263,0.07798075,0.04112651,0.99908584,-0.0031902834,-0.0060400483,-0.04219965,0.5940975,-0.005084869,-0.042636596,-0.8032462,1
2716746927,0.043500744,0.107077345,-0.09474456,0.9990815,-0.0034664602,-0.0056557357,-0.04233555,0.5940975,-0.005084869,-0.042636596,-0.8032462,1
2716786949,-0.0021025506,-0.018104043,0.15669881,0.99909097,-0.0038342038,-0.0054175267,-0.04211008,0.5940975,-0.005084869,-0.042636596,-0.8032462,1
2716830983,-0.041952673,0.08095632,0.048205663,0.9990896,-0.004091324,-0.0048476444,-0.042187776,0.5940975,-0.005084869,-0.042636596,-0.8032462,1
2716870812,0.06457807,-0.02790589,0.099121206,0.999093,-0.0040214416,-0.0045529427,-0.042147916,0.5940975,-0.005084869,-0.042636596,-0.8032462,1
2716915758,0.035035614,-0.024867736,0.10385757,0.9990964,-0.0042823893,-0.0040558553,-0.042090315,0.5940975,-0.005084869,-0.042636596,-0.8032462,1
2716955713,-0.19326466,-0.055165417,-0.12520435,0.99908394,-0.004704962,-0.003444137,-0.04239684,0.5940975,-0.005084869,-0.042636596,-0.8032462,1
2716999803,-0.1266509,-0.031933803,-0.007172501,0.9990919,-0.0049363794,-0.00300113,-0.04221395,0.5940975,-0.005084869,-0.042636596,-0.8032462,1
2717039624,-0.06318295,0.025563663,-0.09116729,0.9990907,-0.005180719,-0.0027939645,-0.042229507,0.5940975,-0.005084869,-0.042636596,-0.8032462,1
2717083722,-0.08673958,-0.0981649,-0.032473378,0.9990926,-0.0056398837,-0.0027891607,-0.04212299,0.5940975,-0.005084869,-0.042636596,-0.8032462,1
2717123747,-0.043200932,0.040307842,-0.12736443,0.9990923,-0.0059392015,-0.0026078993,-0.042102497,0.5940975,-0.005084869,-0.042636596,-0.8032462,1
2717164395,0.23664446,-0.030709177,0.22630814,0.9991073,-0.006134837,-0.00307732,-0.04168553,0.5940975,-0.005084869,-0.042636596,-0.8032462,1
2717208359,0.24103199,0.012906145,0.1757052,0.9991054,-0.006481516,-0.003461452,-0.041645873,0.5940975,-0.005084869,-0.042636596,-0.8032462,1
2717248374,-0.0451304,-0.10524443,0.014390054,0.9990967,-0.00715294,-0.0041164258,-0.04168594,0.5940975,-0.005084869,-0.042636596,-0.8032462,1
2717292383,0.25106183,-0.08570794,0.17389588,0.999107,-0.0073093404,-0.004694897,-0.041349273,0.5940975,-0.005084869,-0.042636596,-0.8032462,1
2717332639,-0.45878232,-0.055640843,-0.085162334,0.99909097,-0.008459567,-0.0048908195,-0.04149333,0.5940975,-0.005084869,-0.042636596,-0.8032462,1
2717372602,0.0693804,0.04981483,-0.03866771,0.99909997,-0.008312711,-0.0050203674,-0.04129058,0.5940975,-0.005084869,-0.042636596,-0.8032462,1
2717412617,0.088565014,-0.020925773,0.09209189,0.99910384,-0.008823232,-0.0051784622,-0.04107304,0.5940975,-0.005084869,-0.042636596,-0.8032462,1
2717457330,0.12610835,-0.061387647,0.08521368,0.99910545,-0.009302754,-0.0052817552,-0.040915173,0.5940975,-0.005084869,-0.042636596,-0.8032462,1
2717497388,-0.09982181,0.032942798,-0.043491155,0.99909794,-0.0099006435,-0.0051574414,-0.040973105,0.5940975,-0.005084869,-0.042636596,-0.8032462,1
2717541212,-0.08633899,0.010905657,-0.06633797,0.9991001,-0.010042224,-0.0051424517,-0.04088703,0.5940975,-0.005084869,-0.042636596,-0.8032462,1
2717581198,0.13427767,-0.055562455,0.048577953,0.99911004,-0.0100001935,-0.0050281277,-0.040668253,0.5940975,-0.005084869,-0.042636596,-0.8032462,1
2717625221,0.0020279493,-0.06652032,-0.038317136,0.9991107,-0.010089228,-0.0048490283,-0.040652663,0.5940975,-0.005084869,-0.042636596,-0.8032462,1
2717665190,0.247541,0.17272735,0.0796773,0.9991249,-0.009733752,-0.004587576,-0.040420134,0.5940975,-0.005084869,-0.042636596,-0.8032462,1
2717710139,0.3491294,0.02885675,0.16821757,0.9991325,-0.009492952,-0.004639348,-0.040280618,0.5940975,-0.005084869,-0.042636596,-0.8032462,1
2717750135,-0.036423184,-0.026266132,-0.03778423,0.99912155,-0.009936872,-0.0045342986,-0.040456995,0.5940975,-0.005084869,-0.042636596,-0.8032462,1
2717794185,0.16261436,0.00451952,0.07041669,0.99913883,-0.009346737,-0.004426545,-0.040183563,0.5940975,-0.005084869,-0.042636596,-0.8032462,1
2717834133,-0.14871351,0.054368388,-0.032300197,0.9991395,-0.009278521,-0.004506891,-0.040175315,0.5940975,-0.005084869,-0.042636596,-0.8032462,1
2717878018,-0.000349622,0.043042623,0.053537276,0.99915487,-0.008649106,-0.004596633,-0.039920915,0.5940975,-0.005084869,-0.042636596,-0.8032462,1
2717918141,-0.18311328,0.044004105,-0.09839785,0.9991585,-0.008319497,-0.004743428,-0.039883275,0.5940975,-0.005084869,-0.042636596,-0.8032462,1
2717962163,-0.2009604,0.059495404,-0.07962897,0.9991707,-0.007848152,-0.004885018,-0.039653994,0.5940975,-0.005084869,-0.042636596,-0.8032462,1
2718003035,-0.063420184,-0.032270093,0.075630866,0.9991915,-0.0070348303,-0.005184134,-0.039242834,0.5940975,-0.005084869,-0.042636596,-0.8032462,1
2718043072,0.097991444,-0.06975316,0.0257756,0.99920195,-0.0062133274,-0.005458426,-0.039077558,0.5940975,-0.005084869,-0.042636596,-0.8032462,1
2718086801,0.21592015,-0.07071261,0.058752343,0.999215,-0.0055703307,-0.005844384,-0.038785614,0.5940975,-0.005084869,-0.042636596,-0.8032462,1
2718126975,-0.07324258,-0.10516876,-0.0026499531,0.9992204,-0.0054787477,-0.005985528,-0.03863696,0.5940975,-0.005084869,-0.042636596,-0.8032462,1
2718170921,0.027268527,0.022873374,-0.010012978,0.9992336,-0.004857428,-0.0061814454,-0.038346946,0.5940975,-0.005084869,-0.042636596,-0.8032462,1
2718215800,0.13711089,0.045473173,0.0026790837,0.9992431,-0.0044139945,-0.0066640866,-0.03807229,0.5940975,-0.005084869,-0.042636596,-0.8032462,1
2718255848,0.018791972,-0.13856748,0.04174003,0.99924934,-0.0045231944,-0.0072679124,-0.0377823,0.5940975,-0.005084869,-0.042636596,-0.8032462,1
2718295761,0.102386415,-0.0027996795,-0.007464467,0.9992601,-0.0044064214,-0.007540238,-0.037455183,0.5940975,-0.005084869,-0.042636596,-0.8032462,1
2718339815,0.16846551,-0.06303316,0.126385,0.9992699,-0.0043415767,-0.008102185,-0.037085712,0.5940975,-0.005084869,-0.042636596,-0.8032462,1
2718379806,-0.26954854,0.11257414,-0.15606081,0.9992608,-0.004737585,-0.008647103,-0.037157357,0.5940975,-0.005084869,-0.042636596,-0.8032462,1
2718423613,-0.034276787,0.067873746,-0.038789645,0.99927074,-0.004440422,-0.009280151,-0.036772877,0.5940975,-0.005084869,-0.042636596,-0.8032462,1
2718463607,-0.3111074,-0.06635686,-0.08090488,0.9992679,-0.0046416144,-0.010008631,-0.03663501,0.5940975,-0.005084869,-0.042636596,-0.8032462,1
2718508394,-0.41049144,0.03957213,-0.09651785,0.99927217,-0.0046849954,-0.010318426,-0.036425788,0.5940975,-0.005084869,-0.042636596,-0.8032462,1
2718548588,-0.054226182,0.04000722,-0.06691388,0.9992797,-0.004140519,-0.010671158,-0.03618272,0.5940975,-0.005084869,-0.042636596,-0.8032462,1
2718592565,-0.2671643,-0.0065345215,-0.098157175,0.99928087,-0.0045069642,-0.011028333,-0.03599828,0.5940975,-0.005084869,-0.042636596,-0.8032462,1
2718632599,-0.06384522,-0.1131645,-0.05584377,0.9992861,-0.004394624,-0.011355408,-0.03576378,0.5940975,-0.005084869,-0.042636596,-0.8032462,1
2718672689,0.10846582,0.02386167,0.065012574,0.99929464,-0.00442086,-0.011334196,-0.035528675,0.5940975,-0.005084869,-0.042636596,-0.8032462,1
2718712581,0.121260434,-0.08926778,0.082563594,0.9992947,-0.004816212,-0.011738489,-0.035344835,0.5940975,-0.005084869,-0.042636596,-0.8032462,1
2718756551,0.14412847,-0.08197895,0.11519835,0.9992976,-0.0050480217,-0.01183678,-0.03519435,0.5940975,-0.005084869,-0.042636596,-0.8032462,1
2718797459,-0.022961337,0.0962965,-0.08525952,0.9992916,-0.0054810587,-0.011681745,-0.035353266,0.5940975,-0.005084869,-0.042636596,-0.8032462,1
2718837492,-0.0126450565,0.1509274,-0.0032939783,0.9992967,-0.0057890886,-0.011695089,-0.03515445,0.5940975,-0.005084869,-0.042636596,-0.8032462,1
2718881250,-0.121295206,0.15639587,-0.1633447,0.99929446,-0.006256774,-0.011522737,-0.035196446,0.5940975,-0.005084869,-0.042636596,-0.8032462,1
2718921364,0.04657545,0.021937743,0.056888387,0.9993041,-0.0063453172,-0.011507039,-0.034910187,0.5940975,-0.005084869,-0.042636596,-0.8032462,1
2718965411,-0.08373537,0.09438642,-0.12898439,0.9993023,-0.006713684,-0.011109858,-0.03502198,0.5940975,-0.005084869,-0.042636596,-0.8032462,1
2719005413,-0.032584835,-0.091905475,0.014396126,0.99931324,-0.0066524283,-0.010857694,-0.03479934,0.5940975,-0.005084869,-0.042636596,-0.8032462,1
2719049178,-0.1463328,-0.02698262,-0.12974077,0.99931735,-0.0066267587,-0.010366054,-0.034835745,0.5940975,-0.005084869,-0.042636596,-0.8032462,1
2719089979,0.030907199,-0.10286261,0.13094403,0.99933404,-0.006306998,-0.009999798,-0.0345227,0.5940975,-0.005084869,-0.042636596,-0.8032462,1
2719133978,-0.04549102,-0.11481159,0.029960657,0.9993393,-0.0062132827,-0.00965566,-0.034487348,0.5940975,-0.005084869,-0.042636596,-0.8032462,1
2719173993,0.00724266,-0.038482957,0.03340432,0.9993511,-0.0059551625,-0.009164544,-0.034321617,0.5940975,-0.005084869,-0.042636596,-0.8032462,1
2719214276,-0.09352402,0.099515975,-0.032108843,0.9993581,-0.005918257,-0.008785979,-0.034222066,0.5940975,-0.005084869,-0.042636596,-0.8032462,1
2719257998,-0.18229863,0.031715304,-0.023594145,0.99936694,-0.005904853,-0.008644144,-0.03400342,0.5940975,-0.005084869,-0.042636596,-0.8032462,1
2719302025,-0.012224871,-0.011503207,0.026587993,0.9993781,-0.005698644,-0.008607076,-0.033717334,0.5940975,-0.005084869,-0.042636596,-0.8032462,1
2719343014,-0.25010782,-0.04288508,-0.0106262565,0.99938333,-0.006070844,-0.008390225,-0.033553943,0.5940975,-0.005084869,-0.042636596,-0.8032462,1
2719387072,-0.18376726,0.013420261,0.057350516,0.99939704,-0.0059830216,-0.008291131,-0.033182107,0.5940975,-0.005084869,-0.042636596,-0.8032462,1
2719431005,0.0129538495,0.15200827,-0.020088015,0.99940807,-0.0057377527,-0.008197472,-0.03291772,0.5940975,-0.005084869,-0.042636596,-0.8032462,1
2719470989,-0.013599638,-0.037385397,0.061015192,0.99941903,-0.005845532,-0.0083700735,-0.032518834,0.5940975,-0.005084869,-0.042636596,-0.8032462,1
2719514913,-0.12444947,0.060298793,-0.025812667,0.9994305,-0.005936463,-0.008070132,-0.032224488,0.5940975,-0.005084869,-0.042636596,-0.8032462,1
2719555740,-0.07763831,0.015109696,0.044815227,0.99944717,-0.005780565,-0.007905024,-0.031771276,0.5940975,-0.005084869,-0.042636596,-0.8032462,1
2719595741,0.011926155,-0.094934136,-0.03187546,0.9994574,-0.005623612,-0.007852169,-0.03148945,0.5940975,-0.005084869,-0.042636596,-0.8032462,1
2719635621,-0.122293085,0.041418552,-0.08889925,0.99946976,-0.0058702542,-0.007324168,-0.03117986,0.5940975,-0.005084869,-0.042636596,-0.8032462,1
2719679765,-0.028276786,0.027244372,-0.022751888,0.9994847,-0.0059014834,-0.0072252667,-0.030716535,0.5940975,-0.005084869,-0.042636596,-0.8032462,1
2719719774,-0.053609733,-0.03071155,-0.09796726,0.99948895,-0.0063971714,-0.0072552264,-0.03046829,0.5940975,-0.005084869,-0.042636596,-0.8032462,1
2719763777,0.20662515,-0.036390103,0.14917253,0.9995063,-0.0064413142,-0.007263988,-0.02988173,0.5940975,-0.005084869,-0.042636596,-0.8032462,1
2719803715,0.07898829,0.038057435,0.094916776,0.99950933,-0.0068957135,-0.007444273,-0.02963225,0.5940975,-0.005084869,-0.042636596,-0.8032462,1
2719848607,0.33837363,0.025045224,0.21450903,0.99952346,-0.006732328,-0.007826062,-0.029089801,0.5940975,-0.005084869,-0.042636596,-0.8032462,1
2719888587,0.26875144,0.024628522,0.16194624,0.9995211,-0.0072353245,-0.008255673,-0.0289357,0.5940975,-0.005084869,-0.042636596,-0.8032462,1
2719932610,0.17256439,0.014129823,0.0354862,0.9995207,-0.00736488,-0.0086284485,-0.028803987,0.5940975,-0.005084869,-0.042636596,-0.8032462,1
2719972585,0.14473136,0.18750341,0.051316254,0.99952394,-0.007457219,-0.008889051,-0.028590485,0.5940975,-0.005084869,-0.042636596,-0.8032462,1
2720012549,-0.104667015,0.07160105,0.048541397,0.9995213,-0.0078618275,-0.009212543,-0.028469365,0.5940975,-0.005084869,-0.042636596,-0.8032462,1
2720056599,-0.18076254,0.18962744,-0.080823734,0.99952203,-0.007971235,-0.009125316,-0.02844398,0.5940975,-0.005084869,-0.042636596,-0.8032462,1
2720097353,-0.23137233,0.021974817,-0.00548812,0.9995241,-0.008078207,-0.009274747,-0.0282908,0.5940975,-0.005084869,-0.042636596,-0.8032462,1
2720137416,0.014328098,-0.0054458445,-0.035502356,0.9995285,-0.007825021,-0.009173144,-0.02823886,0.5940975,-0.005084869,-0.042636596,-0.8032462,1
2720181206,-0.11655744,-0.0026547129,0.017766172,0.99952954,-0.008051246,-0.009107995,-0.028157545,0.5940975,-0.005084869,-0.042636596,-0.8032462,1
2720225414,0.102135204,0.11159125,0.11064248,0.9995354,-0.007866652,-0.008925218,-0.028064009,0.5940975,-0.005084869,-0.042636596,-0.8032462,1
2720265354,0.0270437,-0.034992017,0.00872551,0.99953055,-0.0079048565,-0.009013114,-0.028196158,0.5940975,-0.005084869,-0.042636596,-0.8032462,1
2720309346,0.18997774,0.14748655,0.053038128,0.99953395,-0.007680382,-0.008853501,-0.028187672,0.5940975,-0.005084869,-0.042636596,-0.8032462,1
2720349366,-0.018817756,-0.0058478713,0.071142495,0.99952894,-0.007867584,-0.009042516,-0.028256288,0.5940975,-0.005084869,-0.042636596,-0.8032462,1
2720394030,0.14220056,0.08509684,0.03960454,0.99953,-0.007655584,-0.008798017,-0.028352443,0.5940975,-0.005084869,-0.042636596,-0.8032462,1
2720434220,0.106883235,0.012832208,0.14833699,0.99952805,-0.0078991065,-0.008677655,-0.028392056,0.5940975,-0.005084869,-0.042636596,-0.8032462,1
2720478019,-0.07077659,0.09554625,-0.102027684,0.9995186,-0.00815373,-0.008375936,-0.02874319,0.5940975,-0.005084869,-0.042636596,-0.8032462,1
2720518015,0.06989983,0.0370248,0.030415196,0.9995185,-0.008184107,-0.008285226,-0.028757924,0.5940975,-0.005084869,-0.042636596,-0.8032462,1
2720562028,0.047151428,0.033273466,-0.0684468,0.9995119,-0.008346755,-0.0081665255,-0.028979175,0.5940975,-0.005084869,-0.042636596,-0.8032462,1
2720602228,-0.19532222,0.020360436,-0.052679975,0.99950707,-0.008624619,-0.008132659,-0.029070957,0.5940975,-0.005084869,-0.042636596,-0.8032462,1
2720646925,0.1851621,0.15832579,0.0680488,0.99950975,-0.008346143,-0.008043529,-0.029087968,0.5940975,-0.005084869,-0.042636596,-0.8032462,1
2720686829,-0.0390341,0.0080381585,0.058298092,0.9995001,-0.008607301,-0.008367821,-0.029249586,0.5940975,-0.005084869,-0.042636596,-0.8032462,1
2720726922,-0.10325978,-0.19863729,0.06989776,0.9994941,-0.008593728,-0.008555007,-0.029406881,0.5940975,-0.005084869,-0.042636596,-0.8032462,1
2720770966,0.020198282,0.019663364,0.1103592,0.99949014,-0.008568789,-0.008470532,-0.029569909,0.5940975,-0.005084869,-0.042636596,-0.8032462,1
2720814943,-0.15101087,0.10317054,-0.07313251,0.9994764,-0.008836373,-0.008501657,-0.029943015,0.5940975,-0.005084869,-0.042636596,-0.8032462,1
2720854934,0.02588644,-0.13943161,0.07168195,0.9994765,-0.008626887,-0.008635092,-0.029963467,0.5940975,-0.005084869,-0.042636596,-0.8032462,1
2720894928,0.033872813,-0.014095789,0.05383536,0.99947417,-0.008457461,-0.008274981,-0.030190162,0.5940975,-0.005084869,-0.042636596,-0.8032462,1
2720935754,0.05116135,-0.05022648,-0.098762535,0.99946404,-0.008398295,-0.00814759,-0.030573823,0.5940975,-0.005084869,-0.042636596,-0.8032462,1
2720975735,-0.08692821,0.15216199,-0.1722085,0.99945754,-0.008456334,-0.007824655,-0.030852547,0.5940975,-0.005084869,-0.042636596,-0.8032462,1
2721019867,-0.0032079658,0.13968882,-0.033079322,0.99945825,-0.008125753,-0.007648784,-0.030964224,0.5940975,-0.005084869,-0.042636596,-0.8032462,1
2721059616,0.12404562,-0.014928961,0.03229801,0.9994524,-0.008007297,-0.007746749,-0.031157343,0.5940975,-0.005084869,-0.042636596,-0.8032462,1
2721103749,0.0152568165,0.0029950521,0.02444719,0.99944603,-0.007976679,-0.0074703926,-0.03143959,0.5940975,-0.005084869,-0.042636596,-0.8032462,1
2721143625,0.1601715,0.12572125,0.011333971,0.99944293,-0.0077403407,-0.0072945463,-0.031634014,0.5940975,-0.005084869,-0.042636596,-0.8032462,1
2721188555,0.06703867,-0.013354177,-0.031088976,0.9994379,-0.0076952428,-0.007206035,-0.03182562,0.5940975,-0.005084869,-0.042636596,-0.8032462,1
2721228510,0.078745596,0.12416785,-0.037792925,0.999434,-0.0076945573,-0.006818028,-0.032031048,0.5940975,-0.005084869,-0.042636596,-0.8032462,1
2721272657,-0.12948853,0.054655045,-0.19666925,0.9994202,-0.007858775,-0.0067677833,-0.032429013,0.5940975,-0.005084869,-0.042636596,-0.8032462,1
2721312522,-0.002416818,0.032512978,-0.0012374467,0.9994201,-0.0077417605,-0.0067419102,-0.032467242,0.5940975,-0.005084869,-0.042636596,-0.8032462,1
2721356525,0.03084924,-0.095143706,0.0013025284,0.9994109,-0.007759611,-0.0068083927,-0.03273043,0.5940975,-0.005084869,-0.042636596,-0.8032462,1
2721396525,-0.07046445,0.14676219,-0.05675368,0.99940354,-0.007868442,-0.0066204704,-0.032967012,0.5940975,-0.005084869,-0.042636596,-0.8032462,1
2721436578,-0.13903014,-0.1187143,0.11933273,0.9993977,-0.008022179,-0.0070998557,-0.033007506,0.5940975,-0.005084869,-0.042636596,-0.8032462,1
2721477382,0.07302094,-0.07943522,-0.08673057,0.99938846,-0.007831381,-0.007072017,-0.033338916,0.5940975,-0.005084869,-0.042636596,-0.8032462,1
2721521375,0.03157189,-0.13565944,0.10874315,0.9993886,-0.00804518,-0.0070973677,-0.033277698,0.5940975,-0.005084869,-0.042636596,-0.8032462,1
2721561148,-0.072331764,0.0020066663,-0.05013712,0.9993808,-0.008155027,-0.006750561,-0.033556495,0.5940975,-0.005084869,-0.042636596,-0.8032462,1
2721605377,-0.077888295,-0.07287792,-0.036377627,0.999377,-0.008201655,-0.006778872,-0.033649463,0.5940975,-0.005084869,-0.042636596,-0.8032462,1
2721645389,0.25738588,-0.020984692,0.078384496,0.99938214,-0.007985694,-0.0066013974,-0.033585843,0.5940975,-0.005084869,-0.042636596,-0.8032462,1
2721685322,0.20766398,0.12871398,0.10848987,0.9993828,-0.007940155,-0.006457623,-0.033607274,0.5940975,-0.005084869,-0.042636596,-0.8032462,1
2721726155,-0.04488197,0.0025220322,-0.0020748489,0.9993735,-0.008074454,-0.0068796882,-0.03376466,0.5940975,-0.005084869,-0.042636596,-0.8032462,1
2721766163,-0.34980515,-0.08918017,-0.15965019,0.9993655,-0.007930682,-0.0070856083,-0.033995297,0.5940975,-0.005084869,-0.042636596,-0.8032462,1
2721806138,-0.14575516,-0.015464783,-0.0781364,0.9993723,-0.0072426973,-0.007210216,-0.033920858,0.5940975,-0.005084869,-0.042636596,-0.8032462,1
2721850205,-0.09999293,-0.056664534,-0.051258057,0.9993745,-0.006739722,-0.0075978516,-0.033875138,0.5940975,-0.005084869,-0.042636596,-0.8032462,1
2721890127,-0.010796433,-0.16703299,0.009430603,0.999379,-0.0061702416,-0.007883662,-0.03378737,0.5940975,-0.005084869,-0.042636596,-0.8032462,1
2721934202,-0.01441325,-0.029099468,-0.038111176,0.99937826,-0.0056152437,-0.008135536,-0.0338447,0.5940975,-0.005084869,-0.042636596,-0.8032462,1
2721974955,0.02578613,-0.047528952,0.0053146314,0.99937654,-0.0050716996,-0.008535907,-0.03388178,0.5940975,-0.005084869,-0.042636596,-0.8032462,1
2722019000,-0.020964291,0.043269057,-0.041984774,0.9993746,-0.0046299966,-0.008706872,-0.03395921,0.5940975,-0.005084869,-0.042636596,-0.8032462,1
2722062958,0.018988747,0.09011516,-0.0019577448,0.99937636,-0.004121733,-0.008725685,-0.03396881,0.5940975,-0.005084869,-0.042636596,-0.8032462,1
2722102980,0.024917094,0.06408335,0.10746507,0.9993786,-0.0035912658,-0.008873929,-0.033926077,0.5940975,-0.005084869,-0.042636596,-0.8032462,1
2722146915,-0.2522664,0.050196543,-0.15112822,0.9993693,-0.003418114,-0.008735624,-0.034250587,0.5940975,-0.005084869,-0.042636596,-0.8032462,1
2722186959,0.01483775,-0.031764522,-0.032679085,0.9993776,-0.0025896765,-0.008573619,-0.03412095,0.5940975,-0.005084869,-0.042636596,-0.8032462,1
2722230948,-0.11407918,-0.018461015,-0.072391674,0.9993766,-0.0022773966,-0.008424059,-0.03421106,0.5940975,-0.005084869,-0.042636596,-0.8032462,1
2722271597,-0.07286308,-0.04924139,-0.052760378,0.9993768,-0.0018438419,-0.008287098,-0.03426575,0.5940975,-0.005084869,-0.042636596,-0.8032462,1
2722315724,0.0054381927,-0.047283966,0.03381637,0.9993802,-0.0014774988,-0.008057324,-0.034237042,0.5940975,-0.005084869,-0.042636596,-0.8032462,1
2722359782,-0.20858201,0.019808006,-0.12924367,0.9993755,-0.0014939953,-0.0077544013,-0.034443416,0.5940975,-0.005084869,-0.042636596,-0.8032462,1
2722403747,-0.2894568,-0.09360182,-0.08313857,0.9993747,-0.0014878587,-0.0076468536,-0.034489248,0.5940975,-0.005084869,-0.042636596,-0.8032462,1
2722443709,-0.17149888,0.043102987,-0.14522472,0.9993729,-0.0012978312,-0.0072858264,-0.034627434,0.5940975,-0.005084869,-0.042636596,-0.8032462,1
2722487777,0.10108541,-0.001880019,0.10272018,0.9993804,-0.00093579286,-0.007081636,-0.03446513,0.5940975,-0.005084869,-0.042636596,-0.8032462,1
2722528584,-0.07426676,0.0335766,-0.12961084,0.99937093,-0.0010866346,-0.006793721,-0.03479262,0.5940975,-0.005084869,-0.042636596,-0.8032462,1
2722568570,-0.0708058,0.03720539,0.014932015,0.9993757,-0.0010256388,-0.006578685,-0.0346974,0.5940975,-0.005084869,-0.042636596,-0.8032462,1
2722608412,-0.05869999,-0.036945436,-0.048787516,0.99937075,-0.00096255535,-0.0065094708,-0.034854114,0.5940975,-0.005084869,-0.042636596,-0.8032462,1
2722652601,0.07242217,-0.12904233,0.049157687,0.9993722,-0.0008588542,-0.0063609057,-0.034844648,0.5940975,-0.005084869,-0.042636596,-0.8032462,1
2722692546,-0.12299982,-0.08065326,0.00858593,0.99936855,-0.0010267593,-0.005822379,-0.035035226,0.5940975,-0.005084869,-0.042636596,-0.8032462,1
2722732564,0.014374914,0.030755406,-0.011371472,0.9993651,-0.00086928846,-0.0054219733,-0.035204865,0.5940975,-0.005084869,-0.042636596,-0.8032462,1
2722773374,0.008118489,0.12877549,0.00991252,0.99936444,-0.0008857581,-0.0049165096,-0.035297368,0.5940975,-0.005084869,-0.042636596,-0.8032462,1
2722813314,-0.07471173,0.04741263,-0.045031678,0.9993588,-0.00079258654,-0.004616746,-0.03550001,0.5940975,-0.005084869,-0.042636596,-0.8032462,1
2722857440,0.120228834,0.13313845,0.09797843,0.99936146,-0.00059405476,-0.0041309055,-0.035485808,0.5940975,-0.005084869,-0.042636596,-0.8032462,1
2722897606,0.077075124,-0.08659759,0.09673107,0.999356,-0.00078345597,-0.0040627173,-0.035644386,0.5940975,-0.005084869,-0.042636596,-0.8032462,1
2722941364,0.1383277,0.014413779,0.1261455,0.99935335,-0.00082050374,-0.0037995738,-0.03574857,0.5940975,-0.005084869,-0.042636596,-0.8032462,1
2722981199,0.2529408,-0.08147428,0.19736189,0.9993508,-0.0009785515,-0.0038783655,-0.03580744,0.5940975,-0.005084869,-0.042636596,-0.8032462,1
2723025421,0.13496202,-0.057970513,0.034851734,0.99933916,-0.0013352046,-0.0039011873,-0.03611454,0.5940975,-0.005084869,-0.042636596,-0.8032462,1
2723065320,0.12159389,0.07399434,0.088618055,0.9993358,-0.0017197215,-0.003894786,-0.03619344,0.5940975,-0.005084869,-0.042636596,-0.8032462,1
2723109995,0.08526842,0.0021487833,0.032501698,0.99932826,-0.0021058798,-0.0041416236,-0.036351275,0.5940975,-0.005084869,-0.042636596,-0.8032462,1
2723150020,-0.16893357,0.0022356352,-0.05717039,0.99931824,-0.0026577893,-0.0043418976,-0.036566798,0.5940975,-0.005084869,-0.042636596,-0.8032462,1
2723194188,-0.32980037,-0.08434333,-0.11330327,0.9993104,-0.0031373496,-0.0046151,-0.0367119,0.5940975,-0.005084869,-0.042636596,-0.8032462,1
2723234030,-0.03497015,-0.005026944,-0.010749277,0.9993128,-0.0030560351,-0.004739291,-0.036636956,0.5940975,-0.005084869,-0.042636596,-0.8032462,1
2723278151,-0.099858396,-0.09192967,0.017392073,0.99930817,-0.0034754148,-0.00505329,-0.036682233,0.5940975,-0.005084869,-0.042636596,-0.8032462,1
2723318135,-0.19986576,-0.124972545,-0.10200765,0.9993011,-0.0037160066,-0.0051582735,-0.03683661,0.5940975,-0.005084869,-0.042636596,-0.8032462,1
2723363067,-0.27561826,-0.15201959,-0.13604033,0.99929357,-0.004161928,-0.0053472025,-0.036966443,0.5940975,-0.005084869,-0.042636596,-0.8032462,1
2723406802,-0.21610552,-0.12899414,-0.10451553,0.9992941,-0.0042248657,-0.005397744,-0.0369369,0.5940975,-0.005084869,-0.042636596,-0.8032462,1
2723447021,0.02259849,0.044455945,-0.054520115,0.9992982,-0.0040752916,-0.0053370045,-0.03685203,0.5940975,-0.005084869,-0.042636596,-0.8032462,1
2723490810,0.09946384,-0.08727562,0.12500873,0.99930394,-0.0040687877,-0.005579649,-0.036661323,0.5940975,-0.005084869,-0.042636596,-0.8032462,1
2723531023,-0.2756701,0.088827714,-0.23253657,0.9992923,-0.004290494,-0.005546774,-0.03695731,0.5940975,-0.005084869,-0.042636596,-0.8032462,1
2723571735,0.0008059654,0.04441815,0.0207979,0.99930435,-0.0038547213,-0.0058799516,-0.03662598,0.5940975,-0.005084869,-0.042636596,-0.8032462,1
2723611764,0.16056512,-0.08664455,0.033517312,0.9993033,-0.00349104,-0.0063121496,-0.036621593,0.5940975,-0.005084869,-0.042636596,-0.8032462,1
2723655855,-0.0064279158,-0.093252316,-0.057687502,0.9993008,-0.0034009758,-0.0065125753,-0.036660317,0.5940975,-0.005084869,-0.042636596,-0.8032462,1
2723695606,-0.011905572,-0.028964708,-0.02663342,0.9993054,-0.0031659198,-0.006474152,-0.036563296,0.5940975,-0.005084869,-0.042636596,-0.8032462,1
2723739728,-0.031308435,-0.10017809,0.054890774,0.99930906,-0.002926468,-0.00662103,-0.03645589,0.5940975,-0.005084869,-0.042636596,-0.8032462,1
2723779582,-0.10098686,-0.013330218,-0.12416817,0.9993048,-0.0029136764,-0.006495516,-0.036596738,0.5940975,-0.005084869,-0.042636596,-0.8032462,1
2723820694,-0.04674797,0.0521049,-0.019629963,0.9993132,-0.0025940752,-0.0065011014,-0.03638942,0.5940975,-0.005084869,-0.042636596,-0.8032462,1
2723860403,0.0841451,0.03762362,0.08036169,0.9993194,-0.0022518868,-0.006601044,-0.036225043,0.5940975,-0.005084869,-0.042636596,-0.8032462,1
2723904435,0.0037069735,0.05715362,-0.017376749,0.9993173,-0.0023723808,-0.006655666,-0.036263514,0.5940975,-0.005084869,-0.042636596,-0.8032462,1
2723944686,0.00931787,-0.0130602615,-7.737405e-05,0.9993176,-0.002297683,-0.007012092,-0.036192354,0.5940975,-0.005084869,-0.042636596,-0.8032462,1
2723988575,0.053176444,0.016545799,0.053544503,0.9993188,-0.0022550693,-0.0073464187,-0.036096808,0.5940975,-0.005084869,-0.042636596,-0.8032462,1
2724028817,-0.019174024,-0.108243026,0.011746129,0.9993138,-0.0024187143,-0.007793882,-0.036131334,0.5940975,-0.005084869,-0.042636596,-0.8032462,1
2724072626,0.06416064,0.006197893,0.031082822,0.9993137,-0.0024000008,-0.008168253,-0.036050238,0.5940975,-0.005084869,-0.042636596,-0.8032462,1
2724112532,0.23803955,-0.06964368,0.18989897,0.9993159,-0.0024661247,-0.008716482,-0.035857175,0.5940975,-0.005084869,-0.042636596,-0.8032462,1
2724157371,0.20956522,-0.05988083,0.18488497,0.99931335,-0.002540007,-0.009245136,-0.035791606,0.5940975,-0.005084869,-0.042636596,-0.8032462,1
2724197491,0.06112242,-0.030354323,-0.03730256,0.99929863,-0.0028746629,-0.009732702,-0.03604551,0.5940975,-0.005084869,-0.042636596,-0.8032462,1
2724241363,0.14003,-0.00026080315,0.0288698,0.9992955,-0.0029680487,-0.010225634,-0.035990067,0.5940975,-0.005084869,-0.042636596,-0.8032462,1
2724281170,-0.04448308,0.031258665,0.014441283,0.9992854,-0.0033733773,-0.010696086,-0.036095917,0.5940975,-0.005084869,-0.042636596,-0.8032462,1
2724321230,-0.034476917,-0.09781811,-0.1294891,0.99927217,-0.003481226,-0.011406763,-0.03623542,0.5940975,-0.005084869,-0.042636596,-0.8032462,1
2724361607,-0.021281406,-0.054790348,0.11032537,0.9992756,-0.003527644,-0.0117713325,-0.036017835,0.5940975,-0.005084869,-0.042636596,-0.8032462,1
2724402013,0.048752353,0.07117726,-0.0003560523,0.9992635,-0.0035123196,-0.0122368075,-0.036198683,0.5940975,-0.005084869,-0.042636596,-0.8032462,1
2724441989,0.02785897,-0.026552303,-0.0045581693,0.99925387,-0.0037319912,-0.012894335,-0.03621673,0.5940975,-0.005084869,-0.042636596,-0.8032462,1
2724486006,2.7868664e-05,0.0011143399,0.041674748,0.99924976,-0.0037948298,-0.013287209,-0.03618102,0.5940975,-0.005084869,-0.042636596,-0.8032462,1
2724530006,-0.289333,0.03499727,-0.13105501,0.9992385,-0.004112573,-0.013639028,-0.036325037,0.5940975,-0.005084869,-0.042636596,-0.8032462,1
2724570007,0.15198977,0.019207304,-0.013770658,0.9992393,-0.0037273678,-0.014105318,-0.036167014,0.5940975,-0.005084869,-0.042636596,-0.8032462,1
2724614167,-0.16795373,-0.09816424,-0.1505499,0.9992303,-0.004289656,-0.014375424,-0.03624474,0.5940975,-0.005084869,-0.042636596,-0.8032462,1
2724654935,0.12466178,0.019002449,0.008417421,0.99923646,-0.004288814,-0.0142838415,-0.036111332,0.5940975,-0.005084869,-0.042636596,-0.8032462,1
2724698970,-0.1347603,-0.061797112,-0.08573972,0.9992322,-0.0046666195,-0.014488519,-0.036102943,0.5940975,-0.005084869,-0.042636596,-0.8032462,1
2724738952,0.02888581,-0.041380156,-0.019673303,0.99923843,-0.004678562,-0.0144732,-0.035935562,0.5940975,-0.005084869,-0.042636596,-0.8032462,1
2724782971,0.047583304,-0.058485206,-0.02398748,0.9992415,-0.0048317974,-0.01449249,-0.035819665,0.5940975,-0.005084869,-0.042636596,-0.8032462,1
2724822978,0.13668709,-0.003413068,0.10515329,0.99925005,-0.005076709,-0.014433024,-0.035572,0.5940975,-0.005084869,-0.042636596,-0.8032462,1
2724866814,0.16762166,0.0021380624,0.09115949,0.99925494,-0.0051754806,-0.014328372,-0.035463218,0.5940975,-0.005084869,-0.042636596,-0.8032462,1
2724907804,0.020030258,0.06663805,-0.05694956,0.99925524,-0.0054198387,-0.014061597,-0.035525277,0.5940975,-0.005084869,-0.042636596,-0.8032462,1
2724951752,0.048644572,0.078354664,-0.08652697,0.9992604,-0.00534917,-0.013980567,-0.03542045,0.5940975,-0.005084869,-0.042636596,-0.8032462,1
2724991751,-0.016970016,0.09462904,0.013599239,0.9992643,-0.0054683792,-0.014044695,-0.03526792,0.5940975,-0.005084869,-0.042636596,-0.8032462,1
2725035799,-0.16514757,0.035778947,-0.0010950128,0.99926734,-0.0054401266,-0.014066137,-0.035178028,0.5940975,-0.005084869,-0.042636596,-0.8032462,1
2725079748,-0.06383724,0.00911756,0.002977773,0.9992742,-0.0051037823,-0.014051583,-0.035039246,0.5940975,-0.005084869,-0.042636596,-0.8032462,1
2725119815,0.17079724,-0.025759542,0.054365408,0.99928445,-0.0046633654,-0.014028119,-0.034815952,0.5940975,-0.005084869,-0.042636596,-0.8032462,1
2725159755,0.09873497,0.039913267,0.11673439,0.9992942,-0.0044608223,-0.013802206,-0.034650896,0.5940975,-0.005084869,-0.042636596,-0.8032462,1
2725200547,-0.04264389,0.069473505,-0.083266735,0.99929017,-0.0044288808,-0.013673149,-0.034824904,0.5940975,-0.005084869,-0.042636596,-0.8032462,1
2725244609,0.30813298,0.061902355,0.16807048,0.99930525,-0.0039212606,-0.0135846445,-0.034484252,0.5940975,-0.005084869,-0.042636596,-0.8032462,1
2725284597,-0.0392358,0.02214002,0.045741536,0.99930453,-0.004022507,-0.013442757,-0.034550723,0.5940975,-0.005084869,-0.042636596,-0.8032462,1
2725328698,0.0685466,0.09570719,0.023447596,0.99931246,-0.0035667615,-0.013165157,-0.03447493,0.5940975,-0.005084869,-0.042636596,-0.8032462,1
2725368517,0.020849172,0.1868446,0.012997352,0.9993196,-0.003302909,-0.01288964,-0.034401167,0.5940975,-0.005084869,-0.042636596,-0.8032462,1
2725416646,0.17975575,-0.05432031,0.06661716,0.9993306,-0.0027627044,-0.012559461,-0.034251735,0.5940975,-0.005084869,-0.042636596,-0.8032462,1
2725456514,-0.010709228,0.16191152,-0.031130675,0.9993359,-0.0027090395,-0.012034984,-0.034288872,0.5940975,-0.005084869,-0.042636596,-0.8032462,1
2725501221,0.06967268,0.099159606,-0.030937104,0.99934375,-0.002299951,-0.011594635,-0.034239992,0.5940975,-0.005084869,-0.042636596,-0.8032462,1
2725541433,-0.10146153,0.0417733,-0.10966537,0.9993477,-0.0022420192,-0.011268551,-0.034239266,0.5940975,-0.005084869,-0.042636596,-0.8032462,1
2725585210,-0.118284784,-0.04259867,-0.06953653,0.99935603,-0.002025687,-0.010829433,-0.034150254,0.5940975,-0.005084869,-0.042636596,-0.8032462,1
2725625226,-0.03463414,0.11995223,-0.12478615,0.9993607,-0.0017534156,-0.0103502525,-0.034178063,0.5940975,-0.005084869,-0.042636596,-0.8032462,1
2725669329,0.22249582,0.06572983,0.1289969,0.99937445,-0.0014466721,-0.010047305,-0.033876315,0.5940975,-0.005084869,-0.042636596,-0.8032462,1
2725710167,-0.14413594,-0.00926552,-0.12516688,0.9993703,-0.001779239,-0.009797737,-0.03405652,0.5940975,-0.005084869,-0.042636596,-0.8032462,1
2725750151,-0.14946009,-0.05513669,0.027730126,0.99937916,-0.0018330006,-0.009533719,-0.033869673,0.5940975,-0.005084869,-0.042636596,-0.8032462,1
2725794136,0.14659934,0.049318705,0.1818768,0.9993893,-0.001730215,-0.009163424,-0.03367915,0.5940975,-0.005084869,-0.042636596,-0.8032462,1
2725834027,-0.17467691,-0.0011394634,-0.03518793,0.99938375,-0.0022146497,-0.008992576,-0.03386088,0.5940975,-0.005084869,-0.042636596,-0.8032462,1
2725878152,-0.12817407,0.14811291,-0.040710576,0.9993898,-0.0025355325,-0.008537433,-0.033772923,0.5940975,-0.005084869,-0.042636596,-0.8032462,1
2725918053,-0.04333929,-0.091349535,0.058939114,0.99939746,-0.002824787,-0.008436143,-0.033550553,0.5940975,-0.005084869,-0.042636596,-0.8032462,1
2725962208,-0.10797988,-0.07538574,0.18480772,0.9994071,-0.0032621983,-0.008033399,-0.033319537,0.5940975,-0.005084869,-0.042636596,-0.8032462,1
2726002935,-0.09633666,0.026698265,-0.1572961,0.9994055,-0.003528918,-0.007657234,-0.03342965,0.5940975,-0.005084869,-0.042636596,-0.8032462,1
2726046917,0.008636661,0.0076442063,0.044885132,0.99941623,-0.0040740385,-0.0072632334,-0.033134863,0.5940975,-0.005084869,-0.042636596,-0.8032462,1
2726086823,-0.047636632,-0.08489464,0.06546604,0.9994209,-0.004637351,-0.0068763243,-0.033002365,0.5940975,-0.005084869,-0.042636596,-0.8032462,1
2726126965,0.33290204,0.15072325,0.063863344,0.9994301,-0.004786185,-0.006301727,-0.03281725,0.5940975,-0.005084869,-0.042636596,-0.8032462,1
2726170805,0.12155488,0.12188204,-0.0872859,0.9994266,-0.0057837525,-0.00586578,-0.032843597,0.5940975,-0.005084869,-0.042636596,-0.8032462,1
2726215013,0.04172367,-0.04513823,0.028855687,0.99943066,-0.0066428115,-0.0055967467,-0.032604028,0.5940975,-0.005084869,-0.042636596,-0.8032462,1
2726259851,4.3404056e-05,0.013814149,0.10844575,0.99943143,-0.0076011913,-0.0051190737,-0.03244969,0.5940975,-0.005084869,-0.042636596,-0.8032462,1
2726299630,-0.10179875,-0.00035704346,-0.13012928,0.99942243,-0.008363859,-0.004733169,-0.032596778,0.5940975,-0.005084869,-0.042636596,-0.8032462,1
2726343841,-0.14755699,-0.026443763,-0.03965414,0.9994233,-0.009227706,-0.0042103636,-0.032407697,0.5940975,-0.005084869,-0.042636596,-0.8032462,1
2726383790,-0.15937245,0.10004077,-0.07151398,0.9994189,-0.009883459,-0.0037696806,-0.03240412,0.5940975,-0.005084869,-0.042636596,-0.8032462,1
2726427801,-0.034062386,0.09273684,0.12617983,0.9994225,-0.0104330545,-0.0033928938,-0.032162443,0.5940975,-0.005084869,-0.042636596,-0.8032462,1
2726467899,0.094419,-0.12834816,0.123634435,0.99942076,-0.010733665,-0.0032522774,-0.032131977,0.5940975,-0.005084869,-0.042636596,-0.8032462,1
2726512509,-0.2308527,0.021953233,-0.057492748,0.99940675,-0.011544598,-0.0028958581,-0.032318484,0.5940975,-0.005084869,-0.042636596,-0.8032462,1
2726552614,0.19411422,0.011795771,0.068521686,0.9994214,-0.0110661695,-0.002743659,-0.03204304,0.5940975,-0.005084869,-0.042636596,-0.8032462,1
2726596318,-0.09751276,-0.13863075,-0.018819055,0.9994099,-0.011753407,-0.0027555553,-0.03215816,0.5940975,-0.005084869,-0.042636596,-0.8032462,1
2726636417,-0.15570787,-0.075200856,-0.10601678,0.9994044,-0.011902049,-0.002499513,-0.0322945,0.5940975,-0.005084869,-0.042636596,-0.8032462,1
2726680393,-0.06703446,-0.10567074,-0.027016267,0.99940616,-0.01178797,-0.0025902612,-0.0322738,0.5940975,-0.005084869,-0.042636596,-0.8032462,1
2726720659,0.27692544,0.024951292,0.10375395,0.9994158,-0.011286261,-0.002370958,-0.032173965,0.5940975,-0.005084869,-0.042636596,-0.8032462,1
2726764523,0.016298791,0.022988984,-0.035588846,0.9994122,-0.011150545,-0.0025177267,-0.03232356,0.5940975,-0.005084869,-0.042636596,-0.8032462,1
2726804594,-0.07323744,0.0025240802,0.011544902,0.99941516,-0.010783686,-0.0027295817,-0.03233598,0.5940975,-0.005084869,-0.042636596,-0.8032462,1
2726845349,0.04976734,0.04065422,-0.033400852,0.9994189,-0.010167131,-0.0028017417,-0.032413904,0.5940975,-0.005084869,-0.042636596,-0.8032462,1
2726889382,-0.057674453,0.0076948274,0.060943466,0.99942434,-0.009768907,-0.0030048715,-0.032351807,0.5940975,-0.005084869,-0.042636596,-0.8032462,1
2726929218,0.25117585,0.0025185023,0.15026934,0.99943507,-0.008864793,-0.003230222,-0.032260556,0.5940975,-0.005084869,-0.042636596,-0.8032462,1
2726973491,-0.02059768,-0.09583531,-0.054883324,0.99943024,-0.008627076,-0.003344725,-0.032458503,0.5940975,-0.005084869,-0.042636596,-0.8032462,1
2727013447,-0.08111055,0.059872,-0.19802521,0.9994315,-0.008200746,-0.0030855846,-0.032559097,0.5940975,-0.005084869,-0.042636596,-0.8032462,1
2727057357,-0.20119692,-0.11817665,-0.07865017,0.9994414,-0.0075590587,-0.003098727,-0.032407135,0.5940975,-0.005084869,-0.042636596,-0.8032462,1
2727098030,0.09896283,0.053758472,-0.020754645,0.9994524,-0.0065856897,-0.002838741,-0.03230376,0.5940975,-0.005084869,-0.042636596,-0.8032462,1
2727141977,0.19129771,-0.036619768,0.11132226,0.99946195,-0.005860777,-0.0027736833,-0.032154873,0.5940975,-0.005084869,-0.042636596,-0.8032462,1
2727182191,0.067048356,0.2098616,-0.10133734,0.99946123,-0.0052758316,-0.002489794,-0.032299902,0.5940975,-0.005084869,-0.042636596,-0.8032462,1
2727226223,0.004529544,0.10223343,-0.15526627,0.999465,-0.0046701273,-0.0024913168,-0.032276694,0.5940975,-0.005084869,-0.042636596,-0.8032462,1
2727266129,0.014943117,0.13498306,0.03201924,0.99947494,-0.0042930366,-0.0023704746,-0.032027896,0.5940975,-0.005084869,-0.042636596,-0.8032462,1
2727306987,-0.017717576,0.020950768,-0.04097044,0.99947673,-0.0038149115,-0.0023353118,-0.032036476,0.5940975,-0.005084869,-0.042636596,-0.8032462,1
2727350990,0.14146711,0.029667784,0.0144802425,0.9994863,-0.0030852063,-0.0021553533,-0.03182904,0.5940975,-0.005084869,-0.042636596,-0.8032462,1
2727394971,-0.044777922,0.017489145,-0.08752698,0.99948806,-0.002782013,-0.0019011298,-0.031815503,0.5940975,-0.005084869,-0.042636596,-0.8032462,1
2727434921,0.016058484,0.104245804,-0.04256386,0.9994935,-0.0021110305,-0.0016638256,-0.03171237,0.5940975,-0.005084869,-0.042636596,-0.8032462,1
2727479054,0.16664088,0.14922509,0.063432395,0.99950224,-0.0011993836,-0.0014888851,-0.031490877,0.5940975,-0.005084869,-0.042636596,-0.8032462,1
2727518813,0.30337924,-0.021261653,0.17272872,0.9995088,-0.00051458174,-0.0013708406,-0.031307336,0.5940975,-0.005084869,-0.042636596,-0.8032462,1
2727563121,-0.20654401,-0.050846223,-0.19557233,0.999502,-0.0002952121,-0.0012266891,-0.031531982,0.5940975,-0.005084869,-0.042636596,-0.8032462,1
2727611910,0.00678607,-0.04469517,0.0665748,0.999516,0.00062105147,-0.0012433578,-0.031079894,0.5940975,-0.005084869,-0.042636596,-0.8032462,1
2727651721,-0.07515028,-0.05065029,-0.03056516,0.99951863,0.0012373052,-0.0011496119,-0.030980442,0.5940975,-0.005084869,-0.042636596,-0.8032462,1
2727695749,-0.028715894,-0.073666506,-0.0944206,0.99952316,0.0018182377,-0.0012421428,-0.030799082,0.5940975,-0.005084869,-0.042636596,-0.8032462,1
2727735814,-0.026802853,-0.11211952,0.06428789,0.9995334,0.0021571585,-0.0013573802,-0.030439636,0.5940975,-0.005084869,-0.042636596,-0.8032462,1
2727779742,-0.019570941,-0.1240955,0.06838144,0.99954134,0.0024861777,-0.0013447128,-0.030154275,0.5940975,-0.005084869,-0.042636596,-0.8032462,1
2727819622,0.10001368,0.056900095,0.044242963,0.9995497,0.0028212212,-0.0011372049,-0.029853025,0.5940975,-0.005084869,-0.042636596,-0.8032462,1
2727860398,-0.3352312,0.014073727,-0.113634855,0.999552,0.0024644223,-0.001409768,-0.029794682,0.5940975,-0.005084869,-0.042636596,-0.8032462,1
2727904566,0.19695455,0.007659564,0.13497195,0.99956733,0.0030649095,-0.0016247412,-0.029208384,0.5940975,-0.005084869,-0.042636596,-0.8032462,1
2727944585,0.061092213,0.14126901,0.16420287,0.9995768,0.0031458247,-0.0018742093,-0.02885853,0.5940975,-0.005084869,-0.042636596,-0.8032462,1
2727988578,-0.17521869,0.11111404,-0.06707332,0.99957746,0.0029875173,-0.002325039,-0.028819615,0.5940975,-0.005084869,-0.042636596,-0.8032462,1
2728028417,-0.16063295,-0.04806835,-0.03852099,0.9995835,0.0030202558,-0.0030450674,-0.028537398,0.5940975,-0.005084869,-0.042636596,-0.8032462,1
2728072587,-0.16129,0.0010653863,-0.060241155,0.9995897,0.0028849419,-0.0035123522,-0.028281832,0.5940975,-0.005084869,-0.042636596,-0.8032462,1
2728112548,-0.020848544,0.013867431,-0.021735629,0.9995944,0.0030265695,-0.004138511,-0.028013535,0.5940975,-0.005084869,-0.042636596,-0.8032462,1
2728157505,0.03675175,-0.10361341,0.07533242,0.9996004,0.0030127384,-0.004883436,-0.027679274,0.5940975,-0.005084869,-0.042636596,-0.8032462,1
2728197361,0.04101926,0.015781723,-0.013258296,0.99959993,0.003291419,-0.005259727,-0.02759425,0.5940975,-0.005084869,-0.042636596,-0.8032462,1
2728241398,0.068966135,-0.0074612657,0.045589767,0.9996015,0.0035653107,-0.005897186,-0.02737494,0.5940975,-0.005084869,-0.042636596,-0.8032462,1
2728281314,-0.1068649,-0.08325416,0.006261572,0.99959904,0.0035569887,-0.0063352273,-0.027367817,0.5940975,-0.005084869,-0.042636596,-0.8032462,1
