timestamp,rollspeed,pitchspeed,yawspeed,rollspeed_integ,pitchspeed_integ,yawspeed_integ,additional_integ1
2708899827,0.00043115532,-0.001117822,-0.0012952199,0.00032900227,0.00066931715,4.3581058e-05,0.0
2709059072,-0.0012523937,-0.0013034942,0.0010387214,0.0007677917,0.0015950958,0.000100508056,0.0
2709091077,0.00038207648,-0.00061962754,-0.00031864992,0.00085437746,0.0017779873,0.000107614316,0.0
2709123843,-0.010077557,-0.0040758317,0.0033396329,0.00094237993,0.0019723224,0.00010535905,0.0
2709155838,0.010915935,-8.802931e-05,-0.01696188,0.0010223477,0.0021436228,0.00012047168,0.0
2709187861,-0.0025988629,0.022438776,-0.019321637,0.0011049513,0.0022867522,0.0003223445,0.0
2709219888,0.00411266,0.0071247155,0.046609126,0.0011696921,0.0025219733,0.00015308286,0.0
2709251879,0.014697537,0.046504613,-0.042836756,0.0012396622,0.0025835363,0.0002177255,0.0
2709283833,0.040939394,0.02086274,0.062751584,0.0012261133,0.0026770553,9.118205e-05,0.0
2709316002,0.0073122364,-0.010655704,-0.024977349,0.0013058144,0.0028679934,-2.4921797e-05,0.0
2709347887,-0.0036308027,-0.03023029,0.03923423,0.0013339055,0.0030320208,-8.571231e-05,0.0
2709379887,-0.010421887,-0.053970024,-0.039724555,0.0014250246,0.0032637788,-3.3040055e-06,0.0
2709411834,-0.032341223,-0.04064117,0.009717026,0.001533656,0.0035146,3.87865e-05,0.0
2709444639,-0.021834224,-0.023470491,-0.005525305,0.0016299689,0.0037602666,3.3355936e-05,0.0
2709476684,-0.013656407,-0.017025061,-0.0043981,0.0017330418,0.003994209,6.507282e-05,0.0
2709508636,0.007820737,0.020910483,-0.0036799095,0.0018120741,0.0041352706,9.961671e-05,0.0
2709540662,0.01359654,0.033504438,-0.007873957,0.0018847686,0.0042504733,0.00014170234,0.0
2709572660,0.020059722,0.057052433,-0.004224347,0.0019157428,0.004361073,0.00018150652,0.0
2709604714,0.0139691625,0.039407402,-0.006799618,0.0019421206,0.004452906,0.00023485345,0.0
2709636648,0.012756521,0.020193182,0.0020109229,0.0019713643,0.004565372,0.00025008878,0.0
2709668675,0.009054301,-0.0038464672,-0.0051075257,0.0020175288,0.0046750824,0.00029108505,0.0
2709701424,0.00038685347,-0.014700575,0.0066128317,0.002075092,0.004849886,0.00028294305,0.0
2709733474,-0.010245635,-0.020079596,0.0019180134,0.0021377522,0.0050298977,0.00029934666,0.0
2709765493,-0.018764028,-0.0037100231,0.0022625448,0.0022199776,0.0052237003,0.0002912593,0.0
2709797434,0.0020544676,0.07869465,0.007380044,0.0022690808,0.0053144023,0.00024970112,0.0
2709829466,0.07024631,0.25853992,0.022786373,0.0022410266,0.005144956,0.0001119313,0.0
2709861438,0.10570585,0.45213446,0.046938926,0.0021271748,0.0045944224,-0.0001342332,0.0
2709893514,0.11379829,0.65654296,0.059591435,0.0019612971,0.0036151076,-0.00047362933,0.0
2709925443,0.09156539,0.66826385,0.06449415,0.0017504148,0.0023476458,-0.0008866898,0.0
2709958248,0.035460804,0.5685092,0.06704023,0.0015702893,0.0008427271,-0.0013715565,0.0
2709990241,-0.032594495,0.36667475,0.070902795,0.001481985,-0.00067941257,-0.0018928049,0.0
2710022313,-0.12232411,0.21423075,0.07947301,0.0015451305,-0.002149095,-0.0024887628,0.0
2710054291,-0.2221847,0.077272914,0.08198056,0.0017925621,-0.0033747572,-0.003162773,0.0
2710086227,-0.15084031,0.012386132,0.06614386,0.002105338,-0.0042969827,-0.003852749,0.0
2710118298,-0.1603039,-0.13376045,0.06788793,0.002453214,-0.0048868395,-0.0044641965,0.0
2710150282,-0.13068254,-0.30712634,0.058671918,0.0027841856,-0.005209928,-0.005097047,0.0
2710182306,-0.12808132,-0.5002718,0.04887972,0.003091172,-0.0054261466,-0.005711853,0.0
2710214249,-0.07184768,-0.6438391,0.037373334,0.0033159142,-0.0054589254,-0.006298763,0.0
2710247135,-0.05901487,-0.6413885,0.03307258,0.003509926,-0.0052899728,-0.0068459455,0.0
2710279071,-0.012720766,-0.53960645,0.021023713,0.0036831808,-0.0050226003,-0.007329008,0.0
2710311069,-0.040668394,-0.4519369,0.020564053,0.0038933994,-0.00479032,-0.0077953744,0.0
2710343032,-0.023496147,-0.40597233,0.02150798,0.004088153,-0.0046648644,-0.00828759,0.0
2710375029,-0.0011977958,-0.37339795,0.020806745,0.004250462,-0.0046078744,-0.008792219,0.0
2710407214,0.0051581794,-0.3613673,0.02432653,0.0043926793,-0.0045466144,-0.009301089,0.0
2710439065,-0.0128034055,-0.31671205,0.026908386,0.004563757,-0.004442493,-0.009832292,0.0
2710471042,0.025980415,-0.26825804,0.021265507,0.004709148,-0.0043128137,-0.01037169,0.0
2710499856,0.08289541,-0.2384003,0.008859672,0.0047572623,-0.0042107976,-0.010802698,0.0
2710531846,0.1386759,-0.25789714,0.0067179836,0.004701262,-0.00410965,-0.011238004,0.0
2710563842,0.14362104,-0.28216502,-0.005876378,0.0045548235,-0.003933108,-0.0116356425,0.0
2710595868,0.17671539,-0.29689202,-0.004038944,0.0043581845,-0.0036346707,-0.01201565,0.0
2710948674,-0.06477449,0.0975594,-0.0015988201,0.0020756961,0.00012742405,-0.016251778,0.0
2710980645,-0.06084778,0.09895788,-0.0042164056,0.001995352,0.00024134573,-0.01664532,0.0
2711012697,-0.074864246,0.111410856,0.001416895,0.0019202345,0.00036156634,-0.017035704,0.0
2711045489,-0.08408753,0.12715165,0.00026606466,0.0018660934,0.0004622306,-0.017436223,0.0
2711077476,-0.0650656,0.13206245,0.0013776342,0.0018084147,0.0005205048,-0.017824197,0.0
2712774291,0.049716625,-0.00061270245,-0.0049055535,0.0013050567,-0.0015925562,-0.03466463,0.0
2712806272,0.039502934,-0.005131769,-0.0071417326,0.0012315584,-0.0016840824,-0.03495238,0.0
2712838237,0.036245883,-0.007712862,-0.009077923,0.0011477015,-0.0017707717,-0.035228614,0.0
2712870255,0.04218299,-0.009034252,-0.012120537,0.0010589989,-0.0018550433,-0.035486344,0.0
2712903056,0.037101593,-0.013636512,-0.011803732,0.00096892164,-0.0019407459,-0.035734653,0.0
2712935217,0.032092266,-0.010647128,-0.017176671,0.00087110815,-0.0020243458,-0.035955124,0.0
2712967233,0.032286037,-0.022023022,-0.015845846,0.00077066245,-0.0021060267,-0.03616667,0.0
2712999034,0.030992838,-0.030700883,-0.015116471,0.000671209,-0.0021772317,-0.0363642,0.0
2713031078,0.023408562,-0.02248871,-0.01832989,0.0005802941,-0.0022406974,-0.03654288,0.0
2713063061,0.027816534,-0.030786954,-0.013984466,0.00048819947,-0.0022907879,-0.0367174,0.0
2713095030,0.023364807,-0.039674908,-0.013310063,0.00039738588,-0.0023375824,-0.036883123,0.0
2713127091,0.018490877,-0.037494235,-0.0119255725,0.0003055039,-0.0023790402,-0.037038792,0.0
2713155903,0.0025508872,-0.037732966,-0.02415804,0.00022693763,-0.0024090114,-0.037156086,0.0
2713187834,0.00964458,-0.025132617,-0.027255405,0.00013144755,-0.0024385848,-0.03728282,0.0
2713219849,0.0055041285,-0.031380083,-0.020766526,3.86825e-05,-0.0024654751,-0.03740788,0.0
2713251866,-0.0042082197,-0.032386426,-0.019913737,-4.8200996e-05,-0.0024940786,-0.037529122,0.0
2713283876,-0.010278675,-0.015167482,-0.015393088,-0.00012328297,-0.002527663,-0.037647095,0.0
2713315841,0.0039853575,-0.0013927501,-0.015867189,-0.00019948708,-0.0025646253,-0.03776355,0.0
2713347886,-0.0070705106,-0.0050049676,-0.013069567,-0.00026290072,-0.0026099884,-0.037868146,0.0
2713379865,-0.016452689,-0.005175624,-0.010509253,-0.00032232917,-0.0026662764,-0.03798962,0.0
2713412019,-0.025442947,0.01183047,-0.010329456,-0.00037731254,-0.002732048,-0.03811061,0.0
2713444644,-0.0115217585,0.008140304,-0.007796016,-0.00043037557,-0.0028010958,-0.038246408,0.0
2713476638,-0.02493523,0.0051482795,-0.015326623,-0.00046751666,-0.00287606,-0.038359776,0.0
2713508669,-0.038526967,0.0021210145,-0.0071712146,-0.0004987408,-0.0029597522,-0.038498394,0.0
2713540678,-0.028484995,0.017134326,-0.013888506,-0.0005365732,-0.0030489862,-0.03864602,0.0
2713572646,-0.018422246,-0.0006447106,-0.010227226,-0.0005724489,-0.0031350814,-0.038780365,0.0
2713604641,-0.031374097,-0.006264411,-0.011757143,-0.00059913535,-0.0032241538,-0.03892185,0.0
2713636681,-0.04092859,-0.003750536,-0.00855674,-0.00062365964,-0.0033104904,-0.039070226,0.0
2713668678,-0.01941426,0.004262349,-0.015373975,-0.0006623133,-0.0033898894,-0.039208584,0.0
2713701438,-0.01088105,-0.01404612,-0.00960191,-0.0007062168,-0.003465116,-0.039337203,0.0
2713733442,-0.02775403,-0.0072376756,-0.0071612443,-0.00073853467,-0.003545642,-0.039472062,0.0
2713765448,-0.014800557,-0.00082548056,-0.005382006,-0.0007670598,-0.0036210595,-0.03960417,0.0
2713797509,0.0017637899,-0.01116095,-0.0064019654,-0.0007946498,-0.0036839182,-0.039735947,0.0
2713829446,-0.012740398,-0.019857837,-0.0036401877,-0.00081071764,-0.003746749,-0.039857432,0.0
2713861445,-0.022409003,-0.006604844,-0.0039856024,-0.0008243072,-0.003815042,-0.039985202,0.0
2713893435,-0.00914463,-0.00081723044,-0.0064319493,-0.00083485723,-0.0038847358,-0.040096615,0.0
2713925595,0.008904884,-0.011814141,-0.0060588787,-0.000851464,-0.0039594234,-0.040210214,0.0
2713954301,0.0073658284,-0.0082224915,-0.0105802715,-0.0008716826,-0.0040306915,-0.040308952,0.0
2713986318,-0.013629622,-0.0042122034,-0.008610955,-0.0008861094,-0.0041129417,-0.040415414,0.0
2714018284,-0.0012744833,-0.00436618,-0.007675159,-0.0009046574,-0.0041887066,-0.040524874,0.0
2714050282,0.0043132855,-0.015383707,-0.009100834,-0.00092215365,-0.0042510764,-0.040626694,0.0
2714082270,0.003280834,-0.025061598,-0.007892143,-0.0009375161,-0.004301774,-0.040726054,0.0
2714114316,-0.007592406,-0.021025922,-0.0064018485,-0.00094701647,-0.004346377,-0.040819224,0.0
2714146297,-0.0048396373,-0.024404991,-0.005903543,-0.0009573762,-0.004389967,-0.040922005,0.0
2714178330,-0.0021485968,-0.017580312,-0.0044964924,-0.00096305134,-0.0044431104,-0.04102155,0.0
2714210245,0.0037929716,-0.009234553,-0.0023719731,-0.0009745872,-0.004506858,-0.041129746,0.0
2714242447,0.0025034926,-0.007257142,-0.0020327617,-0.0009882005,-0.00457538,-0.0412416,0.0
2714275136,0.00501433,-0.01517054,-0.0033334722,-0.0010083416,-0.0046443176,-0.041348454,0.0
2714307091,0.013744257,-0.002897023,-0.0045666285,-0.0010320911,-0.004709809,-0.04145442,0.0
2714339127,0.025409602,-0.012977021,-0.0026693684,-0.0010654555,-0.0047669047,-0.041563235,0.0
2714371049,0.013746612,-0.019557558,-0.0061022984,-0.0011009634,-0.0048147542,-0.04166584,0.0
2714403120,0.011829751,-0.018836286,-0.0074704075,-0.0011427698,-0.0048582354,-0.04175874,0.0
2714435040,0.027819429,-0.006493528,-0.011582649,-0.0011930849,-0.0048956904,-0.04184226,0.0
2714467125,0.031118657,-0.020990545,-0.011244432,-0.0012517096,-0.004921933,-0.04191859,0.0
2714499827,0.022739358,-0.01485844,-0.01161682,-0.0013185996,-0.0049542435,-0.041991975,0.0
2714531870,0.020755459,0.002760886,-0.013554937,-0.001388031,-0.0049938858,-0.042053044,0.0
2714563870,0.035596926,-0.0016554564,-0.010639563,-0.0014617111,-0.0050329645,-0.042116955,0.0
2714595838,0.021022083,-0.0049736514,-0.012609404,-0.001532251,-0.005076666,-0.042168748,0.0
2714627872,0.011401239,0.0008331351,-0.00885855,-0.0015995878,-0.005130663,-0.042220965,0.0
2714659849,0.010591905,0.010673477,-0.010549139,-0.001659291,-0.005190204,-0.042266496,0.0
2714691896,0.021935198,-0.003077154,-0.006628886,-0.0017055637,-0.0052448623,-0.04230174,0.0
2714723833,0.0015810842,-0.011069648,-0.006642861,-0.0017303863,-0.0052974396,-0.042323325,0.0
2714755872,-0.007597011,-0.0018224816,-0.005912438,-0.0017419993,-0.005350458,-0.042347956,0.0
2714788631,-0.011107447,-0.0052560885,-0.013064721,-0.0017423884,-0.0054000183,-0.04235829,0.0
2714820706,-0.012793951,-0.019292856,-0.018760053,-0.0017287094,-0.005435988,-0.042347174,0.0
2714852664,-0.028103987,-0.011715375,-0.020540496,-0.0017061797,-0.005472226,-0.042334884,0.0
2714884636,-0.027527515,-0.005904381,-0.022483503,-0.001689055,-0.005506896,-0.042314235,0.0
2714916656,-0.0143984975,-0.00913251,-0.020585096,-0.0016716695,-0.0055358782,-0.042291943,0.0
2714948659,-0.0069326814,-0.020213287,-0.020877915,-0.0016532391,-0.005562379,-0.042248815,0.0
2714980779,-0.01837181,-0.012668416,-0.01714389,-0.0016269663,-0.0055836677,-0.04219788,0.0
2715012639,-0.008817192,-0.012632032,-0.011066691,-0.0015920328,-0.0055971188,-0.042143818,0.0
2715044671,-0.0027678772,-0.025338177,-0.010734087,-0.0015468348,-0.00560714,-0.042081874,0.0
2715077432,-0.023929471,-0.035735346,-0.019621791,-0.0014797633,-0.005613311,-0.041993935,0.0
2715109490,-0.025204998,-0.021748044,-0.023926977,-0.0014059884,-0.005615743,-0.04190738,0.0
2715141440,-0.011624355,-0.026700653,-0.023015644,-0.001342409,-0.0056076273,-0.04181164,0.0
2715173449,0.0014961315,-0.02311011,-0.027227553,-0.0012842518,-0.0055922354,-0.04171614,0.0
2715205469,0.010404693,-0.024941476,-0.020707393,-0.0012287775,-0.0055747996,-0.041606467,0.0
2715237486,0.012439081,-0.014677549,-0.02308346,-0.0011805734,-0.0055491417,-0.04148342,0.0
2715269445,0.02296341,-0.016091175,-0.015043152,-0.0011374479,-0.0055147633,-0.04135207,0.0
2715301439,0.014175609,-0.018904362,-0.017872036,-0.001085663,-0.0054768445,-0.041213635,0.0
2715334252,-0.00013531488,-0.02000136,-0.02120063,-0.0010306939,-0.005433566,-0.04107354,0.0
2715366241,-0.00043225102,-0.0024824687,-0.022585979,-0.0009768485,-0.0053973105,-0.04092832,0.0
2715398293,0.018617282,0.0025378368,-0.017715428,-0.00092925574,-0.0053672334,-0.04077791,0.0
2715430239,0.017271822,0.0029042435,-0.015021592,-0.0008769503,-0.0053440914,-0.040627677,0.0
2715462280,0.01353991,0.0024062148,-0.015211434,-0.0008262382,-0.0053245546,-0.04047089,0.0
2715494252,0.007103287,0.012108293,-0.019314239,-0.0007789013,-0.005307599,-0.04029899,0.0
2715526296,0.024990158,0.02004004,-0.0211653,-0.0007527289,-0.005292154,-0.040125154,0.0
2715558252,0.032661613,0.019320928,-0.020226818,-0.00073343836,-0.0052773617,-0.039943673,0.0
2715591041,0.031868134,0.013342047,-0.01732941,-0.0007125813,-0.0052628475,-0.039762564,0.0
2715623043,0.024661947,0.011790318,-0.015662534,-0.0006926373,-0.005242983,-0.039582625,0.0
2715655090,0.023017356,0.009508869,-0.016919224,-0.00068416505,-0.0052129114,-0.039398137,0.0
2715687230,0.02347248,0.0053863833,-0.016283168,-0.0006757426,-0.0051745176,-0.03921119,0.0
2715719033,0.019636374,0.009396933,-0.016654741,-0.0006609331,-0.0051352778,-0.03902728,0.0
2715751028,0.016360436,0.008567406,-0.012400662,-0.0006418107,-0.0050954185,-0.038836583,0.0
2715783062,0.010429706,0.015390728,-0.011350529,-0.00062691414,-0.0050594155,-0.038644902,0.0
2715811843,0.01371833,0.014951531,-0.012910509,-0.0006232059,-0.005023195,-0.03846749,0.0
2715843885,0.012662223,0.007887809,-0.009922878,-0.00061510055,-0.0049784845,-0.03826851,0.0
2715875881,0.0102973925,0.009185333,-0.012694674,-0.0006052757,-0.004926049,-0.038077448,0.0
2715907846,0.0060099475,0.008939025,-0.014832173,-0.0005977652,-0.00486453,-0.03787579,0.0
2715939833,-0.00034191157,0.01124348,-0.012265823,-0.0005834642,-0.0047977194,-0.037686378,0.0
2715971907,0.002536525,0.008672283,-0.009297124,-0.0005632626,-0.004725142,-0.037495155,0.0
2716003885,0.0033389474,0.0019759336,-0.008404978,-0.00053680054,-0.004648027,-0.037309155,0.0
2716035868,-0.004620418,0.006444758,-0.012108973,-0.00050793646,-0.0045697014,-0.037117623,0.0
2716067840,-0.013911581,0.0071861316,-0.01050618,-0.00047313483,-0.0044914186,-0.036928363,0.0
2716099911,-0.012662674,0.01812644,-0.0071869064,-0.0004327169,-0.004419766,-0.036741864,0.0
2716132675,-0.01562548,0.012490545,-0.0075293127,-0.00038156,-0.0043528536,-0.036539372,0.0
2716164635,-0.016995087,0.025096275,-0.013707376,-0.00033232867,-0.0042902306,-0.036335874,0.0
2716196640,-0.019054841,0.029726574,-0.008204677,-0.00028094958,-0.004234268,-0.036142416,0.0
2716228652,-0.01433861,0.03543762,-0.007926217,-0.00022628003,-0.004180901,-0.035939958,0.0
2716260680,-0.0064422614,0.029054085,-0.0037420487,-0.00016592455,-0.0041261846,-0.035746183,0.0
2716292696,-0.0060951156,0.031002373,-0.014205451,-0.00010838387,-0.0040764348,-0.035534307,0.0
2716324696,0.00064371596,0.03202934,-0.012894552,-6.558092e-05,-0.0040358487,-0.035323087,0.0
2716356649,0.00081189885,0.031662595,-0.0074283555,-2.4475945e-05,-0.004003049,-0.035106417,0.0
2716389464,0.0016200652,0.027749248,-0.0032407783,1.9522447e-05,-0.0039729183,-0.03489327,0.0
2716421470,0.0010401744,0.03312542,-0.008820189,5.7195044e-05,-0.0039441744,-0.03469333,0.0
2716453439,0.008425608,0.03138071,-0.006716373,8.1747756e-05,-0.00391204,-0.0344966,0.0
2716485434,0.007304429,0.026515372,-0.0015979756,0.00010098127,-0.0038710164,-0.034303345,0.0
2716517460,0.0044811387,0.02745035,-0.0005501383,0.00011887256,-0.0038281248,-0.034112915,0.0
2716549486,0.0044882623,0.02198964,-0.0041911365,0.00013295484,-0.0037882398,-0.03392004,0.0
2716581445,0.0055649504,0.022244787,-0.007839429,0.00014766213,-0.0037511394,-0.0337353,0.0
2716613464,0.005364742,0.012020494,0.0010546534,0.00016801718,-0.0037110585,-0.03355902,0.0
2716646236,-0.011512868,0.01360588,-0.00056071184,0.00019699338,-0.003668238,-0.033377446,0.0
2716678235,-0.014390236,0.013444603,-0.0013007806,0.00022593359,-0.0036274705,-0.03320416,0.0
2716710292,-0.0073029515,0.019123115,-0.002269179,0.00025386465,-0.0035873074,-0.033036325,0.0
2716742278,-0.004879864,0.019711625,0.0024680393,0.0002875954,-0.0035475171,-0.032866735,0.0
2716774232,-0.022457572,0.017366547,0.0028510243,0.00033381063,-0.0035104516,-0.03269846,0.0
2716806249,-0.020838343,0.026385214,-0.0032530194,0.00037353614,-0.0034821504,-0.032525714,0.0
2716838402,-0.006846093,0.025386846,-0.0013240834,0.0004082863,-0.0034652888,-0.03236333,0.0
2716870251,0.004044127,0.0206523,0.00014545117,0.0004369027,-0.0034585276,-0.032193143,0.0
2716902263,-0.004489878,0.014580539,0.006866579,0.00047037887,-0.0034546799,-0.03202891,0.0
2716935037,-0.01957559,0.02375371,-0.003618008,0.00049905427,-0.0034613628,-0.031864196,0.0
2716967263,-0.006353663,0.02824961,0.004286778,0.00053152296,-0.0034742928,-0.03172172,0.0
2716999053,-0.0050326,0.01967905,0.0070611914,0.00058276695,-0.003487203,-0.031576738,0.0
2717031038,-0.024188217,0.013196681,0.0030805934,0.0006383953,-0.003493453,-0.031423196,0.0
2717063024,-0.03377612,0.008914812,-0.00083258934,0.0006929691,-0.0034956157,-0.0312699,0.0
2717095072,-0.020321399,0.0064410036,0.001350498,0.00074379245,-0.0034964266,-0.031127904,0.0
2717127148,0.0023674483,-0.006297513,0.010250384,0.0007936638,-0.0034902203,-0.030994797,0.0
2717159835,-0.021356162,-0.025467094,0.0019333169,0.0008530271,-0.0034663053,-0.03085528,0.0
2717191886,-0.028173491,-0.021875517,-0.0015384457,0.0009011573,-0.0034291553,-0.030721093,0.0
2717223838,-0.0114196595,-0.024861895,0.0069592614,0.0009587077,-0.0033839282,-0.03059688,0.0
2717255983,-0.0047802683,-0.026161881,0.011569076,0.001029432,-0.003330518,-0.030480744,0.0
2717287833,-0.016205402,-0.025939927,0.0074927835,0.001099338,-0.0032688312,-0.030364208,0.0
2717319838,-0.044586785,-0.012546681,-0.0005367289,0.0011716263,-0.0032083576,-0.030247463,0.0
2717351869,-0.026339676,-0.0050669196,0.0061524464,0.0012510164,-0.003162345,-0.03014355,0.0
2717383886,-0.015690539,-0.006553836,0.01016351,0.0013464688,-0.0031265551,-0.030020257,0.0
2717411885,-0.020523546,-0.0016255812,0.0070842463,0.0014241873,-0.0030949092,-0.029918054,0.0
2717444686,-0.016155738,-0.00056567485,0.0077653686,0.0015225752,-0.0030640333,-0.029800193,0.0
2717476653,-0.03252078,0.0029508083,-5.521532e-05,0.0016219167,-0.0030376343,-0.029686756,0.0
2717508638,-0.016956702,0.0024479362,0.0034697081,0.0017104192,-0.0030183957,-0.029568486,0.0
2717540645,-0.0011619454,-0.0008820866,0.0062136687,0.0017979067,-0.0030032392,-0.0294571,0.0
2717572667,-0.00032019708,-2.5230693e-05,0.0005392013,0.0018798735,-0.0029940777,-0.029336568,0.0
2717604680,-0.0028867647,0.0008165038,0.0035550054,0.0019643484,-0.0029906959,-0.02922839,0.0
2717636650,0.0030115237,0.01260272,0.004958593,0.0020388556,-0.0029999292,-0.029119514,0.0
2717668665,0.014090843,0.0045710714,0.008144867,0.0021107488,-0.0030098408,-0.029017251,0.0
2717701461,0.004544329,0.009416463,-0.0006786431,0.002179881,-0.0030163617,-0.028913785,0.0
2717733469,0.006561736,0.0075565823,0.007712284,0.0022465843,-0.00302828,-0.028816398,0.0
2717765437,0.0043488657,0.009678996,0.0067438427,0.0023110937,-0.003048303,-0.028716598,0.0
2717797439,0.021621436,0.0013560546,0.0048705237,0.0023641551,-0.0030701172,-0.028626205,0.0
2717829446,0.025518207,-0.013857837,0.0025097171,0.0024149371,-0.003085792,-0.028534599,0.0
2717861479,0.023325793,-0.009940288,0.007147142,0.0024579049,-0.0030970145,-0.028451584,0.0
2717893449,0.01998618,-0.0025229137,0.008243167,0.0024963317,-0.0031170144,-0.02837581,0.0
2717925435,0.021604346,0.0018841885,0.004590217,0.0025312116,-0.0031370637,-0.02830307,0.0
2717957475,0.03678416,-0.0020975703,0.0048457733,0.0025557238,-0.0031471504,-0.02824251,0.0
2717990274,0.018184587,-0.012910792,0.011755798,0.0025871992,-0.0031525681,-0.02819818,0.0
2718022295,0.010360274,-0.0032096617,0.0099858055,0.0026010554,-0.0031642518,-0.028150747,0.0
2718054234,0.020411123,-0.007009646,0.010383814,0.0026099745,-0.003170095,-0.028110117,0.0
2718086229,0.0355489,-0.013277592,0.008619038,0.0026138101,-0.0031651822,-0.028078511,0.0
2718118278,0.037623182,-0.029065242,0.018249072,0.0026206768,-0.0031500468,-0.02806234,0.0
2718150297,0.007734694,-0.016687386,0.010677236,0.002628724,-0.00314376,-0.028054278,0.0
2718182447,0.01664671,-0.013386566,0.013776323,0.0026279725,-0.0031411382,-0.028054148,0.0
2718211081,0.019304458,-0.017440544,0.014755773,0.0026321157,-0.003125666,-0.028063128,0.0
2718243037,0.015699325,-0.018416889,0.009212796,0.0026448737,-0.0030973037,-0.028066345,0.0
2718275036,0.016523238,-0.02327375,0.011183753,0.0026542854,-0.0030610065,-0.028086716,0.0
2718307258,-0.0057629407,-0.02599,0.011565113,0.0026764187,-0.0030258088,-0.028108489,0.0
2718339113,-0.000370909,-0.014174104,0.011707073,0.0026963623,-0.0029852632,-0.02812247,0.0
2718371109,0.00817633,-0.020985067,0.014180398,0.0027216428,-0.0029237717,-0.028132904,0.0
2718403037,0.003075423,-0.028008325,0.00642315,0.0027406134,-0.0028475763,-0.028142978,0.0
2718435093,-0.0034037882,-0.036514014,0.00520565,0.0027565334,-0.002771356,-0.028146453,0.0
2718467179,-0.0043324768,-0.02525803,0.006433186,0.0027618192,-0.0026955323,-0.028144818,0.0
2718499877,0.019180933,-0.017182883,0.016004492,0.0027592345,-0.0026123135,-0.028169973,0.0
2718531849,0.003924168,-0.019609537,0.0038419794,0.0027658197,-0.0025338405,-0.028180966,0.0
2718563848,-0.008534899,-0.024508169,0.0019319196,0.002780254,-0.00246008,-0.028187841,0.0
2718596019,-0.012944202,-0.009174858,0.0018702743,0.0027967533,-0.0023853781,-0.028206484,0.0
2718627877,0.0059441184,-0.00010938058,0.006553945,0.002814807,-0.0023022213,-0.028220138,0.0
2718659865,-0.00055652205,-0.0049945163,0.005201701,0.0028414703,-0.0022093665,-0.028223282,0.0
2718691828,-0.01570924,-0.024825398,0.006481695,0.0028772168,-0.0021113418,-0.028232649,0.0
2718723883,-0.029158855,-0.01164438,8.76938e-05,0.0029165528,-0.002020195,-0.028248856,0.0
2718755865,-0.010773589,0.0030294943,0.0061221174,0.0029506774,-0.0019354176,-0.02826264,0.0
2718788646,-0.010999456,-0.00016655424,0.0048726182,0.0029908898,-0.0018465455,-0.028270224,0.0
2718820665,-0.018302832,-0.009833235,0.0034720022,0.003034846,-0.0017637769,-0.028288389,0.0
2718852659,-0.025018489,-0.00023967912,0.0030480754,0.0030846538,-0.0016883642,-0.028306628,0.0
2718884658,-0.007802426,0.017139392,0.006877253,0.0031331598,-0.0016157118,-0.028333372,0.0
2718916635,-0.0035153613,0.017173408,0.009285678,0.0031832822,-0.0015428958,-0.028354254,0.0
2718948652,-0.013537691,0.005719305,0.005029231,0.003239385,-0.0014689459,-0.028368693,0.0
2718980638,-0.009828256,0.0074606417,-0.00023263064,0.003289442,-0.0014068348,-0.028383521,0.0
2719012822,0.0020689534,0.019748311,0.00026503997,0.003324308,-0.0013532944,-0.028404647,0.0
2719044638,0.009504077,0.029726062,0.0027202966,0.0033430713,-0.0013041967,-0.028436938,0.0
2719077438,0.0076741995,0.014126299,0.009162134,0.0033621069,-0.0012509866,-0.028476888,0.0
2719109447,0.0044414755,0.017342139,0.0058563724,0.0033803596,-0.0012042222,-0.028514057,0.0
2719141466,0.011760887,0.021932937,0.00803566,0.0033920584,-0.0011605097,-0.028560419,0.0
2719173467,0.002562007,0.026137238,0.005353423,0.0034002631,-0.0011107364,-0.028609468,0.0
2719205445,0.0039522285,0.015724692,0.012206311,0.0034102907,-0.0010544603,-0.028677862,0.0
2719237497,-0.005675667,0.00369664,0.01026007,0.0034260964,-0.0010009402,-0.028752586,0.0
2719269454,0.0031621896,0.0044648787,0.008941108,0.0034315146,-0.0009480426,-0.028834466,0.0
2719301485,-0.0038344385,0.007010205,0.00859376,0.0034354674,-0.0008880966,-0.028914848,0.0
2719330259,-0.014928628,0.010808865,0.007397784,0.0034418835,-0.0008295163,-0.028998422,0.0
2719362413,-0.0016033556,5.2019954e-05,0.011084653,0.0034415629,-0.0007615783,-0.029104741,0.0
2719394257,-0.0013649298,-0.010054784,0.016710231,0.003445946,-0.0006914075,-0.029227192,0.0
2719426267,0.0081595965,-0.009239978,0.0172756,0.0034432432,-0.0006219853,-0.02935882,0.0
2719458249,-0.0059359963,-0.0023721785,0.016399346,0.0034452835,-0.0005540383,-0.029496385,0.0
2719490314,-0.0027819085,-0.0014831936,0.015140999,0.0034385216,-0.0004916231,-0.029647,0.0
2719522337,0.0055229086,0.005130835,0.01588863,0.003429245,-0.00043567395,-0.02980442,0.0
2719555036,0.021457005,0.015192498,0.0203854,0.0034094157,-0.00038496428,-0.029981276,0.0
2719587119,-0.002761859,0.020847835,0.01859168,0.0033992133,-0.00033928113,-0.03015837,0.0
2719619094,-0.0067906263,0.016025914,0.018614233,0.0033898386,-0.0002952477,-0.030345205,0.0
2719651146,-0.0074286014,0.016378017,0.013666993,0.003387176,-0.00025007094,-0.030531846,0.0
2719683033,-0.011857487,0.007327319,0.013751492,0.0033880873,-0.0002030864,-0.030725727,0.0
2719715100,-0.033690687,0.0061462633,0.011291683,0.0033992971,-0.00015295131,-0.03092184,0.0
2719747225,-0.024654921,0.0031501325,0.015194908,0.0034086527,-9.841522e-05,-0.03111934,0.0
2719779128,-0.003205028,6.550294e-05,0.016663512,0.0034148353,-3.4607117e-05,-0.0313125,0.0
2719811034,-0.008076749,-0.018323964,0.020376073,0.003426974,4.741301e-05,-0.031505402,0.0
2719843843,-0.035191804,-0.02828744,0.015289145,0.0034544955,0.00014383039,-0.03170661,0.0
2719875856,-0.013354437,-0.017081182,0.008573927,0.003466317,0.00023742593,-0.03190954,0.0
2719907863,-0.0025197403,-0.020729464,0.0032094023,0.0034731168,0.0003424861,-0.032099623,0.0
2719939920,-0.004565546,-0.030937094,0.004437937,0.0034731212,0.00045231366,-0.032290824,0.0
2719971841,-0.017580133,-0.018645309,0.0058638854,0.0034715908,0.0005594481,-0.032470968,0.0
2720003877,0.006081137,0.0024950674,0.0065725567,0.0034637537,0.0006551051,-0.032655243,0.0
2720035886,0.0011065409,-0.0021117032,0.0038788798,0.0034646734,0.0007488315,-0.032827325,0.0
2720067908,-0.0028423716,-0.014660006,0.0050822585,0.003464528,0.0008396765,-0.032996457,0.0
2720100645,-0.0071287495,0.012697871,0.0014138035,0.003462663,0.0009174212,-0.033154644,0.0
2720132634,0.005309051,0.017654799,0.003426053,0.0034587674,0.00099421,-0.033302493,0.0
2720164640,0.0025868595,-0.003779354,0.002355108,0.0034607304,0.0010741719,-0.033449985,0.0
2720196676,-0.0041681393,-0.011366163,0.0027829644,0.00346228,0.0011587846,-0.033586897,0.0
2720228656,-0.011579469,0.004411665,0.0009470355,0.0034666127,0.0012421696,-0.033717316,0.0
2720260644,-0.004379394,0.0051523717,-0.0050243353,0.0034632874,0.0013313055,-0.033847157,0.0
2720292657,-0.007139879,-0.008458605,-0.005532533,0.0034630809,0.0014289012,-0.033966206,0.0
2720324678,0.0043151705,-0.0026004214,-0.004436588,0.0034497292,0.0015256007,-0.034080416,0.0
2720356718,0.0028971983,0.0126069,-0.0018062419,0.0034402024,0.0016215998,-0.03419153,0.0
2720389448,0.0005242224,0.008214725,-0.0005513469,0.0034372834,0.0017146029,-0.034295473,0.0
2720421433,-0.011267225,0.0012267809,-0.0050413483,0.0034486442,0.0018035271,-0.034390874,0.0
2720453447,-0.0026370685,0.0067903423,-0.009018496,0.0034606117,0.0018872725,-0.034480184,0.0
2720485485,-0.009327276,0.009106219,-0.01303012,0.0034778332,0.0019666206,-0.03456973,0.0
2720517441,-0.016968923,0.0044468055,-0.013321343,0.003494056,0.0020432079,-0.034649458,0.0
2720549449,-0.011066996,0.0025590826,-0.00938812,0.003509538,0.0021195686,-0.034741364,0.0
2720581474,-0.000127387,-0.0019378748,-0.010783923,0.0035244816,0.0022045702,-0.034814697,0.0
2720613488,0.000941443,-0.0066477833,-0.0101087075,0.0035382449,0.0022963202,-0.03489523,0.0
2720646327,-0.011402126,-0.0011562624,-0.0087519195,0.0035560587,0.0023900487,-0.03497141,0.0
2720678249,0.0038371994,0.007607744,-0.006229115,0.003571524,0.0024799882,-0.035040222,0.0
2720710237,0.014079189,0.0070503745,-0.006995106,0.00358541,0.0025782608,-0.03509331,0.0
2720742314,0.009049172,-0.0076400125,-0.0056393426,0.0036024144,0.0026815482,-0.035139304,0.0
2720774289,-0.014163093,-0.0019777166,-0.007892134,0.0036242781,0.0027794938,-0.035182245,0.0
2720806239,-0.0068511954,0.0068952134,-0.007952277,0.0036411635,0.0028744552,-0.035222936,0.0
2720838243,0.0007868358,0.01319613,-0.01394959,0.0036584183,0.0029673818,-0.035262782,0.0
2720870377,0.0025451006,0.00055803615,-0.010351075,0.003668558,0.0030578435,-0.035296246,0.0
2720903054,-0.007390068,0.0033772935,-0.008103878,0.0036813663,0.003142304,-0.0353235,0.0
2720935081,0.00152538,0.013882548,-0.0096014375,0.0036810644,0.0032171027,-0.035344824,0.0
2720967220,0.0076180743,0.005043983,-0.012314129,0.0036869184,0.0032980915,-0.035353567,0.0
2720999038,0.00269428,0.0004437277,-0.016650299,0.0036917033,0.0033788846,-0.03535922,0.0
2721031097,0.001976398,0.000922184,-0.015988657,0.003690827,0.0034531485,-0.035361134,0.0
2721063025,0.00038512284,0.011665052,-0.016410824,0.00369379,0.003526321,-0.035348695,0.0
2721095036,0.010641703,0.010536749,-0.014667802,0.0036935396,0.0035967224,-0.03534078,0.0
2721127099,-0.0049405713,0.0010871266,-0.013366537,0.003708018,0.0036668142,-0.035329565,0.0
2721159102,-0.0027460915,0.003557913,-0.014569435,0.0037163063,0.0037336855,-0.035317913,0.0
2721191881,0.0067671426,0.0094848145,-0.006641847,0.0037349744,0.0037974368,-0.035307087,0.0
2721219883,-0.0043246914,0.0033011031,-0.015428698,0.003750213,0.003852638,-0.03529696,0.0
2721251834,0.0005296746,0.0040221266,-0.016668124,0.00375813,0.003915944,-0.035281625,0.0
2721283840,0.0014214297,0.0032160652,-0.008699463,0.003764302,0.003979325,-0.035265118,0.0
2721315874,-0.004598723,0.0028391485,-0.00864921,0.003775817,0.0040392904,-0.035237905,0.0
2721347912,0.0070083486,-0.002408573,-0.010366516,0.0037874265,0.0041023074,-0.03520391,0.0
2721379890,-0.0032285603,-0.011337655,-0.009177916,0.0038122486,0.004176783,-0.035169408,0.0
2721411883,-0.011399189,0.0006933103,-0.011173625,0.0038368711,0.0042515844,-0.035140097,0.0
2721443837,-0.0015305605,0.0029448068,-0.0025522755,0.0038606478,0.0043280213,-0.035120014,0.0
2721476666,0.00033789268,0.00079764123,-0.009274783,0.0038854165,0.0044048023,-0.035099834,0.0
2721508699,-0.0050704805,-0.009448307,-0.005742134,0.0039189174,0.0044742404,-0.03507805,0.0
2721540631,-0.023592034,0.004192931,-0.010751808,0.003963875,0.0045331065,-0.035063077,0.0
2721572641,-0.004343801,0.011937689,-0.008591156,0.0040045436,0.0045833504,-0.03505431,0.0
2721604656,0.004716016,0.0021837617,-0.008781015,0.0040476946,0.0046347976,-0.035037406,0.0
2721636806,0.0011475955,-0.0129539985,-0.008125125,0.0040882193,0.0046955226,-0.035032194,0.0
2721668652,-0.0014029647,-0.0019464863,-0.0053296033,0.004124318,0.0047543016,-0.035029802,0.0
2721701436,0.023579653,0.010084445,0.00086933374,0.0041483142,0.004814652,-0.035034668,0.0
2721733446,0.03394948,-0.0006794862,0.0032247875,0.004173428,0.0048897546,-0.035037324,0.0
2721765483,0.019774938,-0.011061453,-0.0023912983,0.0041976143,0.0049735582,-0.035011478,0.0
2721797471,0.008103,-0.014381634,-0.00049503683,0.004215424,0.005054585,-0.035013266,0.0
2721829438,0.009211531,-0.0033681751,-0.002924845,0.004223677,0.0051361397,-0.035025433,0.0
2721861440,0.023512695,-0.0100700855,-0.0045884284,0.0042166314,0.005227482,-0.035040315,0.0
2721893471,0.017347097,-0.018595025,0.0016356709,0.004213817,0.0053287526,-0.035057675,0.0
2721925476,0.017183844,-0.021119919,0.000966878,0.004206444,0.005436605,-0.035073332,0.0
2721957449,0.025005126,-0.017249444,-0.0053569134,0.0041952976,0.0055427016,-0.03506745,0.0
2721990416,0.02223755,-0.015951201,-0.006761593,0.0041779694,0.005651965,-0.03505915,0.0
2722022274,0.02068419,-0.007284524,-0.0037898016,0.0041633626,0.0057583856,-0.035061233,0.0
2722054266,0.020381702,-0.0026237788,-0.0048521366,0.0041484935,0.0058574146,-0.03505533,0.0
2722086235,0.030229025,-0.008107197,-0.007806197,0.0041260007,0.0059517226,-0.03504088,0.0
2722118248,0.021264317,-0.0051828697,-0.0044264602,0.0041043605,0.006038869,-0.035024207,0.0
2722150262,0.013093663,0.008489692,-0.002422423,0.0040826504,0.006115498,-0.03501002,0.0
2722182315,0.025390185,0.013261775,0.0033783054,0.0040577953,0.0061905845,-0.035007842,0.0
2722214333,0.034278013,0.00608077,0.0018108193,0.0040310235,0.006266238,-0.0349951,0.0
2722246245,0.027083803,0.0017550692,0.00061062793,0.003996816,0.006339528,-0.03498651,0.0
2722279068,0.005785141,0.013623907,-0.0042939554,0.003961946,0.0064083845,-0.034970753,0.0
2722311053,0.0074368715,0.017878583,-0.004023129,0.0039311913,0.006474202,-0.034950145,0.0
2722343288,0.0177807,0.013153079,-0.0023250664,0.003905992,0.006542083,-0.034938846,0.0
2722375069,0.0017837067,0.008729108,-0.009408601,0.0038874792,0.0066086804,-0.034920946,0.0
2722407105,-0.004774563,0.006557964,-0.011192442,0.003867899,0.006670678,-0.034893833,0.0
2722439059,-0.0022878796,0.011891469,-0.007243472,0.0038599835,0.0067254626,-0.03487247,0.0
2722471088,0.013882058,0.012536316,-0.0041256873,0.003843702,0.006777948,-0.034852915,0.0
2722503976,0.01230531,0.015613826,-0.0013711669,0.0038341614,0.0068300613,-0.034828164,0.0
2722535852,0.0031342353,0.010761157,-0.0065321606,0.0038251113,0.006880511,-0.034797125,0.0
2722567869,0.0040941974,0.0059395498,-0.0036018225,0.0038089247,0.00692958,-0.03476943,0.0
2722599876,-0.0018693269,0.015031756,-0.0039371615,0.0037965574,0.006976314,-0.034734488,0.0
2722632005,-0.0038123464,0.020653041,-0.0047163116,0.003784341,0.007020131,-0.034699023,0.0
2722663840,-0.005919557,0.021029234,-0.004234924,0.00377971,0.0070590363,-0.03466461,0.0
2722695825,0.00053584203,0.010589365,-0.0065158457,0.0037684618,0.0070949434,-0.03461506,0.0
2722727865,0.0030055358,0.010826951,-0.004577606,0.00375822,0.0071246373,-0.034557514,0.0
2722756660,0.0024743485,0.020082936,-0.004438916,0.003750545,0.0071362434,-0.034509055,0.0
2722788647,-5.0219474e-05,0.028973378,-0.0050826417,0.0037393884,0.0071412367,-0.034448013,0.0
2722820670,-0.0029926884,0.024123883,-0.00328223,0.0037291169,0.0071442593,-0.034385648,0.0
2722852631,-0.0005856948,0.014687039,-0.0040819612,0.0037193308,0.0071473164,-0.034323286,0.0
2722884655,-0.0035211234,0.0037114474,-0.009005942,0.00371765,0.0071534165,-0.034255352,0.0
2722916667,-0.006427086,0.0028549964,-0.013198496,0.0037175186,0.0071587753,-0.034181174,0.0
2722948691,-0.016785271,0.00492127,-0.009806647,0.0037185473,0.007170373,-0.034115274,0.0
2722980649,-0.011190273,0.0009994447,-0.0066443477,0.0037227955,0.0071893213,-0.034046587,0.0
2723012657,0.001297951,-0.0050179027,-0.00064128777,0.003731565,0.007210111,-0.033967417,0.0
2723044688,-0.001780638,-0.0068747196,-0.0020536373,0.0037480586,0.007230961,-0.03388788,0.0
2723077572,-0.02530473,-0.012733335,-0.009744983,0.0037785976,0.0072544827,-0.03380391,0.0
2723109473,-0.0332992,-0.007389888,-0.010274641,0.003804021,0.0072780196,-0.033723548,0.0
2723141449,-0.022525672,-0.012139849,-0.0065047056,0.0038330138,0.0073051094,-0.033651456,0.0
2723173447,-0.013601091,-0.0043104882,-0.008976925,0.0038646103,0.0073315916,-0.033566047,0.0
2723205471,-0.0012187249,-0.0037439908,-0.0021978202,0.0038930385,0.007358533,-0.0335044,0.0
2723237469,-0.0108271325,-0.010361603,0.00012839143,0.0039318968,0.0073880064,-0.03343968,0.0
2723269452,-0.011962857,-0.0061321445,-0.001099421,0.0039726463,0.0074114497,-0.03337244,0.0
2723301436,-0.0033195894,-0.002369588,0.00072690286,0.0040117158,0.0074340897,-0.033309445,0.0
2723334314,-0.015258411,-0.00710796,-0.0081095435,0.0040505715,0.0074621025,-0.0332429,0.0
2723366274,-0.0076139355,-0.009902764,-0.0009981927,0.004093195,0.0074899774,-0.03318977,0.0
2723398234,-0.0027180307,-0.019762633,0.005191233,0.0041449415,0.007508627,-0.033138,0.0
2723430247,-0.008111869,-0.005859063,-0.0017138957,0.004187112,0.0075184433,-0.03307916,0.0
2723462268,-0.0032605885,-0.00020219036,-0.0013469895,0.0042185695,0.0075263414,-0.033033963,0.0
2723494253,-0.00994493,-0.005914627,-0.0057344846,0.0042561884,0.007538366,-0.03298814,0.0
2723526259,0.006903922,-0.011693438,-0.0021852972,0.00428147,0.007552084,-0.032949403,0.0
2723558282,0.017379612,-0.015213305,0.0067080874,0.004313763,0.0075671724,-0.03291274,0.0
2723591035,0.010734367,-0.0069036894,0.003365011,0.004337968,0.0075841346,-0.032873515,0.0
2723623179,0.008695197,-0.0064818836,0.0038118158,0.00435572,0.0076030465,-0.03283596,0.0
2723655078,0.012188032,-0.014598925,0.0009597526,0.004367963,0.00761315,-0.032796074,0.0
2723687147,0.021758845,-0.015557111,0.0020287386,0.004375653,0.0076128766,-0.032763798,0.0
2723719075,0.0060747163,-0.0046715653,-0.0030413116,0.0043815835,0.007605155,-0.032724436,0.0
2723747197,0.009934179,-0.0048056534,0.005556269,0.004390671,0.0075973333,-0.032693032,0.0
2723779027,-0.003712798,-0.00028982083,0.0031671766,0.0044124345,0.0075781094,-0.032659855,0.0
2723811119,0.001386659,-0.002520339,-0.0012616997,0.0044250377,0.007557598,-0.032621037,0.0
2723843867,0.014296657,-0.0050828154,-0.0010447213,0.004435592,0.0075393924,-0.032595057,0.0
2723875838,0.011021246,-0.0013260078,0.0005197923,0.0044501973,0.0075170267,-0.032572743,0.0
2723907837,0.0003365397,-0.0015291099,0.0015486067,0.004470394,0.0074934987,-0.0325519,0.0
2723939848,0.0026722655,-0.01048241,0.0011298102,0.0044836374,0.007477472,-0.03251804,0.0
2723971892,0.0032794208,-0.0149191525,-0.00017299014,0.004494663,0.007471856,-0.032492146,0.0
2724003856,0.0051584383,-0.01830648,0.0009723302,0.004509255,0.0074736397,-0.032459743,0.0
2724035885,-0.0038390018,-0.024828242,0.0052736537,0.004532047,0.0074756686,-0.03243446,0.0
2724067873,-0.013211703,-0.019837432,0.0010851214,0.0045569655,0.007473928,-0.03240452,0.0
2724099903,-0.005312046,-0.026460418,0.0042983824,0.004585557,0.007477831,-0.03238276,0.0
2724132702,-0.010703513,-0.018837748,-0.0070918887,0.0046201507,0.0074856463,-0.03234709,0.0
2724164640,-0.007334714,-0.024360042,0.0022145303,0.0046510263,0.0074979635,-0.032316323,0.0
2724196642,-0.01334253,-0.026694909,-0.0010265461,0.0046860753,0.007512382,-0.032274574,0.0
2724228647,-0.00076998107,-0.025948193,-0.00028035324,0.0047156173,0.0075298455,-0.032232843,0.0
2724260676,-0.0046316907,-0.026995426,-0.0036372426,0.0047518066,0.00754754,-0.032184437,0.0
2724292651,-0.011344491,-0.033734173,-0.0061466284,0.0047882344,0.0075673014,-0.032127563,0.0
2724324664,-0.004732237,-0.040231097,0.00066376664,0.004820357,0.0075924844,-0.032084633,0.0
2724356653,-0.0055327406,-0.03695398,0.0012749685,0.0048545566,0.007621898,-0.03203769,0.0
2724389493,0.0028859267,-0.015716163,-0.004882588,0.0048855855,0.0076518296,-0.03198913,0.0
2724421444,-0.0011391047,-0.017488958,-0.002825321,0.0049207984,0.007683171,-0.03194009,0.0
2724453440,-0.0054767337,-0.0209272,-0.005262494,0.0049514906,0.007720004,-0.031893305,0.0
2724485437,-0.0015623958,-0.020725392,-0.0012651971,0.0049803196,0.0077578058,-0.031849302,0.0
2724517485,-0.009759981,-0.012976479,-0.0018723062,0.0050116684,0.0077951606,-0.031808767,0.0
2724549475,-0.0054280777,-0.007813837,0.0010836002,0.005044525,0.007834299,-0.031770658,0.0
2724581440,-0.005090191,-0.009605408,0.006161412,0.005086011,0.0078706015,-0.031738304,0.0
2724613486,-0.0034868617,-0.019125916,0.00567603,0.005135904,0.007901948,-0.031723432,0.0
2724646261,-0.020426601,-0.009791335,-0.0055717155,0.0051894,0.007931331,-0.031700496,0.0
2724678431,-0.015059672,0.0021251128,0.0007975644,0.005242739,0.007957435,-0.031680163,0.0
2724710243,-7.54972e-05,-0.0001400751,0.0067878934,0.00529919,0.007990788,-0.0316778,0.0
2724742279,0.009142015,-0.007818689,0.006897362,0.005355977,0.008028823,-0.031683914,0.0
2724774241,-0.0064580073,-0.012631601,0.008103769,0.0054244227,0.008066886,-0.031693272,0.0
2724806269,-0.02303009,0.0008732978,0.0038570387,0.005490997,0.008098205,-0.031698715,0.0
2724838259,-0.011277922,0.007432267,0.008212975,0.0055525457,0.00812789,-0.03171408,0.0
2724870233,-0.004183827,0.005696885,0.006038895,0.005620745,0.008157982,-0.03172514,0.0
2724898227,0.0014646938,0.008144353,0.004510157,0.005675681,0.008177983,-0.031736895,0.0
2724931032,-0.001762117,-0.0032973771,0.0013636618,0.005737104,0.008211133,-0.031742558,0.0
2724963080,-0.00395272,-0.002135639,0.005089368,0.0057917987,0.008251176,-0.031746875,0.0
2724995070,-0.00050829235,0.010990867,0.0022719195,0.005842898,0.008296509,-0.03174603,0.0
2725027268,0.01367188,0.0050006695,0.009023651,0.005889947,0.008346536,-0.03176392,0.0
2725059032,-0.0014668576,-0.0023455934,0.0064914804,0.0059398217,0.008399897,-0.03178482,0.0
2725091076,0.012330069,0.00010073744,0.0062192827,0.0059738564,0.008453645,-0.03180335,0.0
2725123094,0.018186228,0.005801023,0.0075913575,0.006001609,0.008508405,-0.03182641,0.0
2725155122,0.01170481,0.0021432545,0.0035344379,0.0060290145,0.008566237,-0.031852003,0.0
2725187839,0.0064132167,0.007553,-0.001863335,0.006050574,0.008625954,-0.031872977,0.0
2725219842,0.01646439,0.007141296,-0.0014529172,0.0060708527,0.008693016,-0.031897537,0.0
2725251880,0.02579029,0.008927124,0.0032624973,0.0060909004,0.008764817,-0.031921655,0.0
2725283892,0.010475316,0.009231977,0.0043403637,0.006110346,0.008830634,-0.031940073,0.0
2725315834,0.009974872,0.013925098,0.0037535578,0.0061227726,0.008894306,-0.031953033,0.0
2725347849,0.017345386,0.021215104,0.0024962109,0.0061284504,0.0089573525,-0.031969864,0.0
2725379913,0.02043103,0.008567874,0.0042913873,0.006132115,0.009019668,-0.031989854,0.0
2725415856,0.016044043,0.027990757,0.0043115364,0.0061343512,0.009080383,-0.03201729,0.0
2725447866,0.02207805,0.025372308,0.0027368057,0.0061327307,0.009131223,-0.03203806,0.0
2725480698,0.015584397,0.0068681496,0.0014107623,0.006123483,0.009187857,-0.032056123,0.0
2725512676,0.004525695,0.012346221,0.00092853466,0.0061184936,0.009238222,-0.032071427,0.0
2725544683,0.010020053,0.02703218,0.0035140156,0.006106543,0.009276741,-0.032092348,0.0
2725576675,0.022015916,0.020149082,0.00622316,0.006092929,0.009317891,-0.03211312,0.0
2725608682,0.005789743,0.010999478,0.001771641,0.0060834265,0.009366959,-0.032124598,0.0
2725640682,0.0023883933,0.017536242,-0.00027612736,0.0060599893,0.009413923,-0.03213151,0.0
2725672687,-0.0033952715,0.016249457,-0.00054782117,0.006040481,0.009460654,-0.032147188,0.0
2725705467,-0.0019059039,0.020680573,-0.0026401498,0.006016625,0.00951057,-0.03216091,0.0
2725737447,-0.012060216,0.014952927,-0.00061476,0.006004785,0.00956524,-0.03216988,0.0
2725769491,-0.014668899,0.020321954,-0.0036554784,0.0059899157,0.009619467,-0.032186367,0.0
2725801490,0.0018110622,0.015107278,0.0023666664,0.005976896,0.009675574,-0.03220597,0.0
2725833477,-0.0066235177,0.0037209457,0.0045744027,0.005981084,0.009730031,-0.03223508,0.0
2725865433,-0.017945604,0.013167355,0.0010630881,0.005981465,0.009782051,-0.032265957,0.0
2725897498,-0.016377952,0.019010898,0.005789634,0.0059805196,0.009833829,-0.032310735,0.0
2725929488,-0.012983254,0.022397606,0.00034828926,0.005980497,0.0098821465,-0.032362025,0.0
2725961498,-0.00044552702,0.014124578,0.0073212297,0.005979877,0.009930753,-0.032413505,0.0
2725994286,-0.034408398,0.014149532,0.008190624,0.0060018585,0.009982326,-0.032477565,0.0
2726026233,-0.026266776,0.029080838,0.0040819426,0.005999794,0.010030201,-0.03253738,0.0
2726058271,-0.018802712,0.019659882,0.008769945,0.006003744,0.010075684,-0.03261249,0.0
2726090234,-0.03253168,0.012113224,0.004888214,0.0060193175,0.010121515,-0.032686435,0.0
2726122410,-0.037878912,0.010017064,0.009904759,0.0060425433,0.010165437,-0.03276631,0.0
2726154265,-0.054669123,0.015467881,0.0039702454,0.0060780626,0.010202725,-0.032840937,0.0
2726186435,-0.037473507,0.021292899,0.00061229034,0.006114757,0.010237857,-0.03291859,0.0
2726218320,-0.040299278,0.019368272,0.0040194984,0.0061681247,0.010273255,-0.0329991,0.0
2726251038,-0.034960154,0.020280726,0.006419562,0.006223786,0.010303295,-0.03307618,0.0
2726283027,-0.030888207,0.019844335,0.007998477,0.0062825843,0.010328864,-0.033153683,0.0
2726315060,-0.040059995,0.020089472,0.0016783394,0.0063521448,0.010351864,-0.03323018,0.0
2726347218,-0.038617563,0.023017583,0.00022232742,0.006432926,0.010370453,-0.033305712,0.0
2726379042,-0.03495957,0.014643582,-0.0013249677,0.0065214303,0.010388331,-0.033369783,0.0
2726411043,-0.023980223,0.007594248,-0.0008933926,0.006608212,0.010408336,-0.033425506,0.0
2726443044,-0.03732164,0.008589882,-0.0011188369,0.0067027095,0.010423672,-0.033482473,0.0
2726475110,-0.031431504,0.009540361,-0.000593954,0.0067983875,0.01044276,-0.03352934,0.0
2726507885,-0.00041264226,0.0167873,0.001955865,0.00689283,0.010471832,-0.033583865,0.0
2726539842,0.0017080337,0.0015255619,0.004370083,0.0069915093,0.010501616,-0.03363071,0.0
2726571834,-0.027405616,-0.0027841253,0.002752219,0.0071025034,0.0105293635,-0.033674717,0.0
2726603858,-0.015283139,0.011751221,-0.0026877918,0.0072037447,0.01055182,-0.033707432,0.0
2726635885,0.00030076574,0.008251017,-0.0015499841,0.007307158,0.010585187,-0.033742514,0.0
2726667827,0.0066280738,-0.0062329494,-0.005864434,0.0074018864,0.010626875,-0.03376614,0.0
2726699835,0.009532757,-0.017175483,0.0029670286,0.007491272,0.010669896,-0.033799913,0.0
2726731881,0.009944892,-0.004966831,0.00046583288,0.007576166,0.010713123,-0.033829488,0.0
2726763902,0.019000659,0.0052474523,-0.007199346,0.0076484005,0.010757677,-0.03386589,0.0
2726795841,0.021404348,-0.0041481163,-0.0031584126,0.0077179135,0.010810381,-0.033893496,0.0
2726828641,0.022374121,-0.005349678,-0.0026199624,0.007785746,0.010867197,-0.033920467,0.0
2726860640,0.02583085,-0.001770376,-0.0012346786,0.007849442,0.010928338,-0.03394808,0.0
2726892682,0.01578122,-0.001921946,-0.0038758472,0.007919605,0.010994112,-0.033971388,0.0
2726924639,0.017173452,-0.012413284,-0.002045837,0.007984442,0.011060905,-0.03400506,0.0
2726956669,0.022693409,0.002177854,-0.003084059,0.008045583,0.011122461,-0.034049638,0.0
2726988644,0.028513325,-0.0035993352,-0.0016728179,0.008105607,0.011180477,-0.0340906,0.0
2727020695,0.013135637,-0.0072540157,-0.0061475094,0.008170674,0.011235469,-0.03413675,0.0
2727052633,0.024249768,0.005593268,-0.0067077167,0.008218276,0.011287864,-0.03419161,0.0
2727085446,0.0480851,0.018667962,0.0022543964,0.008253487,0.01133678,-0.0342598,0.0
2727117486,0.036819562,0.0135630695,-0.0021851002,0.008290068,0.01138938,-0.034317482,0.0
2727149440,0.03858145,-0.0040250397,0.0025539428,0.008323741,0.011443772,-0.03437384,0.0
2727181528,0.027474381,0.005094445,-0.0020653047,0.008359123,0.011496522,-0.034428723,0.0
2727213438,0.036271833,0.017455189,-0.0035040313,0.008385032,0.011550043,-0.03448866,0.0
2727245446,0.022587841,0.0108495625,0.000600219,0.008422606,0.011601012,-0.034553193,0.0
2727277465,0.016657062,-0.0015010585,0.00046208687,0.00846837,0.0116467485,-0.034621038,0.0
2727310408,0.02723182,0.014828481,-0.00052821287,0.008515941,0.011685076,-0.03469193,0.0
2727338268,0.029966662,0.0029943984,0.0042379154,0.008554569,0.011717982,-0.034758687,0.0
2727370293,0.01578218,0.009916205,0.0035040113,0.008602519,0.011749274,-0.03483208,0.0
2727402265,0.021483,0.008852124,0.0035363173,0.008644016,0.011776749,-0.034919605,0.0
2727434239,0.037290156,0.005921593,0.0035297975,0.008679537,0.0118051795,-0.03499722,0.0
2727466265,0.048828393,0.011044586,0.008595934,0.008710435,0.011830035,-0.0350797,0.0
2727498254,0.03185413,0.0076758433,0.007720711,0.008737734,0.011845584,-0.035165355,0.0
2727530421,0.02598284,0.011945058,0.0059634005,0.008756055,0.011852565,-0.035261407,0.0
2727562318,0.03562148,0.0056752637,0.009765547,0.008775446,0.011859789,-0.035367258,0.0
2727594292,0.032759044,0.007742183,0.0023729058,0.008794404,0.011868403,-0.035481762,0.0
2727627103,0.02220288,-0.008361911,0.0051829387,0.008797715,0.011881874,-0.035604443,0.0
2727659077,0.014507156,-0.009283321,0.0072214836,0.008808583,0.011892283,-0.035741113,0.0
2727691031,0.026664944,0.0025109826,0.01033682,0.008815418,0.011898118,-0.035884876,0.0
2727723054,0.016009545,-0.0016856119,0.010846922,0.008833292,0.011906941,-0.036032118,0.0
2727755072,0.017713716,-0.0015906631,0.011114638,0.008848896,0.01191175,-0.03619222,0.0
2727787135,0.018953672,-0.005465763,0.019394299,0.008873462,0.011906268,-0.03637077,0.0
2727819046,0.0089315465,0.0073315976,0.015300319,0.008901781,0.011896681,-0.036551934,0.0
2727851844,0.007087957,0.0015045512,0.021514386,0.00893518,0.011898151,-0.036749087,0.0
2727883827,0.019495318,-0.015634289,0.019782593,0.008964309,0.011909924,-0.03695053,0.0
2727911828,0.016417148,-0.018414332,0.010887289,0.008974837,0.011924213,-0.037126817,0.0
2727943914,0.011627332,-0.01814031,0.012024863,0.008991765,0.011944236,-0.03733743,0.0
2727975856,-0.0032847407,-0.009937893,0.011214015,0.0090091545,0.011964526,-0.037547633,0.0
2728007875,0.0020661503,-0.015728088,0.011911599,0.009030587,0.011995283,-0.037753016,0.0
2728039844,0.005660111,-0.024840742,0.010552616,0.009061677,0.012039542,-0.037964016,0.0
2728071833,-0.0109532345,-0.032610208,0.012156966,0.009106399,0.012087901,-0.038179453,0.0
2728103871,-0.017600825,-0.01914136,0.0065086586,0.009154078,0.0121367825,-0.038392764,0.0
2728135847,0.008106701,-0.02669066,0.011043867,0.009195239,0.012194171,-0.038608238,0.0
2728168663,-0.0034342762,-0.02914926,0.002937511,0.009238597,0.01226314,-0.038814694,0.0
2728200644,0.0017756643,-0.03162109,0.007878453,0.009262272,0.012328574,-0.03901373,0.0
2728232697,0.01032901,-0.023955394,0.0026574384,0.009277723,0.012398105,-0.039212726,0.0
2728264685,0.015139572,-0.019123903,0.0049382774,0.009290481,0.012475755,-0.039401997,0.0
2728296681,0.006341952,-0.015020162,0.0013526749,0.009307348,0.012551657,-0.03957971,0.0
2728328650,0.0193878,-0.009199266,-0.0022902621,0.009314141,0.012621582,-0.03974024,0.0
2728360699,0.006613521,-0.008157397,-0.0034313896,0.009325486,0.012687828,-0.039887812,0.0
2728392699,-0.003910443,0.009754876,-0.010713173,0.009333305,0.012749911,-0.040016644,0.0
2728425431,0.018288247,0.012550678,-0.002270504,0.009316071,0.012810749,-0.040140826,0.0
2728457455,0.012031019,-0.0041477135,-0.0071330783,0.009327554,0.012882557,-0.04025252,0.0
2728489438,-0.008890495,0.0015383214,-0.008132712,0.009346535,0.0129537275,-0.04033874,0.0
2728521612,-0.007796617,0.0077267336,-0.014200784,0.009358359,0.01302625,-0.04040247,0.0
2728553439,0.009849699,0.0012369786,-0.015961213,0.009365606,0.013108823,-0.04045225,0.0
2728585475,-0.0036556795,-0.0124311475,-0.019157862,0.009376076,0.013196306,-0.040485118,0.0
2728617466,-0.0073497593,-0.008546337,-0.019260935,0.009378791,0.013281222,-0.04050752,0.0
2728649604,-0.004260175,0.002575521,-0.023030365,0.009376737,0.013359845,-0.04051388,0.0
2728682420,-0.005690553,0.00012290129,-0.026169643,0.009375132,0.013443333,-0.040505495,0.0
2728714241,-0.0071495874,0.015583787,-0.02954132,0.009372175,0.013517902,-0.040487554,0.0
2728746252,0.005098791,0.01308183,-0.024077712,0.0093639,0.013585409,-0.0404595,0.0
2728778256,-0.0024729052,0.008522691,-0.023489844,0.0093580065,0.01364879,-0.040419556,0.0
2728810268,-0.018563181,0.01719222,-0.02237171,0.009352183,0.013710348,-0.040376525,0.0
2728842269,-0.011980438,0.01971317,-0.017438933,0.009350911,0.013775436,-0.040334858,0.0
2728874278,-0.003522466,0.02151697,-0.023486279,0.00935001,0.0138370395,-0.040277097,0.0
2728906280,-0.0017703557,0.0095138755,-0.016935406,0.009348694,0.013893161,-0.04022236,0.0
2728938402,-0.02793284,0.008688123,-0.017327134,0.009362866,0.013944033,-0.040159315,0.0
2728971071,-0.026519658,0.038090687,-0.0258737,0.0093683405,0.013982363,-0.04010056,0.0
2729003028,-0.012169757,0.034377344,-0.021270458,0.009364424,0.014017185,-0.040043816,0.0
2729035046,-0.02989548,0.030164147,-0.022317262,0.009369159,0.014048882,-0.03998622,0.0
2729067098,-0.02750686,0.030843586,-0.014210761,0.009385311,0.014075268,-0.03993563,0.0
2729099064,-0.030819783,0.029208729,-0.01398674,0.009411644,0.014096456,-0.03988079,0.0
2729131033,-0.033962913,0.029996507,-0.014244795,0.0094391,0.014115974,-0.039839987,0.0
2729163075,-0.03948664,0.027487881,-0.009115859,0.009482954,0.014133552,-0.039806943,0.0
2729195846,-0.038859293,0.017954372,-0.015028207,0.009540318,0.014147944,-0.039765447,0.0
2729227872,-0.025702234,0.01280289,-0.013722465,0.009596325,0.014163541,-0.039726313,0.0
2729259827,-0.042274773,0.011486839,-0.013084187,0.009661745,0.014179888,-0.0396947,0.0
2729291839,-0.039947983,0.018334968,-0.009928595,0.009726825,0.014196809,-0.039666686,0.0
2729323836,-0.01895223,0.016569143,-0.006279933,0.009793686,0.014219441,-0.039651833,0.0
2729355864,-0.012204999,-0.005131582,-0.0058781384,0.009860005,0.014255964,-0.039626513,0.0
2729387835,-0.029715218,-0.015574657,-0.006358411,0.009931879,0.014296444,-0.039608285,0.0
2729419832,-0.01843907,0.0005493923,-0.008544725,0.009992499,0.014338585,-0.039591137,0.0
2729447834,-0.018676836,-0.0070938747,-0.0036858383,0.010047826,0.014381573,-0.03958075,0.0
2729480632,-0.0013854771,-0.012836144,-0.00046700356,0.010097093,0.01443065,-0.039572764,0.0
2729512681,-0.015816094,-0.028054804,-0.002525383,0.010161347,0.0144908065,-0.039579026,0.0
2729544686,-0.0053970725,-0.021686232,0.0021824532,0.010216953,0.014545033,-0.03959628,0.0
2729576794,-0.0030273956,-0.013741196,0.0012213654,0.010272958,0.0145984385,-0.03961349,0.0
2729608639,-0.0038706977,-0.009015806,0.00039048796,0.010318919,0.014656052,-0.039646775,0.0
2729640684,-0.0018057519,-0.015854675,0.011420468,0.01038155,0.014716244,-0.03968648,0.0
2729672667,0.003629178,-0.009381857,0.0068940995,0.010453386,0.014778865,-0.039724227,0.0
2729704818,0.0055308267,-0.014211575,0.009780844,0.010518393,0.014844014,-0.03976922,0.0
2729736638,-0.013769049,-0.022287855,0.010964209,0.010587397,0.014910912,-0.039828517,0.0
2729769492,-0.005549095,-0.007520493,0.0025815843,0.010648011,0.014976291,-0.039888564,0.0
2729801467,0.0037129354,-0.0042231716,-0.00078511005,0.01071974,0.015046364,-0.039927337,0.0
2729833478,-0.0026955102,-0.024617204,0.003116206,0.010792922,0.015118266,-0.039961662,0.0
2729865532,-0.0029666268,-0.0082422,0.0032556087,0.010862841,0.015181283,-0.04000906,0.0
2729897435,0.016455019,0.017709527,0.0058519393,0.01092341,0.015232389,-0.040054597,0.0
2729929467,0.019308321,0.007835594,0.008647236,0.010987296,0.015286344,-0.040109385,0.0
2729961493,0.030383773,-0.0034056406,0.009496912,0.011032208,0.015340065,-0.040165894,0.0
2729993495,0.033012174,-0.000743276,0.010844808,0.011072309,0.01539021,-0.04022846,0.0
2730026298,0.012508935,0.002581109,0.0050612204,0.011111703,0.015442549,-0.040290978,0.0
2730058237,0.02364934,-0.006735094,0.014769955,0.011140535,0.015499394,-0.040374544,0.0
2730090279,0.027353412,0.0005782584,0.0047584074,0.0111743985,0.01555132,-0.04044705,0.0
2730122317,0.024551582,-0.0016763867,0.006959367,0.01120717,0.015603287,-0.040513363,0.0
2730154252,0.007286835,0.00045835064,0.0068702893,0.011245977,0.015648676,-0.04058015,0.0
2730186235,0.020048942,0.012340477,0.0051487423,0.011276934,0.015685514,-0.040650774,0.0
2730218302,0.021317117,0.018848024,0.0040004198,0.011307941,0.015717221,-0.040718593,0.0
2730250374,0.008849447,0.0036457872,0.00034110155,0.011340067,0.01574976,-0.040785335,0.0
2730282302,0.01082505,0.002483848,-0.0022123938,0.011370434,0.015770646,-0.04084334,0.0
2730315040,0.009362256,0.0142082535,-0.0036320407,0.011394863,0.015781775,-0.04091163,0.0
2730347107,0.008116353,0.012720819,-0.0015991004,0.011414666,0.015789794,-0.040980887,0.0
2730379089,0.0230179,0.00650989,-0.0031513458,0.011419859,0.01579052,-0.041048396,0.0
2730411048,0.019150823,0.0068955626,-0.00034295116,0.011427008,0.015780509,-0.041105967,0.0
2730443033,0.0062135775,0.019856583,-0.0030680199,0.011434222,0.015768906,-0.04117198,0.0
2730475028,0.020968037,0.0138077615,0.0034437699,0.011445672,0.015760098,-0.041240886,0.0
2730507194,0.025618162,0.008279188,-9.66317e-05,0.011454895,0.015752763,-0.04129789,0.0
2730539896,0.0037091656,0.004715625,0.0027579814,0.011470728,0.015739366,-0.041356817,0.0
2730571832,-0.0042968225,0.0074564144,-0.0034660706,0.011489987,0.015722739,-0.041416228,0.0
2730603849,0.01564008,0.00021992461,-0.002282124,0.011503053,0.01571296,-0.04146985,0.0
2730635855,-0.0013868138,-0.006613519,-0.0047509354,0.011521361,0.015709054,-0.04152851,0.0
2730667855,-0.008544568,-0.0076623457,-0.002752715,0.011534484,0.015699718,-0.04158332,0.0
2730699828,-0.008327027,-0.007985184,-0.0030782782,0.011545456,0.01569441,-0.041640416,0.0
2730731842,-0.0012486062,-0.011266768,-0.003594911,0.011558831,0.015694335,-0.04169349,0.0
2730763847,-0.007942671,-0.009939677,-0.0043632714,0.011574498,0.015698766,-0.041749936,0.0
2730795878,-0.0024153872,-0.017285204,-0.0017903631,0.0115843015,0.015706593,-0.041806675,0.0
2730828683,-0.008050544,-0.01705367,-0.0068281507,0.01158981,0.01571606,-0.041857135,0.0
2730860633,-0.012206555,-0.017178236,-0.0026834703,0.01159525,0.015731465,-0.041904006,0.0
2730892672,-0.007940105,-0.019758284,-0.006927876,0.011595409,0.015760174,-0.04194915,0.0
2730924666,0.002392737,-0.030379755,-0.0037964694,0.01159087,0.015795723,-0.041987516,0.0
2730956684,-0.022089444,-0.038265944,-0.0038607153,0.011598631,0.015833855,-0.042028263,0.0
2730988645,-0.02293114,-0.019496094,-0.004844853,0.011602502,0.015868306,-0.042059537,0.0
2731020634,0.0030590817,-0.01601084,0.004020308,0.011607045,0.015907072,-0.0420982,0.0
2731052660,-0.0049234247,-0.022051064,0.001381711,0.011619449,0.01593981,-0.04213629,0.0
2731085493,-0.016598893,-0.020931622,0.005741411,0.0116424,0.01596524,-0.04217534,0.0
2731117490,-0.015421256,0.0025140196,0.0014232249,0.0116622215,0.015982432,-0.042221535,0.0
2731149514,-0.0044498323,0.0026142034,0.0022706427,0.011678933,0.015992565,-0.042254686,0.0
2731181445,-0.024453776,0.0021864343,0.0015522239,0.011713718,0.01599439,-0.04227591,0.0
2731213627,-0.016634597,0.005621941,-0.00045748753,0.011746903,0.015984233,-0.04230521,0.0
2731245484,-0.018700048,0.0075884084,-0.0031996623,0.011788486,0.015970474,-0.042340834,0.0
2731277437,-0.026969017,0.005332441,-0.0070634605,0.011828582,0.015951572,-0.04235853,0.0
2731309448,-0.02277594,0.017105745,-0.0046747243,0.011866006,0.015924763,-0.04238267,0.0
2731341473,-0.004575774,0.013357223,-0.0051409015,0.011900822,0.0158918,-0.04240285,0.0
2731370291,-0.005928303,0.009791422,-0.0064322175,0.011941182,0.015864514,-0.042427078,0.0
2731402281,-0.010318294,-0.004558074,-0.0039653955,0.011969657,0.015838634,-0.042455602,0.0
2731434299,-0.017664585,0.00846963,-0.0027667005,0.0119869895,0.01580115,-0.042494718,0.0
2731466244,0.0052308254,0.0127377855,0.003270447,0.012002452,0.01575938,-0.042538457,0.0
2731498252,0.0049063405,0.0005370965,-0.0026665353,0.012019369,0.015725793,-0.042576503,0.0
2731530309,0.005945158,-0.020875761,0.0051186546,0.012025924,0.01570111,-0.042621657,0.0
2731562420,-0.0011498373,-0.010589079,-0.006461558,0.012029124,0.015682265,-0.042646952,0.0
2731595043,0.02669347,-0.0027723373,0.002847096,0.012013252,0.015667928,-0.042687487,0.0
2731627096,0.01873602,-0.026591143,0.0018882072,0.011994299,0.015668022,-0.042755928,0.0
2731659034,0.020555459,-0.029784486,0.00079022464,0.011961991,0.015668653,-0.04281695,0.0
2731691066,0.021070471,-0.011194283,-9.540678e-05,0.011919787,0.015657697,-0.0428793,0.0
2731723099,0.018605992,-0.008770995,-0.00050589675,0.011871182,0.015642485,-0.042949487,0.0
2731755071,0.014070697,-0.020533038,0.0022630065,0.011822419,0.01562846,-0.043026924,0.0
2731787146,0.015742,-0.019895878,0.0020621275,0.011777215,0.015613412,-0.043092657,0.0
2731819054,0.0074911322,-0.021703951,0.0043973196,0.011740108,0.015608535,-0.043165028,0.0
2731851077,-0.005479219,-0.025414336,0.0049196905,0.011709893,0.0156146,-0.043231297,0.0
2731883831,0.0011635227,-0.022457458,0.010227831,0.011682843,0.015628004,-0.043310445,0.0
2731915843,0.009500708,-0.018198388,0.009081563,0.011661322,0.015644949,-0.04339382,0.0
