timestamp,roll_body,pitch_body,yaw_body,yaw_sp_move_rate,q_d[0],q_d[1],q_d[2],q_d[3],thrust,landing_gear,q_d_valid,roll_reset_integral,pitch_reset_integral,yaw_reset_integral,fw_control_yaw,disable_mc_yaw_control,apply_flaps
2708901452,0.007893764,0.031968452,-0.06924962,0.0,0.999263,0.004497315,0.015837222,-0.034676246,0.50937665,-1.0,1,0,0,0,0,0,0
2709104534,0.00638339,0.030921556,-0.06924962,0.0,0.99927443,0.0037245909,0.01534034,-0.03466289,0.5506572,-1.0,1,0,0,0,0,0,0
2709209325,0.009091846,0.04694409,-0.06924962,0.0,0.9991113,0.0053544003,0.023298254,-0.03471463,0.57350636,-1.0,1,0,0,0,0,0,0
2709309667,-0.0011899517,0.03759562,-0.06924962,0.0,0.99922425,5.6188022e-05,0.018806027,-0.034600604,0.5953112,-1.0,1,0,0,0,0,0,0
2709409670,0.0056672874,0.028475067,-0.06924962,0.0,0.9992939,0.0033245096,0.014130377,-0.034654565,0.6156432,-1.0,1,0,0,0,0,0,0
2709513989,0.009788829,0.025067076,-0.06924962,0.0,0.99930805,0.005324946,0.012356128,-0.034676068,0.6386259,-1.0,1,0,0,0,0,0,0
2709614698,0.0043305573,0.029634891,-0.06924962,0.0,0.9992875,0.00267667,0.014733037,-0.03464607,0.6591401,-1.0,1,0,0,0,0,0,0
2709714967,0.004194974,0.026410628,-0.06924962,0.0,0.9993104,0.002553171,0.013124381,-0.034642477,0.6813075,-1.0,1,0,0,0,0,0,0
2709815429,0.009110662,0.036134154,-0.06924962,0.0,0.99922425,0.0051772455,0.017897408,-0.03469413,0.6964513,-1.0,1,0,0,0,0,0,0
2709919553,0.0021241887,0.01900436,-0.06924962,0.0,0.9993546,0.0013903497,0.009459569,-0.034626395,0.6959899,-1.0,1,0,0,0,0,0,0
2710019714,-0.006914477,-0.08772647,-0.06924962,0.0,0.9984281,-0.004969793,-0.04370306,-0.0347359,0.62538403,-1.0,1,0,0,0,0,0,0
2710119905,0.0029866542,-0.009577916,-0.06924962,0.0,0.99938834,0.0013266315,-0.004837759,-0.034610312,0.5482721,-1.0,1,0,0,0,0,0,0
2710224202,-0.0059109605,-0.10529964,-0.06924962,0.0,0.99800605,-0.0047713867,-0.052491553,-0.034725215,0.49838263,-1.0,1,0,0,0,0,0,0
2710325474,0.003622271,-0.09585974,-0.06924962,0.0,0.9982543,0.0001493768,-0.04794535,-0.034491364,0.48409772,-1.0,1,0,0,0,0,0,0
2710424354,-0.0004620149,-0.10807271,-0.06924962,0.0,0.99794143,-0.0021002463,-0.0539697,-0.034579832,0.48223358,-1.0,1,0,0,0,0,0,0
2710525931,0.010250733,-0.1126647,-0.06924962,0.0,0.9978122,0.0031650967,-0.056445226,-0.034274135,0.4813165,-1.0,1,0,0,0,0,0,0
2710935415,-0.018852081,-0.070069216,-0.06924962,0.0,0.99873155,-0.010626992,-0.034678787,-0.034925073,0.49048674,-1.0,1,0,0,0,0,0,0
2711039255,-0.025635676,-0.05356134,-0.06924962,0.0,0.9989483,-0.013732116,-0.026315665,-0.034945652,0.4925154,-1.0,1,0,0,0,0,0,0
2712867727,-0.018896911,-0.019475956,-0.06924962,0.0,0.9993054,-0.009779293,-0.009404488,-0.03470666,0.50666785,-1.0,1,0,0,0,0,0,0
2712968645,-0.011051622,-0.024493335,-0.06924962,0.0,0.99930805,-0.005945994,-0.012047559,-0.034682404,0.5041692,-1.0,1,0,0,0,0,0,0
2713072429,-0.014612083,-0.023597896,-0.06924962,0.0,0.9993014,-0.007709524,-0.011538388,-0.034700714,0.5048274,-1.0,1,0,0,0,0,0,0
2713173996,-0.012668886,-0.02428073,-0.06924962,0.0,0.9993043,-0.0067503923,-0.011913278,-0.03469151,0.50493735,-1.0,1,0,0,0,0,0,0
2713273346,-0.027391484,-0.020287972,-0.06924962,0.0,0.99925065,-0.014037526,-0.009662704,-0.03475171,0.5036048,-1.0,1,0,0,0,0,0,0
2713377691,-0.020533545,-0.027921434,-0.06924962,0.0,0.9992456,-0.0107426895,-0.013595789,-0.03475593,0.5066149,-1.0,1,0,0,0,0,0,0
2713478609,-0.026847184,-0.027035538,-0.06924962,0.0,0.99921304,-0.013881819,-0.013043398,-0.034792945,0.5035693,-1.0,1,0,0,0,0,0,0
2713578124,-0.01895726,-0.032410536,-0.06924962,0.0,0.9992192,-0.010032505,-0.015866036,-0.034765292,0.5053029,-1.0,1,0,0,0,0,0,0
2713681998,-0.031389657,-0.024281122,-0.06924962,0.0,0.9991973,-0.016103841,-0.011588233,-0.034801498,0.5051807,-1.0,1,0,0,0,0,0,0
2713783221,-0.016525762,-0.027515827,-0.06924962,0.0,0.999268,-0.008733291,-0.01346275,-0.034727044,0.5051067,-1.0,1,0,0,0,0,0,0
2713882913,-0.019591788,-0.02975011,-0.06924962,0.0,0.99923706,-0.010303683,-0.014525808,-0.034758024,0.5041861,-1.0,1,0,0,0,0,0,0
2713983725,-0.02551959,-0.030762944,-0.06924962,0.0,0.99919426,-0.013282702,-0.014928742,-0.03480711,0.50525594,-1.0,1,0,0,0,0,0,0
2714087878,-0.025834618,-0.031872448,-0.06924962,0.0,0.9991832,-0.013459179,-0.015477571,-0.03481632,0.5071275,-1.0,1,0,0,0,0,0,0
2714188590,-0.02096175,-0.030193824,-0.06924962,0.0,0.99922633,-0.010995783,-0.014723685,-0.034770172,0.50538504,-1.0,1,0,0,0,0,0,0
2714288604,-0.013805372,-0.035459045,-0.06924962,0.0,0.99921554,-0.007511122,-0.01747863,-0.034733932,0.5054657,-1.0,1,0,0,0,0,0,0
2714392584,-0.015008568,-0.02939789,-0.06924962,0.0,0.9992607,-0.008007719,-0.01442944,-0.034723416,0.5064647,-1.0,1,0,0,0,0,0,0
2714494260,-0.009031394,-0.030281063,-0.06924962,0.0,0.99927354,-0.005036565,-0.014974417,-0.034681898,0.5058635,-1.0,1,0,0,0,0,0,0
2714593441,-0.021196924,-0.028866358,-0.06924962,0.0,0.9992351,-0.011090409,-0.014056366,-0.034765214,0.50579166,-1.0,1,0,0,0,0,0,0
2714697367,-0.021819113,-0.034769334,-0.06924962,0.0,0.99918354,-0.0115029095,-0.01699474,-0.03480014,0.508782,-1.0,1,0,0,0,0,0,0
2714798724,-0.028162882,-0.035423048,-0.06924962,0.0,0.99913615,-0.014683371,-0.017210852,-0.034858264,0.50954825,-1.0,1,0,0,0,0,0,0
2714897992,-0.015430552,-0.031922728,-0.06924962,0.0,0.9992393,-0.008262102,-0.015683597,-0.03473552,0.5085158,-1.0,1,0,0,0,0,0,0
2715002251,-0.019737227,-0.03361789,-0.06924962,0.0,0.99920505,-0.010442978,-0.016455684,-0.034777086,0.5081921,-1.0,1,0,0,0,0,0,0
2715103635,-0.011802159,-0.033669844,-0.06924962,0.0,0.9992382,-0.006479424,-0.01661949,-0.034711666,0.5049209,-1.0,1,0,0,0,0,0,0
2715207623,0.0030165468,-0.03509319,-0.06924962,0.0,0.99924654,0.00089974236,-0.017587362,-0.034586076,0.50678307,-1.0,1,0,0,0,0,0,0
2715306763,0.001442641,-0.03326661,-0.06924962,0.0,0.9992625,0.00014500521,-0.01664753,-0.034601107,0.5064472,-1.0,1,0,0,0,0,0,0
2715413214,-0.003747529,-0.028389342,-0.06924962,0.0,0.99929726,-0.0023638234,-0.014120801,-0.034640934,0.5083987,-1.0,1,0,0,0,0,0,0
2715516040,0.005271592,-0.024924947,-0.06924962,0.0,0.99932075,0.0022025967,-0.012545874,-0.034582257,0.5074899,-1.0,1,0,0,0,0,0,0
2715616717,0.00019652433,-0.024274075,-0.06924962,0.0,0.99932706,-0.00032195228,-0.012132865,-0.034614157,0.50823796,-1.0,1,0,0,0,0,0,0
2715717422,0.002090818,-0.020260697,-0.06924962,0.0,0.9993492,0.00069404335,-0.010160285,-0.034605518,0.50842977,-1.0,1,0,0,0,0,0,0
2715817609,-0.0028958295,-0.017734893,-0.06924962,0.0,0.99935985,-0.0017539574,-0.008811883,-0.034629326,0.51127404,-1.0,1,0,0,0,0,0,0
2715921434,-0.0019699216,-0.014782269,-0.06924962,0.0,0.9993726,-0.0012402065,-0.0073525375,-0.034624208,0.51000947,-1.0,1,0,0,0,0,0,0
2716022201,-0.0015315238,-0.01194777,-0.06924962,0.0,0.9993823,-0.0009720912,-0.005943759,-0.03462184,0.5103427,-1.0,1,0,0,0,0,0,0
2716122188,0.0051464466,-0.009500212,-0.06924962,0.0,0.9993865,0.0024072116,-0.004836304,-0.034605175,0.51024383,-1.0,1,0,0,0,0,0,0
2716226161,-0.0051372256,-0.0066222157,-0.06924962,0.0,0.99939156,-0.0026816796,-0.0032201868,-0.03462609,0.5109034,-1.0,1,0,0,0,0,0,0
2716326666,0.00798027,-0.0057555344,-0.06924962,0.0,0.99938893,0.0038880948,-0.0030141445,-0.034606002,0.5086534,-1.0,1,0,0,0,0,0,0
2716426783,0.0025264316,-0.0018542073,-0.06924962,0.0,0.9993994,0.0012303633,-0.00097027683,-0.034616683,0.50814486,-1.0,1,0,0,0,0,0,0
2716530788,0.0034580715,-0.0023436726,-0.06924962,0.0,0.99939847,0.0016874309,-0.0012309875,-0.034615796,0.510833,-1.0,1,0,0,0,0,0,0
2716631545,-0.008604547,-0.002525007,-0.06924962,0.0,0.99939036,-0.0043433825,-0.0011127995,-0.034622975,0.51181805,-1.0,1,0,0,0,0,0,0
2716732327,-0.012662858,0.0006749137,-0.06924962,0.0,0.9993806,-0.00631591,0.00055642705,-0.03461506,0.51137316,-1.0,1,0,0,0,0,0,0
2716836217,-0.008474208,-0.00021226048,-0.06924962,0.0,0.9993916,-0.0042382265,4.0613504e-05,-0.034618035,0.5110959,-1.0,1,0,0,0,0,0,0
2716936531,-0.008304799,-0.0032586136,-0.06924962,0.0,0.9993905,-0.0042062956,-0.0014845686,-0.03462431,0.51363224,-1.0,1,0,0,0,0,0,0
2717036976,-0.0027450637,-0.0037312047,-0.06924962,0.0,0.9993978,-0.0014362896,-0.0018169675,-0.034620363,0.5112107,-1.0,1,0,0,0,0,0,0
2717140993,-0.007227353,-0.0049029514,-0.06924962,0.0,0.9993908,-0.003696356,-0.0023248908,-0.03462642,0.5135163,-1.0,1,0,0,0,0,0,0
2717241618,-0.0022763563,-0.007245292,-0.06924962,0.0,0.9993933,-0.0012628962,-0.0035810634,-0.034621764,0.5144655,-1.0,1,0,0,0,0,0,0
2717341832,-0.017800093,-0.005404933,-0.06924962,0.0,0.99935657,-0.008988111,-0.0023926408,-0.034640428,0.5149218,-1.0,1,0,0,0,0,0,0
2717442172,-0.0057980274,-0.005969307,-0.06924962,0.0,0.9993917,-0.0030005814,-0.0028824906,-0.03462624,0.51380557,-1.0,1,0,0,0,0,0,0
2717546453,0.0002309462,-0.009291021,-0.06924962,0.0,0.9993898,-4.541458e-05,-0.004646707,-0.034616984,0.5126072,-1.0,1,0,0,0,0,0,0
2717650144,-0.00970104,-0.013037363,-0.06924962,0.0,0.9993665,-0.0050731488,-0.0063467403,-0.034648348,0.5157357,-1.0,1,0,0,0,0,0,0
2717751801,-0.011635237,-0.010702605,-0.06924962,0.0,0.9993683,-0.0059992624,-0.0051465896,-0.03464793,0.5136845,-1.0,1,0,0,0,0,0,0
2717850801,-0.013177134,-0.011048883,-0.06924962,0.0,0.9993624,-0.00677571,-0.005292905,-0.034652993,0.5146633,-1.0,1,0,0,0,0,0,0
2717954791,-0.005650222,-0.011645467,-0.06924962,0.0,0.9993791,-0.003024935,-0.00572139,-0.03463361,0.51376724,-1.0,1,0,0,0,0,0,0
2718055626,-0.008070571,-0.012978312,-0.06924962,0.0,0.9993705,-0.0042574084,-0.006345479,-0.034643054,0.5119726,-1.0,1,0,0,0,0,0,0
2718156366,-0.00082564546,-0.012379881,-0.06924962,0.0,0.9993813,-0.0006268486,-0.006171899,-0.034619782,0.5122658,-1.0,1,0,0,0,0,0,0
2718256634,-0.0009991395,-0.012837566,-0.06924962,0.0,0.9993798,-0.00072146324,-0.006397597,-0.03462039,0.5105743,-1.0,1,0,0,0,0,0,0
2718360860,0.00048507281,-0.013474114,-0.06924962,0.0,0.99937797,9.164582e-06,-0.0067413636,-0.034615472,0.50841635,-1.0,1,0,0,0,0,0,0
2718460718,0.0050547305,-0.012234944,-0.06924962,0.0,0.9993793,0.002314028,-0.0062012374,-0.034601685,0.5086213,-1.0,1,0,0,0,0,0,0
2718561636,0.00044282328,-0.011963363,-0.06924962,0.0,0.9993828,1.4203025e-05,-0.0059857247,-0.034615956,0.50519884,-1.0,1,0,0,0,0,0,0
2718665320,-0.0031891803,-0.014726205,-0.06924962,0.0,0.9993719,-0.0018484829,-0.0073034125,-0.034628645,0.50732666,-1.0,1,0,0,0,0,0,0
2718765977,-0.0010573367,-0.0126470905,-0.06924962,0.0,0.99938035,-0.00074724725,-0.006301411,-0.03462054,0.50712556,-1.0,1,0,0,0,0,0,0
2718866030,-0.015679367,-0.0116052115,-0.06924962,0.0,0.9993515,-0.008035639,-0.0055275313,-0.03466171,0.5080848,-1.0,1,0,0,0,0,0,0
2718969992,-0.0002862014,-0.007525319,-0.06924962,0.0,0.9993935,-0.00027326893,-0.0037554414,-0.03461819,0.5085533,-1.0,1,0,0,0,0,0,0
2719071452,-0.012550752,-0.0061057787,-0.06924962,0.0,0.99937564,-0.006377226,-0.0028337569,-0.034636196,0.5084946,-1.0,1,0,0,0,0,0,0
2719170773,-0.008341729,-0.005386359,-0.06924962,0.0,0.999388,-0.0042615687,-0.0025471526,-0.034628693,0.50801474,-1.0,1,0,0,0,0,0,0
2719274795,-0.011993635,-0.004809389,-0.06924962,0.0,0.9993793,-0.0060764137,-0.0021956118,-0.03463158,0.5088476,-1.0,1,0,0,0,0,0,0
2719375780,-0.017894933,-0.0012568118,-0.06924962,0.0,0.99936026,-0.008963735,-0.0003182658,-0.034622125,0.5068976,-1.0,1,0,0,0,0,0,0
2719476003,-0.014455165,-0.004489297,-0.06924962,0.0,0.99937147,-0.007300872,-0.0019930417,-0.03463312,0.50925034,-1.0,1,0,0,0,0,0,0
2719576556,-0.013279427,-0.0009277324,-0.06924962,0.0,0.9993784,-0.0066517424,-0.00023372677,-0.034620207,0.507298,-1.0,1,0,0,0,0,0,0
2719680546,-0.012906219,-0.0042023417,-0.06924962,0.0,0.99937713,-0.0065219174,-0.0018764749,-0.03463065,0.5087687,-1.0,1,0,0,0,0,0,0
2719781378,-0.008136573,-0.0030509662,-0.06924962,0.0,0.999391,-0.0041186404,-0.0013837205,-0.034623772,0.5068624,-1.0,1,0,0,0,0,0,0
2719881201,-0.0007763699,-0.0045435005,-0.06924962,0.0,0.99939793,-0.0004665944,-0.0022569485,-0.03461868,0.5045504,-1.0,1,0,0,0,0,0,0
2719985330,-0.024469087,-0.0074623744,-0.06924962,0.0,0.9993173,-0.012355976,-0.0033051427,-0.034660682,0.50811666,-1.0,1,0,0,0,0,0,0
2720085780,-0.018766683,-0.008429071,-0.06924962,0.0,0.9993464,-0.009523388,-0.0038869882,-0.034655586,0.50842804,-1.0,1,0,0,0,0,0,0
2720186170,-0.019147197,-0.0037625288,-0.06924962,0.0,0.9993524,-0.009632819,-0.0015486375,-0.034634244,0.50894874,-1.0,1,0,0,0,0,0,0
2720289948,-0.01348227,-0.00032767712,-0.06924962,0.0,0.99937785,-0.006742715,6.962551e-05,-0.03461821,0.5036531,-1.0,1,0,0,0,0,0,0
2720391839,-0.01859285,-0.00020416209,-0.06924962,0.0,0.9993574,-0.009294252,0.00021980249,-0.034617346,0.5035821,-1.0,1,0,0,0,0,0,0
2720490689,-0.011547951,-0.0016754256,-0.06924962,0.0,0.99938345,-0.005799479,-0.00063731486,-0.034622137,0.5047144,-1.0,1,0,0,0,0,0,0
2720591601,-0.015595291,-0.00059070915,-0.06924962,0.0,0.9993701,-0.0078031165,-2.5233257e-05,-0.03461914,0.50394434,-1.0,1,0,0,0,0,0,0
2720696037,-0.009619378,0.002031856,-0.06924962,0.0,0.99938875,-0.004771617,0.0011818078,-0.034612596,0.5026036,-1.0,1,0,0,0,0,0,0
2720795779,-0.011596408,5.8937927e-05,-0.06924962,0.0,0.9993838,-0.0057936753,0.00023017127,-0.03461714,0.5032834,-1.0,1,0,0,0,0,0,0
2720896316,-0.008749737,0.0012534781,-0.06924962,0.0,0.99939096,-0.0043505356,0.0007778056,-0.034614813,0.5041042,-1.0,1,0,0,0,0,0,0
2720997135,-0.007019891,0.0032756126,-0.06924962,0.0,0.99939334,-0.0034511327,0.0017583204,-0.03461189,0.50282997,-1.0,1,0,0,0,0,0,0
2721096381,-0.0061163437,0.0015101028,-0.06924962,0.0,0.9993957,-0.0030301954,0.0008604626,-0.034615416,0.5036996,-1.0,1,0,0,0,0,0,0
2721197883,-0.014172353,0.00078448164,-0.06924962,0.0,0.9993756,-0.0070682913,0.0006373023,-0.034614243,0.5061518,-1.0,1,0,0,0,0,0,0
2721301514,-0.012346388,-0.0027792482,-0.06924962,0.0,0.99938035,-0.0062175537,-0.0011750627,-0.034625772,0.5055252,-1.0,1,0,0,0,0,0,0
2721401362,-0.012440065,0.00031873063,-0.06924962,0.0,0.99938136,-0.006210748,0.00037458976,-0.03461623,0.5057795,-1.0,1,0,0,0,0,0,0
2721502624,-0.012723541,-0.0011515783,-0.06924962,0.0,0.9993801,-0.006377845,-0.00035520273,-0.03462085,0.5066422,-1.0,1,0,0,0,0,0,0
2721606725,-0.0059183463,-0.0020786787,-0.06924962,0.0,0.9993956,-0.0029933732,-0.0009362716,-0.034620795,0.5049115,-1.0,1,0,0,0,0,0,0
2721707229,-0.0103047695,-0.00064466166,-0.06924962,0.0,0.99938726,-0.0051604314,-0.00014376943,-0.034619093,0.50423,-1.0,1,0,0,0,0,0,0
2721808421,-0.0072652856,-0.0028954064,-0.06924962,0.0,0.9993928,-0.0036805694,-0.0013210714,-0.034622885,0.5060918,-1.0,1,0,0,0,0,0,0
2721911393,-0.008383103,-0.0036678705,-0.06924962,0.0,0.99938995,-0.0042525064,-0.001687717,-0.034625214,0.50415826,-1.0,1,0,0,0,0,0,0
2722013062,-0.0061798003,-0.0023112332,-0.06924962,0.0,0.9993951,-0.0031280464,-0.0010479527,-0.034621276,0.5050373,-1.0,1,0,0,0,0,0,0
2722116038,-0.00691679,-0.001288237,-0.06924962,0.0,0.99939436,-0.0034786125,-0.0005240065,-0.03461991,0.5017045,-1.0,1,0,0,0,0,0,0
2722216004,-0.004589949,-0.0016567333,-0.06924962,0.0,0.9993976,-0.0023222722,-0.00074842083,-0.0346197,0.50317144,-1.0,1,0,0,0,0,0,0
2722317458,0.002879616,-0.0010096066,-0.06924962,0.0,0.9993995,0.0014214691,-0.0005543434,-0.03461713,0.50389946,-1.0,1,0,0,0,0,0,0
2722421043,-0.011058243,-0.0009264896,-0.06924962,0.0,0.9993852,-0.005541815,-0.00027155448,-0.034619924,0.50237393,-1.0,1,0,0,0,0,0,0
2722521169,-0.009408018,-0.00017981396,-0.06924962,0.0,0.9993895,-0.004704284,7.299018e-05,-0.034617938,0.50454676,-1.0,1,0,0,0,0,0,0
2722621648,-0.004323117,-0.00065181503,-0.06924962,0.0,0.9993982,-0.0021715434,-0.00025088288,-0.034618516,0.50286865,-1.0,1,0,0,0,0,0,0
2722725929,-0.0013306064,5.8612375e-05,-0.06924962,0.0,0.9994004,-0.00066388986,5.232001e-05,-0.03461787,0.50096893,-1.0,1,0,0,0,0,0,0
2722826181,0.0043332498,-0.0044091735,-0.06924962,0.0,0.999396,0.0020890015,-0.0022782623,-0.034612954,0.5035985,-1.0,1,0,0,0,0,0,0
2722926599,0.0029242605,-0.0027258715,-0.06924962,0.0,0.99939865,0.0014140701,-0.0014127328,-0.034615837,0.5035936,-1.0,1,0,0,0,0,0,0
2723030295,-0.0032558893,-0.006412685,-0.06924962,0.0,0.999394,-0.0017379563,-0.0031480552,-0.03462289,0.50392455,-1.0,1,0,0,0,0,0,0
2723130784,-0.0035969978,-0.005495297,-0.06924962,0.0,0.9993951,-0.0018925307,-0.0026837338,-0.03462265,0.5035025,-1.0,1,0,0,0,0,0,0
2723231294,-0.0007818663,-0.007897905,-0.06924962,0.0,0.9993927,-0.0005273999,-0.0039330423,-0.034619167,0.5032785,-1.0,1,0,0,0,0,0,0
2723332616,0.0021839447,-0.0056095836,-0.06924962,0.0,0.9993962,0.0009942176,-0.002840907,-0.034614675,0.50282836,-1.0,1,0,0,0,0,0,0
2723436282,0.0052711344,-0.008061307,-0.06924962,0.0,0.9993894,0.002494431,-0.004119449,-0.034606874,0.50368404,-1.0,1,0,0,0,0,0,0
2723535751,0.011143095,-0.009830014,-0.06924962,0.0,0.99937403,0.005397968,-0.005104837,-0.03458957,0.504438,-1.0,1,0,0,0,0,0,0
2723637469,0.0006291092,-0.012269261,-0.06924962,0.0,0.99938184,0.00010199351,-0.006141804,-0.034615308,0.50379926,-1.0,1,0,0,0,0,0,0
2723741015,0.0009465822,-0.013439419,-0.06924962,0.0,0.9993781,0.00024037634,-0.0067320145,-0.034613926,0.50459725,-1.0,1,0,0,0,0,0,0
2723841157,-0.004221097,-0.017524583,-0.06924962,0.0,0.99935937,-0.002412528,-0.008683847,-0.034634966,0.50490814,-1.0,1,0,0,0,0,0,0
2723941680,-0.00066582934,-0.017392479,-0.06924962,0.0,0.9993627,-0.0006337442,-0.008679392,-0.034619477,0.50426865,-1.0,1,0,0,0,0,0,0
2724045893,-0.0035047971,-0.022905946,-0.06924962,0.0,0.99933285,-0.002147701,-0.011385179,-0.03463563,0.5057547,-1.0,1,0,0,0,0,0,0
2724150591,0.007623185,-0.024250427,-0.06924962,0.0,0.99932146,0.0033892824,-0.0122495005,-0.034568913,0.5027376,-1.0,1,0,0,0,0,0,0
2724250306,0.0040846514,-0.026994752,-0.06924962,0.0,0.99930847,0.0015736788,-0.013559543,-0.034587115,0.5052848,-1.0,1,0,0,0,0,0,0
2724354018,0.00044716347,-0.029340768,-0.06924962,0.0,0.99929315,-0.00028441584,-0.014668804,-0.034610897,0.50540954,-1.0,1,0,0,0,0,0,0
2724455236,0.00069468445,-0.024928806,-0.06924962,0.0,0.9993231,-8.437312e-05,-0.012468632,-0.03461088,0.50458765,-1.0,1,0,0,0,0,0,0
2724554991,-0.0057490095,-0.027094131,-0.06924962,0.0,0.99930346,-0.0033414685,-0.0134389745,-0.034653492,0.5067438,-1.0,1,0,0,0,0,0,0
2724655612,0.0020799588,-0.023453964,-0.06924962,0.0,0.9993318,0.00063333043,-0.011755677,-0.034603305,0.50798434,-1.0,1,0,0,0,0,0,0
2724756984,0.0021272316,-0.022494536,-0.06924962,0.0,0.99933726,0.0006735625,-0.011277102,-0.03460373,0.50695497,-1.0,1,0,0,0,0,0,0
2724860357,0.007696077,-0.023099236,-0.06924962,0.0,0.99932814,0.0034456544,-0.011675554,-0.034570917,0.5064923,-1.0,1,0,0,0,0,0,0
2724960667,-0.0018438245,-0.023037273,-0.06924962,0.0,0.99933356,-0.0013200402,-0.011479559,-0.034626197,0.50889784,-1.0,1,0,0,0,0,0,0
2725064405,0.0054507405,-0.0196976,-0.06924962,0.0,0.99934936,0.0023826635,-0.009937043,-0.03458926,0.5088071,-1.0,1,0,0,0,0,0,0
2725164915,-0.006190015,-0.015488589,-0.06924962,0.0,0.99936503,-0.003361142,-0.0076323994,-0.034640644,0.5088056,-1.0,1,0,0,0,0,0,0
2725265348,-0.0046960297,-0.012515869,-0.06924962,0.0,0.9993778,-0.0025631937,-0.0061728437,-0.034631807,0.50813663,-1.0,1,0,0,0,0,0,0
2725365715,0.0015922193,-0.009122719,-0.06924962,0.0,0.99939,0.0006377201,-0.0045861676,-0.034613892,0.5046762,-1.0,1,0,0,0,0,0,0
2725470518,-0.004738218,-0.01376096,-0.06924962,0.0,0.9993736,-0.0026058161,-0.006794271,-0.03463327,0.5080924,-1.0,1,0,0,0,0,0,0
2725575135,-0.005000703,-0.008689502,-0.06924962,0.0,0.9993877,-0.002649232,-0.004255564,-0.034628313,0.50644535,-1.0,1,0,0,0,0,0,0
2725674206,-0.014192652,-0.0061385217,-0.06924962,0.0,0.99937,-0.0071982276,-0.0028216825,-0.03463863,0.50652665,-1.0,1,0,0,0,0,0,0
2725775403,-0.012182029,-0.0053241607,-0.06924962,0.0,0.99937797,-0.0061794575,-0.0024495763,-0.034633335,0.50344604,-1.0,1,0,0,0,0,0,0
2725879262,-0.011989326,-0.0069084885,-0.06924962,0.0,0.999376,-0.0061105746,-0.0032445847,-0.034637757,0.50530344,-1.0,1,0,0,0,0,0,0
2725979596,-0.014527457,-0.003260538,-0.06924962,0.0,0.99937254,-0.0073157353,-0.0013777956,-0.034628775,0.5045797,-1.0,1,0,0,0,0,0,0
2726080144,-0.01205919,-0.00485721,-0.06924962,0.0,0.99937904,-0.006109998,-0.0022183727,-0.034631796,0.504249,-1.0,1,0,0,0,0,0,0
2726184306,-0.015455731,-0.00056289026,-0.06924962,0.0,0.9993707,-0.0077329,-1.3748249e-05,-0.034619033,0.50502867,-1.0,1,0,0,0,0,0,0
2726285111,-0.018960865,-0.00038410927,-0.06924962,0.0,0.9993556,-0.009481257,0.0001362568,-0.034618154,0.5043718,-1.0,1,0,0,0,0,0,0
2726384568,-0.015283708,-0.0021301773,-0.06924962,0.0,0.99937063,-0.007674065,-0.0007998768,-0.034625,0.5066157,-1.0,1,0,0,0,0,0,0
2726488641,-0.02120654,-0.00049279176,-0.06924962,0.0,0.9993443,-0.010605247,0.000120821656,-0.034618556,0.505474,-1.0,1,0,0,0,0,0,0
2726590495,-0.016693875,-0.00044049334,-0.06924962,0.0,0.99936575,-0.008349462,6.884305e-05,-0.034618523,0.5055462,-1.0,1,0,0,0,0,0,0
2726693894,-0.004623471,0.005864624,-0.06924962,0.0,0.9993939,-0.0022088278,0.0030105696,-0.034610882,0.5019053,-1.0,1,0,0,0,0,0,0
2726793619,-0.0039562685,0.002727024,-0.06924962,0.0,0.9993978,-0.0019297436,0.0014311704,-0.0346151,0.50229853,-1.0,1,0,0,0,0,0,0
2726898143,0.004206177,0.0005172383,-0.06924962,0.0,0.99939835,0.0021107788,0.00018565913,-0.03461836,0.5039455,-1.0,1,0,0,0,0,0,0
2726998726,-0.008010745,0.0042587463,-0.06924962,0.0,0.99939066,-0.0039292383,0.002266735,-0.034609012,0.5035303,-1.0,1,0,0,0,0,0,0
2727098782,0.0019107024,0.0055748587,-0.06924962,0.0,0.9993962,0.0010512692,0.0027526813,-0.034620408,0.5032244,-1.0,1,0,0,0,0,0,0
2727202919,0.00083487306,0.008478913,-0.06924962,0.0,0.9993915,0.0005639432,0.004222452,-0.034619346,0.50116205,-1.0,1,0,0,0,0,0,0
2727303121,0.008461969,0.005738445,-0.06924962,0.0,0.99938715,0.0043277442,0.0027210063,-0.034629576,0.4999293,-1.0,1,0,0,0,0,0,0
2727405037,0.005591565,0.0038861437,-0.06924962,0.0,0.99939466,0.0028613622,0.0018451144,-0.034623124,0.5015641,-1.0,1,0,0,0,0,0,0
2727508543,0.0024788734,0.0021328402,-0.06924962,0.0,0.99939924,0.0012756098,0.0010228733,-0.03461917,0.50153637,-1.0,1,0,0,0,0,0,0
2727612685,0.016155055,-0.0004194077,-0.06924962,0.0,0.999368,0.008065339,-0.00048919534,-0.034615073,0.50072783,-1.0,1,0,0,0,0,0,0
2727716597,0.012420945,-0.0031647976,-0.06924962,0.0,0.99938047,0.006151924,-0.0017964109,-0.034607362,0.5020275,-1.0,1,0,0,0,0,0,0
2727816835,0.013082013,-0.0064962646,-0.06924962,0.0,0.99937475,0.006424563,-0.003472543,-0.034595735,0.5017285,-1.0,1,0,0,0,0,0,0
2727917486,0.0010191177,-0.0048471466,-0.06924962,0.0,0.99939764,0.00042535295,-0.0024397576,-0.03461656,0.50104296,-1.0,1,0,0,0,0,0,0
2728019071,0.013689614,-0.007818435,-0.06924962,0.0,0.9993705,0.0067052734,-0.0041437224,-0.034590077,0.5018227,-1.0,1,0,0,0,0,0,0
2728122042,0.012656098,-0.0021592677,-0.06924962,0.0,0.9993803,0.006286836,-0.001298027,-0.034610353,0.4989773,-1.0,1,0,0,0,0,0,0
2728221950,0.019816685,-0.005687091,-0.06924962,0.0,0.99934846,0.009803768,-0.0031846967,-0.034587894,0.5000311,-1.0,1,0,0,0,0,0,0
2728326203,0.0046831104,-0.003902931,-0.06924962,0.0,0.99939615,0.0022725898,-0.0020313486,-0.034613166,0.5028234,-1.0,1,0,0,0,0,0,0
2728427292,0.0198219,0.0020404144,-0.06924962,0.0,0.9993506,0.0099401595,0.00067645515,-0.03462628,0.5002247,-1.0,1,0,0,0,0,0,0
2728527113,0.016067084,0.0005537737,-0.06924962,0.0,0.99936825,0.008038225,-1.3892904e-06,-0.034619,0.5012277,-1.0,1,0,0,0,0,0,0
2728631097,0.014069861,-0.0010918834,-0.06924962,0.0,0.99937594,0.007011755,-0.00078913325,-0.034613196,0.50057316,-1.0,1,0,0,0,0,0,0
2728732364,0.01592268,0.0029917809,-0.06924962,0.0,0.9993675,0.0080082575,0.0012193442,-0.034628663,0.5024758,-1.0,1,0,0,0,0,0,0
2728836059,0.006585409,0.0026255664,-0.06924962,0.0,0.9993942,0.0033361677,0.0011980026,-0.034621995,0.50116724,-1.0,1,0,0,0,0,0,0
2728935622,0.019195957,0.0015511737,-0.06924962,0.0,0.999354,0.009618926,0.00044282965,-0.03462373,0.50098306,-1.0,1,0,0,0,0,0,0
2729040526,-0.007085914,0.0047143386,-0.06924962,0.0,0.99939185,-0.0034592166,0.0024783884,-0.034609236,0.5018561,-1.0,1,0,0,0,0,0,0
2729141032,0.007813604,0.004288324,-0.06924962,0.0,0.9993904,0.0039786673,0.0020076146,-0.034625925,0.5021793,-1.0,1,0,0,0,0,0,0
2729241628,-0.00126307,0.0044935397,-0.06924962,0.0,0.99939793,-0.0005533765,0.0022672832,-0.034616392,0.5025362,-1.0,1,0,0,0,0,0,0
2729341815,0.01136282,0.006790145,-0.06924962,0.0,0.999378,0.005795469,0.0031963002,-0.03463641,0.50094324,-1.0,1,0,0,0,0,0,0
2729445845,0.0033971907,-0.00045010456,-0.06924962,0.0,0.9993991,0.0016897855,-0.0002837188,-0.034617465,0.50319546,-1.0,1,0,0,0,0,0,0
2729546045,0.0014626054,-0.0009737975,-0.06924962,0.0,0.99940026,0.00071400875,-0.0005119229,-0.034617525,0.50689083,-1.0,1,0,0,0,0,0,0
2729646823,0.006073103,0.0033436234,-0.06924962,0.0,0.9993944,0.003092597,0.0015656825,-0.034622762,0.503954,-1.0,1,0,0,0,0,0,0
2729747276,-0.006082857,0.0060106604,-0.06924962,0.0,0.99939185,-0.0029355497,0.0031087978,-0.03460845,0.5020423,-1.0,1,0,0,0,0,0,0
2729847333,0.008777932,0.00090335746,-0.06924962,0.0,0.9993908,0.0044019567,0.0002994674,-0.034619536,0.50225085,-1.0,1,0,0,0,0,0,0
2729946791,0.007928703,0.0011770584,-0.06924962,0.0,0.9993925,0.003982338,0.00045093472,-0.034619946,0.502553,-1.0,1,0,0,0,0,0,0
2730052365,0.017471487,0.0030236598,-0.06924962,0.0,0.9993609,0.008782721,0.0012084565,-0.034629732,0.5028421,-1.0,1,0,0,0,0,0,0
2730156224,0.0048019104,-0.000511471,-0.06924962,0.0,0.99939775,0.0023906608,-0.00033869743,-0.034617186,0.50459194,-1.0,1,0,0,0,0,0,0
2730255608,0.010867151,-0.0030246887,-0.06924962,0.0,0.999385,0.0053779315,-0.0016995127,-0.034609128,0.5069173,-1.0,1,0,0,0,0,0,0
2730357904,0.015117486,0.00030444335,-0.06924962,0.0,0.999372,0.0075594103,-0.00010953919,-0.03461805,0.50647175,-1.0,1,0,0,0,0,0,0
2730461093,0.015439837,-0.0011487744,-0.06924962,0.0,0.9993709,0.00769533,-0.0008412704,-0.034612425,0.5043387,-1.0,1,0,0,0,0,0,0
2730561226,0.016263217,-0.0031300085,-0.06924962,0.0,0.9993668,0.008072458,-0.0018455095,-0.03460399,0.50329316,-1.0,1,0,0,0,0,0,0
2730661621,0.0135967275,-0.0029719907,-0.06924962,0.0,0.9993768,0.0067427885,-0.0017204129,-0.03460696,0.50365126,-1.0,1,0,0,0,0,0,0
2730766195,0.0007303145,-0.00591012,-0.06924962,0.0,0.99939626,0.000262639,-0.002965925,-0.03461666,0.5040438,-1.0,1,0,0,0,0,0,0
2730866635,0.008079666,-0.007906929,-0.06924962,0.0,0.99938524,0.0039005096,-0.0040909015,-0.03460138,0.50140893,-1.0,1,0,0,0,0,0,0
2730966127,0.00438162,-0.007331843,-0.06924962,0.0,0.9993918,0.0020625743,-0.0037395477,-0.034609556,0.5038198,-1.0,1,0,0,0,0,0,0
2731070167,0.0034560892,-0.012665296,-0.06924962,0.0,0.99937946,0.001507752,-0.00638862,-0.03460622,0.50195664,-1.0,1,0,0,0,0,0,0
2731171256,0.008186995,-0.013430023,-0.06924962,0.0,0.9993707,0.0038584834,-0.006852584,-0.03458935,0.50239307,-1.0,1,0,0,0,0,0,0
2731270949,0.00044388033,-0.010805019,-0.06924962,0.0,0.9993861,3.4781337e-05,-0.0054069273,-0.034616187,0.5011137,-1.0,1,0,0,0,0,0,0
2731372518,0.0016412532,-0.0112596005,-0.06924962,0.0,0.99938464,0.00062523095,-0.005654802,-0.03461271,0.50031716,-1.0,1,0,0,0,0,0,0
2731475886,-0.010459509,-0.017425103,-0.06924962,0.0,0.9993474,-0.0055279997,-0.008526064,-0.034661643,0.5028516,-1.0,1,0,0,0,0,0,0
2731575594,0.0031830145,-0.01891397,-0.06924962,0.0,0.9993552,0.0012631057,-0.009506255,-0.03460126,0.50231314,-1.0,1,0,0,0,0,0,0
2731677101,-0.0075507862,-0.017104447,-0.06924962,0.0,0.99935585,-0.0040690377,-0.00841624,-0.034648653,0.5038282,-1.0,1,0,0,0,0,0,0
2731780904,0.00073140126,-0.013896636,-0.06924962,0.0,0.99937654,0.00012493845,-0.006956756,-0.034614515,0.5000456,-1.0,1,0,0,0,0,0,0
2731881386,-0.0051145134,-0.018810729,-0.06924962,0.0,0.9993523,-0.002881196,-0.009311035,-0.034640286,0.50021476,-1.0,1,0,0,0,0,0,0
2731982483,-0.0046996675,-0.019180134,-0.06924962,0.0,0.99935114,-0.002680297,-0.009502803,-0.034638733,0.5021358,-1.0,1,0,0,0,0,0,0
2732085934,-0.009271714,-0.01270024,-0.06924962,0.0,0.9993687,-0.004852792,-0.006185723,-0.034646247,0.50142974,-1.0,1,0,0,0,0,0,0
2732186148,-0.012769236,-0.013812132,-0.06924962,0.0,0.9993549,-0.006619663,-0.0066807154,-0.03466043,0.5000841,-1.0,1,0,0,0,0,0,0
2732286969,-0.010991557,-0.017515851,-0.06924962,0.0,0.99934554,-0.0057954188,-0.008562188,-0.034664147,0.50314194,-1.0,1,0,0,0,0,0,0
2732386936,-0.015834462,-0.016033994,-0.06924962,0.0,0.999335,-0.008189669,-0.0077377893,-0.034679126,0.50299764,-1.0,1,0,0,0,0,0,0
2732490717,-0.006800774,-0.011458445,-0.06924962,0.0,0.9993778,-0.003596618,-0.0056080124,-0.034636598,0.500144,-1.0,1,0,0,0,0,0,0
2732591608,-0.012779562,-0.013142882,-0.06924962,0.0,0.9993572,-0.0066132527,-0.006346126,-0.034658402,0.49956602,-1.0,1,0,0,0,0,0,0
2732691560,-0.012327253,-0.015965017,-0.06924962,0.0,0.9993481,-0.0064360267,-0.0077641234,-0.034665305,0.5019988,-1.0,1,0,0,0,0,0,0
2732795737,-0.012917344,-0.011320996,-0.06924962,0.0,0.9993625,-0.006650602,-0.005433376,-0.034653157,0.5017193,-1.0,1,0,0,0,0,0,0
2732896069,-0.006802666,-0.01083802,-0.06924962,0.0,0.9993795,-0.00358683,-0.0052979584,-0.034635607,0.50006753,-1.0,1,0,0,0,0,0,0
2732996419,-0.01741517,-0.011790452,-0.06924962,0.0,0.9993436,-0.008906175,-0.005590006,-0.03466728,0.5021401,-1.0,1,0,0,0,0,0,0
2733100370,-0.0134147145,-0.015910367,-0.06924962,0.0,0.9993447,-0.0069784573,-0.007717967,-0.034669347,0.50655013,-1.0,1,0,0,0,0,0,0
2733201871,-0.014468188,-0.014066553,-0.06924962,0.0,0.999348,-0.007472985,-0.006778398,-0.03466698,0.50410634,-1.0,1,0,0,0,0,0,0
2733301174,-0.011188305,-0.010982167,-0.06924962,0.0,0.99936885,-0.005780771,-0.005294025,-0.034647524,0.5026022,-1.0,1,0,0,0,0,0,0
2733402231,-0.022145256,-0.008400013,-0.06924962,0.0,0.999329,-0.011211054,-0.0038139196,-0.034661945,0.50397027,-1.0,1,0,0,0,0,0,0
2733506114,-0.011037964,-0.013579885,-0.06924962,0.0,0.9993611,-0.0057505667,-0.0065946663,-0.03465402,0.5028407,-1.0,1,0,0,0,0,0,0
2733607746,-0.0049621714,-0.009108595,-0.06924962,0.0,0.9993868,-0.0026372294,-0.0044656484,-0.03462872,0.5005094,-1.0,1,0,0,0,0,0,0
2733705957,-0.01283024,-0.0067955237,-0.06924962,0.0,0.99937356,-0.006528814,-0.0031735734,-0.034638766,0.50348705,-1.0,1,0,0,0,0,0,0
2733811080,-0.0023424989,-0.0073717674,-0.06924962,0.0,0.999393,-0.0012981363,-0.0036431178,-0.03462195,0.50021964,-1.0,1,0,0,0,0,0,0
2733914765,-0.0017108839,-0.007630966,-0.06924962,0.0,0.99939287,-0.0009870065,-0.003783572,-0.03462089,0.50267136,-1.0,1,0,0,0,0,0,0
2734016710,-0.009408786,-0.0059376294,-0.06924962,0.0,0.9993847,-0.004804308,-0.0028041431,-0.034631316,0.5016558,-1.0,1,0,0,0,0,0,0
2734115618,-0.0016403254,-0.008914962,-0.06924962,0.0,0.99939024,-0.00097397104,-0.004426401,-0.03462119,0.50123966,-1.0,1,0,0,0,0,0,0
2734217735,-0.0052338797,-0.005588926,-0.06924962,0.0,0.99939305,-0.0027120963,-0.0027021824,-0.03462495,0.50104326,-1.0,1,0,0,0,0,0,0
2734320540,-0.0073901895,-0.010928531,-0.06924962,0.0,0.9993782,-0.0038819753,-0.0053330115,-0.03463732,0.50270563,-1.0,1,0,0,0,0,0,0
2734420693,-0.008392949,-0.012526465,-0.06924962,0.0,0.99937135,-0.0044106813,-0.0061141117,-0.034643177,0.50494623,-1.0,1,0,0,0,0,0,0
2734525939,-0.015169657,-0.011325594,-0.06924962,0.0,0.9993544,-0.007776115,-0.0053966455,-0.034659266,0.49221,-1.0,1,0,0,0,0,0,0
2734629501,-0.0034746644,-0.01147453,-0.06924962,0.0,0.9993823,-0.0019348719,-0.005673644,-0.034627236,0.46831048,-1.0,1,0,0,0,0,0,0
2734729326,-0.022664249,-0.012423883,-0.06924962,0.0,0.9993147,-0.011539899,-0.0058155013,-0.03468535,0.4586121,-1.0,1,0,0,0,0,0,0
2734829901,-0.021489562,-0.015097347,-0.06924962,0.0,0.9993116,-0.010999129,-0.0071716974,-0.034695964,0.45683584,-1.0,1,0,0,0,0,0,0
2734934949,-0.0030025262,0.43632266,-0.06924962,0.0,0.9757221,0.006027711,0.21635565,-0.033472575,0.43542638,1.0,1,0,0,0,0,0,0
2735039071,-0.006648134,0.4362849,-0.06924962,0.0,0.9757355,0.004248502,0.2163979,-0.03307835,0.470486,1.0,1,0,0,0,0,0,0
2735139480,0.37591043,-0.054445412,0.7483171,0.0,0.91222465,0.18363208,0.043376606,0.36365366,0.49094266,1.0,1,0,0,0,0,0,0
2735239354,0.35186616,-0.09398395,0.74823314,0.0,0.91244584,0.17964251,0.020842504,0.3670651,0.48385304,1.0,1,0,0,0,0,0,0
2735343346,0.32409218,-0.108198464,0.7475637,0.0,0.9142273,0.16946365,0.009144711,0.36794963,0.47702935,1.0,1,0,0,0,0,0,0
2735447905,0.27084476,-0.12187912,0.7469138,0.0,0.91783494,0.14748533,-0.00702015,0.36848044,0.48091355,1.0,1,0,0,0,0,0,0
2735548549,0.21899088,-0.12985694,0.74595314,0.0,0.9211359,0.12505023,-0.020324772,0.36804625,0.4792325,1.0,1,0,0,0,0,0,0
2735648809,0.1564402,-0.11173962,0.74466676,0.0,0.92559654,0.092924885,-0.023473237,0.3661761,0.47813916,1.0,1,0,0,0,0,0,0
2735752643,0.10280903,-0.1022244,0.7439378,0.0,0.92821383,0.066349685,-0.028882844,0.36494187,0.4814701,1.0,1,0,0,0,0,0,0
2735853988,0.051230896,-0.09525807,0.7439378,0.0,0.92980856,0.041132607,-0.03504216,0.36405513,0.48443887,1.0,1,0,0,0,0,0,0
2735953640,0.006639038,-0.08400709,0.7394713,0.0,0.93154496,0.01826669,-0.037954826,0.36117825,0.48707357,1.0,1,0,0,0,0,0,0
2736057457,-0.028583119,-0.07958824,0.73725915,0.0,0.9321932,0.0010135894,-0.04225278,0.35948503,0.48576796,1.0,1,0,0,0,0,0,0
2736158316,-0.057036467,-0.076229066,0.7349474,0.0,0.9325713,-0.012907255,-0.045783456,0.3578381,0.48152173,1.0,1,0,0,0,0,0,0
2736258645,-0.08511904,-0.12141568,0.7324801,0.0,0.9320409,-0.01794491,-0.07180383,0.35471386,0.48277637,1.0,1,0,0,0,0,0,0
2736363311,-0.097288825,-0.16711219,0.7314424,0.0,0.9309585,-0.015439525,-0.09517607,0.35216385,0.47773552,1.0,1,0,0,0,0,0,0
2736470940,-0.12503102,-0.2166418,0.7269693,0.0,0.9297717,-0.019689336,-0.12293003,0.34644634,0.48098847,1.0,1,0,0,0,0,0,0
2736571891,-0.10991488,-0.2502818,0.7248655,0.0,0.9287553,-0.006773552,-0.13585308,0.34483564,0.4820032,1.0,1,0,0,0,0,0,0
2736671053,-0.103267886,-0.2863804,0.72382987,0.0,0.9270233,0.0026846533,-0.15136608,0.3430873,0.48473024,1.0,1,0,0,0,0,0,0
2736772940,-0.11019935,-0.3094114,0.721184,0.0,0.9261041,0.0033699526,-0.16315956,0.34014508,0.49073434,1.0,1,0,0,0,0,0,0
2736880024,-0.11075484,-0.3097672,0.71962816,0.0,0.92634714,0.0030489445,-0.16342011,0.33936042,0.49651688,1.0,1,0,0,0,0,0,0
2736981094,-0.09978544,-0.2724348,0.71962816,0.0,0.92852294,0.0015085468,-0.14433956,0.34206578,0.49037126,1.0,1,0,0,0,0,0,0
2737080628,-0.111667916,-0.2403619,0.7170568,0.0,0.9305588,-0.009875535,-0.13153401,0.3415576,0.4959634,1.0,1,0,0,0,0,0,0
2737184538,-0.080108784,-0.20597182,0.71608293,0.0,0.9323181,-0.001307818,-0.11016598,0.34444863,0.49484023,1.0,1,0,0,0,0,0,0
2737289627,-0.07261083,-0.17553511,0.7155789,0.0,0.9335672,-0.0031910532,-0.09471253,0.34564656,0.49614403,1.0,1,0,0,0,0,0,0
2737389935,-0.06758625,-0.15530774,0.71526474,0.0,0.9342897,-0.004413084,-0.084417626,0.34634802,0.49923337,1.0,1,0,0,0,0,0,0
2737489356,-0.07587066,-0.13905163,0.71430326,0.0,0.9348816,-0.011177444,-0.07826644,0.34604302,0.49933225,1.0,1,0,0,0,0,0,0
2737594524,-0.06350144,-0.13058718,0.7139177,0.0,0.9352198,-0.0068932916,-0.07217249,0.34656534,0.5052798,1.0,1,0,0,0,0,0,0
2737698561,-0.042081237,-0.12466351,0.7135569,0.0,0.9354579,0.0020750265,-0.06568957,0.34727392,0.4989543,1.0,1,0,0,0,0,0,0
2737799290,-0.05463606,-0.11917972,0.71343106,0.0,0.9356046,-0.0047611007,-0.065306045,0.34692425,0.49700272,1.0,1,0,0,0,0,0,0
2737899069,-0.01629259,-0.12088868,0.7134142,0.0,0.9354813,0.013473567,-0.059442498,0.34808016,0.49451256,1.0,1,0,0,0,0,0,0
2738003472,-0.027189963,-0.113458626,0.71342546,0.0,0.9357251,0.007078896,-0.057864297,0.34787956,0.4922804,1.0,1,0,0,0,0,0,0
2738108565,-0.028132962,-0.11838118,0.71359456,0.0,0.9355774,0.007502618,-0.060329217,0.34784916,0.49237278,1.0,1,0,0,0,0,0,0
2738207858,-0.0025914037,-0.11870419,0.7136681,0.0,0.93538356,0.019508116,-0.056032464,0.3486221,0.48940763,1.0,1,0,0,0,0,0,0
2738309067,-0.028771555,-0.113073125,0.7138531,0.0,0.9356652,0.006283977,-0.057957787,0.3480402,0.49084783,1.0,1,0,0,0,0,0,0
2738416993,-0.023784062,-0.12314527,0.71402663,0.0,0.9353589,0.010382334,-0.061797656,0.34810495,0.49494064,1.0,1,0,0,0,0,0,0
2738517028,-0.0023740928,-0.1196363,0.71423006,0.0,0.9352577,0.019788142,-0.05642493,0.34888074,0.4889409,1.0,1,0,0,0,0,0,0
2738618170,-0.008087317,-0.11941253,0.7144292,0.0,0.93528175,0.017083036,-0.05731499,0.34881407,0.48607984,1.0,1,0,0,0,0,0,0
2738721630,0.004809779,-0.12460933,0.7146673,0.0,0.93495995,0.024027219,-0.057491582,0.34923822,0.49025366,1.0,1,0,0,0,0,0,0
2738821801,-0.008340915,-0.11779221,0.7146673,0.0,0.93528616,0.016688213,-0.056599624,0.34893808,0.48890266,1.0,1,0,0,0,0,0,0
2738922630,0.0059853676,-0.11664219,0.71525806,0.0,0.9350715,0.023202451,-0.053554054,0.349621,0.48968473,1.0,1,0,0,0,0,0,0
2739024263,0.012385595,-0.11804473,0.7154786,0.0,0.93491393,0.026445333,-0.053087883,0.34988335,0.48947713,1.0,1,0,0,0,0,0,0
2739127873,0.022530463,-0.11804481,0.7157317,0.0,0.93472344,0.031193765,-0.051308546,0.35026637,0.4932573,1.0,1,0,0,0,0,0,0
2739235235,0.0031599086,-0.113377966,0.7159635,0.0,0.93506885,0.021329703,-0.052514035,0.34990525,0.49032027,1.0,1,0,0,0,0,0,0
2739336234,-0.0026791207,-0.11610637,0.7160909,0.0,0.9350322,0.019080468,-0.054809723,0.34978083,0.49508435,1.0,1,0,0,0,0,0,0
2739435850,0.015483667,-0.11509155,0.7160909,0.0,0.93484914,0.027393652,-0.051156506,0.35027078,0.48964044,1.0,1,0,0,0,0,0,0
2739539884,0.013204355,-0.119140185,0.7166348,0.0,0.9346689,0.027050206,-0.053441226,0.3504374,0.49196765,1.0,1,0,0,0,0,0,0
2739640908,0.014329379,-0.117063046,0.7168433,0.0,0.934677,0.02721825,-0.05227022,0.35057944,0.49476048,1.0,1,0,0,0,0,0,0
2739744600,0.02562624,-0.116000205,0.71718395,0.0,0.9344799,0.03232001,-0.04978677,0.35103267,0.4878616,1.0,1,0,0,0,0,0,0
2739848688,0.031140663,-0.11233026,0.7173856,0.0,0.9344599,0.034259852,-0.047099434,0.35127288,0.49111068,1.0,1,0,0,0,0,0,0
2739949793,0.02118506,-0.11593701,0.71748835,0.0,0.9344978,0.030241475,-0.050532,0.35106385,0.49005187,1.0,1,0,0,0,0,0,0
2740049457,0.007167554,-0.11088626,0.71748835,0.0,0.934824,0.022806374,-0.050630286,0.35074282,0.49370518,1.0,1,0,0,0,0,0,0
2740149861,0.016147194,-0.11244139,0.7178545,0.0,0.93460506,0.027284674,-0.04977704,0.35112837,0.49045607,1.0,1,0,0,0,0,0,0
2740250721,0.030050019,-0.11257116,0.71795774,0.0,0.93437093,0.033805933,-0.047393944,0.35151377,0.4943271,1.0,1,0,0,0,0,0,0
2740350647,0.04266109,-0.10638616,0.71795774,0.0,0.9343207,0.038615737,-0.04228489,0.35180336,0.49076107,1.0,1,0,0,0,0,0,0
2740450986,0.036209565,-0.10883601,0.7181455,0.0,0.934338,0.036034353,-0.04456153,0.35175046,0.49448517,1.0,1,0,0,0,0,0,0
2740554996,0.020574367,-0.096765935,0.7181861,0.0,0.934896,0.02661505,-0.041665953,0.35146123,0.49101162,1.0,1,0,0,0,0,0,0
2740655798,0.032454375,-0.094713256,0.7181899,0.0,0.9347726,0.031808436,-0.03861757,0.35170597,0.49334687,1.0,1,0,0,0,0,0,0
2740755891,0.019682,-0.09437156,0.7181546,0.0,0.93497103,0.025777576,-0.04070348,0.35143694,0.49959403,1.0,1,0,0,0,0,0,0
2740860112,0.0038734507,-0.09009269,0.71808326,0.0,0.93525183,0.01763426,-0.041479748,0.35110167,0.5003005,1.0,1,0,0,0,0,0,0
2740960651,0.006701164,-0.08363131,0.71808326,0.0,0.93536115,0.017822878,-0.03796132,0.35119918,0.49834085,1.0,1,0,0,0,0,0,0
2741064891,-0.0015306154,-0.08187552,0.71782124,0.0,0.93550634,0.013659607,-0.03858708,0.35093075,0.4909567,1.0,1,0,0,0,0,0,0
2741165186,-0.010710984,-0.07823344,0.717642,0.0,0.9356554,0.008722391,-0.038494814,0.35070086,0.49345833,1.0,1,0,0,0,0,0,0
2741269943,0.0033455878,-0.088054806,0.71753776,0.0,0.9353953,0.017018732,-0.040624008,0.35085002,0.4927534,1.0,1,0,0,0,0,0,0
2741369828,-0.003281941,-0.08373495,0.71753776,0.0,0.93553215,0.013161125,-0.039765935,0.3507493,0.4945862,1.0,1,0,0,0,0,0,0
2741469714,0.0017521146,-0.086919725,0.71691334,0.0,0.93554145,0.016061794,-0.040377647,0.35053366,0.49229345,1.0,1,0,0,0,0,0,0
2741575306,-0.009442026,-0.089368746,0.71666783,0.0,0.93561125,0.01124935,-0.04348581,0.35016295,0.49469757,1.0,1,0,0,0,0,0,0
2741682514,-0.0025449283,-0.090658784,0.7163717,0.0,0.9355918,0.014695451,-0.042883594,0.35016146,0.49392202,1.0,1,0,0,0,0,0,0
2741786278,0.0012899203,-0.08932539,0.716157,0.0,0.93562776,0.016251411,-0.041590102,0.35015264,0.49384373,1.0,1,0,0,0,0,0,0
2741887711,-0.009000412,-0.09331475,0.7160634,0.0,0.93563324,0.012133873,-0.04525775,0.34984994,0.49778154,1.0,1,0,0,0,0,0,0
2741986997,-0.010497393,-0.0918879,0.71578133,0.0,0.935721,0.011177334,-0.044853773,0.3496991,0.49764392,1.0,1,0,0,0,0,0,0
2742092119,-0.0021669816,-0.0914635,0.7156126,0.0,0.9357049,0.014996786,-0.043199543,0.34980756,0.49658462,1.0,1,0,0,0,0,0,0
2742196196,0.0068855155,-0.09252974,0.7156126,0.0,0.9356038,0.019418282,-0.042114645,0.34999263,0.49664572,1.0,1,0,0,0,0,0,0
2742295995,0.009117262,-0.093245625,0.7155514,0.0,0.93557614,0.020586152,-0.042059638,0.3500065,0.48772103,1.0,1,0,0,0,0,0,0
2742398496,0.026802124,-0.090993345,0.7153013,0.0,0.9354552,0.028459998,-0.03791282,0.35025173,0.4922277,1.0,1,0,0,0,0,0,0
2742504634,0.008449246,-0.088405915,0.7152758,0.0,0.9357376,0.019422064,-0.039914787,0.3498924,0.4897234,1.0,1,0,0,0,0,0,0
2742605945,0.033891845,-0.09222351,0.71531767,0.0,0.9353155,0.0319908,-0.037246376,0.3503915,0.48668185,1.0,1,0,0,0,0,0,0
2742705415,0.040916212,-0.095180325,0.7153717,0.0,0.9351125,0.03579217,-0.03739808,0.3505495,0.4917257,1.0,1,0,0,0,0,0,0
2742806645,0.035891756,-0.090388425,0.7153717,0.0,0.9353185,0.032606907,-0.03603639,0.35045308,0.49066967,1.0,1,0,0,0,0,0,0
2742910543,0.013958314,-0.093085915,0.7155067,0.0,0.9355351,0.022821844,-0.0411381,0.3500871,0.48998615,1.0,1,0,0,0,0,0,0
2743010256,0.01975555,-0.09249386,0.71556133,0.0,0.9354692,0.025431177,-0.03984545,0.35023254,0.4795706,1.0,1,0,0,0,0,0,0
2743114314,-0.0017502861,-0.08846097,0.7155456,0.0,0.93577623,0.014665043,-0.041722413,0.34981006,0.48140222,1.0,1,0,0,0,0,0,0
2743216862,0.012476315,-0.08431936,0.7154838,0.0,0.93574727,0.020595962,-0.037295688,0.3500883,0.48240092,1.0,1,0,0,0,0,0,0
2743319557,-0.018678477,-0.08270199,0.7153456,0.0,0.93600774,0.005731441,-0.041988116,0.3494191,0.4830488,1.0,1,0,0,0,0,0,0
2743420179,-0.012250352,-0.08070019,0.71516055,0.0,0.936053,0.008385749,-0.039928943,0.3494857,0.4843489,1.0,1,0,0,0,0,0,0
2743524323,-0.03484642,-0.073676996,0.7148582,0.0,0.9362462,-0.0034264517,-0.040588602,0.34897536,0.4849531,1.0,1,0,0,0,0,0,0
2743628168,-0.022369275,-0.074590065,0.7145218,0.0,0.936294,0.0025676708,-0.038838446,0.34905368,0.48747382,1.0,1,0,0,0,0,0,0
2743728913,-0.021482501,-0.06945814,0.7141643,0.0,0.9364321,0.002078688,-0.036282152,0.34896156,0.48860902,1.0,1,0,0,0,0,0,0
2743829076,-0.022459578,-0.065427236,0.71400607,0.0,0.9365164,0.0009137138,-0.03456584,0.34891462,0.4835053,1.0,1,0,0,0,0,0,0
2743929681,-0.018637475,-0.06884014,0.7135881,0.0,0.9365377,0.0032925135,-0.03549737,0.3487495,0.48481598,1.0,1,0,0,0,0,0,0
2744033702,-0.041080203,-0.06211364,0.7133001,0.0,0.9366449,-0.008397854,-0.036259,0.34829748,0.48632717,1.0,1,0,0,0,0,0,0
2744133852,-0.028075116,-0.066170804,0.71303105,0.0,0.93667555,-0.0016032996,-0.035892658,0.34835044,0.4863584,1.0,1,0,0,0,0,0,0
2744234282,-0.019140385,-0.060239792,0.71281636,0.0,0.9367887,0.0015425157,-0.031559058,0.3484661,0.48606417,1.0,1,0,0,0,0,0,0
2744338505,-0.025151536,-0.064837225,0.7126199,0.0,0.9367661,-0.0004740542,-0.034758925,0.34822544,0.4820613,1.0,1,0,0,0,0,0,0
2744439369,-0.023243189,-0.059349094,0.71246976,0.0,0.9368609,-0.0005401896,-0.03185665,0.34824777,0.47679558,1.0,1,0,0,0,0,0,0
2744539070,-0.030783316,-0.064419195,0.7123753,0.0,0.93680876,-0.0031891859,-0.035543237,0.348017,0.47215453,1.0,1,0,0,0,0,0,0
2744643372,-0.035776455,-0.059836823,0.71235687,0.0,0.93685347,-0.0063279215,-0.034266368,0.34798175,0.47752628,1.0,1,0,0,0,0,0,0
2744744589,-0.01485193,-0.06570098,0.7123316,0.0,0.93679416,0.0044959397,-0.033370312,0.34825692,0.47844502,1.0,1,0,0,0,0,0,0
2744844163,-0.007952579,-0.067250736,0.7123714,0.0,0.93674314,0.0079983305,-0.03289439,0.34837672,0.48520246,1.0,1,0,0,0,0,0,0
2744944954,-0.024562081,-0.05753797,0.71243644,0.0,0.9368871,-0.0014744772,-0.0312381,0.3482307,0.4834918,1.0,1,0,0,0,0,0,0
2745049698,-0.007968787,-0.062966965,0.71254146,0.0,0.93677586,0.0072466265,-0.030890327,0.3484884,0.48362565,1.0,1,0,0,0,0,0,0
2745153492,0.0013779136,-0.05745488,0.71258163,0.0,0.9368032,0.010664182,-0.02667935,0.34867498,0.48059162,1.0,1,0,0,0,0,0,0
2745253468,0.0060363044,-0.061642595,0.7127653,0.0,0.93668324,0.01357854,-0.027827447,0.3488063,0.48157877,1.0,1,0,0,0,0,0,0
2745357907,-0.0057904613,-0.0582865,0.7128682,0.0,0.9367746,0.007455507,-0.028317343,0.348706,0.48175928,1.0,1,0,0,0,0,0,0
2745458762,-0.0128506515,-0.061341174,0.7130166,0.0,0.9367298,0.0046838312,-0.030978354,0.34864825,0.48655325,1.0,1,0,0,0,0,0,0
2745563349,0.00056126475,-0.06230957,0.71316576,0.0,0.9366373,0.011136421,-0.029092357,0.34891295,0.48071957,1.0,1,0,0,0,0,0,0
2745662288,-0.02376251,-0.06592705,0.7132488,0.0,0.93664217,0.00037771702,-0.035027254,0.34853178,0.48577544,1.0,1,0,0,0,0,0,0
2745766218,0.0025741912,-0.06791912,0.713518,0.0,0.9364773,0.013063077,-0.03136586,0.34907845,0.47953784,1.0,1,0,0,0,0,0,0
2745867581,-0.007238439,-0.067301966,0.7137295,0.0,0.93650264,0.00836401,-0.032788318,0.3490241,0.48181447,1.0,1,0,0,0,0,0,0
2745966953,0.014910095,-0.067695774,0.7139678,0.0,0.93630415,0.018806532,-0.029103365,0.34947643,0.47678435,1.0,1,0,0,0,0,0,0
2746072238,-0.011256292,-0.06741025,0.71421695,0.0,0.9364308,0.006509716,-0.033538528,0.34918484,0.4797673,1.0,1,0,0,0,0,0,0
2746172024,0.0057980292,-0.072144665,0.71435547,0.0,0.93623734,0.015323511,-0.03277531,0.3495005,0.4776647,1.0,1,0,0,0,0,0,0
2746272222,-0.006871104,-0.07539496,0.71484655,0.0,0.93617564,0.0099695595,-0.036507595,0.34948963,0.47584298,1.0,1,0,0,0,0,0,0
2746372705,0.0022752127,-0.06971655,0.71517915,0.0,0.9361597,0.013263518,-0.032248676,0.34984156,0.47649184,1.0,1,0,0,0,0,0,0
2746476652,-0.009473132,-0.07344171,0.7153184,0.0,0.9361378,0.00841847,-0.036046065,0.34967974,0.47845915,1.0,1,0,0,0,0,0,0
2746578708,0.007978761,-0.078076124,0.7158436,0.0,0.93585134,0.017406268,-0.035157997,0.35020465,0.4782012,1.0,1,0,0,0,0,0,0
2746677677,-0.0058362195,-0.07341369,0.71613884,0.0,0.9359778,0.010130401,-0.03539286,0.35012883,0.47916836,1.0,1,0,0,0,0,0,0
2746781640,0.011327634,-0.07178294,0.7164681,0.0,0.93582803,0.017882215,-0.03162067,0.35057986,0.4815669,1.0,1,0,0,0,0,0,0
2746882973,-0.0063244808,-0.0736656,0.7167461,0.0,0.93586975,0.009956831,-0.035593197,0.35040238,0.47709063,1.0,1,0,0,0,0,0,0
2746982177,-0.020204395,-0.07164275,0.71687806,0.0,0.935924,0.0031093436,-0.03707753,0.35023114,0.47767824,1.0,1,0,0,0,0,0,0
2747086164,-0.004846354,-0.0691834,0.71711814,0.0,0.93586993,0.009868937,-0.033235077,0.35063595,0.47409764,1.0,1,0,0,0,0,0,0
2747188179,-0.011738713,-0.06734868,0.717297,0.0,0.9358945,0.006324805,-0.033584222,0.35061893,0.47128478,1.0,1,0,0,0,0,0,0
2747291609,-0.025376815,-0.070671186,0.71735334,0.0,0.9358597,0.0005272554,-0.03752854,0.35036832,0.47130546,1.0,1,0,0,0,0,0,0
2747391898,-0.023596017,-0.06658187,0.7174665,0.0,0.9358962,0.0006444895,-0.035303537,0.35050178,0.47982708,1.0,1,0,0,0,0,0,0
2747495751,-0.004177797,-0.05861043,0.7174815,0.0,0.9359571,0.008332355,-0.028168736,0.35088664,0.47549,1.0,1,0,0,0,0,0,0
2747596208,-0.033564232,-0.058843482,0.71745396,0.0,0.9359808,-0.005379789,-0.033430114,0.35041893,0.476734,1.0,1,0,0,0,0,0,0
2747696635,-0.031011414,-0.057782922,0.7173848,0.0,0.9360106,-0.0043725087,-0.03248649,0.35044208,0.47041044,1.0,1,0,0,0,0,0,0
2747800905,-0.04319072,-0.05333368,0.717347,0.0,0.93601424,-0.010854707,-0.03253846,0.35028672,0.4734122,1.0,1,0,0,0,0,0,0
2747901473,-0.033728413,-0.05864815,0.7172753,0.0,0.93601376,-0.0054939194,-0.033367008,0.3503351,0.47691008,1.0,1,0,0,0,0,0,0
2748002438,-0.019142292,-0.053259883,0.7172079,0.0,0.9361023,0.00038571845,-0.028289778,0.35058817,0.47733873,1.0,1,0,0,0,0,0,0
2748105930,-0.015564473,-0.051535774,0.71712923,0.0,0.93613267,0.001756658,-0.026855776,0.35061565,0.47152254,1.0,1,0,0,0,0,0,0
2748206209,-0.01052198,-0.05111204,0.7170048,0.0,0.9361518,0.0040409146,-0.025773643,0.35062692,0.47235382,1.0,1,0,0,0,0,0,0
2748307314,-0.012280504,-0.04440178,0.7169298,0.0,0.9362359,0.0020396074,-0.02294131,0.35061643,0.4728136,1.0,1,0,0,0,0,0,0
2748406290,-0.018449243,-0.04916492,0.71687376,0.0,0.9362031,-1.30715e-05,-0.026251933,0.35047767,0.4735333,1.0,1,0,0,0,0,0,0
2748510984,-0.024756825,-0.054063205,0.71668154,0.0,0.9361835,-0.002108938,-0.029649204,0.3502526,0.47840774,1.0,1,0,0,0,0,0,0
2748612316,-0.04439041,-0.047560077,0.71653646,0.0,0.93619514,-0.012442647,-0.03004253,0.34997326,0.47335777,1.0,1,0,0,0,0,0,0
2748716186,-0.025265014,-0.053565245,0.7164259,0.0,0.93623286,-0.0024379522,-0.02950486,0.35013065,0.47738793,1.0,1,0,0,0,0,0,0
2748816209,-0.041604403,-0.05658702,0.7162734,0.0,0.9361805,-0.0095588835,-0.033777412,0.34976253,0.47688064,1.0,1,0,0,0,0,0,0
2748920004,-0.024135169,-0.04668466,0.71616197,0.0,0.93634653,-0.0031191728,-0.026086338,0.35009274,0.4781806,1.0,1,0,0,0,0,0,0
2749020806,-0.028170662,-0.047023065,0.7160193,0.0,0.9363604,-0.0049510663,-0.02695072,0.34996903,0.47989458,1.0,1,0,0,0,0,0,0
2749121209,-0.032639593,-0.048467945,0.71592414,0.0,0.93635166,-0.006791361,-0.02840858,0.34984633,0.48392212,1.0,1,0,0,0,0,0,0
2749225013,-0.024293702,-0.04316692,0.7157969,0.0,0.9364397,-0.0038145527,-0.024466792,0.3499537,0.48940617,1.0,1,0,0,0,0,0,0
2749325525,-0.015601487,-0.041640345,0.7157162,0.0,0.93647456,-1.29943655e-05,-0.022230932,0.35003015,0.48927316,1.0,1,0,0,0,0,0,0
2749426154,-0.014047125,-0.043832287,0.71568364,0.0,0.9364608,0.001098384,-0.02298513,0.35001668,0.48918262,1.0,1,0,0,0,0,0,0
2749526443,-0.01186228,-0.040126752,0.71566015,0.0,0.9364957,0.0014721488,-0.020867858,0.35005453,0.4875668,1.0,1,0,0,0,0,0,0
2749626553,-0.016084718,-0.03709907,0.7156744,0.0,0.9365173,-0.0010351731,-0.0201893,0.35003796,0.48926163,1.0,1,0,0,0,0,0,0
2749726267,-0.021311738,-0.03968275,0.7156744,0.0,0.93649304,-0.0030301597,-0.022313684,0.34996244,0.48823196,1.0,1,0,0,0,0,0,0
2749827491,-0.021811808,-0.040051877,0.715881,0.0,0.93645334,-0.0031973193,-0.02257433,0.35005033,0.49280614,1.0,1,0,0,0,0,0,0
2749931566,0.0056366306,-0.043831278,0.7161631,0.0,0.93632066,0.010319221,-0.019536305,0.35045046,0.49053752,1.0,1,0,0,0,0,0,0
2750031115,0.0047589773,-0.044746865,0.7161631,0.0,0.9363152,0.010068722,-0.020118749,0.35043928,0.48653573,1.0,1,0,0,0,0,0,0
2750131879,-0.010954556,-0.04045025,0.7165133,0.0,0.93634284,0.0019627418,-0.02085961,0.3504614,0.48578185,1.0,1,0,0,0,0,0,0
2750236140,0.010083892,-0.044748466,0.71668756,0.0,0.9361931,0.012566894,-0.019183105,0.3507371,0.48567474,1.0,1,0,0,0,0,0,0
2750337095,-0.0024180629,-0.042737853,0.71689904,0.0,0.9362365,0.0063642,-0.02043328,0.35071817,0.4890154,1.0,1,0,0,0,0,0,0
2750436942,-0.009701139,-0.03994436,0.7170445,0.0,0.9362526,0.0024662763,-0.020402486,0.350726,0.4913088,1.0,1,0,0,0,0,0,0
2750540614,-0.012853116,-0.043445494,0.7172245,0.0,0.9361936,0.0016071168,-0.022593847,0.35075435,0.4936781,1.0,1,0,0,0,0,0,0
2750641469,0.00021308796,-0.042478602,0.7173534,0.0,0.93615013,0.0075549283,-0.019848792,0.3509584,0.4930159,1.0,1,0,0,0,0,0,0
2750741821,0.0032269896,-0.043790918,0.7174821,0.0,0.93610156,0.009197193,-0.019933563,0.35104418,0.48731858,1.0,1,0,0,0,0,0,0
2750846028,0.000329533,-0.042147186,0.7174821,0.0,0.93613046,0.007552544,-0.019672742,0.351021,0.48965964,1.0,1,0,0,0,0,0,0
2750950787,-0.008130155,-0.041850094,0.7176843,0.0,0.9361212,0.0035427732,-0.021017913,0.35103092,0.48993883,1.0,1,0,0,0,0,0,0
2751054715,-0.009359158,-0.041662544,0.71773297,0.0,0.9361164,0.0029351055,-0.021145768,0.35104185,0.4902306,1.0,1,0,0,0,0,0,0
2751154946,0.015491478,-0.041569732,0.7177819,0.0,0.9360001,0.014550246,-0.016738642,0.3513004,0.4890416,1.0,1,0,0,0,0,0,0
2751255813,0.003963,-0.04065415,0.7177904,0.0,0.93607605,0.008994041,-0.018334758,0.3512045,0.48980677,1.0,1,0,0,0,0,0,0
2751359757,0.0027738968,-0.03552648,0.71782106,0.0,0.9361228,0.0075374483,-0.016143383,0.35122168,0.4916294,1.0,1,0,0,0,0,0,0
2751460154,-0.0030657663,-0.035266466,0.7178374,0.0,0.93614,0.004758578,-0.01704708,0.35118178,0.48988104,1.0,1,0,0,0,0,0,0
2751560660,-0.009285396,-0.034948755,0.71791786,0.0,0.9361385,0.0017922571,-0.017990327,0.3511664,0.49134526,1.0,1,0,0,0,0,0,0
2751664271,0.0033977325,-0.033012614,0.71793026,0.0,0.9361221,0.0073888483,-0.014856745,0.35128343,0.49358377,1.0,1,0,0,0,0,0,0
2751765437,-0.000907606,-0.033158183,0.7179375,0.0,0.93613344,0.0053992956,-0.015681023,0.35125354,0.48927695,1.0,1,0,0,0,0,0,0
2751864834,-0.022041341,-0.03085975,0.7179115,0.0,0.93615556,-0.004896902,-0.018315976,0.35107434,0.4928301,1.0,1,0,0,0,0,0,0
2751969462,-0.007355848,-0.02722472,0.7178445,0.0,0.93620044,0.0013381457,-0.014036249,0.35118356,0.49025863,1.0,1,0,0,0,0,0,0
2752070262,-0.01781045,-0.028431432,0.7177475,0.0,0.9362057,-0.00334447,-0.016436435,0.35105205,0.49362847,1.0,1,0,0,0,0,0,0
2752169593,-0.026471905,-0.026749542,0.71761745,0.0,0.93621224,-0.0076954407,-0.017168911,0.35093114,0.4983346,1.0,1,0,0,0,0,0,0
2752271619,-0.01559967,-0.024785949,0.7174639,0.0,0.9362763,-0.0029519128,-0.014341606,0.35095903,0.49690217,1.0,1,0,0,0,0,0,0
2752374658,-0.014931625,-0.02387708,0.71738833,0.0,0.9362945,-0.002799266,-0.013798823,0.35093355,0.4972175,1.0,1,0,0,0,0,0,0
2752475414,-0.015378366,-0.023849461,0.7171012,0.0,0.9363444,-0.0030152455,-0.0138638485,0.35079622,0.4991215,1.0,1,0,0,0,0,0,0
2752575247,-0.032217853,-0.0170008,0.7169523,0.0,0.93632525,-0.012101804,-0.013610254,0.35066122,0.49563518,1.0,1,0,0,0,0,0,0
2752679106,-0.019901574,-0.017036878,0.716848,0.0,0.9364003,-0.0063298573,-0.011467148,0.35068932,0.49083057,1.0,1,0,0,0,0,0,0
2752780380,-0.012927311,-0.01875195,0.71657664,0.0,0.93645895,-0.0027651219,-0.011046779,0.3505923,0.49664116,1.0,1,0,0,0,0,0,0
2752879798,-0.0126237655,-0.014179832,0.7164148,0.0,0.9365003,-0.0034254338,-0.008852558,0.35053825,0.49668664,1.0,1,0,0,0,0,0,0
2752983890,-0.020569095,-0.009619499,0.7164148,0.0,0.9364838,-0.00794529,-0.00810982,0.35052708,0.4944101,1.0,1,0,0,0,0,0,0
2753085118,-0.02037537,-0.013869823,0.7161313,0.0,0.9365301,-0.0071108653,-0.010064947,0.3503704,0.4940784,1.0,1,0,0,0,0,0,0
2753184581,-0.0284736,-0.0151958205,0.7159752,0.0,0.9365198,-0.010671471,-0.012103566,0.35024324,0.5031179,1.0,1,0,0,0,0,0,0
2753285739,-0.025894243,-0.010804084,0.7157745,0.0,0.9365713,-0.010234117,-0.009594449,0.35019612,0.5068575,1.0,1,0,0,0,0,0,0
2753389981,-0.029758941,-0.011884997,0.71555346,0.0,0.93658847,-0.011855731,-0.0107759535,0.35006484,0.505277,1.0,1,0,0,0,0,0,0
2753493921,-0.022018956,-0.00902755,0.71532613,0.0,0.9366686,-0.008732349,-0.00808201,0.35001475,0.5103597,1.0,1,0,0,0,0,0,0
2753594505,-0.030836998,-0.007214091,0.7150947,0.0,0.93666005,-0.013180506,-0.0087744035,0.34988177,0.5087071,1.0,1,0,0,0,0,0,0
2753695130,-0.021866107,-0.0141939735,0.71487266,0.0,0.9367444,-0.007758708,-0.010472998,0.34977132,0.50701743,1.0,1,0,0,0,0,0,0
2753798831,-0.021094864,-0.009410484,0.7146721,0.0,0.93678683,-0.008235177,-0.008096929,0.34970996,0.508363,1.0,1,0,0,0,0,0,0
2753899104,-0.036254715,-0.009714378,0.7143885,0.0,0.9367474,-0.015284039,-0.010887597,0.3495029,0.50380987,1.0,1,0,0,0,0,0,0
2754000131,-0.011634098,-0.015893476,0.7143885,0.0,0.9368523,-0.0026712068,-0.009478786,0.34958667,0.50199133,1.0,1,0,0,0,0,0,0
2754104127,-0.012645324,-0.008473651,0.7141272,0.0,0.93690944,-0.0044429405,-0.006179396,0.34948933,0.50163054,1.0,1,0,0,0,0,0,0
2754208329,-0.018994391,-0.018452067,0.7140525,0.0,0.9368887,-0.005673582,-0.01196271,0.34937683,0.50278175,1.0,1,0,0,0,0,0,0
2754307996,-0.030526472,-0.010982222,0.71403223,0.0,0.93684983,-0.012381223,-0.010478145,0.34935558,0.5011444,1.0,1,0,0,0,0,0,0
2754412836,-0.021525025,-0.017236361,0.7140484,0.0,0.93688434,-0.007071534,-0.0118353125,0.3493675,0.4979365,1.0,1,0,0,0,0,0,0
2754513038,-0.0075830207,-0.018369978,0.7140971,0.0,0.9368984,-0.0003420493,-0.009930644,0.34946054,0.49632746,1.0,1,0,0,0,0,0,0
2754613829,-0.025794916,-0.016526869,0.7141657,0.0,0.9368478,-0.009194997,-0.012249382,0.34940174,0.50304234,1.0,1,0,0,0,0,0,0
2754713788,-0.010919724,-0.015106704,0.7141924,0.0,0.9368895,-0.0024750116,-0.00898514,0.34950128,0.4996183,1.0,1,0,0,0,0,0,0
2754818470,-0.00600848,-0.016277337,0.7141924,0.0,0.9368891,3.024597e-05,-0.00867524,0.34951898,0.49963498,1.0,1,0,0,0,0,0,0
2754922827,-0.02245006,-0.011633158,0.7142678,0.0,0.93685055,-0.00848308,-0.009373208,0.3495013,0.50065994,1.0,1,0,0,0,0,0,0
2755022487,0.0013732325,-0.014971664,0.714332,0.0,0.9368631,0.0032604414,-0.006773296,0.34961545,0.5002194,1.0,1,0,0,0,0,0,0
2755126278,0.0037858959,-0.014727552,0.7144705,0.0,0.9368352,0.004348369,-0.006236888,0.3496884,0.49653402,1.0,1,0,0,0,0,0,0
2755227434,-0.012190177,-0.013230159,0.71458936,0.0,0.9368226,-0.0033964966,-0.008328795,0.3496892,0.49664435,1.0,1,0,0,0,0,0,0
2755332214,-0.014082942,-0.010467164,0.71470714,0.0,0.9368027,-0.0047658538,-0.0073658368,0.34974828,0.4972155,1.0,1,0,0,0,0,0,0
2755432398,0.00023150364,-0.01225034,0.7148327,0.0,0.936786,0.0022513429,-0.005697551,0.34984916,0.4959693,1.0,1,0,0,0,0,0,0
2755536292,0.0011719209,-0.016722614,0.7148879,0.0,0.9367596,0.0034743322,-0.0076277223,0.34987324,0.49756888,1.0,1,0,0,0,0,0,0
2755640190,-0.0054073865,-0.013588215,0.7150753,0.0,0.9367428,-0.0001549563,-0.0073105707,0.3499421,0.500861,1.0,1,0,0,0,0,0,0
2755741014,-0.02189795,-0.011990844,0.7152126,0.0,0.93668735,-0.008157469,-0.009448122,0.3499442,0.5008606,1.0,1,0,0,0,0,0,0
2755840638,0.0034465317,-0.019405445,0.7152796,0.0,0.9366743,0.005010669,-0.008485408,0.35006303,0.50238824,1.0,1,0,0,0,0,0,0
2755940997,-0.015495879,-0.017638305,0.71551085,0.0,0.93664455,-0.004168932,-0.010973399,0.35008454,0.5034635,1.0,1,0,0,0,0,0,0
2756045815,-0.009556946,-0.012969253,0.71568274,0.0,0.93663555,-0.002204451,-0.00774738,0.3502128,0.499391,1.0,1,0,0,0,0,0,0
2756145493,0.010097028,-0.019208293,0.71587,0.0,0.93655014,0.008092943,-0.0072265943,0.35036576,0.4989735,1.0,1,0,0,0,0,0,0
2756247081,-0.009650164,-0.021976663,0.7160668,0.0,0.9365389,-0.0006682709,-0.011981969,0.35035813,0.50277203,1.0,1,0,0,0,0,0,0
2756350773,0.0048983893,-0.01763163,0.71615905,0.0,0.93652487,0.0053834394,-0.00739816,0.35048178,0.5005564,1.0,1,0,0,0,0,0,0
2756450149,0.0023515683,-0.02367273,0.7165188,0.0,0.9364374,0.005251314,-0.010672337,0.350633,0.50071317,1.0,1,0,0,0,0,0,0
2756551604,0.006659935,-0.024606243,0.716747,0.0,0.9363781,0.007433374,-0.010353231,0.35076144,0.50699705,1.0,1,0,0,0,0,0,0
2756655445,0.0026161436,-0.018563805,0.716864,0.0,0.9364026,0.0044809883,-0.0082330275,0.35080227,0.5075794,1.0,1,0,0,0,0,0,0
2756756056,-0.0017227029,-0.026850708,0.71703523,0.0,0.93633735,0.0039041196,-0.01287357,0.3508439,0.5033663,1.0,1,0,0,0,0,0,0
2756856703,0.008802687,-0.02486482,0.71725726,0.0,0.93627846,0.008484497,-0.01009633,0.35101122,0.50369865,1.0,1,0,0,0,0,0,0
2756960967,-0.0023709768,-0.023435676,0.71733296,0.0,0.9363057,0.0030031938,-0.011388033,0.3509885,0.5014983,1.0,1,0,0,0,0,0,0
2757064912,-0.002562077,-0.028396968,0.7174128,0.0,0.93626297,0.003785014,-0.0137439985,0.35101056,0.5071789,1.0,1,0,0,0,0,0,0
2757164916,-0.0043454273,-0.021308966,0.7174409,0.0,0.9362996,0.0017061612,-0.010738823,0.35103402,0.5046795,1.0,1,0,0,0,0,0,0
2757265383,0.0050906865,-0.024472065,0.717476,0.0,0.9362566,0.006678989,-0.010563188,0.35109457,0.5044441,1.0,1,0,0,0,0,0,0
2757365597,-0.0039708735,-0.025890583,0.7174374,0.0,0.9362762,0.0026857276,-0.012817904,0.35102063,0.50548595,1.0,1,0,0,0,0,0,0
2757465841,-0.003532732,-0.027407367,0.7174187,0.0,0.9362699,0.0031569574,-0.0134510845,0.35100988,0.50608635,1.0,1,0,0,0,0,0,0
2757570267,-0.0038499448,-0.020478979,0.7172182,0.0,0.93634206,0.0017912844,-0.0102635035,0.35093468,0.5037165,1.0,1,0,0,0,0,0,0
2757670290,0.0005959763,-0.021115758,0.7170967,0.0,0.9363539,0.003983875,-0.009781727,0.35089868,0.49979937,1.0,1,0,0,0,0,0,0
2757770915,-0.0030693447,-0.027769089,0.7170967,0.0,0.93632334,0.003435197,-0.013539642,0.35086107,0.50356734,1.0,1,0,0,0,0,0,0
2757871054,-0.015455093,-0.02313373,0.71692,0.0,0.93637896,-0.003177993,-0.013541956,0.3507149,0.5020768,1.0,1,0,0,0,0,0,0
2757971916,0.010521225,-0.021917816,0.7168639,0.0,0.9363587,0.0087702945,-0.008416764,0.35083434,0.50009584,1.0,1,0,0,0,0,0,0
2758075566,0.0058635096,-0.027366994,0.71681434,0.0,0.936351,0.007544969,-0.011785235,0.35078627,0.49636635,1.0,1,0,0,0,0,0,0
