timestamp,lat,lon,alt,delta_alt,vel_n,vel_e,vel_d,yaw,eph,epv,terrain_alt,lat_lon_reset_counter,alt_reset_counter,terrain_alt_valid,dead_reckoning
2708900395,37.1025302902965,-76.38808409939799,4.7940717,-0.0,0.03382382,-0.018838255,0.00877633,-0.07026591,1.7382212,2.9785311,0.0,2,0,0,0
2709103590,37.10253032127528,-76.3880840774609,4.7865696,-0.0,0.03247164,-0.016187726,0.007867036,-0.070129454,1.7382151,2.9785538,0.0,2,0,0,0
2709304541,37.10253033750237,-76.38808404033963,4.7791705,-0.0,0.045028307,-0.015543457,0.011514945,-0.06919425,1.7382236,2.9785724,0.0,2,0,0,0
2709505328,37.10253035074487,-76.38808398928172,4.780753,-0.0,0.018395571,-0.017084518,0.015117674,-0.069693625,1.7382442,2.978591,0.0,2,0,0,0
2709706016,37.10253036649174,-76.38808393929918,4.7822537,-0.0,0.022295674,-0.007904642,0.011653054,-0.07018652,1.7382743,2.9786134,0.0,2,0,0,0
2709906118,37.102530382856195,-76.3880838732723,4.799834,-0.0,0.014833609,0.0046839505,-0.0016669631,-0.06526077,1.7383033,2.9786334,0.0,2,0,0,0
2710111024,37.10252989659819,-76.38808368250021,4.8848886,-0.0,-0.29187566,0.025966858,-0.7173932,-0.050486363,1.7384312,2.9785614,0.0,2,0,0,0
2710311608,37.10252909183963,-76.38808349000529,5.1264663,-0.0,-0.48279554,0.035659637,-1.0743227,-0.039562106,1.7384766,2.978581,0.0,2,0,0,0
2710516530,37.10252813071244,-76.38808330834884,5.449254,-0.0,-0.5011,-0.015168574,-1.1188378,-0.03268991,1.738595,2.9784935,0.0,2,0,0,0
2710921421,37.102526737050695,-76.38808302104611,6.1596003,-0.0,-0.18347573,0.050960287,-1.0604734,-0.033283126,1.7386763,2.9785416,0.0,2,0,0,0
2712943735,37.10252822214268,-76.38808250079839,7.8669095,-0.0,0.07182127,-0.07257472,-0.98688316,-0.04176687,1.7390625,2.9785116,0.0,2,0,0,0
2713148388,37.10252833518137,-76.38808269509495,8.04099,-0.0,0.04406746,-0.055033132,-0.9958004,-0.045303278,1.7391496,2.978562,0.0,2,0,0,0
2713348902,37.102528432164966,-76.38808282388057,8.215185,-0.0,0.023819285,-0.02307012,-0.9920257,-0.049041577,1.7391734,2.97859,0.0,2,0,0,0
2713549234,37.10252849371028,-76.38808290496303,8.388015,-0.0,0.005884272,0.0013692989,-0.97710127,-0.051617417,1.739179,2.9786143,0.0,2,0,0,0
2713750164,37.1025285863375,-76.38808291662058,8.546736,-0.0,-0.0058710882,0.0028090877,-0.97910476,-0.05295065,1.7391945,2.9785051,0.0,2,0,0,0
2713955050,37.1025286332341,-76.38808296737783,8.708609,-0.0,-0.021310216,-0.0047474983,-0.9903909,-0.05446344,1.7393286,2.9785821,0.0,2,0,0,0
2714154990,37.10252866019869,-76.3880830177048,8.872038,-0.0,-0.024454264,-0.0008610388,-0.9827807,-0.056258824,1.7392527,2.978455,0.0,2,0,0,0
2714355830,37.10252866218806,-76.3880831092393,9.042754,-0.0,-0.034560874,0.0006610891,-0.97947407,-0.057434265,1.7392424,2.9784808,0.0,2,0,0,0
2714556538,37.1025286857218,-76.38808320748421,9.219911,-0.0,-0.036350723,-0.016412359,-0.97741115,-0.05842831,1.739247,2.978513,0.0,2,0,0,0
2714756575,37.10252864139723,-76.38808336237852,9.409244,-0.0,-0.032706976,-0.0056964853,-0.9721404,-0.060731534,1.7392505,2.978547,0.0,2,0,0,0
2714961383,37.10252859419085,-76.38808353146753,9.607355,-0.0,-0.028657895,-0.005496541,-0.98625785,-0.06398296,1.7392728,2.9784486,0.0,2,0,0,0
2715162014,37.10252851662324,-76.38808371526721,9.810247,-0.0,-0.023448545,-0.025647946,-0.9931806,-0.06727286,1.7392582,2.9784794,0.0,2,0,0,0
2715362971,37.10252851511297,-76.38808388616316,10.016285,-0.0,-0.004625274,-0.036339752,-0.9903728,-0.07128094,1.7393992,2.9785602,0.0,2,0,0,0
2715563807,37.10252858715567,-76.38808405052144,10.222658,-0.0,0.015978923,-0.0362289,-0.9970953,-0.07506234,1.7393293,2.97857,0.0,2,0,0,0
2715763868,37.10252872160182,-76.38808418382384,10.414936,-0.0,0.034568746,-0.033966128,-1.0081124,-0.07806837,1.7393408,2.9786046,0.0,2,0,0,0
2715964697,37.102528866202874,-76.38808427178918,10.6008835,-0.0,0.05189361,-0.027707048,-1.0177592,-0.08032028,1.7393354,2.9786286,0.0,2,0,0,0
2716165403,37.10252903924404,-76.38808433850568,10.79311,-0.0,0.06693476,-0.011789063,-1.0202295,-0.082065545,1.7393445,2.9786553,0.0,2,0,0,0
2716369422,37.1025292339667,-76.38808443537536,11.005977,-0.0,0.07217163,-0.0046098717,-1.0361774,-0.08371247,1.7393546,2.9785414,0.0,2,0,0,0
2716569984,37.102529435551176,-76.38808441576226,11.215939,-0.0,0.06477816,0.003887801,-1.0531676,-0.084414855,1.7393848,2.9785655,0.0,2,0,0,0
2716770809,37.10252960540238,-76.3880843650496,11.423867,-0.0,0.05255185,0.006411492,-1.0629284,-0.08424819,1.7395183,2.9786305,0.0,2,0,0,0
2716971752,37.102529696623435,-76.38808428999023,11.645322,-0.0,0.03485789,0.032044433,-1.0685633,-0.084760986,1.7394638,2.978629,0.0,2,0,0,0
2717172514,37.10252974235453,-76.38808414434402,11.861106,-0.0,0.0075433115,0.011957047,-1.0838704,-0.08344609,1.7394805,2.9786496,0.0,2,0,0,0
2717372602,37.10252982239211,-76.38808397891145,12.061764,-0.0,-0.010006345,0.018812219,-1.0833234,-0.082521744,1.7394944,2.978536,0.0,2,0,0,0
2717573371,37.102529820780155,-76.38808388083876,12.267933,-0.0,-0.025776993,0.004985926,-1.1002699,-0.08137794,1.7394929,2.9785535,0.0,2,0,0,0
2717774164,37.10252976650772,-76.38808381898377,12.47569,-0.0,-0.04511114,-0.001320045,-1.1034664,-0.080732115,1.7395045,2.9785738,0.0,2,0,0,0
2717978939,37.10252973213281,-76.38808379661606,12.695583,-0.0,-0.056634035,-0.00798874,-1.1293029,-0.07884319,1.7396591,2.9786386,0.0,2,0,0,0
2718183029,37.10252971192623,-76.38808381902639,12.908979,-0.0,-0.06019013,-0.017045897,-1.140964,-0.07643103,1.7395995,2.978633,0.0,2,0,0,0
2718383787,37.10252969902695,-76.38808383778054,13.126821,-0.0,-0.056134734,-0.024660764,-1.1576735,-0.07356,1.7396203,2.9786518,0.0,2,0,0,0
2718584536,37.102529677997275,-76.38808380711116,13.356353,-0.0,-0.04193033,-0.0001827518,-1.1849917,-0.07186677,1.739625,2.978664,0.0,2,0,0,0
2718785309,37.10252963940273,-76.38808377239832,13.59947,-0.0,-0.02995044,-0.011046053,-1.2085848,-0.0702533,1.7396438,2.9785469,0.0,2,0,0,0
2718989200,37.10252963130665,-76.38808372228657,13.842297,-0.0,-0.014174804,-0.004572118,-1.2191628,-0.06962038,1.7398044,2.9786186,0.0,2,0,0,0
2719190179,37.10252963336534,-76.38808365531327,14.088874,-0.0,-0.004456297,-0.010617128,-1.2430059,-0.068309486,1.7398039,2.9786382,0.0,2,0,0,0
2719390999,37.102529655699435,-76.38808351697932,14.338194,-0.0,-0.0011765418,0.0013239658,-1.2505376,-0.06631584,1.7398186,2.9785252,0.0,2,0,0,0
2719595741,37.102529652578085,-76.38808340367954,14.596364,-0.0,-0.0027108171,0.0011228555,-1.2654912,-0.06290598,1.7399238,2.9785724,0.0,2,0,0,0
2719799816,37.10252963347004,-76.38808326547435,14.855875,-0.0,-0.009177626,0.007821414,-1.2698994,-0.05955479,1.7399421,2.9785995,0.0,2,0,0,0
2720000377,37.10252963580335,-76.38808316047637,15.107719,-0.0,-0.00541356,0.007840345,-1.2664211,-0.05716832,1.7399582,2.978624,0.0,2,0,0,0
2720205187,37.10252964369419,-76.38808308068482,15.367912,-0.0,0.006139087,-0.011576574,-1.2910824,-0.056390036,1.7401015,2.9785576,0.0,2,0,0,0
2720406162,37.10252966873809,-76.3880830299281,15.636919,-0.0,0.004256135,-0.008838291,-1.2868345,-0.057127327,1.740114,2.978587,0.0,2,0,0,0
2720606143,37.102529640778535,-76.38808299719399,15.898228,-0.0,0.005801133,-0.030592585,-1.2929527,-0.057819996,1.7367926,2.9785206,0.0,2,0,0,0
2720806808,37.1025296221848,-76.38808292523086,16.166689,-0.0,0.011289848,-0.031571243,-1.2948442,-0.059671298,1.7368135,2.9784153,0.0,2,0,0,0
2721007777,37.102529616181286,-76.38808289985236,16.42932,-0.0,0.009030856,-0.045951948,-1.2870469,-0.061693475,1.7401625,2.978535,0.0,2,0,0,0
2721212682,37.1025296084281,-76.3880828875072,16.684212,-0.0,0.0029892481,-0.05072966,-1.2750638,-0.06386209,1.7368745,2.9784956,0.0,2,0,0,0
2721416664,37.10252957734651,-76.38808288535627,16.938404,-0.0,0.0005422541,-0.052463606,-1.2809844,-0.066211864,1.7368988,2.9783947,0.0,2,0,0,0
2721617458,37.102529528356676,-76.38808295103881,17.198975,-0.0,-0.0055252956,-0.06943923,-1.2832124,-0.0672037,1.7402613,2.978517,0.0,2,0,0,0
2721818009,37.1025295073608,-76.38808303014201,17.469587,-0.0,-0.0056096897,-0.084361054,-1.298597,-0.067408025,1.7368993,2.978453,0.0,2,0,0,0
2722019000,37.102529485712935,-76.38808314752798,17.735355,-0.0,-0.0043281717,-0.07382581,-1.2888037,-0.067858025,1.7370251,2.9785316,0.0,2,0,0,0
2722218948,37.10252946217809,-76.38808329085157,17.993061,-0.0,-0.002873005,-0.07976763,-1.2920991,-0.068125114,1.7369739,2.9784043,0.0,2,0,0,0
2722419766,37.102529437099335,-76.38808345959663,18.248627,-0.0,0.0019490545,-0.052754935,-1.300979,-0.06915207,1.7369726,2.978431,0.0,2,0,0,0
2722620552,37.1025294386424,-76.38808361922284,18.516006,-0.0,0.0009670232,-0.049594026,-1.2984208,-0.069685794,1.7369816,2.9784608,0.0,2,0,0,0
2722821371,37.10252945239857,-76.3880837700742,18.792673,-0.0,-0.004485075,-0.029887352,-1.2965982,-0.071099214,1.7369894,2.9784925,0.0,2,0,0,0
2723025421,37.10252943685739,-76.38808385476932,19.069828,-0.0,-0.016415505,-0.026283758,-1.2987971,-0.07223598,1.7369959,2.978393,0.0,2,0,0,0
2723226248,37.10252939589527,-76.38808391602143,19.348255,-0.0,-0.028298609,-0.007299247,-1.296162,-0.07335751,1.7369908,2.9784186,0.0,2,0,0,0
2723426805,37.10252933640764,-76.3880839921994,19.627008,-0.0,-0.0400109,-0.024716174,-1.2953842,-0.07331906,1.7371199,2.9784973,0.0,2,0,0,0
2723627760,37.102529241893215,-76.38808405585993,19.90031,-0.0,-0.048219647,-0.019289933,-1.2884812,-0.07310803,1.7370713,2.9785047,0.0,2,0,0,0
2723828421,37.102529109641885,-76.38808409336748,20.170296,-0.0,-0.05531191,-0.008266119,-1.2824425,-0.07271454,1.7370824,2.978534,0.0,2,0,0,0
2724032648,37.10252896377107,-76.38808409560318,20.438429,-0.0,-0.05761776,-0.002791745,-1.2887933,-0.07218994,1.7370918,2.9784296,0.0,2,0,0,0
2724233345,37.1025287755661,-76.38808411328073,20.68963,-0.0,-0.058209594,0.003276251,-1.2826687,-0.07201644,1.7370898,2.978456,0.0,2,0,0,0
2724434155,37.102528576040235,-76.38808408252403,20.938038,-0.0,-0.04901903,0.0065768147,-1.2715334,-0.07228785,1.7371156,2.978489,0.0,2,0,0,0
2724638963,37.10252843661912,-76.38808406677978,21.201317,-0.0,-0.023137197,0.016708896,-1.2654078,-0.072421074,1.7372633,2.9784336,0.0,2,0,0,0
2724843016,37.10252836227726,-76.38808404423973,21.465279,-0.0,0.0005346484,0.00012073596,-1.2765496,-0.07113384,1.737338,2.978488,0.0,2,0,0,0
2725043847,37.1025283395323,-76.38808400363403,21.716877,-0.0,0.025070064,0.0019291325,-1.269205,-0.070270956,1.737338,2.978514,0.0,2,0,0,0
2725244609,37.10252837747545,-76.3880839435433,21.973726,-0.0,0.04901662,-0.014193763,-1.268214,-0.06889442,1.7373476,2.9784129,0.0,2,0,0,0
2725448595,37.10252843390962,-76.38808391205721,22.250902,-0.0,0.07450527,-0.0044675632,-1.2879736,-0.06862506,1.7373564,2.978443,0.0,2,0,0,0
2725649315,37.10252849768554,-76.38808384048181,22.529648,-0.0,0.08896453,0.0038034355,-1.2982454,-0.0681776,1.737366,2.9784734,0.0,2,0,0,0
2725854040,37.10252860009079,-76.38808369711576,22.809566,-0.0,0.09477214,0.0096067935,-1.2906954,-0.067427255,1.7374887,2.9785478,0.0,2,0,0,0
2726054948,37.10252872455521,-76.38808351705866,23.06742,-0.0,0.10171939,0.0146049345,-1.2864361,-0.06614481,1.7375134,2.9784424,0.0,2,0,0,0
2726259851,37.1025288630167,-76.38808332826974,23.32786,-0.0,0.09251227,0.005164558,-1.2812948,-0.06483378,1.7376455,2.9785209,0.0,2,0,0,0
2726459741,37.10252900391371,-76.38808318907637,23.578814,-0.0,0.07903526,-0.01027302,-1.2849046,-0.06427535,1.7375942,2.9783974,0.0,2,0,0,0
2726660524,37.102529152529286,-76.38808313044889,23.835846,-0.0,0.07001532,-0.02727635,-1.2915928,-0.064510904,1.7375942,2.9784272,0.0,2,0,0,0
2726861326,37.10252928934308,-76.38808315445188,24.095068,-0.0,0.054166954,-0.05776754,-1.2919111,-0.06489718,1.7376242,2.9784606,0.0,2,0,0,0
2727065351,37.10252942780328,-76.38808324839617,24.364958,-0.0,0.03904108,-0.069797695,-1.2978195,-0.0647888,1.7376497,2.9784954,0.0,2,0,0,0
2727266129,37.102529541493894,-76.3880834191639,24.64116,-0.0,0.027623774,-0.09279597,-1.3005129,-0.06404638,1.7376741,2.9783988,0.0,2,0,0,0
2727466910,37.1025295852334,-76.38808367062602,24.924635,-0.0,0.011107383,-0.09745526,-1.3160045,-0.06325334,1.7378117,2.9784772,0.0,2,0,0,0
2727667811,37.10252957209285,-76.38808393228213,25.191158,-0.0,-0.00870129,-0.08867763,-1.3076667,-0.06166084,1.7377566,2.9784877,0.0,2,0,0,0
2727868598,37.10252953257093,-76.38808414137452,25.471928,-0.0,-0.023868179,-0.057959285,-1.318637,-0.05950748,1.7377088,2.9784963,0.0,2,0,0,0
2728072587,37.10252948680534,-76.38808432771229,25.762394,-0.0,-0.037986945,-0.040124007,-1.3114364,-0.05659225,1.7378337,2.9784422,0.0,2,0,0,0
2728273398,37.1025294509199,-76.38808453400878,26.021696,-0.0,-0.034334727,-0.032864235,-1.306861,-0.05475821,1.7378185,2.9784708,0.0,2,0,0,0
2728473991,37.102529449547035,-76.38808466743923,26.278803,-0.0,-0.024995249,-0.01586592,-1.2976302,-0.055593804,1.7378339,2.978506,0.0,2,0,0,0
2728674946,37.10252945805478,-76.38808471974473,26.53988,-0.0,-0.006595129,0.023806581,-1.3013964,-0.05881293,1.737847,2.9785383,0.0,2,0,0,0
2728874930,37.102529504128256,-76.38808472279908,26.786009,-0.0,0.0062391893,0.04109451,-1.2934213,-0.06272845,1.7378602,2.978437,0.0,2,0,0,0
2729075596,37.10252955716614,-76.38808467944102,27.031185,-0.0,0.008549822,0.051288575,-1.2935936,-0.06550875,1.7378412,2.978465,0.0,2,0,0,0
2729276564,37.102529595040686,-76.3880846194793,27.282675,-0.0,0.0048677106,0.06057524,-1.2875054,-0.06722475,1.7378525,2.9784951,0.0,2,0,0,0
2729477396,37.102529601422056,-76.38808453512824,27.516806,-0.0,-0.005733143,0.06735281,-1.2848805,-0.06833068,1.7378632,2.9785273,0.0,2,0,0,0
2729677405,37.102529595727404,-76.38808449254401,27.741798,-0.0,-0.013109522,0.04447688,-1.2893754,-0.06752435,1.7378743,2.978559,0.0,2,0,0,0
2729882005,37.10252958721944,-76.38808448407012,27.978354,-0.0,-0.015555466,0.035865914,-1.2829243,-0.06673359,1.7378707,2.9785836,0.0,2,0,0,0
2730083011,37.1025295591224,-76.38808450755575,28.226004,-0.0,-0.017946798,0.034933757,-1.2875102,-0.06564767,1.7380469,2.9785206,0.0,2,0,0,0
2730282929,37.10252952598223,-76.38808454975256,28.474789,-0.0,-0.027935766,0.032077443,-1.2771639,-0.064802244,1.7379758,2.978519,0.0,2,0,0,0
2730487857,37.10252948121218,-76.38808459457319,28.73335,-0.0,-0.02888348,0.034394022,-1.2854803,-0.06433603,1.7379906,2.9785433,0.0,2,0,0,0
2730688338,37.10252942381757,-76.38808459603526,28.992651,-0.0,-0.04123996,0.036211748,-1.2918298,-0.06414971,1.7379906,2.9785597,0.0,2,0,0,0
2730889315,37.10252934728031,-76.3880845282011,29.259424,-0.0,-0.046004973,0.0486014,-1.2944424,-0.064081,1.7381517,2.9784963,0.0,2,0,0,0
2731090186,37.10252923592212,-76.38808444496756,29.519579,-0.0,-0.04856102,0.055635624,-1.2962623,-0.0642431,1.7381026,2.978498,0.0,2,0,0,0
2731290030,37.102529131082115,-76.38808437055201,29.776611,-0.0,-0.047138486,0.070619024,-1.3012242,-0.0650749,1.7381003,2.9785244,0.0,2,0,0,0
2731494767,37.102529048198086,-76.38808432181617,30.041513,-0.0,-0.0437588,0.05273783,-1.3087661,-0.064906485,1.7381035,2.9785466,0.0,2,0,0,0
2731695751,37.10252894174549,-76.38808428942562,30.306864,-0.0,-0.043854848,0.055427555,-1.3041807,-0.06467729,1.7381171,2.978569,0.0,2,0,0,0
2731896419,37.102528841674044,-76.38808421866632,30.574478,-0.0,-0.04205583,0.0747055,-1.2958399,-0.063913405,1.7381289,2.9785922,0.0,2,0,0,0
2732100541,37.10252875762393,-76.3880840989138,30.83985,-0.0,-0.023753513,0.088260286,-1.3006587,-0.06351133,1.7382729,2.9785304,0.0,2,0,0,0
2732301227,37.102528687330846,-76.38808393889997,31.090992,-0.0,-0.017036263,0.092772186,-1.2840508,-0.06310237,1.7382697,2.9785514,0.0,2,0,0,0
2732501990,37.10252865899456,-76.38808376576708,31.34871,-0.0,0.0031054665,0.087901354,-1.2927165,-0.06348271,1.7382784,2.978577,0.0,2,0,0,0
2732702973,37.10252865484428,-76.388083591602,31.617851,-0.0,0.012582799,0.08201551,-1.2972823,-0.06498675,1.7383041,2.9784696,0.0,2,0,0,0
2732906952,37.10252866273552,-76.38808342156639,31.89243,-0.0,0.026321318,0.078009754,-1.2954861,-0.06798613,1.7383099,2.9784963,0.0,2,0,0,0
2733107619,37.10252867261644,-76.38808327656514,32.146713,-0.0,0.029196998,0.053914614,-1.290139,-0.070374124,1.7383009,2.9785185,0.0,2,0,0,0
2733312469,37.10252871580872,-76.38808316072785,32.399475,-0.0,0.028952528,0.05552242,-1.2789896,-0.07237515,1.7384562,2.9785914,0.0,2,0,0,0
2733513316,37.102528810082994,-76.38808309534674,32.653267,-0.0,0.03592957,0.02089044,-1.2901348,-0.0737769,1.7384564,2.9786134,0.0,2,0,0,0
2733717444,37.10252893955528,-76.38808310885418,32.926785,-0.0,0.034638178,0.012175661,-1.2991083,-0.075085364,1.7385448,2.9786568,0.0,2,0,0,0
2733918052,37.10252902974651,-76.38808316924694,33.190037,-0.0,0.029908925,-0.005921998,-1.2974709,-0.07591869,1.7385545,2.978676,0.0,2,0,0,0
2734118923,37.10252909084601,-76.38808321032607,33.462505,-0.0,0.015029063,-0.020741582,-1.2900063,-0.07622295,1.7385477,2.978551,0.0,2,0,0,0
2734323816,37.10252915290633,-76.38808320168063,33.735725,-0.0,0.003256992,-0.013223855,-1.2757281,-0.076861896,1.7386892,2.97862,0.0,2,0,0,0
2734524559,37.10252920409182,-76.38808312502945,33.99634,-0.0,-0.013594276,-0.008439085,-1.2775583,-0.07739008,1.7386476,2.978617,0.0,2,0,0,0
2734724547,37.10252919777982,-76.38808304214079,34.254246,-0.0,-0.030281918,-0.022457972,-1.1742072,-0.07692298,1.7386607,2.978637,0.0,2,0,0,0
2734925335,37.10252913829293,-76.38808295456317,34.472046,-0.0,-0.041956417,-0.022718526,-0.98191124,-0.07646812,1.7386553,2.9786503,0.0,2,0,0,0
2735126166,37.10252899146207,-76.38808284246677,34.644707,-0.0,-0.16188245,0.009209291,-0.7697816,-0.07570227,1.7386353,2.9785335,0.0,2,0,0,0
2735326641,37.10252849203051,-76.3880826309617,34.800587,-0.0,-0.45284098,0.12415791,-0.6940175,-0.0069017685,1.738565,2.9785311,0.0,2,0,0,0
2735526759,37.10252738678421,-76.38808199804087,34.941574,-0.0,-0.80989295,0.40743196,-0.55148566,0.10548514,1.7385664,2.9785528,0.0,2,0,0,0
2735727818,37.10252570862463,-76.38808058298635,35.031116,-0.0,-1.0176723,0.8076276,-0.39034945,0.23225427,1.7385864,2.9786985,0.0,2,0,0,0
2735928540,37.102523726788824,-76.38807828802854,35.099056,-0.0,-1.1091785,1.172127,-0.27351242,0.37454724,1.7385558,2.9787009,0.0,2,0,0,0
2736128619,37.10252169771591,-76.38807535774887,35.160076,-0.0,-1.071137,1.3944862,-0.23979159,0.5073549,1.7385491,2.9787006,0.0,2,0,0,0
2736329321,37.10251978442835,-76.38807212710111,35.21996,-0.0,-0.9354435,1.4785236,-0.20228943,0.6091734,1.7386665,2.9787436,0.0,2,0,0,0
2736530043,37.102518196708466,-76.38806888540111,35.27917,-0.0,-0.6742118,1.4642061,-0.19652995,0.679402,1.7386117,2.9788494,0.0,2,0,0,0
2736730736,37.10251718022388,-76.3880657403584,35.325413,-0.0,-0.325409,1.46182,-0.1372855,0.72230697,1.7386249,2.9788363,0.0,2,0,0,0
2736934959,37.1025169200238,-76.38806257656675,35.365322,-0.0,0.14416386,1.5003585,-0.069769554,0.7421457,1.738622,2.9788194,0.0,2,0,0,0
2737135771,37.102517539628366,-76.38805940624299,35.380955,-0.0,0.6380456,1.5582047,-0.003138084,0.74270487,1.7386423,2.978941,0.0,2,0,0,0
2737340403,37.10251905698054,-76.38805606193235,35.386192,-0.0,1.0893176,1.6153034,0.04861874,0.7319741,1.7387894,2.9788146,0.0,2,0,0,0
2737541379,37.10252125907125,-76.38805269401135,35.375935,-0.0,1.411582,1.6379542,0.055747315,0.7204692,1.738863,2.9787955,0.0,2,0,0,0
2737741164,37.102523942703655,-76.38804931645817,35.363205,-0.0,1.6121666,1.6354492,0.043756396,0.7126465,1.7389058,2.97878,0.0,2,0,0,0
2737942226,37.10252697334497,-76.38804598256664,35.368717,-0.0,1.7407823,1.6065236,0.037375577,0.70870924,1.738958,2.9787655,0.0,2,0,0,0
2738143086,37.10253018272219,-76.38804272894076,35.375896,-0.0,1.8208203,1.5602096,0.011023611,0.707585,1.7390035,2.978745,0.0,2,0,0,0
2738343745,37.102533457761574,-76.3880395169099,35.36801,-0.0,1.8588402,1.5230788,0.014320837,0.70760703,1.7389854,2.9788454,0.0,2,0,0,0
2738544543,37.10253680285454,-76.38803630750311,35.36483,-0.0,1.8664749,1.519632,0.022003183,0.7083801,1.7391235,2.978833,0.0,2,0,0,0
2738748540,37.102540220745595,-76.38803309310686,35.360935,-0.0,1.8681414,1.507961,0.025717434,0.70937055,1.7393767,2.9788632,0.0,2,0,0,0
2738953218,37.10254369513933,-76.38802984709513,35.36512,-0.0,1.8840802,1.5150807,0.003662659,0.70929,1.7394617,2.9788418,0.0,2,0,0,0
2739154196,37.10254708949598,-76.38802664818328,35.36148,-0.0,1.8775197,1.5570049,0.035255253,0.7090121,1.7394638,2.9786897,0.0,2,0,0,0
2739354943,37.10255047747151,-76.38802345352954,35.360905,-0.0,1.9058586,1.5564576,0.00035814568,0.71140283,1.7395104,2.9786825,0.0,2,0,0,0
2739558803,37.102553906717795,-76.38802020248397,35.36577,-0.0,1.9112911,1.5476375,0.012177082,0.7135225,1.7396971,2.9787252,0.0,2,0,0,0
2739768130,37.10255743891795,-76.38801683581617,35.36367,-0.0,1.9008659,1.5660834,0.0032615196,0.71594656,1.7398839,2.9787672,0.0,2,0,0,0
2739968560,37.10256083348051,-76.38801352915222,35.361504,-0.0,1.903719,1.5709778,0.055694398,0.71941686,1.739841,2.9787357,0.0,2,0,0,0
2740168526,37.10256422701426,-76.38801009989706,35.364582,-0.0,1.9059424,1.5967524,0.032106705,0.7217186,1.7398787,2.9787307,0.0,2,0,0,0
2740370305,37.102567641646814,-76.38800655183607,35.37379,-0.0,1.8934125,1.635536,0.026640482,0.72384715,1.7399145,2.9787295,0.0,2,0,0,0
2740578025,37.102571174637305,-76.38800275330287,35.382893,-0.0,1.9022377,1.6802572,0.06290519,0.7263053,1.7400501,2.9787745,0.0,2,0,0,0
2740778916,37.10257459009397,-76.38799895524176,35.377434,-0.0,1.9251608,1.7249874,0.08140127,0.7277043,1.7400769,2.9786367,0.0,2,0,0,0
2740978948,37.10257802373355,-76.38799498834904,35.38287,-0.0,1.93282,1.7780049,0.04683385,0.72751606,1.7401061,2.9786427,0.0,2,0,0,0
2741183757,37.10258153905739,-76.38799079064138,35.370556,-0.0,1.907301,1.8219416,0.039659705,0.72340995,1.7402103,2.97867,0.0,2,0,0,0
2741384568,37.102584942610825,-76.38798660020208,35.367413,-0.0,1.895958,1.8266464,0.035141036,0.71827525,1.7402476,2.9786718,0.0,2,0,0,0
2741593740,37.102588490594734,-76.38798221972579,35.36811,-0.0,1.9008462,1.7909608,0.013824765,0.713386,1.7404468,2.9787269,0.0,2,0,0,0
2741793382,37.10259193277684,-76.38797803801788,35.364975,-0.0,1.9145675,1.7555416,0.067437045,0.71019703,1.7405387,2.9787307,0.0,2,0,0,0
2741994258,37.10259537358626,-76.38797393360639,35.35677,-0.0,1.9220302,1.7367427,0.04734515,0.70639896,1.7405795,2.9787285,0.0,2,0,0,0
2742194934,37.10259884269809,-76.38796988975893,35.356564,-0.0,1.9566531,1.6922402,0.04737534,0.70255446,1.740798,2.9787729,0.0,2,0,0,0
2742395733,37.10260235105612,-76.38796589499073,35.358284,-0.0,2.0057592,1.6431649,0.030594347,0.7013714,1.737371,2.9786499,0.0,2,0,0,0
2742600917,37.102605999109485,-76.3879619551523,35.35957,-0.0,2.0316818,1.619499,0.02723279,0.7024607,1.740846,2.9787529,0.0,2,0,0,0
2742804390,37.10260969031997,-76.38795806546851,35.341187,-0.0,2.058693,1.5857153,0.003238697,0.71101284,1.7375954,2.9787087,0.0,2,0,0,0
2743005362,37.10261332087657,-76.38795419298975,35.341835,-0.0,2.0238929,1.6446229,-0.0397655,0.71892935,1.7410833,2.9788024,0.0,2,0,0,0
2743206134,37.102616931124196,-76.38795016634695,35.335426,-0.0,1.9867333,1.6944319,-0.03744734,0.7232004,1.741104,2.9787996,0.0,2,0,0,0
2743407101,37.102620489432375,-76.3879459671728,35.315052,-0.0,1.9676678,1.7680833,-0.04236557,0.72350025,1.7376486,2.9786997,0.0,2,0,0,0
2743606953,37.102624004652135,-76.38794160536061,35.30388,-0.0,1.9531682,1.83458,-0.048845734,0.72266203,1.7410702,2.9787765,0.0,2,0,0,0
2743811775,37.102627632946195,-76.38793706761976,35.29715,-0.0,1.9827706,1.8339508,-0.05251488,0.7217149,1.7377503,2.978588,0.0,2,0,0,0
2744016573,37.10263128957704,-76.3879325710864,35.286354,-0.0,2.0002303,1.8403671,-0.05209632,0.7200823,1.7377627,2.978596,0.0,2,0,0,0
2744217380,37.10263493667004,-76.38792822635037,35.274525,-0.0,2.040465,1.7955548,-0.05764276,0.71902615,1.7377716,2.9786084,0.0,2,0,0,0
2744421181,37.10263869052435,-76.38792388978717,35.29319,-0.0,2.07603,1.7500472,-0.091444544,0.7192711,1.7378883,2.9785333,0.0,2,0,0,0
2744622144,37.10264241127212,-76.38791977719937,35.308666,-0.0,2.0869281,1.7127631,-0.10073304,0.71996826,1.7378951,2.9786792,0.0,2,0,0,0
2744823027,37.10264617651494,-76.3879157306385,35.30695,-0.0,2.0895586,1.7235942,-0.07138351,0.7194249,1.7378893,2.9785464,0.0,2,0,0,0
2745023733,37.10264998313092,-76.38791175475008,35.30985,-0.0,2.103675,1.7127908,-0.071382746,0.7196302,1.7378945,2.9785588,0.0,2,0,0,0
2745223833,37.10265377046643,-76.38790782140244,35.298134,-0.0,2.1064045,1.7266141,-0.06710909,0.71857125,1.7378972,2.9785697,0.0,2,0,0,0
2745428550,37.10265765976068,-76.387903804865,35.280624,-0.0,2.1090267,1.7124816,-0.08686896,0.71933347,1.7379266,2.9785793,0.0,2,0,0,0
2745629364,37.102661473100035,-76.3878999190691,35.267654,-0.0,2.1151388,1.6831385,-0.11631737,0.7198318,1.7379243,2.9785855,0.0,2,0,0,0
2745830218,37.10266524026253,-76.38789614145384,35.26937,-0.0,2.0859313,1.6836073,-0.1280438,0.71941024,1.7379509,2.978598,0.0,2,0,0,0
2746034028,37.102669048798326,-76.38789239676593,35.278755,-0.0,2.074359,1.6546146,-0.10873102,0.7185989,1.7380772,2.9785237,0.0,2,0,0,0
2746234970,37.10267280360987,-76.38788875802189,35.294254,-0.0,2.0350676,1.6748906,-0.06903483,0.7178036,1.7380289,2.978518,0.0,2,0,0,0
2746435805,37.102676567546695,-76.38788516227046,35.309082,-0.0,2.0053716,1.670109,-0.04715023,0.7184944,1.7380588,2.9785306,0.0,2,0,0,0
2746640541,37.1026803639031,-76.38788151019143,35.31702,-0.0,1.9808077,1.7003222,-0.052651633,0.7194784,1.7382274,2.978594,0.0,2,0,0,0
2746840423,37.10268406306924,-76.38787790663187,35.31393,-0.0,1.9773239,1.7039678,-0.06678941,0.72130567,1.7382879,2.9786105,0.0,2,0,0,0
2747041367,37.10268773396701,-76.387874226076,35.32526,-0.0,1.9484744,1.7602403,-0.06389747,0.72188866,1.7383196,2.9786243,0.0,2,0,0,0
2747242233,37.10269135103804,-76.38787050583875,35.341747,-0.0,1.9391918,1.7904127,-0.047258575,0.7227245,1.7383847,2.9785058,0.0,2,0,0,0
2747443011,37.102694907832976,-76.38786665980517,35.35325,-0.0,1.8999264,1.8464538,-0.027546199,0.7203612,1.7384322,2.9785268,0.0,2,0,0,0
2747642954,37.10269843244856,-76.38786274531363,35.365204,-0.0,1.9245653,1.8677459,-0.022625465,0.71930635,1.7384706,2.97855,0.0,2,0,0,0
2747843819,37.10270198677349,-76.3878587808821,35.372204,-0.0,1.9161476,1.90266,-0.027070496,0.71657157,1.7385079,2.9785674,0.0,2,0,0,0
2748044684,37.10270555399763,-76.38785476487593,35.37583,-0.0,1.9479969,1.8872768,-0.0036717989,0.71644163,1.7384974,2.9785686,0.0,2,0,0,0
2748249336,37.10270920547843,-76.38785064060241,35.380867,-0.0,1.947924,1.8855577,0.013431165,0.71704066,1.7386605,2.9784963,0.0,2,0,0,0
2748450015,37.102712790610354,-76.38784657884969,35.387337,-0.0,1.9417878,1.889612,0.0055659376,0.71729106,1.7386976,2.97852,0.0,2,0,0,0
2748654156,37.10271639989402,-76.38784245119858,35.388035,-0.0,1.9529988,1.8673614,-0.0052400082,0.7146895,1.7387111,2.9785428,0.0,2,0,0,0
2748854828,37.10271995531631,-76.38783839290763,35.38693,-0.0,1.9318289,1.8593411,0.029382247,0.7114506,1.7386885,2.978557,0.0,2,0,0,0
2749055715,37.10272348988008,-76.3878343788781,35.383007,-0.0,1.9397411,1.8642298,0.052553415,0.708417,1.7388031,2.9786234,0.0,2,0,0,0
2749256592,37.10272703048159,-76.3878303776665,35.361885,-0.0,1.9697294,1.8477248,0.04365168,0.7065579,1.7387109,2.9786155,0.0,2,0,0,0
2749456828,37.10273059461703,-76.3878264337714,35.33292,-0.0,1.9993746,1.8282014,0.03373384,0.7076667,1.7386878,2.9786327,0.0,2,0,0,0
2749657459,37.10273425134525,-76.38782251245884,35.310978,-0.0,2.0127304,1.814023,0.0101247085,0.7101766,1.738636,2.9785101,0.0,2,0,0,0
2749858135,37.10273796574228,-76.38781863454771,35.29575,-0.0,2.021936,1.8077203,-0.011163964,0.7121928,1.7385765,2.978529,0.0,2,0,0,0
2750061986,37.102741734171715,-76.38781477816514,35.30829,-0.0,2.0333986,1.782889,-0.0031596147,0.7140292,1.7385359,2.9785485,0.0,2,0,0,0
2750263051,37.10274543807054,-76.38781098957271,35.3122,-0.0,2.0056362,1.7872816,0.012122806,0.71468127,1.7385616,2.9785905,0.0,2,0,0,0
2750463714,37.10274912392417,-76.38780716106245,35.31029,-0.0,2.0009148,1.7980319,0.013356121,0.7155032,1.7384957,2.9786012,0.0,2,0,0,0
2750668570,37.102752852798076,-76.38780325521195,35.32101,-0.0,1.9893757,1.7922428,0.01073079,0.71679103,1.7385844,2.9786658,0.0,2,0,0,0
2750868545,37.10275646931827,-76.38779940579566,35.330673,-0.0,1.9762998,1.7920893,0.018046474,0.71759933,1.7384917,2.978655,0.0,2,0,0,0
2751073071,37.10276017870607,-76.3877954135283,35.329575,-0.0,1.9726595,1.793888,0.016798776,0.71734136,1.7384727,2.978667,0.0,2,0,0,0
2751274225,37.10276382936112,-76.38779144515486,35.32242,-0.0,1.9685907,1.8177153,0.05463659,0.71643156,1.7384549,2.9786766,0.0,2,0,0,0
2751474991,37.102767521183814,-76.3877874399823,35.324192,-0.0,1.9824005,1.8170551,0.040147997,0.71594334,1.7384624,2.9786878,0.0,2,0,0,0
2751674926,37.10277121578519,-76.38778342973367,35.321926,-0.0,1.9914682,1.841869,0.020091096,0.7145659,1.7384804,2.9786987,0.0,2,0,0,0
2751875712,37.10277490452014,-76.38777936773819,35.32046,-0.0,1.9868643,1.8347373,0.040796675,0.7136526,1.7385749,2.9785943,0.0,2,0,0,0
2752076554,37.1027785688289,-76.38777525479162,35.31673,-0.0,1.9733036,1.8665004,0.043214314,0.7125814,1.7385961,2.9786015,0.0,2,0,0,0
2752277488,37.102782228677775,-76.38777108719471,35.313126,-0.0,1.9864485,1.8594322,0.039312683,0.71243757,1.7386358,2.978615,0.0,2,0,0,0
2752478027,37.102785910551326,-76.38776686911999,35.303085,-0.0,1.9880852,1.8912002,0.04269877,0.7127922,1.7386519,2.978627,0.0,2,0,0,0
2752682194,37.10278969623606,-76.3877625632311,35.308964,-0.0,1.9967171,1.8735317,0.038865216,0.714647,1.7387524,2.9786627,0.0,2,0,0,0
2752882977,37.10279343601859,-76.38775830246384,35.3131,-0.0,2.0182772,1.8900118,0.018557696,0.7155049,1.7387776,2.9786692,0.0,2,0,0,0
2753083612,37.10279719216511,-76.38775403801846,35.310486,-0.0,2.030605,1.873681,0.026048731,0.71608347,1.7388104,2.9786777,0.0,2,0,0,0
2753284419,37.102800948517356,-76.3877497534849,35.282887,-0.0,2.0351188,1.8761463,0.060936194,0.7155017,1.7388381,2.9786851,0.0,2,0,0,0
2753488543,37.10280476494013,-76.38774536969514,35.25481,-0.0,2.0414028,1.8661627,0.027872311,0.71493363,1.7388635,2.9786918,0.0,2,0,0,0
2753689215,37.10280852705558,-76.38774106150277,35.23323,-0.0,2.055967,1.8529269,-0.004621681,0.71493316,1.7388817,2.9786925,0.0,2,0,0,0
2753890150,37.10281226292637,-76.38773681561639,35.22402,-0.0,2.0406356,1.8405972,-0.0020953193,0.71476215,1.7389095,2.9786973,0.0,2,0,0,0
2754094909,37.102816058798936,-76.38773255820186,35.22189,-0.0,2.0557525,1.7991935,-0.02499307,0.7142428,1.7390705,2.978614,0.0,2,0,0,0
2754295063,37.10281977322766,-76.3877284855555,35.228306,-0.0,2.0637312,1.7742443,-0.037007257,0.7127848,1.7390825,2.9786184,0.0,2,0,0,0
2754495615,37.102823507279425,-76.38772446117103,35.243267,-0.0,2.06289,1.7404907,-0.041186012,0.7119923,1.7390877,2.978618,0.0,2,0,0,0
2754696340,37.10282722308003,-76.38772046229374,35.237663,-0.0,2.0602643,1.7309612,-0.030157963,0.71164274,1.7391038,2.9786255,0.0,2,0,0,0
2754897383,37.10283093201919,-76.38771646686796,35.242332,-0.0,2.0616736,1.7247801,-0.02125125,0.7109779,1.7391065,2.978631,0.0,2,0,0,0
2755097388,37.10283463087209,-76.3877125147251,35.2659,-0.0,2.0529845,1.7297541,-0.024128567,0.7111539,1.7391107,2.9786377,0.0,2,0,0,0
2755297917,37.10283833150875,-76.38770858569141,35.283638,-0.0,2.039641,1.7345539,0.018139545,0.7114779,1.73909,2.978641,0.0,2,0,0,0
2755499008,37.102842009846086,-76.38770468107877,35.300068,-0.0,2.0473318,1.7352688,0.009416021,0.7119994,1.7391036,2.9786508,0.0,2,0,0,0
2755699760,37.10284568001836,-76.38770078585367,35.29811,-0.0,2.0365977,1.7331011,0.027503323,0.7127397,1.7392215,2.9785516,0.0,2,0,0,0
2755903583,37.10284940892314,-76.38769684094653,35.28524,-0.0,2.0515027,1.7033002,0.03684574,0.7137778,1.7391859,2.9785419,0.0,2,0,0,0
2756104524,37.1028530725769,-76.38769298210018,35.28171,-0.0,2.0440392,1.6957122,-0.005244782,0.7145314,1.739209,2.9785523,0.0,2,0,0,0
2756305223,37.102856711392654,-76.38768915904147,35.278606,-0.0,2.0251074,1.6895796,0.010087447,0.7157356,1.7392615,2.9785671,0.0,2,0,0,0
2756510171,37.10286039700226,-76.38768529912981,35.257904,-0.0,2.010265,1.6732116,0.025290927,0.71740675,1.7394546,2.97863,0.0,2,0,0,0
2756714162,37.102864043227974,-76.38768145817636,35.240692,-0.0,2.007808,1.6618934,-0.016636107,0.7193147,1.7395129,2.9786427,0.0,2,0,0,0
2756914941,37.102867577134354,-76.38767768021708,35.24268,-0.0,1.9875339,1.6729974,-0.035560377,0.7197315,1.7395583,2.9786484,0.0,2,0,0,0
2757115785,37.102871062943024,-76.38767391580696,35.22652,-0.0,1.9687418,1.6759278,-0.040417783,0.7191195,1.7396191,2.9786592,0.0,2,0,0,0
2757316635,37.10287451753277,-76.38767013421213,35.208706,-0.0,1.9470996,1.7053726,-0.03395102,0.7171687,1.7396992,2.97867,0.0,2,0,0,0
2757520562,37.10287800670335,-76.38766625556548,35.202324,-0.0,1.9414517,1.7077147,-0.051049583,0.7168503,1.7399107,2.97859,0.0,2,0,0,0
2757721453,37.102881451687146,-76.38766241034067,35.201584,-0.0,1.9601569,1.7000906,-0.067196496,0.7172251,1.7399669,2.9785953,0.0,2,0,0,0
2757921940,37.10288491883272,-76.38765857444972,35.20738,-0.0,1.9611675,1.6964,-0.07344012,0.7171787,1.7400365,2.978604,0.0,2,0,0,0
2758126757,37.10288845953114,-76.38765468685504,35.22287,-0.0,1.9603947,1.6987226,-0.065803334,0.7165278,1.7402402,2.9786606,0.0,2,0,0,0
2758327091,37.10289190595535,-76.3876509031615,35.24623,-0.0,1.9589443,1.6886686,-0.057159744,0.71581835,1.7401978,2.9786446,0.0,2,0,0,0
2758527807,37.102895353957535,-76.38764713994254,35.273273,-0.0,1.9629523,1.6775396,-0.024827158,0.7154197,1.7401578,2.9786294,0.0,2,0,0,0
2758732601,37.10289885136083,-76.38764334797882,35.285694,-0.0,1.9365673,1.6945746,-0.01549659,0.71428686,1.7403097,2.9786785,0.0,2,0,0,0
2758933341,37.10290229270728,-76.38763963772081,35.296116,-0.0,1.9255605,1.6881636,0.014941587,0.7139647,1.7402959,2.978681,0.0,2,0,0,0
2759133447,37.102905743179086,-76.38763596700362,35.30089,-0.0,1.9319607,1.6789292,0.027392995,0.71456975,1.7403028,2.9786844,0.0,2,0,0,0
2759338276,37.10290924936441,-76.38763223301174,35.31248,-0.0,1.9185096,1.6877966,0.021182664,0.7144124,1.7402978,2.9786928,0.0,2,0,0,0
2759539120,37.10291268604481,-76.38762857120861,35.315956,-0.0,1.9231052,1.6905695,0.033659704,0.7149128,1.7402978,2.9786966,0.0,2,0,0,0
2759739755,37.10291615106219,-76.3876248954362,35.30914,-0.0,1.9378169,1.690437,0.032933053,0.7160145,1.7404346,2.9786139,0.0,2,0,0,0
2759943736,37.1029196883974,-76.38762112537026,35.304665,-0.0,1.9336811,1.6996956,0.040015597,0.71576613,1.7403859,2.9785979,0.0,2,0,0,0
2760144601,37.10292319039691,-76.38761736187439,35.30636,-0.0,1.9266456,1.7207462,0.041537542,0.7151239,1.7404263,2.978612,0.0,2,0,0,0
2760345357,37.10292671256847,-76.38761358387691,35.300602,-0.0,1.932924,1.72397,0.026987804,0.7145097,1.7404463,2.97862,0.0,2,0,0,0
2760546045,37.10293025655876,-76.38760979503942,35.30551,-0.0,1.9387105,1.7143015,0.022517266,0.713845,1.7404969,2.9786363,0.0,2,0,0,0
2760746141,37.10293378593441,-76.38760604275322,35.306435,-0.0,1.9424843,1.7107819,0.03515915,0.7137697,1.7405214,2.9786513,0.0,2,0,0,0
2760951122,37.10293740361466,-76.38760219044173,35.313873,-0.0,1.951337,1.7089432,0.018914793,0.7148127,1.7407043,2.978577,0.0,2,0,0,0
2761151611,37.102940950006044,-76.38759840397972,35.320984,-0.0,1.9444926,1.7086406,0.046531368,0.7165213,1.7407292,2.9785938,0.0,2,0,0,0
2761352605,37.102944500788546,-76.387594587961,35.334995,-0.0,1.948363,1.7187713,0.040636465,0.7182158,1.7407495,2.9786098,0.0,2,0,0,0
2761556664,37.10294809761015,-76.3875907119205,35.3467,-0.0,1.9620494,1.7116563,0.05127401,0.71964103,1.7407678,2.9786265,0.0,2,0,0,0
2761761228,37.102951654773435,-76.38758678813878,35.350018,-0.0,1.94218,1.7347797,0.06748519,0.721007,1.740939,2.9786873,0.0,2,0,0,0
2761962187,37.10295508514014,-76.38758292043688,35.345352,-0.0,1.9348,1.7427694,0.06918985,0.72328216,1.7409242,2.9786932,0.0,2,0,0,0
2762162996,37.102958491355004,-76.38757906606646,35.32347,-0.0,1.9178332,1.7392317,0.061387114,0.72595936,1.740841,2.9785485,0.0,2,0,0,0
2762363628,37.10296188151434,-76.38757523551769,35.292854,-0.0,1.9036388,1.7456827,0.029233914,0.73791474,1.7408327,2.9787035,0.0,2,0,0,0
2762568011,37.10296546770032,-76.38757134247385,35.315575,-0.0,2.0898445,1.7902595,-0.3715577,0.8389223,1.740944,2.978628,0.0,2,0,0,0
2762768566,37.10296963373296,-76.38756718138987,35.441387,-0.0,2.6393878,2.03877,-0.933279,0.969365,1.7409155,2.9787734,0.0,2,0,0,0
2762969360,37.102974942511686,-76.38756221555929,35.668636,-0.0,3.2581244,2.470042,-1.1968747,1.0777553,1.7409508,2.9787736,0.0,2,0,0,0
2763169418,37.10298130950548,-76.38755616189864,35.91352,-0.0,3.8144026,2.993516,-1.2002685,1.1519272,1.7408977,2.9787526,0.0,2,0,0,0
2763370149,37.10298851995614,-76.38754881103519,36.139,-0.0,4.1694345,3.5424538,-1.1109657,1.1906567,1.7409455,2.9787536,0.0,2,0,0,0
2763570973,37.10299618084936,-76.38754031287351,36.354927,-0.0,4.2735305,3.93782,-1.0663395,1.21003,1.7410201,2.9787467,0.0,2,0,0,0
2763772049,37.103003744586196,-76.38753113526893,36.576847,-0.0,4.0936074,4.1327395,-1.1777118,1.2240454,1.741084,2.9787362,0.0,2,0,0,0
2763971885,37.10301081081092,-76.38752162649384,36.82199,-0.0,3.7664716,4.2566996,-1.2648028,1.224,1.7411395,2.9787257,0.0,2,0,0,0
2764176629,37.10301736875118,-76.38751152434669,37.091187,-0.0,3.3787792,4.4442577,-1.3188033,1.2218987,1.7412592,2.9787412,0.0,2,0,0,0
2764377463,37.10302313949588,-76.3875010596764,37.382233,-0.0,3.0191917,4.772151,-1.365283,1.2203741,1.7412522,2.9787283,0.0,2,0,0,0
2764577960,37.10302840380832,-76.38748982240315,37.678555,-0.0,2.7640657,5.1732774,-1.3656114,1.2242076,1.7412469,2.9788597,0.0,2,0,0,0
2764778145,37.10303326275485,-76.38747768655053,37.960598,-0.0,2.5653105,5.5895147,-1.3012493,1.2296607,1.7412438,2.9788425,0.0,2,0,0,0
2764978830,37.10303781060915,-76.38746461120353,38.22868,-0.0,2.4128482,5.9766927,-1.3288896,1.2312934,1.7413179,2.9788492,0.0,2,0,0,0
2765179592,37.10304207220896,-76.38745087588187,38.48705,-0.0,2.2838874,6.236884,-1.3679755,1.2299789,1.7412813,2.978831,0.0,2,0,0,0
2765380580,37.10304613812305,-76.38743663256693,38.751972,-0.0,2.218447,6.4086075,-1.3945055,1.2255039,1.7412918,2.9788175,0.0,2,0,0,0
2765584575,37.10305020883777,-76.38742181033268,39.022015,-0.0,2.2301233,6.539497,-1.4200872,1.2216334,1.7412899,2.9788077,0.0,2,0,0,0
2765785364,37.10305431097531,-76.38740698340816,39.302624,-0.0,2.2655623,6.5753,-1.4752717,1.2263263,1.7412988,2.9787974,0.0,2,0,0,0
2765986167,37.10305853071308,-76.38739196637864,39.60925,-0.0,2.3046918,6.5776215,-1.5190461,1.231034,1.7413092,2.9787848,0.0,2,0,0,0
2766190807,37.10306290146543,-76.38737672883259,39.928886,-0.0,2.369819,6.5511966,-1.4779335,1.2366304,1.7413915,2.9786906,0.0,2,0,0,0
2766391779,37.10306724724123,-76.38736180707683,40.222233,-0.0,2.3939147,6.575762,-1.4634367,1.2415433,1.7412236,2.97867,0.0,2,0,0,0
2766591754,37.10307159829841,-76.38734692808663,40.517933,-0.0,2.3892915,6.583474,-1.4642543,1.2447487,1.7411375,2.978673,0.0,2,0,0,0
2766792679,37.10307595079447,-76.3873319638827,40.802757,-0.0,2.3751023,6.6093307,-1.4714112,1.2454243,1.741033,2.9786723,0.0,2,0,0,0
2766993182,37.10308026953106,-76.38731695528605,41.07682,-0.0,2.351853,6.6471577,-1.4645838,1.2450929,1.7409068,2.978808,0.0,2,0,0,0
2767194181,37.103084548058426,-76.3873018286126,41.34745,-0.0,2.3072524,6.6802516,-1.4203663,1.242581,1.7408096,2.9788039,0.0,2,0,0,0
2767398132,37.10308882521087,-76.38728635003457,41.6291,-0.0,2.3123105,6.7039266,-1.419125,1.2418749,1.7408625,2.9788456,0.0,2,0,0,0
2767598957,37.10309300534329,-76.38727108702308,41.911823,-0.0,2.3013487,6.7220793,-1.3696216,1.2390387,1.7407532,2.978831,0.0,2,0,0,0
2767801003,37.10309717751461,-76.38725579078111,42.19381,-0.0,2.335916,6.7245364,-1.3887635,1.2383015,1.7372504,2.9787242,0.0,2,0,0,0
2768004584,37.103101487594664,-76.38724009609213,42.47388,-0.0,2.3488312,6.726275,-1.3605131,1.2373407,1.740715,2.9788413,0.0,2,0,0,0
2768208589,37.10310578600879,-76.38722451700329,42.77407,-0.0,2.3370159,6.74383,-1.3603785,1.2366567,1.7372231,2.9785976,0.0,2,0,0,0
2768409380,37.10311004153845,-76.38720914190993,43.05145,-0.0,2.3877556,6.731785,-1.363239,1.237757,1.7406014,2.9786894,0.0,2,0,0,0
2768610052,37.10311427860943,-76.38719382451912,43.317654,-0.0,2.3804736,6.7402945,-1.3847218,1.2373999,1.7405294,2.9786916,0.0,2,0,0,0
2768810393,37.103118496124196,-76.38717863268649,43.565765,-0.0,2.3730938,6.7364106,-1.351543,1.2346815,1.7370428,2.9785967,0.0,2,0,0,0
2769015013,37.10312284372579,-76.3871630977665,43.809143,-0.0,2.390918,6.7299366,-1.3223395,1.2324601,1.7370644,2.9786232,0.0,2,0,0,0
2769216009,37.10312709314134,-76.38714783243972,44.05129,-0.0,2.3914409,6.7287574,-1.3505496,1.2303947,1.7370224,2.9786227,0.0,2,0,0,0
2769416530,37.10313136114922,-76.38713263167614,44.311584,-0.0,2.3927133,6.7282376,-1.3759375,1.2293609,1.7404087,2.978723,0.0,2,0,0,0
2769621224,37.10313572294798,-76.38711718968402,44.579224,-0.0,2.4358385,6.7238464,-1.3648055,1.2290871,1.7370932,2.9785407,0.0,2,0,0,0
2769821395,37.10314001167332,-76.38710207021461,44.831375,-0.0,2.4687746,6.71084,-1.3355362,1.2287008,1.7371022,2.9785483,0.0,2,0,0,0
2770022170,37.10314440015939,-76.38708686329404,45.08284,-0.0,2.4640007,6.734159,-1.3222429,1.2249042,1.7370853,2.9786835,0.0,2,0,0,0
2770223013,37.103148831732426,-76.3870716749968,45.330273,-0.0,2.5193627,6.7333674,-1.2719429,1.2234764,1.7370828,2.9786847,0.0,2,0,0,0
2770423015,37.103153249306764,-76.38705654739162,45.579193,-0.0,2.5310562,6.7510276,-1.3033527,1.222177,1.7370818,2.97855,0.0,2,0,0,0
2770623909,37.10315766571278,-76.38704141913945,45.81118,-0.0,2.5249681,6.730551,-1.2919825,1.2227347,1.7370994,2.978553,0.0,2,0,0,0
2770828546,37.103162160814286,-76.38702595592956,46.05257,-0.0,2.5059319,6.7386317,-1.301768,1.2221954,1.7372314,2.9785976,0.0,2,0,0,0
2771029154,37.10316659176201,-76.3870107620333,46.316612,-0.0,2.4864588,6.741467,-1.3156775,1.2220498,1.7371957,2.978574,0.0,2,0,0,0
2771229992,37.103171024011324,-76.38699553884224,46.58481,-0.0,2.5050998,6.7333317,-1.288056,1.2222447,1.7372214,2.9785779,0.0,2,0,0,0
2771434134,37.10317552246887,-76.38698006612063,46.86202,-0.0,2.5091627,6.743863,-1.3064674,1.2230562,1.7372442,2.9785798,0.0,2,0,0,0
2771634969,37.10317996020316,-76.38696482253695,47.134323,-0.0,2.5032327,6.741787,-1.3111144,1.22521,1.7373806,2.9786248,0.0,2,0,0,0
2771835726,37.103184400268226,-76.38694955297062,47.401047,-0.0,2.5214128,6.74332,-1.306624,1.2268593,1.7373272,2.9786036,0.0,2,0,0,0
2772036532,37.10318881419005,-76.38693432099754,47.666977,-0.0,2.4930298,6.758428,-1.3337303,1.2268664,1.7373375,2.978608,0.0,2,0,0,0
2772236587,37.103193169995116,-76.38691913190884,47.937107,-0.0,2.4894962,6.7564616,-1.3025591,1.2283869,1.7373458,2.9786084,0.0,2,0,0,0
2772441330,37.10319758150959,-76.386903525016,48.212948,-0.0,2.4655218,6.7825093,-1.3304775,1.2273765,1.7373407,2.9786034,0.0,2,0,0,0
2772642048,37.10320186101255,-76.38688819849239,48.489426,-0.0,2.468802,6.7735996,-1.2978283,1.2271638,1.7373464,2.9787405,0.0,2,0,0,0
2772843047,37.103206127820144,-76.3868728693863,48.77458,-0.0,2.4760606,6.77154,-1.3486348,1.2273508,1.7373511,2.9785976,0.0,2,0,0,0
2773046974,37.10321045198478,-76.38685731466573,49.05395,-0.0,2.4758801,6.767549,-1.3636248,1.2279973,1.7375005,2.9786477,0.0,2,0,0,0
2773251818,37.1032148000238,-76.38684161756444,49.337788,-0.0,2.4759035,6.7956815,-1.367737,1.2283069,1.7375871,2.9786742,0.0,2,0,0,0
2773452560,37.10321911718638,-76.38682615196689,49.5845,-0.0,2.496185,6.7964582,-1.3573023,1.2303398,1.7376025,2.9785373,0.0,2,0,0,0
2773653197,37.103223464673476,-76.38681063272792,49.827496,-0.0,2.4882874,6.8209443,-1.3700403,1.233352,1.7376264,2.9785438,0.0,2,0,0,0
2773857504,37.103227866704174,-76.38679486752841,50.07515,-0.0,2.4963872,6.811362,-1.3391849,1.2339917,1.7376297,2.9785504,0.0,2,0,0,0
2774058115,37.10323214317314,-76.3867793772785,50.33021,-0.0,2.4967918,6.7998343,-1.3479769,1.2334754,1.7376297,2.978551,0.0,2,0,0,0
2774258940,37.10323641168122,-76.38676391989017,50.588615,-0.0,2.500435,6.7998743,-1.3255192,1.2310569,1.7376581,2.9785554,0.0,2,0,0,0
2774459578,37.10324071710102,-76.38674846964017,50.84057,-0.0,2.5257368,6.799729,-1.2800792,1.2290685,1.7377839,2.9786112,0.0,2,0,0,0
2774663791,37.10324511740859,-76.38673276456808,51.084686,-0.0,2.5153,6.8118825,-1.2315254,1.2237095,1.7377149,2.9785955,0.0,2,0,0,0
2774864561,37.1032494741462,-76.38671724032862,51.31937,-0.0,2.551541,6.824229,-1.2522542,1.2187265,1.7377367,2.978605,0.0,2,0,0,0
2775065365,37.10325388728109,-76.38670165534991,51.577778,-0.0,2.5815332,6.840611,-1.2667923,1.2092459,1.7377245,2.9786098,0.0,2,0,0,0
2775266157,37.10325839022822,-76.38668608869267,51.846855,-0.0,2.6636221,6.8181605,-1.2960426,1.2055322,1.7378546,2.97853,0.0,2,0,0,0
2775466222,37.10326304329914,-76.38667066423864,52.122852,-0.0,2.7501292,6.793168,-1.30504,1.2059555,1.7378006,2.9785168,0.0,2,0,0,0
2775666953,37.10326788059286,-76.38665516665547,52.397305,-0.0,2.8171303,6.778806,-1.2690176,1.2072551,1.7378186,2.9785237,0.0,2,0,0,0
2775867614,37.10327280852178,-76.38663962983978,52.66178,-0.0,2.8402348,6.7771573,-1.2501345,1.2092544,1.737844,2.978535,0.0,2,0,0,0
2776068566,37.10327777837101,-76.38662408433258,52.89716,-0.0,2.8254702,6.7784266,-1.2642684,1.213645,1.737866,2.978547,0.0,2,0,0,0
2776268569,37.103282705541474,-76.38660859061363,53.14478,-0.0,2.763006,6.7841845,-1.2333252,1.2173471,1.737829,2.9785342,0.0,2,0,0,0
2776469384,37.10328756732135,-76.38659302617724,53.38984,-0.0,2.710467,6.7929564,-1.2462716,1.2209016,1.7378236,2.9785423,0.0,2,0,0,0
2776669997,37.10329229873492,-76.38657746449343,53.611866,-0.0,2.6255028,6.7994633,-1.1906424,1.2219293,1.7378482,2.9785547,0.0,2,0,0,0
2776871117,37.10329687871762,-76.38656185506323,53.835445,-0.0,2.5190213,6.844128,-1.2149906,1.2224889,1.7378681,2.978564,0.0,2,0,0,0
2777070815,37.103301265142136,-76.38654631101615,54.063484,-0.0,2.425102,6.839377,-1.2455524,1.2242244,1.7378665,2.9785714,0.0,2,0,0,0
2777275785,37.1033056233617,-76.38653040504131,54.291355,-0.0,2.37629,6.850233,-1.2494787,1.2232237,1.738015,2.9786239,0.0,2,0,0,0
2777476410,37.10330986912565,-76.38651483492555,54.52907,-0.0,2.3807952,6.833714,-1.2595185,1.2235695,1.7379998,2.9786236,0.0,2,0,0,0
2777677456,37.10331412346478,-76.38649933380364,54.78722,-0.0,2.4126847,6.8254833,-1.2881386,1.226237,1.7379996,2.9786248,0.0,2,0,0,0
2777881402,37.103318469810276,-76.38648367756741,55.050236,-0.0,2.4260821,6.7848587,-1.2673041,1.2275538,1.7380011,2.978626,0.0,2,0,0,0
2778082016,37.10332275845288,-76.3864683038513,55.3046,-0.0,2.395088,6.7925973,-1.2362392,1.2253711,1.7380676,2.9786513,0.0,2,0,0,0
2778286938,37.10332717923888,-76.38645261595154,55.56955,-0.0,2.4343474,6.775421,-1.2775835,1.225373,1.738195,2.9786983,0.0,2,0,0,0
2778487580,37.10333155597637,-76.38643724937107,55.82811,-0.0,2.4342375,6.751694,-1.2550961,1.2230567,1.7381454,2.9786766,0.0,2,0,0,0
2778688032,37.103335967087865,-76.38642198576574,56.08437,-0.0,2.4984593,6.718555,-1.2977675,1.2231661,1.738162,2.9786806,0.0,2,0,0,0
2778892609,37.103340539914846,-76.3864064174394,56.345623,-0.0,2.498057,6.7016892,-1.2553245,1.223208,1.738177,2.9786856,0.0,2,0,0,0
2779093206,37.10334504776662,-76.38639117378786,56.608974,-0.0,2.5317202,6.7015553,-1.224363,1.223613,1.7381766,2.9785485,0.0,2,0,0,0
2779294144,37.10334958161899,-76.38637575712858,56.83643,-0.0,2.4854891,6.7502093,-1.1850692,1.2232223,1.7382416,2.9785552,0.0,2,0,0,0
2779498159,37.10335416466176,-76.3863600400513,57.06168,-0.0,2.470719,6.765504,-1.1658478,1.2232085,1.7383761,2.9786088,0.0,2,0,0,0
2779698989,37.10335859504176,-76.3863445971509,57.289936,-0.0,2.440257,6.7858586,-1.1711347,1.2216575,1.738376,2.9786177,0.0,2,0,0,0
2779899565,37.103362964628644,-76.38632913850624,57.50821,-0.0,2.4145868,6.8076305,-1.1582603,1.2205106,1.7383616,2.9786208,0.0,2,0,0,0
2780100377,37.10336729297727,-76.386313681409,57.72237,-0.0,2.3681872,6.8249254,-1.1503247,1.2203761,1.7383611,2.9784975,0.0,2,0,0,0
2780300518,37.10337156492507,-76.38629831360967,57.942017,-0.0,2.3654556,6.825419,-1.1693647,1.2181425,1.7383597,2.9785125,0.0,2,0,0,0
2780501351,37.10337582095271,-76.38628294305593,58.15827,-0.0,2.3563015,6.8006525,-1.2294178,1.2168397,1.7383476,2.9785213,0.0,2,0,0,0
2780702028,37.10338009159358,-76.38626763667833,58.393517,-0.0,2.4049304,6.7659664,-1.2043099,1.2175243,1.7383503,2.978532,0.0,2,0,0,0
2780903000,37.10338444902802,-76.38625236453731,58.633617,-0.0,2.4158273,6.755689,-1.2196162,1.2186611,1.7383729,2.9785452,0.0,2,0,0,0
2781102916,37.103388886326556,-76.38623716035659,58.864063,-0.0,2.4525917,6.761103,-1.2273533,1.2203574,1.7383277,2.9785354,0.0,2,0,0,0
2781307833,37.10339349926769,-76.38622157583394,59.119465,-0.0,2.495477,6.7605953,-1.2188734,1.2226468,1.7384568,2.978592,0.0,2,0,0,0
2781508374,37.10339807282556,-76.38620621774014,59.35847,-0.0,2.4764736,6.7940574,-1.1982431,1.2220017,1.7384837,2.9784744,0.0,2,0,0,0
2781709347,37.103402687960035,-76.38619079013178,59.60115,-0.0,2.5059657,6.8259573,-1.2302454,1.2212281,1.7385063,2.978494,0.0,2,0,0,0
2781913249,37.103407395442176,-76.38617508782716,59.851715,-0.0,2.5174975,6.843791,-1.206864,1.2218534,1.7385086,2.978512,0.0,2,0,0,0
2782114172,37.10341203307645,-76.38615956085033,60.088047,-0.0,2.5151691,6.863555,-1.1839114,1.2212863,1.7385298,2.9785256,0.0,2,0,0,0
2782319355,37.10341670844165,-76.38614368450439,60.342438,-0.0,2.47509,6.8562694,-1.2230188,1.2183471,1.7386694,2.9785848,0.0,2,0,0,0
2782519857,37.103421234782225,-76.38612818668985,60.589657,-0.0,2.451685,6.833172,-1.2259606,1.2155927,1.7386656,2.978603,0.0,2,0,0,0
2782720562,37.103425705682035,-76.38611272018932,60.827816,-0.0,2.4199045,6.823858,-1.2116973,1.2179136,1.7386836,2.9786208,0.0,2,0,0,0
2782924625,37.10343018041856,-76.3860969587771,61.070564,-0.0,2.3762925,6.8415523,-1.2089399,1.2210243,1.7387655,2.9785242,0.0,2,0,0,0
2783125347,37.10343451985134,-76.38608142233328,61.30433,-0.0,2.3598633,6.841923,-1.2039907,1.222874,1.7387534,2.9785368,0.0,2,0,0,0
2783330161,37.10343889344716,-76.3860655547587,61.559574,-0.0,2.2952807,6.85835,-1.1932538,1.2225802,1.7388326,2.978449,0.0,2,0,0,0
2783530146,37.10344310045389,-76.38605007672807,61.809963,-0.0,2.2898722,6.8749366,-1.2556244,1.2221708,1.7388248,2.978471,0.0,2,0,0,0
2783730972,37.103447318161315,-76.38603452935557,62.0764,-0.0,2.2786846,6.871062,-1.2678545,1.2217869,1.738838,2.9784908,0.0,2,0,0,0
2783931599,37.1034515427278,-76.38601896770027,62.325222,-0.0,2.278046,6.8692737,-1.2824992,1.2192059,1.7388358,2.9785082,0.0,2,0,0,0
2784132884,37.10345582410405,-76.38600343580835,62.582558,-0.0,2.3432906,6.8269234,-1.2641693,1.2139205,1.7388455,2.978531,0.0,2,0,0,0
2784336538,37.10346030280563,-76.38598767197449,62.836033,-0.0,2.3946524,6.800317,-1.2438366,1.2118806,1.7388755,2.9785514,0.0,2,0,0,0
2784537451,37.10346483324285,-76.38597218790639,63.08001,-0.0,2.4589205,6.7909756,-1.2465291,1.2129569,1.7389008,2.9785686,0.0,2,0,0,0
2784738044,37.10346949870833,-76.38595672585723,63.331703,-0.0,2.53159,6.779555,-1.2680769,1.2156061,1.738909,2.9785829,0.0,2,0,0,0
2784938966,37.10347425419203,-76.38594128118228,63.58879,-0.0,2.60112,6.766367,-1.2653658,1.2170653,1.7389277,2.9786022,0.0,2,0,0,0
2785143028,37.10347917818327,-76.38592558116551,63.860252,-0.0,2.6310666,6.7617617,-1.2219546,1.2183065,1.7390839,2.9785306,0.0,2,0,0,0
2785343878,37.10348404165943,-76.3859101330431,64.13587,-0.0,2.6486886,6.770046,-1.2200657,1.2212275,1.7390981,2.978545,0.0,2,0,0,0
2785544407,37.10348892338498,-76.3858947152008,64.41678,-0.0,2.6406043,6.7797728,-1.2934835,1.2244582,1.7390963,2.978552,0.0,2,0,0,0
2785745383,37.10349379687542,-76.38587932695093,64.685776,-0.0,2.655828,6.7725,-1.2640762,1.2273962,1.7391067,2.978565,0.0,2,0,0,0
2785949348,37.10349872031026,-76.38586367389834,64.94136,-0.0,2.6400347,6.7953577,-1.2667451,1.2269936,1.7391177,2.9785764,0.0,2,0,0,0
2786150127,37.103503533554246,-76.38584825708395,65.181114,-0.0,2.6304088,6.802039,-1.2899034,1.228952,1.7391962,2.9786077,0.0,2,0,0,0
2786350815,37.10350830096279,-76.38583283235388,65.41448,-0.0,2.547634,6.8068542,-1.2486643,1.2306204,1.7392,2.978612,0.0,2,0,0,0
2786551763,37.10351297752619,-76.38581742052841,65.64952,-0.0,2.5247154,6.792691,-1.2549335,1.2316054,1.7392144,2.9786217,0.0,2,0,0,0
2786752645,37.103517557755815,-76.38580204999754,65.87732,-0.0,2.4572706,6.7908916,-1.2268146,1.2290775,1.7391375,2.9786074,0.0,2,0,0,0
2786952666,37.10352204027937,-76.38578671542754,66.07843,-0.0,2.4124207,6.7784076,-1.1818405,1.22876,1.73916,2.9786184,0.0,2,0,0,0
2787153507,37.10352644389513,-76.38577130583957,66.27699,-0.0,2.3460379,6.78637,-1.1950961,1.2288939,1.7391659,2.978624,0.0,2,0,0,0
2787354123,37.103530765173545,-76.38575589590762,66.495834,-0.0,2.3281066,6.782419,-1.1931422,1.2293955,1.7391858,2.9786353,0.0,2,0,0,0
2787554963,37.10353500534949,-76.38574047651257,66.6975,-0.0,2.2777128,6.806181,-1.1956731,1.2285947,1.7393435,2.9786952,0.0,2,0,0,0
2787758966,37.10353926390718,-76.38572476186101,66.89872,-0.0,2.2452888,6.835723,-1.1519732,1.2270068,1.7392889,2.9786797,0.0,2,0,0,0
2787959573,37.10354341158722,-76.38570922339945,67.09982,-0.0,2.2381794,6.862563,-1.1587485,1.2264322,1.7392964,2.978684,0.0,2,0,0,0
2788164678,37.10354763857581,-76.38569330984421,67.32363,-0.0,2.2209034,6.9061933,-1.1479254,1.2245444,1.7394565,2.9786024,0.0,2,0,0,0
2788368573,37.10355183880297,-76.38567737598481,67.53717,-0.0,2.2610319,6.916052,-1.1604091,1.2229904,1.7394757,2.9786103,0.0,2,0,0,0
2788569490,37.10355602421177,-76.38566170434295,67.742775,-0.0,2.3012612,6.932551,-1.1509806,1.2194531,1.7394725,2.9786172,0.0,2,0,0,0
2788770476,37.103560272741596,-76.38564598968287,67.946754,-0.0,2.3602614,6.9434752,-1.1685427,1.2183641,1.7394754,2.978619,0.0,2,0,0,0
2788970954,37.1035645918024,-76.38563021978807,68.15777,-0.0,2.3588443,6.9653926,-1.1623716,1.2210783,1.7394909,2.9786246,0.0,2,0,0,0
2789174923,37.10356900897321,-76.38561418904649,68.37566,-0.0,2.3972962,6.972377,-1.1701443,1.2235507,1.7396495,2.9786777,0.0,2,0,0,0
2789375765,37.10357339472116,-76.3855984022845,68.571724,-0.0,2.3966978,6.9782634,-1.1176325,1.2222469,1.7396628,2.9786806,0.0,2,0,0,0
2789576623,37.10357773120347,-76.38558264064268,68.7751,-0.0,2.4136944,6.9810114,-1.1359992,1.221891,1.739659,2.9786773,0.0,2,0,0,0
2789781193,37.10358217787061,-76.38556656395482,68.981316,-0.0,2.414261,6.9823747,-1.0912548,1.2202106,1.7397417,2.9787035,0.0,2,0,0,0
2789981392,37.103586517507,-76.3855509291173,69.187515,-0.0,2.4469619,6.9541955,-1.1307375,1.2196457,1.739739,2.978706,0.0,2,0,0,0
2790182156,37.10359092794957,-76.3855352844687,69.40226,-0.0,2.4757183,6.9330363,-1.1329627,1.2209551,1.7397373,2.978714,0.0,2,0,0,0
2790382980,37.10359539822079,-76.38551965977564,69.62493,-0.0,2.5141532,6.8978148,-1.1606543,1.2252898,1.739686,2.9786956,0.0,2,0,0,0
2790583744,37.10359992461623,-76.38550409495599,69.848305,-0.0,2.5226562,6.8796444,-1.150126,1.227396,1.7396789,2.978699,0.0,2,0,0,0
2790784524,37.103604464046924,-76.38548857882708,70.06216,-0.0,2.5014105,6.8542924,-1.1252985,1.2282735,1.7396871,2.978708,0.0,2,0,0,0
2790988362,37.10360907455347,-76.38547277604273,70.28184,-0.0,2.4866378,6.8421855,-1.1545871,1.2263002,1.7398585,2.9786265,0.0,2,0,0,0
2791189321,37.10361355305071,-76.3854571907437,70.510155,-0.0,2.4499536,6.853958,-1.142901,1.221932,1.7398688,2.978635,0.0,2,0,0,0
2791390162,37.10361798310604,-76.38544164914734,70.738014,-0.0,2.4135227,6.848695,-1.1504242,1.2204796,1.7397989,2.9786289,0.0,2,0,0,0
2791591013,37.10362234344916,-76.38542613026301,70.97961,-0.0,2.4002783,6.83825,-1.178172,1.2208323,1.7398118,2.9785116,0.0,2,0,0,0
2791795011,37.10362677459498,-76.38541040610754,71.23408,-0.0,2.4181106,6.8063216,-1.1862745,1.2218266,1.7399682,2.9785793,0.0,2,0,0,0
2791995718,37.10363112519316,-76.38539500714559,71.482155,-0.0,2.418838,6.7911463,-1.2113442,1.2217458,1.7399634,2.9785953,0.0,2,0,0,0
2792196545,37.10363551874178,-76.3853796534324,71.74146,-0.0,2.455475,6.77679,-1.2286831,1.2238817,1.7399528,2.9784837,0.0,2,0,0,0
2792397447,37.1036399626508,-76.38536433240735,72.01969,-0.0,2.4925625,6.760151,-1.2817338,1.2254844,1.7399651,2.978509,0.0,2,0,0,0
2792597386,37.10364444758867,-76.38534903099413,72.28603,-0.0,2.4943414,6.759657,-1.2713234,1.2255244,1.739998,2.978533,0.0,2,0,0,0
2792798174,37.10364900703727,-76.3853336860458,72.556786,-0.0,2.5058825,6.7704644,-1.249909,1.2264436,1.7400255,2.9785545,0.0,2,0,0,0
2792999044,37.1036535909099,-76.38531833386838,72.82208,-0.0,2.5369103,6.7652783,-1.2639164,1.2270317,1.7400342,2.978569,0.0,2,0,0,0
2793198970,37.103658167508705,-76.38530304070586,73.081116,-0.0,2.496541,6.7774153,-1.2376893,1.2267467,1.7400572,2.9785872,0.0,2,0,0,0
2793399824,37.103662761943426,-76.38528767097432,73.32547,-0.0,2.4820561,6.8073373,-1.2451094,1.2271147,1.7400742,2.9786036,0.0,2,0,0,0
2793600533,37.10366732371593,-76.38527227250786,73.58353,-0.0,2.4739766,6.80968,-1.2396314,1.22853,1.7400161,2.9785953,0.0,2,0,0,0
2793805203,37.10367194874051,-76.38525651288386,73.84583,-0.0,2.4459205,6.8265653,-1.2323257,1.2285857,1.7401692,2.9786544,0.0,2,0,0,0
2794006184,37.10367640786389,-76.38524109617842,74.10559,-0.0,2.4029887,6.831971,-1.2206002,1.2270823,1.740095,2.978646,0.0,2,0,0,0
2794206012,37.103680770653796,-76.38522572524207,74.364174,-0.0,2.3927443,6.847287,-1.2144765,1.2265441,1.7401038,2.9786654,0.0,2,0,0,0
2794410810,37.10368521686695,-76.38520994858398,74.621635,-0.0,2.3788085,6.8426557,-1.2369899,1.224316,1.7368792,2.9784954,0.0,2,0,0,0
2794616048,37.10368964427822,-76.38519417794672,74.86305,-0.0,2.3985841,6.842526,-1.2388222,1.2227361,1.7368855,2.978511,0.0,2,0,0,0
2794816817,37.10369400747243,-76.38517874024568,75.09715,-0.0,2.3826883,6.828978,-1.217254,1.2204487,1.7368906,2.9785242,0.0,2,0,0,0
2795020394,37.10369847069826,-76.38516311069283,75.34868,-0.0,2.4222767,6.824635,-1.2121674,1.2220442,1.7370173,2.978583,0.0,2,0,0,0
2795221218,37.10370288644659,-76.38514770997946,75.59178,-0.0,2.4310052,6.8287015,-1.2207543,1.2232146,1.7370099,2.9785895,0.0,2,0,0,0
2795422186,37.103707309739946,-76.38513228999332,75.83325,-0.0,2.431189,6.842347,-1.1964346,1.2248085,1.7370133,2.9786007,0.0,2,0,0,0
2795622919,37.10371177900141,-76.38511684746406,76.0603,-0.0,2.4325933,6.8544526,-1.2266178,1.2249683,1.7370336,2.9784791,0.0,2,0,0,0
2795826976,37.10371632084621,-76.3851010632194,76.29559,-0.0,2.4313283,6.867921,-1.2167758,1.2229553,1.7370516,2.978626,0.0,2,0,0,0
2796027774,37.10372076526321,-76.38508549542753,76.52802,-0.0,2.4104724,6.8635764,-1.2433231,1.2200623,1.7370578,2.978631,0.0,2,0,0,0
2796228541,37.10372520803208,-76.38506995654001,76.78082,-0.0,2.4182417,6.841806,-1.3191088,1.218658,1.7370741,2.9785047,0.0,2,0,0,0
2796429363,37.103729682910426,-76.38505445240571,77.04033,-0.0,2.4173281,6.818104,-1.2651162,1.2186778,1.7372322,2.9785647,0.0,2,0,0,0
2796634125,37.10373424587849,-76.38503861051275,77.298416,-0.0,2.4338531,6.8266134,-1.2349429,1.2197549,1.7373154,2.9785995,0.0,2,0,0,0
2796834196,37.10373871704819,-76.38502313097949,77.537994,-0.0,2.439354,6.8579617,-1.2130009,1.2195282,1.7372603,2.9785903,0.0,2,0,0,0
2797035050,37.10374328097867,-76.38500757143335,77.79107,-0.0,2.5207734,6.879959,-1.2615573,1.2166135,1.7372546,2.978467,0.0,2,0,0,0
2797235781,37.10374799901183,-76.38499202994645,78.04794,-0.0,2.5809317,6.873818,-1.2640575,1.2180746,1.7372612,2.9784818,0.0,2,0,0,0
2797439735,37.103752892001594,-76.38497630279885,78.31264,-0.0,2.5955641,6.8642416,-1.2603176,1.2206471,1.7372679,2.9784951,0.0,2,0,0,0
2797640562,37.1037577023854,-76.3849608488835,78.555115,-0.0,2.5540252,6.859468,-1.2546438,1.2222321,1.7372745,2.978511,0.0,2,0,0,0
2797845326,37.103762510564344,-76.38494506220195,78.80002,-0.0,2.4862082,6.8704267,-1.2208762,1.2232764,1.7373934,2.9785693,0.0,2,0,0,0
2798046153,37.10376710892807,-76.38492949473026,79.03568,-0.0,2.4321141,6.8815937,-1.2127221,1.2183982,1.7374147,2.9785845,0.0,2,0,0,0
2798250164,37.10377167599496,-76.38491359294487,79.24789,-0.0,2.3701572,6.9136095,-1.2178085,1.214604,1.7374694,2.9784875,0.0,2,0,0,0
2798450965,37.10377609650783,-76.38489791811004,79.45729,-0.0,2.3180628,6.913259,-1.2225546,1.215167,1.7374994,2.978504,0.0,2,0,0,0
2798651600,37.10378045334588,-76.38488223880206,79.664566,-0.0,2.29885,6.8862143,-1.2411537,1.2193215,1.7375143,2.978515,0.0,2,0,0,0
