timestamp,gyro_rad[0],gyro_rad[1],gyro_rad[2],gyro_integral_dt,accelerometer_timestamp_relative,accelerometer_m_s2[0],accelerometer_m_s2[1],accelerometer_m_s2[2],accelerometer_integral_dt
2708899679,0.0034005693,-0.003984362,-0.002816299,3994,0,0.024354348,0.04469592,-9.894888,3994
2709066879,0.0034804628,-0.0033393244,-0.003772318,3989,0,0.010364541,0.0472021,-9.911019,3989
2709107713,-0.08852862,0.039905675,0.0007201718,4828,0,0.5398272,1.1004483,-9.292826,4828
2709151679,0.06541811,-0.07342845,-0.009899762,3978,0,-0.02989465,0.7505747,-10.71434,3978
2709191678,-0.018448235,0.01685241,-0.015554165,3998,0,3.2419145,-0.26398528,-10.410376,3998
2709235703,0.14088179,0.03033369,-0.09213898,4025,0,-1.570621,-0.5539307,-10.28084,4025
2709279678,0.084531225,0.019899342,0.044804405,3991,0,0.09578448,-2.9619763,-10.2080765,3991
2709319678,-0.031918637,0.010678211,0.003812924,3999,0,-0.7273833,1.4916875,-9.306609,3999
2709359685,0.024461076,-0.051101528,-0.05129056,4000,0,0.08479593,1.9153023,-10.194641,4000
2709403683,-0.040300507,-0.06029771,0.009076533,3995,0,-0.28756312,-0.13511327,-9.91735,3995
2709448484,0.00047289042,0.005195959,-0.007178064,4006,0,0.67910093,-0.22184977,-9.875028,4006
2709488482,0.0060271374,0.037955113,-0.012346614,3961,0,-0.90522397,0.005614958,-9.462204,3961
2709532478,0.029190755,0.019061975,-0.0031429327,3995,0,0.5533572,0.2299218,-10.180079,3995
2709572498,0.021140544,0.027384296,-0.010275999,4020,0,-0.029285265,-0.6526481,-9.558672,4020
2709616485,0.03857696,0.047637094,-0.00605849,3971,0,-0.40594056,0.10074023,-10.167807,3971
2709656484,0.047358353,0.015328062,-0.011847658,3981,0,1.0959307,0.09598764,-9.229931,3981
2709701278,0.017251503,-0.0364074,-0.0077796164,3993,0,-0.18593413,-0.21005033,-10.100584,3993
2709741279,-0.008129582,-0.029118817,0.0014346335,4001,0,-0.24095686,-0.6918618,-10.184958,4001
2709785278,-0.039600696,-0.029736292,-0.002766983,4000,0,-1.1700829,-2.3762388,-10.167276,4000
2709825278,0.058028895,0.27594414,-0.024243863,3977,0,-1.8453099,0.27174395,-12.534741,3977
2709869278,0.12199791,0.53738815,0.061624918,4000,0,2.7677984,2.954687,-11.831811,4000
2709909280,0.20531335,0.4729466,0.033385597,4001,0,0.21910155,-1.1418307,-11.123276,4001
2709950124,-0.0045664944,0.64230645,0.10869374,4845,0,-0.91013354,0.49704123,-13.422673,4845
2709990078,-0.09144855,0.36435243,-0.0584938,3993,0,-5.253651,-1.0526562,-13.24436,3993
2710030078,-0.022280218,0.11703206,0.010097098,3993,0,-3.2722788,-0.5124739,-14.03453,3993
2710070114,0.07945391,-0.08170044,0.043620933,4035,0,2.1293197,-1.5845066,-18.221964,4035
2710114078,-0.44609904,-0.13085951,0.13802813,3988,0,2.2064333,0.36939853,-11.952323,3988
2710154079,-0.22213383,-0.36171716,0.11105049,3993,0,-0.044044707,1.0167708,-11.133986,3993
2710198086,0.02751942,-0.64030194,0.07312699,4008,0,-2.6372342,-0.3381544,-15.975303,4008
2710238878,-0.22847314,-0.70537597,-0.03948789,3999,0,-1.2047162,-1.0768796,-10.944852,3999
2710278910,-0.20856063,-0.6129903,-0.01412822,4032,0,-0.7418757,-0.8484542,-12.661836,4032
2710322878,-0.2602401,-0.4128701,0.010395419,3957,0,-2.551023,1.8911828,-10.938073,3957
2710362878,-0.07778066,-0.55437243,-0.07348753,3999,0,-0.97186226,-0.71710956,-10.385183,3999
2710406910,-0.1322915,-0.51154524,0.078021206,4032,0,-0.1289673,0.6034695,-8.932087,4032
2710446906,-0.13817437,-0.26861912,-0.13921417,4028,0,0.5693247,-2.9845695,-9.166488,4028
2710487715,-0.013740082,-0.30383122,-0.1582033,4037,0,1.8072124,-1.1827359,-4.2498627,4037
2710527703,0.19629058,-0.16129722,-0.118064426,4025,0,-0.3859364,0.1534001,-9.306085,4025
2710571685,0.49090064,-0.19325523,0.054601714,3995,0,1.6856141,-0.6120204,-11.01727,3995
2710944508,-0.0015966281,-0.0083409045,0.06344076,4023,0,-0.49791038,0.7303597,-9.904772,4023
2710988488,0.007979997,0.06696539,0.085148506,4006,0,0.32848448,0.6210833,-9.778075,4006
2711028478,-0.24936493,0.117015585,-0.023880849,3996,0,-0.85045445,1.0915196,-9.491961,3996
2711073278,-0.045548603,0.17907113,0.033807952,3994,0,-1.8238314,1.3760799,-11.750938,3994
2712798078,0.12311767,0.019614287,0.024347592,4000,0,-0.48115286,-0.5815291,-10.032388,4000
2712838079,0.1435565,-0.020720072,0.030247182,3965,0,-0.18129994,0.2572421,-9.406754,3965
2712882078,0.071369566,-0.01940443,-0.04497662,4000,0,-0.032071643,-0.76354206,-8.46443,4000
2712922917,0.028187511,0.009302964,-0.061850995,4039,0,-0.8179439,-0.51225346,-8.752278,4039
2712962912,0.107583396,-0.11147993,-0.048540205,4034,0,0.2918865,0.613118,-7.287087,4034
2713002878,-0.07478405,0.015107161,-0.15440102,4000,0,1.2436783,0.18722805,-8.465329,4000
2713046932,0.18690431,-0.11754989,0.17741516,4043,0,0.4426751,0.13370852,-10.568114,4043
2713086878,0.12918589,-0.030711178,0.038492013,4000,0,1.0527397,1.1129125,-10.071676,4000
2713130879,0.04798281,-0.093863204,-0.049583416,4001,0,1.8838273,-0.38702032,-8.955945,4001
2713171679,0.24483578,0.110863,0.07083133,4000,0,0.88787156,-0.9619965,-12.341664,4000
2713211685,0.06699695,0.05310747,0.091483705,4000,0,-0.07945934,1.7724134,-10.495226,4000
2713255723,-0.09112215,0.06238684,-0.23334733,4045,0,1.9687665,0.056961402,-8.247927,4045
2713295678,-0.06414649,0.08591909,-0.08691643,3999,0,-0.28203487,0.7626859,-8.417489,3999
2713339725,-0.052135713,0.059779283,-0.0359503,4040,0,-0.7763268,1.6228377,-8.4784155,4040
2713379679,-0.10317782,-0.055576805,0.02842768,3994,0,0.09124444,2.3694124,-10.431092,3994
2713423684,-0.015494278,0.181775,0.034840923,4005,0,0.6309476,1.5785413,-9.866877,4005
2713464494,0.018799199,-0.019736003,0.10300649,4011,0,-1.8375791,2.2228618,-11.121055,4011
2713508513,-0.16112584,0.06116552,-0.124897115,4035,0,0.23030354,2.254796,-7.7422504,4035
2713548482,-0.09069551,0.121723615,-0.05586308,4000,0,-0.45143667,1.6941475,-10.259806,4000
2713592490,-0.06141391,0.023182238,0.0061585726,3996,0,-0.46123385,2.2701495,-7.864663,3996
2713632488,-0.16773368,-0.034802496,0.000112758025,4010,0,-1.5050933,2.3459969,-11.842478,4010
2713676487,0.11275827,0.16286479,0.056332935,3994,0,-0.15046258,2.0957139,-12.202584,3994
2713717316,0.08070503,0.12040276,0.10637444,4038,0,-2.3886127,1.679891,-11.46641,4038
2713757287,-0.07899808,-0.045616467,0.14360297,4009,0,-2.1287134,0.72069037,-14.276004,4009
2713797285,0.054042827,-0.15889885,0.07515317,4007,0,-1.1678858,-1.6720314,-11.85884,4007
2713841281,-0.09734254,-0.025715275,-0.03265199,4003,0,-1.4719679,-0.9973318,-10.109229,4003
2713881278,0.16633078,-0.010058003,-0.008513964,4000,0,-0.73366404,-1.767251,-14.1072445,4000
2713925319,-0.19777574,-0.14728065,-0.018665265,4034,0,-0.47482246,0.118171744,-10.06067,4034
2713966089,-0.11339342,-0.09786811,-0.17054544,4007,0,0.30103257,-2.0850737,-9.082846,4007
2714010113,0.09095862,-0.04091742,0.109459035,4035,0,-0.89197344,0.042144,-12.974609,4035
2714054100,-0.13512433,0.061825044,-0.041181013,4022,0,-0.22940509,0.63719726,-10.193517,4022
2714094096,0.056934536,-0.045304682,-0.028360277,4017,0,-0.26935202,-0.9563606,-9.913972,4017
2714138078,-0.12581179,-0.06375356,0.014086296,4000,0,0.93486434,0.10381455,-9.267475,4000
2714178119,-0.0084017515,0.030934934,-0.0064942855,4030,0,-0.7114884,0.2803796,-11.215703,4030
2714222124,0.09122853,0.0035587414,0.0038642453,4039,0,-0.63660485,-0.27280766,-10.768237,4039
2714262878,0.06300265,0.09393434,0.02895091,4000,0,0.79407024,-0.07376236,-10.696993,4000
2714306878,0.09298411,0.04058122,-0.08893235,3964,0,1.3361489,-0.87749565,-9.606321,3964
2714350880,0.14243889,-0.086280674,0.12818581,4002,0,0.3523447,-0.37975404,-11.140803,4002
2714394878,-0.14856578,-0.14339206,-0.06183778,3991,0,-1.1170483,-0.5641328,-8.240622,3991
2714438878,-0.12429179,-0.08189204,0.007140485,3993,0,-1.7809752,-0.10534774,-10.544948,3993
2714478878,-0.02124271,-0.17233224,0.040540285,3993,0,0.4032241,-0.7192097,-9.347513,3993
2714523678,-0.036919747,0.07262867,0.036340144,3999,0,-2.135035,0.17616457,-12.439343,3999
2714563680,0.05152514,-0.13086991,0.10541531,4001,0,-0.7280685,-1.2895981,-11.330558,4001
2714607678,-0.2469009,-0.041471124,-0.164721,3999,0,-0.83399767,-0.7425865,-9.349165,3999
2714647729,-0.082770124,-0.10269519,-0.13313489,4051,0,0.4498353,-1.3933039,-8.016424,4051
2714691685,-0.02005719,-0.08852379,0.08665824,4007,0,-1.1773964,-1.3153895,-10.902323,4007
2714731680,0.124811865,-0.19290341,0.033156026,4001,0,-0.0961394,-0.60783666,-10.389986,4001
2714772479,-0.1776128,-0.072008386,-0.19573888,3988,0,1.6686194,-0.3755044,-5.8042736,3988
2714812478,-0.121039204,0.0141714355,-0.21192513,3999,0,0.90747464,0.3223114,-6.1171837,3999
2714856492,0.113126025,-0.11592565,0.08574828,4011,0,-0.058821008,0.97017217,-9.776116,4011
2714896484,-0.06450242,-0.071812525,-0.026962819,4001,0,1.6785779,1.7405311,-6.7940397,4001
2714940488,0.2840077,0.057022683,0.14008226,3989,0,0.7254384,-0.23962118,-9.91625,3989
2714980483,0.28618228,0.025579019,0.16213939,3998,0,-0.8506161,1.6334047,-12.468641,3998
2715024478,0.09387868,-0.015550451,-0.05415242,3990,0,0.96614623,1.0219456,-9.521904,3990
2715065278,0.27103105,0.14222942,0.12776285,3993,0,0.2712368,0.08021573,-11.40217,3993
2715105293,-0.07162075,-0.024524195,0.08893164,4011,0,-1.6463399,1.3949858,-10.549729,4011
2715149279,-0.024128988,0.124220625,-0.057687573,4000,0,-0.7407709,0.9393703,-11.224893,4000
2715189278,0.14024065,-0.012244099,0.14520338,3969,0,-0.46869284,-0.21889052,-11.428127,3969
2715233300,-0.17331746,0.0469077,-0.13038675,4022,0,0.062351335,0.20170654,-7.065922,4022
2715273278,0.17166828,0.028069993,-0.02192273,3994,0,-1.4340314,-0.080703594,-14.629801,3994
2715318084,-0.10804457,-0.016602794,-0.063857295,4006,0,-0.4371187,1.0035037,-10.308998,4006
2715358087,0.16469373,0.09375376,-0.054440144,3974,0,-0.58129823,-1.7869831,-12.393283,3974
2715402078,0.00025014224,0.061400622,-0.13400018,4000,0,-0.16356559,-0.7295321,-10.35861,4000
2715442085,0.044616804,0.022528145,-0.05043861,3973,0,-1.3138944,-0.49062863,-11.796298,3973
2715486078,-0.104816556,0.0011730985,-0.10909979,3993,0,-0.3612471,-0.4471106,-10.712899,3993
2715526082,0.2125393,0.02953004,-0.026048312,3969,0,0.016354606,-1.2420222,-9.387799,3969
2715570878,0.05189184,0.050206468,-0.083544835,3999,0,-0.005803489,-0.8892888,-9.0541315,3999
2715610879,0.17476855,0.034422968,-0.015061421,4001,0,-1.0930905,-0.3016745,-11.61011,4001
2715654878,0.08399716,-0.013564045,-0.053716436,4000,0,-0.51379234,-0.67369837,-10.6757555,4000
2715694878,0.13246426,0.094966896,-0.032953586,4000,0,-0.299166,-0.13006398,-8.495273,4000
2715738885,0.06718936,0.10211231,-0.09184531,4007,0,-0.06844647,0.03006472,-8.009792,4007
2715782900,-0.0484087,0.008087203,-0.053403378,4022,0,0.16463372,0.38019425,-8.112119,4022
2715823705,0.055835363,0.09559813,-0.06168228,4026,0,-1.2168509,0.57235223,-10.029217,4026
2715867679,-0.049276643,0.04620553,-0.072684824,3967,0,-0.8021817,0.33385926,-9.148541,3967
2715907697,0.106195144,0.008072335,0.0016965945,4012,0,0.43299907,0.32155177,-9.431477,4012
2715951714,-0.067495465,0.026129529,-0.08551353,4031,0,0.66858226,0.6207864,-7.518898,4031
2715991710,0.07868356,0.056156963,0.02674328,4030,0,-1.2029239,-0.101000346,-13.189977,4030
2716035678,-0.055426586,0.0050350353,-0.025478544,3999,0,-0.53152764,0.23772039,-11.279089,3999
2716075680,0.19666599,0.09795383,0.023699697,4002,0,-0.093666464,-1.2100956,-11.612043,4002
2716116483,-0.1625219,-0.06953853,-0.05480421,3981,0,0.493341,0.15904193,-7.8700476,3981
2716160485,-0.044740565,-0.05538672,0.032429516,4003,0,-0.4293782,0.16369203,-10.336734,4003
2716204485,0.099633284,0.024471655,0.059304286,3972,0,-1.3798498,-0.42420718,-12.832334,3972
2716244478,-0.027414318,-0.11549,0.019628514,3970,0,0.618268,0.23770596,-7.809677,3970
2716284485,-0.107827246,0.15380554,-0.15292515,4002,0,0.16472085,0.6727688,-8.781782,4002
2716324500,0.093900025,0.044310797,0.095156364,4022,0,-1.0861237,0.23819344,-11.937114,4022
2716364489,0.036953606,-0.04352622,0.03518574,4010,0,0.425683,-0.53925836,-9.817645,4010
2716405278,-0.077283,0.12169254,-0.12406282,3995,0,0.07747946,-0.19208053,-10.1429405,3995
2716449281,-0.15666361,0.047339804,-0.1149979,4001,0,-0.41080907,0.10926713,-9.851988,4001
2716489284,0.073992565,0.001755267,-0.04113043,4006,0,-0.32399347,-0.9476732,-10.278461,4006
2716533278,-0.064081684,-0.07330978,-0.12068882,3994,0,0.5872451,-0.7158408,-7.865901,3994
2716577278,-0.09265714,-0.12226335,-0.055880547,4000,0,0.76718694,0.00559806,-7.2286263,4000
2716617279,0.026536567,0.16793859,-0.07467196,3988,0,-0.09551863,0.15767804,-10.162966,3988
2716662078,-0.06084953,0.055536672,-0.06790458,3967,0,-0.07771816,0.20938924,-9.597208,3967
2716702080,0.119304776,0.07519386,0.038487706,3941,0,-0.94461924,-0.06465972,-10.966939,3941
2716746085,0.046179418,0.10429023,-0.09738564,4007,0,-0.07143727,-0.47068763,-9.477785,4007
2716786110,0.0005762982,-0.02089143,0.15405789,3997,0,0.2618819,1.4811797,-10.083453,3997
2716830078,-0.03926531,0.07815362,0.04555418,3980,0,0.10664672,1.3517541,-10.0091,3980
2716870090,0.06726503,-0.03070817,0.096473955,3977,0,-1.1388469,-0.10337084,-12.546329,3977
2716914885,0.037722353,-0.027669854,0.10121071,4801,0,-1.0370346,0.33079118,-11.646808,4801
2716954878,-0.19057831,-0.057967108,-0.12785187,3993,0,0.72244096,-0.5418587,-8.637351,3993
2716998891,-0.12396479,-0.034735233,-0.009819732,4002,0,0.39775035,0.363599,-9.871338,4002
2717038878,-0.060506627,0.022763824,-0.0938155,4000,0,-0.62409353,-1.3890545,-10.0841675,4000
2717082878,-0.08406613,-0.100961715,-0.03511696,4000,0,-0.79767734,-0.906515,-9.813097,4000
2717122878,-0.040527575,0.037511192,-0.13001195,4000,0,0.5285189,-0.8482109,-8.425298,4000
2717163679,0.2393177,-0.033505615,0.22365984,4000,0,0.12460775,1.3273371,-9.925514,4000
2717207685,0.24370517,0.01010979,0.17305636,4007,0,-0.36945105,0.26837948,-10.341033,4007
2717247679,-0.042463403,-0.108027436,0.011737156,3970,0,-0.47156045,1.4028921,-9.180072,3970
2717291679,0.25372875,-0.088490844,0.1712435,4001,0,-0.36384517,1.5594587,-11.528618,4001
2717331685,-0.45611808,-0.05842086,-0.08781539,4006,0,0.37202075,1.3534796,-6.4726076,4006
2717375678,-0.2686374,-0.04302526,0.0012620058,3994,0,-0.14359984,1.9204174,-7.4689145,3994
2717415679,-0.1443151,-0.0027939982,-0.08787918,3956,0,-0.2373013,-0.24806264,-10.109324,3956
2717460494,-0.25232798,0.0615751,-0.09748382,4008,0,-0.57269377,1.2052251,-8.633754,4008
2717500478,0.08947888,-0.04048497,0.07185732,3988,0,0.0665992,-0.6550054,-12.729073,3988
2717544494,0.030272309,-0.008608666,0.077066764,4015,0,-0.36977166,0.07514353,-11.697912,4015
2717584482,-0.06008123,-0.019830687,-0.045986865,4004,0,-1.2270656,-1.4157077,-10.529896,4004
2717628487,0.04393935,-0.03999718,0.054177053,4005,0,-1.4095519,-0.5986571,-12.383872,4005
2717668482,-0.18287767,-0.09616547,-0.10422695,4004,0,1.1617969,-0.9005168,-7.882957,4004
2717709278,0.3517908,0.026072547,0.16555162,3993,0,-0.060230535,-1.2902402,-10.997592,3993
2717749278,-0.033761628,-0.029050462,-0.04044961,3991,0,0.28766152,1.4745022,-7.354331,3991
2717793284,0.16527592,0.0017351599,0.06774939,3985,0,0.8436009,1.1968201,-9.464313,3985
2717833278,-0.14605373,0.051593374,-0.034967814,3993,0,0.46434188,2.2493343,-8.017948,3993
2717877278,0.0023077724,0.040270112,0.050871793,3945,0,0.28949103,1.7135257,-8.124746,3945
2717917285,-0.18045563,0.041231412,-0.10106541,4007,0,-2.1455514,1.168841,-10.865725,4007
2717961278,-0.1983026,0.05672251,-0.0822962,3973,0,-1.5734059,2.17038,-10.460307,3973
2718002085,-0.060762025,-0.03504329,0.07296266,4007,0,-0.8598355,1.1293802,-11.723265,4007
2718042112,0.10064992,-0.07251926,0.023107214,4034,0,-0.77463263,-2.7877717,-11.375502,4034
2718086078,0.2185788,-0.0734789,0.05608469,3993,0,-1.3158001,-2.3909044,-13.273696,3993
2718126115,-0.0705838,-0.10793509,-0.0053211246,4030,0,1.1063979,-0.47212106,-7.788426,4030
2718170078,0.029937945,0.020095976,-0.012694188,4000,0,0.6816227,-1.570944,-9.985671,4000
2718210878,0.073024124,-0.07544239,0.023029732,4777,0,1.5233855,-0.5589994,-6.4349513,4777
2718254917,0.021457737,-0.14133868,0.039057605,4039,0,0.8296004,-1.2082171,-5.9483576,4039
2718294878,0.105051875,-0.0055704922,-0.010149273,4000,0,0.85334665,1.4499531,-10.422598,4000
2718338885,0.1711306,-0.06580361,0.12369601,4006,0,1.4484231,1.2798194,-9.599471,4006
2718378885,-0.26688644,0.1098068,-0.15875229,4006,0,-0.6540873,0.96847194,-7.7735786,4006
2718422878,-0.031622153,0.065106794,-0.041492455,4000,0,-0.28714678,0.91366774,-9.130452,4000
2718462878,-0.30845287,-0.06912367,-0.08360816,4000,0,-1.5244104,2.1511729,-9.229978,4000
2718503678,0.22495857,-0.026311722,0.12627746,3999,0,-0.9748917,-0.6854261,-13.090551,3999
2718547688,-0.051572017,0.03724071,-0.06962248,4002,0,-1.422243,-0.44338462,-9.377972,4002
2718591679,-0.2645102,-0.009300918,-0.10086815,4001,0,-1.7885065,0.34750962,-7.5339327,4001
2718631688,-0.061193675,-0.11593312,-0.058555275,4010,0,-0.7066635,-0.5984983,-12.248768,4010
2718671678,0.11111466,0.021095848,0.062306825,3993,0,0.93908477,-1.5823104,-9.821654,3993
2718711678,0.12390936,-0.09203363,0.079860024,3993,0,1.0011945,0.9987813,-9.379982,3993
2718755678,0.14677744,-0.08474485,0.11249472,4000,0,0.9631555,0.4323438,-10.457228,4000
2718796498,-0.020312304,0.09353056,-0.08796164,4017,0,1.4024488,0.3560988,-8.642316,4017
2718836491,-0.010001214,0.14816464,-0.005996379,4008,0,-1.4845715,0.20471014,-11.323041,4008
2718880483,-0.118651316,0.15363309,-0.16604672,4005,0,-1.0359154,0.5609611,-10.06254,4005
2718920482,0.049219403,0.019174907,0.05418703,3998,0,-1.6040531,0.3466148,-12.781313,3998
2718960478,0.04164791,-0.16670556,0.14852773,4000,0,-0.25240812,-0.12131029,-9.660865,4000
2719004483,-0.029943308,-0.09466573,0.011694118,4001,0,-0.8303424,0.05852899,-11.02041,4001
2719048478,-0.1436972,-0.02974339,-0.13244036,4000,0,-0.9074901,0.13045658,-10.483922,4000
2719089278,0.033542883,-0.10562349,0.12824206,4000,0,-0.13298224,-0.0067490144,-9.170417,4000
2719133281,-0.042855207,-0.117572635,0.027260689,3996,0,-1.2884566,-0.38940802,-8.318659,3996
2719173278,0.009878663,-0.04124415,0.030705024,4000,0,1.1120977,0.3753098,-9.510095,4000
2719213278,-0.09090076,0.09675668,-0.034808636,4000,0,1.3029001,0.16200928,-8.552755,4000
2719257279,-0.17967777,0.028958565,-0.026289575,3994,0,0.9306042,0.10528831,-7.0999045,3994
2719301280,-0.009603815,-0.014260204,0.023887588,4002,0,0.12657443,0.010788674,-8.622543,4002
2719342080,-0.24748652,-0.0456423,-0.013326055,3995,0,1.3959316,1.7588857,-7.959341,3995
2719386119,-0.18114576,0.010662789,0.054649964,4034,0,1.9148313,1.4124817,-9.423551,4034
2719430080,0.015574098,0.1492478,-0.022791317,4000,0,0.8793408,0.27455175,-10.070161,4000
2719470112,-0.010979244,-0.040146004,0.05830776,4034,0,-1.1610447,0.87711245,-10.001196,4034
2719514078,-0.12181888,0.057527445,-0.02853205,3993,0,-0.4386144,1.691409,-9.258349,3993
2719554880,-0.07500821,0.01233883,0.042094804,4795,0,0.5817968,-0.055522203,-11.5566635,4795
2719594878,0.01455606,-0.097704835,-0.034595463,3993,0,-0.93685645,-1.4995486,-10.947192,3993
2719634878,-0.11967207,0.038646273,-0.09161978,3999,0,1.1233602,-1.100905,-8.256156,3999
2719678878,-0.025656005,0.024472428,-0.025470644,3999,0,0.76208144,-1.8040042,-10.393082,3999
2719718878,-0.050989196,-0.033483256,-0.10068382,3993,0,-0.45636413,-0.6259843,-6.3762817,3993
2719762878,0.20924284,-0.039158784,0.14645344,3996,0,0.20054394,-0.69968694,-10.054205,3996
2719802878,0.08160586,0.03528886,0.09219791,4000,0,0.47874776,0.5441695,-9.030405,4000
2719847694,0.34098774,0.022280343,0.21179095,4016,0,0.40973774,-2.0562358,-12.034323,4016
2719887678,0.27136543,0.021863792,0.15922861,4000,0,0.5378647,1.2488638,-9.256045,4000
2719931691,0.17517827,0.011365204,0.03276757,4013,0,1.7625347,-0.5360917,-8.393129,4013
2719971686,0.14734513,0.18473892,0.048595183,4008,0,-0.50940144,0.35522968,-12.25343,4008
2720011678,-0.10205967,0.06884067,0.045821484,4000,0,-1.5875051,2.2066057,-9.77901,4000
2720055678,-0.17815518,0.18686704,-0.083546184,4000,0,-0.55340064,1.5713606,-9.580775,4000
2720096508,-0.22876495,0.019214408,-0.00821329,4021,0,-1.7355183,1.1733495,-9.896281,4021
2720136485,0.016935501,-0.00820629,-0.038227703,4007,0,-1.48886,-0.16112575,-10.725289,4007
2720180482,-0.11395002,-0.0054152263,0.015040129,3993,0,-1.885365,1.0209714,-11.077582,3993
2720224497,0.104738444,0.10883268,0.107916094,4013,0,-2.501063,1.2051723,-13.402787,4013
2720264482,0.029644283,-0.037747823,0.0059985993,3996,0,-1.6477047,-0.3493548,-10.886979,3996
2720308478,0.19257846,0.14473055,0.050309252,4000,0,-1.0757123,-0.34491932,-12.641907,4000
2720348492,-0.016216874,-0.008604001,0.06841054,4013,0,-1.9098545,0.26574823,-10.7429905,4013
2720393282,0.14480162,0.0823406,0.036873132,4003,0,-0.85338765,-1.0884103,-12.635856,4003
2720433308,0.10948049,0.010069317,0.14560463,4030,0,-0.74251956,0.8117811,-9.947373,4030
2720477319,-0.068179145,0.09278317,-0.10475964,4019,0,-0.28268197,0.14836699,-9.836913,4019
2720517279,0.0724973,0.034261666,0.02767977,4000,0,-0.6953799,0.36694682,-9.576311,4000
2720561282,0.04974648,0.030512862,-0.07118382,3996,0,-0.87125283,0.35409933,-7.676717,3996
2720601308,-0.19272691,0.017599575,-0.055416267,4029,0,-0.006507016,1.8179971,-10.111558,4029
2720646079,0.187745,0.15556476,0.065310694,3986,0,0.041271012,0.86976206,-12.492604,3986
2720686087,-0.036450915,0.005276755,0.05555693,3979,0,-2.4908893,1.5575002,-9.954314,3979
2720726078,-0.10067643,-0.20139888,0.06715598,3991,0,0.25902656,0.071948,-11.447346,3991
2720770078,0.022781815,0.0169016,0.10761409,3992,0,-1.1325601,0.030291758,-12.101221,3992
2720814119,-0.14843413,0.100412026,-0.07587463,4001,0,-1.813701,0.22792518,-9.59013,4001
2720854080,0.028463444,-0.1421904,0.06893963,3999,0,-0.7624037,-0.022482423,-11.673083,3999
2720894078,0.0364501,-0.01685487,0.051090036,4000,0,0.91611093,-1.3648537,-9.966743,4000
2720934878,0.05373888,-0.05298581,-0.1015077,3972,0,0.7588799,-0.49514014,-7.380799,3972
2720974878,-0.08435045,0.14940238,-0.17495723,4000,0,0.8098894,0.32281175,-8.111467,4000
2721018903,-0.0006365044,0.13692847,-0.035826284,4023,0,0.87002844,0.17618981,-9.4459715,4023
2721058898,0.1266173,-0.017689534,0.029549401,4020,0,-0.41802403,1.1567917,-9.847658,4020
2721102878,0.017838527,0.00022371992,0.021687938,3959,0,0.79527694,0.92902184,-8.384174,3959
2721142885,0.16275302,0.12295013,0.0085743675,4007,0,-1.5908563,0.2548522,-13.711041,4007
2721187678,0.06961978,-0.01612484,-0.03384874,3992,0,-0.5172852,0.10736097,-10.779649,3992
2721227689,0.081319176,0.12139493,-0.040550888,4007,0,-0.021634094,-0.12101553,-10.520439,4007
2721271678,-0.12691528,0.051882505,-0.19942997,3998,0,0.5613762,-0.056079086,-8.338821,3998
2721311678,0.00015630531,0.029740546,-0.003999919,3992,0,-0.87507457,0.7520696,-9.565157,3992
2721355681,0.033419564,-0.09791312,-0.0014560206,4002,0,0.32061,0.43123925,-7.5587244,4002
2721395715,-0.06789426,0.14399289,-0.05951213,4037,0,0.2819414,0.57296836,-10.35273,4037
2721435690,-0.13646036,-0.121486664,0.11657485,4011,0,-0.89701766,1.018444,-10.409555,4011
2721476511,0.075590596,-0.082207456,-0.08949157,4033,0,-0.83747554,-1.853743,-10.905624,4033
2721520491,0.03414143,-0.13843156,0.1059782,3993,0,-0.6838274,0.12405827,-12.125646,3993
2721560478,-0.06976226,-0.00076539296,-0.05290161,3996,0,0.5834359,-1.6364511,-10.158492,3996
2721604503,-0.07531891,-0.07564986,-0.03914358,4021,0,0.069562316,-2.305341,-10.445001,4021
2721644522,0.25994727,-0.023750741,0.075620905,4031,0,1.0636606,-0.7374324,-9.252363,4031
2721684483,0.21022543,0.1259478,0.10572424,4005,0,1.4514903,0.8251502,-10.982588,4005
2721725278,-0.04232048,-0.00024427674,-0.0048444998,3999,0,-1.4880773,1.995577,-8.393426,3999
2721765278,-0.34724367,-0.091946505,-0.16242,4000,0,-0.74641424,0.7460052,-10.434775,4000
2721805278,-0.14319535,-0.018231405,-0.080908015,3999,0,-0.36255455,-1.7254208,-8.004619,3999
2721849278,-0.09743292,-0.05943137,-0.054028068,4000,0,-1.8111012,-0.56140226,-8.052553,4000
2721889278,-0.008238843,-0.16979721,0.0066625187,4000,0,1.5655583,-0.08611473,-8.970486,4000
2721933284,-0.011855401,-0.031863935,-0.040878147,4006,0,0.3924644,-0.3582537,-8.122405,4006
2721974104,0.028344097,-0.0502936,0.0025455577,4025,0,-0.3753296,-0.66743547,-10.484236,4025
2722018112,-0.018406864,0.040502667,-0.04475492,4033,0,-0.35872766,0.95439625,-9.067651,4033
2722062081,0.021546286,0.08734865,-0.0047323653,4001,0,0.84221286,1.2035301,-9.450167,4001
2722102084,0.027474787,0.061316658,0.10468841,3999,0,-1.6685439,0.44770634,-12.937094,3999
2722146078,-0.24969855,0.047418788,-0.15392014,4000,0,-1.7992401,0.61783034,-9.49649,4000
2722186125,0.017405115,-0.034541756,-0.035470754,4040,0,0.24725379,-1.9098017,-12.027522,4040
2722230120,-0.11150914,-0.021239629,-0.075183354,4042,0,-0.6611119,-0.86052483,-11.444561,4042
2722270878,-0.07029341,-0.052019604,-0.055553667,3999,0,-1.0967256,-1.785048,-9.639907,3999
2722314878,0.008007585,-0.050061792,0.031027107,3977,0,-1.0498971,-1.8232063,-10.479215,3977
2722358919,-0.20601305,0.017030671,-0.13203211,4033,0,-0.024020638,-1.6292802,-8.546363,4033
2722402878,-0.2868881,-0.096378975,-0.08592698,3996,0,0.07783424,-0.32635793,-8.146547,3996
2722442880,-0.16893199,0.040331524,-0.14801422,3981,0,0.74901587,-0.897656,-7.9398866,3981
2722486878,0.10365216,-0.0046513313,0.099928744,4000,0,0.36218888,-0.48290843,-8.755829,4000
2722527678,-0.07170015,0.030805403,-0.13239947,4000,0,0.64806545,-0.85833776,-8.141693,4000
2722567679,-0.0682393,0.03443425,0.012144903,3997,0,-0.19742385,1.0077196,-11.266272,3997
2722611686,0.051163383,0.122486904,0.023447614,4008,0,-0.3662733,0.31958222,-11.025709,4008
2722655678,-0.05101017,0.22388299,-0.090454206,3999,0,-0.890638,-0.4768742,-9.229638,3999
2722699679,-0.15061837,0.13118413,-0.061139543,4001,0,-0.5485699,0.07059323,-9.269405,4001
2722739678,0.0125664035,-0.05341617,0.004793543,3993,0,-0.52485013,0.09256658,-12.3361,3993
2722780485,0.094176434,0.040082928,0.053714998,4004,0,-0.8469183,-1.0214225,-10.136402,4004
2722820478,0.02736641,-0.06936674,-0.06334781,3993,0,-0.31929958,0.45300445,-7.647311,3993
2722864478,0.26238242,-0.04660602,0.13851069,3990,0,0.1110881,0.5689119,-10.588499,3990
2722904487,-0.10371735,0.019936912,0.027620014,4004,0,0.6449665,1.9233265,-7.3003974,4004
2722948499,0.11602047,0.07980165,0.12278863,4020,0,0.14715253,1.0370681,-10.391638,4020
2722988488,0.0705146,-0.062116463,0.16474718,4000,0,-0.27118248,1.4615519,-12.572396,4000
2723032485,-0.061631665,-0.0052895295,0.044691212,3996,0,0.13322432,1.4410949,-11.26635,3996
2723073284,0.058906034,-0.0789159,0.120599754,4006,0,-0.6337017,-0.28942227,-12.219256,4006
2723113278,0.04396099,0.038417846,-0.048672453,4000,0,0.23801534,-1.725092,-9.380789,4000
2723157284,0.05769606,0.11579302,-0.07301777,4006,0,0.5298745,-1.8909398,-9.994139,4006
2723197285,0.27641296,0.023399001,0.118196875,4003,0,-0.82223856,0.61777955,-10.415847,4003
2723241278,0.05599496,0.0328513,-0.0059802667,4000,0,-0.019349609,-0.06937602,-8.648619,4000
2723281278,0.06556423,0.10013531,-0.006359885,4000,0,-0.5427543,0.7011018,-11.740421,4000
2723326079,-0.0020225537,0.17959367,-0.097985744,4001,0,-0.1619032,0.078476444,-10.886688,4001
2723366079,0.1602056,-0.07185402,0.14875275,3959,0,-2.1761253,1.0151929,-12.039507,3959
2723410080,0.15850121,-0.083091885,0.11935719,4002,0,-1.2673559,0.18232836,-11.886202,4002
2723454096,-0.06257563,-0.086389184,-0.050337728,4018,0,-0.7669491,-0.032339517,-9.136232,4018
2723498078,-0.018203396,-0.08243592,0.06916676,4000,0,-0.7972569,0.42260188,-9.763169,4000
2723538085,-0.10965458,-0.024590954,-0.17172119,4007,0,-0.71096295,-0.4243645,-9.40477,4007
2723578879,-0.01606763,-0.06767557,-0.0016851161,4000,0,0.18157673,0.45968336,-6.165961,4000
2723622926,-0.080840334,-0.06534322,-0.07680398,4040,0,-0.24904077,0.08237517,-6.8038106,4040
2723662889,-0.07806451,-0.0500115,-0.0320455,4003,0,1.1742169,1.5553254,-9.064836,4003
2723702880,-0.10468082,0.11081768,-0.062376592,4002,0,-0.15014619,-0.21334775,-8.877312,4002
2723746878,-0.17955816,-0.0076224944,-0.0050585847,3998,0,0.028907856,1.185738,-8.096089,3998
2723790917,0.04610469,-0.004065298,0.11297845,4037,0,-0.2525541,1.920964,-10.897448,4037
2723831707,-0.18416284,-0.01840263,0.0055328165,4028,0,0.31098554,0.47995356,-10.541404,4028
2723875684,-0.032767422,0.012642859,0.089439474,3988,0,0.36985672,0.56302,-10.230963,3988
2723915691,-0.021472285,-0.031996325,-0.013481687,4010,0,-0.67873585,-0.6045972,-11.185691,4010
2723955680,0.011209355,-0.038565204,-0.021881158,4002,0,0.2270587,-0.6895344,-9.812916,4002
2723995679,0.23821585,-0.016694428,0.09669945,3996,0,0.28438345,0.03688057,-9.753216,3996
2724039684,0.24520423,-0.029159943,0.07599612,4006,0,0.29633006,0.14534855,-10.192793,4006
2724079678,0.01612842,0.089372694,0.038824897,4000,0,-0.18380877,1.2817855,-10.973608,4000
2724124478,0.05930449,0.10207248,-0.043012973,4800,0,0.14270517,0.15140331,-9.937933,4800
2724164478,0.03560405,-0.11026965,0.12594256,3986,0,-0.93618435,2.1152196,-9.641131,3986
2724204500,-0.027089959,-0.04313004,-0.02558312,4022,0,-0.10714212,0.1685178,-11.953412,4022
2724248517,0.07527845,-0.0018265195,0.05391886,4032,0,-0.87284267,0.10736703,-12.273049,4032
2724292483,0.078000106,-0.039047096,0.048878025,4005,0,-1.3274443,0.43856165,-11.925071,4005
2724336510,0.09429682,-0.062354118,-0.043140247,4032,0,-1.8591483,0.13932279,-11.526462,4032
2724380485,0.05447152,-0.047329146,-0.098753005,4000,0,-1.620876,0.6792693,-10.574689,4000
2724421279,-0.15677732,-0.10708504,-0.032665085,3964,0,1.1129514,0.31691083,-9.5462675,3964
2724461285,0.1350213,-0.020260964,0.07722839,3992,0,-0.19779892,-0.4683358,-9.891672,3992
2724505278,-0.0044777216,-0.10840443,-0.03195868,3993,0,-0.5918193,0.39055496,-7.4566903,3993
2724545291,-0.2575078,0.05016942,-0.14458519,4012,0,1.3393393,0.36084306,-8.111169,4012
2724589278,-0.29024813,0.017747888,-0.09624442,3960,0,1.116324,1.220641,-7.335758,3960
2724629278,-0.24127212,0.039116904,-0.16811164,3994,0,-1.2786669,-0.6129326,-10.355696,3994
2724674078,-0.2940929,0.09621944,-0.13425528,3999,0,-0.73544174,1.3889912,-8.903938,3999
2724714117,-0.14456564,-0.08002855,-0.033381037,4038,0,-0.6976641,-0.42385575,-10.512974,4038
2724754078,0.05849168,-0.032872453,-0.021963665,3999,0,-0.47031936,-2.845608,-11.213585,3999
2724794099,0.14922255,-0.011734685,0.028338863,3980,0,1.5456519,0.64709955,-6.3981028,3980
2724838095,0.092920355,-0.057479646,0.06460415,4007,0,1.1846392,0.2977688,-6.9387197,4007
2724878078,-0.009820888,0.08623687,-0.09154192,3965,0,0.22961539,0.78712964,-9.707788,3965
2724922895,0.23676284,0.018838946,0.013481429,4016,0,1.0876743,-0.68978196,-10.27034,4016
2724962919,-0.03956906,0.04205091,0.036459576,4040,0,0.41725934,1.8808098,-9.343073,4040
2725006884,-0.028824586,0.13775553,-0.060105108,3974,0,0.09747778,0.8830174,-9.458889,3974
2725046887,0.210326,-0.0039040665,0.08046778,3967,0,-0.88233715,-0.13813356,-12.006439,3967
2725090878,0.16622384,0.040304445,0.03165412,3993,0,-0.7230962,-0.18016705,-10.521583,3993
2725130904,-0.08359292,-0.03764289,-0.07884551,4026,0,-0.3980643,0.62206316,-9.139044,4026
2725174878,0.1068342,-0.06261352,0.115918584,3983,0,0.61699486,0.23728766,-10.581882,3983
2725215679,-0.053068522,0.063942,-0.1374771,3995,0,-0.21353962,-0.114676006,-7.2254395,3995
2725255679,-0.15182607,0.010958816,-0.14358264,3964,0,-0.39850262,1.5420334,-8.780699,3964
2725299679,0.0553773,-0.014064453,0.0078051775,4001,0,0.5732641,1.8573639,-8.752812,4001
2725339723,-0.16868252,0.11978573,-0.05532657,4042,0,-0.9391636,0.47717428,-9.563774,4042
2725383678,0.13843724,0.21931389,0.014257257,3974,0,-1.4105918,0.9196923,-12.318469,3974
2725423678,-0.09680495,-0.05799285,0.041737426,3958,0,-1.3837198,1.0872806,-9.930697,3958
2725468497,-0.06851386,0.13396469,-0.036646694,4819,0,-1.381836,1.161644,-9.277091,4819
2725508501,-0.09359273,-0.09086344,-0.03944654,4023,0,-1.9546133,-0.32226697,-10.647778,4023
2725548482,-0.08677468,-0.02414762,-0.087796494,4001,0,0.7828018,-1.1969054,-9.197393,4001
2725588479,0.23056966,0.046726383,0.08030581,3999,0,0.3112978,-1.0888715,-11.018475,3999
2725632485,-0.007948144,-0.09689131,-0.09241117,3964,0,0.14357936,-1.114902,-9.036911,3964
2725672488,-0.14266954,0.0967531,-0.14242482,3969,0,1.0962013,-0.48124987,-8.526536,3969
2725717279,-0.062394105,0.08376545,-0.10514287,4000,0,0.3864299,-0.8120717,-10.172708,4000
2725757294,-0.09886569,-0.108847834,-0.01715408,4016,0,-0.1157843,-0.027106348,-8.712786,4016
2725801285,0.18684568,-0.106623724,0.14186662,3999,0,-0.69621164,-0.7548205,-11.720449,3999
2725841278,-0.059101433,-0.04664849,-0.05836994,3966,0,0.15027596,0.010649835,-9.4795885,3966
2725885279,0.028437153,0.040289797,-0.029449224,4001,0,-0.17480958,-1.0251226,-11.399764,4001
2725925278,0.07459263,-0.03545877,0.017645488,3999,0,0.8850022,0.060513508,-6.729935,3999
2725966113,0.044472545,0.09520647,-0.057528142,4826,0,-0.41359118,1.3914618,-10.25475,4826
2726006078,-0.116731875,0.020570679,0.11825975,3999,0,-0.21761425,1.2553397,-10.416546,3999
2726050113,-0.11912164,0.08672683,-0.05867816,4035,0,-0.3811362,0.6521918,-8.575642,4035
2726090078,-0.09561215,-0.01520628,-0.026605465,3964,0,-1.8190327,0.6517441,-12.267941,3964
2726134113,0.13317527,0.059389308,0.116010755,4035,0,-1.1872319,1.1306913,-13.371038,4035
2726178078,-0.02636423,0.084815644,-0.063647956,4000,0,-0.5839727,0.3191332,-10.446973,4000
2726218110,-0.12319441,0.038098507,-0.009746693,4019,0,-0.8560402,0.07619993,-11.124328,4019
2726262879,-0.10566777,0.021186087,-0.086135656,3994,0,0.2581059,0.5379683,-11.289007,3994
2726302878,-0.038758386,0.028739028,0.118620254,4000,0,-0.53640497,0.51333785,-8.112675,4000
2726346878,0.030241461,-0.009861036,0.046602543,3999,0,-0.8795993,-0.16966505,-9.382337,3999
2726386880,0.04815029,0.041145623,0.08967496,3980,0,1.1771151,0.9596512,-10.905365,3980
2726430878,-0.0513661,0.07803017,-0.11695726,4000,0,1.1029845,0.5958343,-7.123452,4000
2726470879,-0.29575065,0.081185624,-0.13707127,4000,0,-1.6308082,1.5630106,-8.919305,4000
2726511681,-0.22833557,0.019135445,-0.060398657,4002,0,-0.6270426,0.5340356,-10.400323,4002
2726555695,-0.4104973,-0.010714817,-0.09376358,4017,0,-1.5500398,1.8322325,-8.740736,4017
2726595691,-0.09499622,-0.14144792,-0.021727206,4013,0,-1.0352408,-0.5304283,-10.814999,4013
2726639703,0.0544258,-0.056532733,0.110460185,4025,0,-1.4073379,0.56552047,-12.274403,4025
2726679685,-0.0645224,-0.10848368,-0.029920902,4006,0,-0.841587,-1.0762355,-9.666124,4006
2726723693,-0.2506971,-0.22513838,-0.12653926,4014,0,-0.6716837,-0.71709496,-7.0840096,4014
2726763695,0.018810552,0.02017636,-0.038500484,4003,0,1.6582488,-0.45431763,-9.000862,4003
2726807697,0.08891481,-0.04098075,-0.0032692514,4012,0,-0.36278525,0.20372541,-10.1043625,4012
2726848478,-0.00017140606,-0.12722215,0.020447273,3952,0,0.7163166,0.054394104,-9.237943,3952
2726892483,0.0129079595,-0.117805645,-0.07418549,4005,0,-0.25573936,0.89172494,-7.3401804,4005
2726932489,-0.26057756,0.03291626,-0.14717439,4008,0,0.04070803,0.1608192,-9.510349,4008
2726972482,-0.018091135,-0.0986437,-0.05780184,3997,0,0.5681491,-1.087624,-8.831351,3997
2727012484,-0.078608274,0.05707132,-0.20094211,3999,0,0.5908629,-1.3701619,-8.786224,3999
2727056480,-0.19869445,-0.12097756,-0.081569225,4002,0,1.8152093,-0.951078,-7.9332247,4002
2727097278,0.10146529,0.050957493,-0.02367638,4000,0,1.2337655,-1.3451546,-8.430106,4000
2727141278,0.19380021,-0.0394208,0.108396925,3999,0,1.1619643,0.11695829,-9.056394,3999
2727181278,0.06955085,0.20706058,-0.10426838,3987,0,0.940914,-1.1752112,-10.024525,3987
2727225285,0.007037506,0.09942862,-0.15819833,4002,0,1.2818872,-1.5440646,-8.729473,4002
2727265296,0.017448638,0.13218094,0.029087406,4018,0,-0.60722435,0.80238813,-11.311012,4018
2727306085,-0.015211917,0.01814845,-0.043907233,4806,0,-1.3418361,-0.87336975,-10.412829,4806
2727350079,0.14397292,0.026865276,0.011543071,4001,0,-1.7920663,-1.6260017,-13.469917,4001
2727394113,-0.04227193,0.01468641,-0.09046308,4035,0,-0.7214296,-0.28717124,-11.6363325,4035
2727434078,0.018569421,0.10143976,-0.045502543,3993,0,-0.61602294,-1.7903998,-9.7871,3993
2727478113,0.169162,0.14640766,0.060481645,4035,0,-0.7563664,-2.2932987,-13.093007,4035
2727518080,0.30589995,-0.024078665,0.1697737,4002,0,0.6557372,-0.72144264,-10.252693,4002
2727562113,-0.20402381,-0.05366264,-0.1985268,4035,0,1.0533453,-1.3987168,-5.4177136,4035
2727610879,0.009304582,-0.047512528,0.06361591,3957,0,-0.85837793,1.1534454,-10.572338,3957
2727650881,-0.072632134,-0.053467255,-0.033526633,3973,0,0.34797588,-0.9554229,-9.195319,3973
2727694878,-0.026198078,-0.07648312,-0.097380005,4000,0,0.30279955,-0.6069688,-9.852988,4000
2727734938,-0.024285335,-0.11493583,0.06133019,4059,0,0.56196916,1.0140151,-7.5580864,4059
2727778885,-0.01704376,-0.12692274,0.06540667,4005,0,-0.18802425,1.130505,-7.0728483,4005
2727818881,0.102536134,0.05407716,0.04126939,4003,0,1.0146288,0.8790323,-10.584762,4003
2727859679,-0.33270943,0.011251512,-0.116609864,3970,0,-0.08928699,1.3181367,-7.9718647,3970
2727903678,0.19947535,0.0048383945,0.1319995,3998,0,0.5418309,1.0343771,-10.021642,3998
2727943709,0.06361255,0.13844833,0.16123176,4024,0,-1.0969238,1.0481191,-13.771676,4024
2727987678,-0.17269896,0.108294055,-0.07004573,3958,0,0.6440042,1.7552028,-9.329022,3958
2728027678,-0.15810436,-0.050884906,-0.041490365,3967,0,-0.8705327,0.8493129,-8.90345,3967
2728071678,-0.15876184,-0.00175067,-0.06321388,3993,0,-0.6049324,1.6708399,-9.376697,3993
2728111710,-0.018320888,0.0110519435,-0.024708316,4022,0,-1.1229452,-0.61412734,-10.299088,4022
2728156489,0.039279032,-0.10642844,0.07236281,4001,0,-0.9830819,2.1729703,-9.209248,4001
2728196478,0.0435462,0.012967067,-0.016228206,3978,0,-0.81080246,0.50304824,-12.484165,3978
2728240481,0.0714949,-0.010266548,0.04261952,3984,0,-0.25705636,0.4347013,-11.342775,3984
2728280483,-0.104336575,-0.086058915,0.0032889463,3996,0,0.8483763,1.0107975,-8.292765,3996
2728324485,-0.11102305,-0.029520463,-0.1530914,3995,0,0.111059286,-0.29197165,-7.8463902,3995
2728364486,0.003346586,-0.09428593,-0.051571038,4004,0,0.5122713,0.93991655,-6.6115966,4004
2728404478,-0.25705647,0.09992696,-0.21667925,4000,0,0.421126,0.9782221,-7.3132663,4000
2728449289,0.33512285,0.077153295,0.124484144,4011,0,0.43766347,0.8476578,-11.089798,4011
2728489278,0.04790392,0.05721183,0.023689395,3999,0,-0.039456837,2.607771,-8.757395,3999
2728533278,-0.050889853,0.044771284,-0.03201616,3984,0,1.9245169,1.6458863,-7.5823565,3984
2728577279,0.05871058,0.043571405,-0.086722225,4000,0,1.2989643,0.14012344,-9.544842,4000
2728617310,-0.00010228913,0.0656157,-0.10821198,4031,0,-0.6333588,0.708668,-8.417308,4031
2728658078,-0.05220832,-0.05610351,-0.076685034,4766,0,-0.31012172,0.7368811,-10.277254,4766
2728702078,-0.06861336,-0.14709295,-0.00083023484,4000,0,0.52695286,0.7124257,-10.600843,4000
2728742079,0.007155519,0.012102394,-0.11382367,3953,0,0.11919524,-0.515056,-8.106209,3953
2728786085,0.15180813,0.06993093,-0.010708868,4007,0,-0.35170084,-0.5895795,-10.083701,4007
2728826085,0.13620512,0.01619243,0.01741515,3972,0,1.157393,0.7740919,-7.2063537,3972
2728870078,0.12726513,-0.113786,0.07750014,3997,0,1.438792,0.2925226,-7.2804823,3997
2728910085,0.080527395,0.21838766,0.006166879,3957,0,0.78839874,2.2173228,-11.7968445,3957
2728954880,0.019966979,0.19144055,-0.11368735,4796,0,1.2019292,0.7684684,-9.247633,4796
2728994882,-0.009009993,0.058855865,0.02828255,3997,0,-1.4553498,1.4709884,-10.764991,3997
2729038879,-0.2679911,-0.10093157,-0.108280234,4000,0,-0.23725037,1.6655855,-7.1413445,4000
2729078881,-0.06325506,0.042038277,-0.07828345,4003,0,0.0937734,0.08173449,-11.351635,4003
2729122878,0.21552753,0.12635541,0.035780843,4000,0,-0.7088191,-0.45519218,-13.843324,4000
2729166885,0.14206068,0.05943249,0.017445182,3966,0,0.13184978,-1.3720405,-12.485823,3966
2729207679,0.018597778,-0.041355852,0.0008061597,3999,0,-0.045404054,0.40170455,-7.7172236,3999
2729251678,0.10080528,-0.03285504,0.025198271,3993,0,0.2023528,-0.9408147,-10.588214,3993
2729291679,0.2988601,0.08498213,0.16625318,4001,0,1.048572,-0.2703115,-11.48814,4001
2729335679,-0.04624967,0.040694904,-0.14707874,4000,0,1.678602,-1.1561353,-7.150039,4000
2729375678,-0.026551064,0.07132784,-0.032376345,3991,0,0.6678001,1.6176485,-8.44351,3991
2729419678,0.27014974,0.030675082,0.14524952,3998,0,1.5818322,0.18299367,-10.072274,3998
2729460484,0.021851296,0.14226538,-0.040552855,4001,0,0.08526751,0.43686122,-10.884046,4001
2729504541,-0.029972048,0.07399381,-0.12525414,4059,0,1.5513269,-0.09050525,-9.666315,4059
2729544484,0.03065166,0.114383444,0.011272793,4004,0,-0.19250216,0.40033978,-8.823247,4004
2729588483,0.077104904,-0.052262895,0.07229967,4005,0,-0.05958708,0.060297295,-10.107008,4005
2729632514,-0.090402834,-0.07993505,0.05546869,4025,0,-0.15499693,1.1616182,-9.788738,4025
2729672503,-0.09737925,-0.044149175,-0.1386167,4020,0,0.7793215,-1.4259386,-9.403244,4020
2729716478,0.14797412,-0.06793344,0.12422327,3982,0,-0.10008689,-0.94628274,-13.3200035,3982
2729757278,0.13445607,-0.04944549,0.13004199,3976,0,1.264116,-1.2868408,-11.64469,3976
2729801299,-0.19859445,-0.09401495,-0.058176253,4021,0,0.6335082,-1.0490359,-9.434134,4021
2729841297,-0.052511957,-0.10827487,-0.04358536,4018,0,1.8285291,-1.2430093,-6.57634,4018
2729885325,-0.16252452,-0.13454002,-0.11855705,4042,0,1.2456123,-0.83195156,-5.8178988,4042
2729929283,-0.05843657,-0.12728891,-0.0043505975,4005,0,-0.11744612,-0.26447564,-9.37856,4005
2729973278,-0.0042838566,0.021453854,-0.09476139,3958,0,-1.1111307,-1.3260298,-11.05234,3958
2730014079,0.1784814,-0.096783206,0.048672028,3993,0,-0.3944778,0.038209904,-6.3400435,3993
2730054112,0.023752758,0.063418135,-0.117218025,4027,0,-0.20114751,1.2346448,-10.747903,4027
2730098078,0.18630554,0.014510278,0.045171585,4000,0,0.13743907,0.8842974,-11.843646,4000
2730138108,-0.007046195,-0.0022005043,0.060826596,4029,0,-1.3132192,2.0589657,-9.957509,4029
2730178078,0.08285336,-0.070169516,0.062526986,3996,0,-0.62268317,0.4946425,-12.043775,3996
2730218099,-0.033971276,-0.16438766,0.009935219,4014,0,0.08791139,-0.012293668,-8.441221,4014
2730262078,-0.035095464,-0.11942105,0.054717936,3967,0,-0.03511308,1.2079284,-9.731362,3967
2730302878,-0.13815202,0.013008341,-0.10208942,3984,0,0.2190536,0.6582084,-7.164855,3984
2730346885,0.23533851,0.042784654,0.11634946,4007,0,-1.4903033,-0.4759387,-12.355263,4007
2730386879,0.18252191,-0.07647137,0.14901407,4001,0,1.5518416,1.6181892,-8.253657,4001
2730430882,-0.20556171,-0.1595372,-0.07536371,4003,0,1.4501876,0.54821396,-5.6089883,4003
2730470884,0.01585448,0.011033201,-0.07432242,3978,0,1.259075,0.75178677,-8.391782,3978
2730514878,0.3135358,0.011563424,0.10269418,3994,0,0.36514848,0.62965375,-9.246068,3994
2730555680,-0.045621805,0.06342734,-0.13849382,3991,0,0.6412854,0.9743808,-8.132663,3991
2730599678,0.12953924,-0.024891611,-0.011248762,4000,0,1.0957057,-0.8658648,-9.956053,4000
2730639678,-0.041471727,0.021470241,0.016058546,3986,0,0.12460149,2.3137784,-8.272979,3986
2730683678,0.019357998,0.080284506,-0.025141746,4000,0,-0.34700856,0.62700903,-9.114278,4000
2730723682,0.013968062,-0.0021967164,-0.07724491,3991,0,-0.42607027,0.03907019,-10.064615,3991
2730763679,-0.016312959,-0.014727453,-0.08898431,4001,0,-0.44623742,0.12288911,-9.750413,4001
2730803678,-0.051954005,0.009422713,-0.12533954,3990,0,-0.08923246,-0.8334287,-6.7309375,3990
2730848478,0.09875938,-0.04814331,-0.015120576,3996,0,-0.20355609,-0.4349699,-9.817121,3996
2730888483,0.15061128,-0.07644523,0.1146463,4001,0,1.5245445,1.8546188,-8.519783,4001
2730932484,0.09431744,0.0007519395,0.008029802,3999,0,2.0267165,-0.28578088,-5.6185203,3999
2730972493,0.085433796,0.15127675,-0.007902693,4013,0,-0.15031561,2.3918347,-11.705971,4013
2731016478,0.19131877,0.07922233,-0.043258388,3999,0,1.5812157,0.8348414,-9.81444,3999
2731060478,0.12409501,0.00860417,-0.0016610887,3978,0,1.3449758,-0.08867401,-8.519641,3978
2731101278,-0.21971057,0.027609728,-0.19968812,3993,0,1.4952871,0.39937374,-8.114989,3993
2731145319,0.16146146,0.15565728,0.024887152,4040,0,1.2398252,-0.90463877,-12.6296625,4040
2731185278,0.2197787,0.06925734,0.15013112,4000,0,-1.2892454,0.18233766,-11.521446,4000
2731229284,-0.24374104,-0.06351337,-0.079625025,4006,0,0.6171199,-0.4641966,-8.270145,4006
2731269278,0.039205436,-0.024928378,-0.021333674,3999,0,1.0154411,-1.2703015,-11.516889,3999
2731313291,-0.08839851,-0.04802932,-0.08797463,4013,0,-0.24114175,-1.1350198,-9.781113,4013
2731354085,0.04207507,-0.03437589,-0.0713043,4002,0,0.49223387,-1.511125,-9.173213,4002
2731398114,0.04181175,-0.11921495,0.063211724,4028,0,0.026352424,-0.47563502,-11.907998,4028
2731438078,-0.0019263325,-0.04667846,-0.019496985,3994,0,1.8166859,-2.005625,-9.00982,3994
2731482112,-0.19736704,-0.043487,-0.20236531,4027,0,0.41765568,-1.9015534,-7.3419523,4027
2731526078,0.040183008,-0.078705475,0.061022427,4000,0,-1.1051401,-0.2626925,-12.789803,4000
2731566113,0.16340682,-0.08994132,0.17078564,4035,0,1.6041915,-1.1098303,-9.326541,4035
2731614880,0.23652248,0.028325057,0.1764781,3960,0,-2.0712755,0.9260555,-14.727373,3960
2731654878,0.12332671,-0.16049594,0.1096329,3964,0,-2.0897856,0.34528854,-12.314772,3964
2731698879,-0.14006713,-0.003578436,-0.09111861,4001,0,-0.9870049,0.17669295,-10.523629,4001
2731738904,0.024966355,-0.048348922,0.019229762,4018,0,-1.3512045,-0.9404853,-8.553627,4018
2731782886,-0.009560896,-0.055157572,-0.065991625,4006,0,-1.6518927,-0.46063536,-8.883366,4006
2731822878,0.016481215,-0.057028495,-0.06547124,4000,0,0.8111084,0.35715076,-7.7292337,4000
2731863679,0.07004693,-0.025540654,-0.02371231,3991,0,-1.382502,0.7849863,-10.512331,3991
2731907689,0.05224451,-0.1077438,0.038924124,4011,0,-0.31436083,2.264477,-8.900549,4011
2731947707,-0.17361821,0.017420152,-0.02102174,4028,0,-1.5537171,1.6766837,-11.302438,4028
2731991685,-0.07888336,0.18547912,-0.09158924,3964,0,-1.8519993,0.7948147,-11.166552,3964
2732031685,-0.06890597,-0.12486099,0.046758108,3985,0,-1.7823433,1.3106657,-10.101158,3985
2732075678,-0.17400175,-0.11459003,-0.0009221963,4000,0,-1.8986658,1.6000777,-10.366352,4000
2732115697,0.0604959,-0.06789506,-0.039474137,4008,0,-1.4619361,-0.61043483,-12.038216,4008
2732160479,0.07529689,-0.004005959,0.09487045,3976,0,-2.1315956,0.73152983,-11.370945,3976
2732200479,-0.1732273,-0.12532152,-0.10881924,3977,0,-1.3298228,-0.7352624,-9.588708,3977
2732244483,0.0863441,0.08374187,-0.05253786,3998,0,-1.1284003,-2.1638687,-11.882021,3998
2732284494,0.036318164,-0.02599031,0.044533305,4015,0,-0.83110714,0.7153457,-8.035455,4015
2732328479,-0.095018856,-0.04650066,0.020974113,3967,0,0.008404953,0.03206549,-7.7259755,3967
2732368482,0.10645752,-0.047427148,0.026776362,4004,0,-0.50372833,1.4565367,-10.543529,4004
2732409280,-0.13703232,0.032554287,-0.06364571,3971,0,0.2468206,1.4775923,-9.439894,3971
2732453292,-0.063990146,0.14009064,-0.11184509,4014,0,-0.17224562,0.14886266,-8.546339,4014
2732493285,-0.16501796,-0.024377424,-0.047857314,4005,0,-1.6428763,1.8534158,-9.487935,4005
2732537278,-0.017466616,0.16295399,0.023752717,3999,0,-0.72113556,0.85834396,-10.101869,3999
2732577285,0.07728949,-0.027212728,-0.00790824,3986,0,-2.5867183,-0.26453847,-11.861563,3986
2732621278,-0.038836133,0.020171989,0.018509451,3994,0,-1.097242,0.77842796,-10.878486,3994
2732662079,-0.024450453,-0.03487092,-0.008293452,4799,0,-1.3612102,0.24916577,-10.269329,4799
2732706078,0.043205928,0.027504826,0.0029350251,4000,0,-0.7068736,-0.7914377,-11.111531,4000
2732746089,-0.016787216,0.14071892,-0.11483051,3976,0,-0.7669017,-0.7808316,-9.642294,3976
2732790078,0.02948572,0.13200767,-0.073312886,4000,0,-0.97949964,-0.70432234,-10.971675,4000
2732830078,0.025299395,-0.11392709,0.040313948,3965,0,0.3807083,-0.10931134,-7.9258776,3965
2732874085,0.0022146204,0.027937505,-0.016267147,4007,0,0.7409774,-0.66076505,-7.635812,4007
2732914080,-0.048087582,0.1619829,-0.1439805,3987,0,-1.0065904,0.68989754,-9.3755455,3987
2732958878,0.13117036,0.14908709,0.046171732,4799,0,0.39645833,-0.039029595,-10.2520685,4799
2732998878,-0.10421174,0.020525085,-0.028388504,4000,0,-1.3022536,1.2300667,-9.094836,4000
2733042878,-0.1294288,0.123966694,-0.10197089,3993,0,-0.43509606,0.5981161,-9.744469,3993
2733082878,0.15972684,0.08917117,0.04171473,3993,0,-1.3561006,-0.012279032,-11.99808,3993
2733126878,0.043795347,0.03177397,-0.0061122337,3991,0,-1.6788305,-0.2301799,-10.916558,3991
2733166878,-0.19141956,-0.16609126,-0.105425335,3982,0,-0.4152456,0.27073383,-9.098461,3982
2733207679,0.07417406,-0.046226565,0.09818026,4000,0,0.013437821,0.20428176,-8.271854,4000
2733251678,0.15163831,-0.03736506,0.08253527,4000,0,-0.9891317,-0.69247556,-9.936412,4000
2733291678,0.09356094,-0.009264414,0.022349762,4000,0,0.33043516,1.0007533,-10.659717,4000
2733335685,-0.03214257,0.017132504,-0.14307266,4007,0,-0.37321857,0.3908891,-8.032659,4007
2733375679,-0.24667718,-0.043663766,-0.085236646,4000,0,-1.1479169,1.3894886,-9.015028,4000
2733415678,-0.25409326,-0.10564254,-0.14112669,3999,0,0.33300254,-0.043044586,-9.166015,3999
2733455678,-0.107200585,-0.0036135435,-0.08874382,4000,0,0.4716326,-1.6542943,-8.189094,4000
2733500491,-0.2629737,-0.15422767,-0.11315976,4013,0,0.34764716,-0.46128997,-7.6835327,4013
2733540482,-0.02372338,-0.046093583,-0.008306694,3989,0,2.2402582,-0.40989256,-8.386765,3989
2733584483,-0.0648932,-0.07473775,-0.064982854,3996,0,1.1129467,0.5667496,-6.4858475,3996
2733624485,-0.045514736,0.14460273,-0.11166477,3992,0,0.84310114,-0.07208393,-9.788727,3992
2733668482,0.07114529,0.0709781,-0.010647332,3991,0,0.48633054,1.4588912,-10.605325,3991
2733708478,-0.25577423,-0.035216045,0.033104014,3999,0,-0.12601297,0.72775143,-9.780699,3999
2733749327,-0.08718183,0.052117333,-0.14215049,4049,0,-0.4852883,-2.1123812,-10.217591,4049
2733793278,0.14312741,0.0005251168,0.11156525,3980,0,-1.1871275,-0.31489512,-13.841559,3980
2733837278,0.033623718,0.0058669075,0.0108259395,3998,0,-1.2034736,0.38668624,-12.932223,3998
2733877278,-0.22208665,-0.05413352,-0.10036491,4000,0,-0.10263514,-1.516509,-6.4626174,4000
2733917281,0.017027358,0.0066273804,-0.12797008,4003,0,1.2425002,-0.8578196,-9.482811,4003
2733957295,-0.008367151,0.11929032,-0.070758216,4010,0,-0.48471308,-0.42402866,-9.022576,4010
2734001281,0.092689745,0.02561094,-0.020317333,4003,0,-1.0518275,-0.61166734,-10.281634,4003
2734042078,-0.00990953,-0.025563078,0.0040071313,3997,0,0.7766462,-0.07088372,-10.615895,3997
2734086118,0.008475598,0.09068972,-0.098944046,4040,0,0.09065797,-1.3558642,-10.635718,4040
2734126079,0.13719141,-0.038920067,-0.030487388,3996,0,-1.4856548,-0.706253,-10.577053,3996
2734170121,0.2404405,-0.04371473,0.07000577,4043,0,-0.8212219,-0.24273331,-11.811539,4043
2734210085,-0.065825075,-0.062097155,0.008310909,4005,0,1.1069753,0.6629112,-6.965319,4005
2734254113,0.16061549,0.04290024,0.08346083,4028,0,0.15976374,-1.0851698,-10.391763,4028
2734294878,0.39020884,-0.015212003,0.23559321,3993,0,0.69407064,1.9105488,-9.91345,3993
2734334880,-0.23899268,0.044486273,-0.106913365,4001,0,-0.12046152,1.7114102,-8.557049,4001
2734378878,-0.0025756822,0.09337505,-0.0004465752,3994,0,-0.4137106,1.0636015,-10.600683,3994
2734418878,0.11161854,0.0762277,0.05394702,3993,0,-1.7899122,1.2968147,-11.877557,3993
2734462878,0.053385608,0.07068381,0.07573306,3999,0,-1.1240367,2.0224168,-11.400878,3999
2734502878,-0.22015968,-0.054588687,-0.04133765,4000,0,-1.2753675,-0.5736852,-10.264988,4000
2734547685,-0.04917237,-0.020083189,-0.02917666,4007,0,-0.81048393,-0.528596,-12.024616,4007
2734591721,-0.12253158,-0.055936776,-0.12653132,4042,0,-0.17921011,0.18988772,-9.0155,4042
2734631685,-0.28035182,-0.03370864,-0.1699537,4007,0,-0.07297678,0.042115107,-5.496732,4007
2734671685,-0.15108448,0.023629496,-0.15313996,4007,0,0.544635,-0.50540316,-8.0164795,4007
2734715678,0.16666432,0.12921168,0.08917091,4000,0,-0.6792725,-0.107027136,-13.382124,4000
2734755678,0.27838218,0.033693627,0.17034465,3998,0,-0.9002995,-1.1369627,-10.868095,3998
2734799678,0.10510044,-0.036529817,-0.0039216853,3997,0,-0.2205866,-0.17147212,-9.740686,3997
2734840487,0.09318272,0.0528521,0.060403302,4802,0,-0.4445172,0.44988754,-9.322931,4802
2734880478,0.021424705,-0.11064482,0.08713872,3974,0,-0.7342655,0.45460927,-10.697815,3974
2734924493,0.21553345,0.034233518,0.11927634,4015,0,0.054320175,-1.6164687,-12.381319,4015
2734964484,0.25574312,0.23443481,0.17877735,3995,0,0.13553095,1.2174498,-9.728018,3995
2735008478,-0.13956365,0.43792754,-0.15002556,4000,0,0.11333637,0.423532,-6.316943,4000
2735049310,0.055895545,0.6046278,-0.021315223,4832,0,-0.2278867,1.4358823,-7.440183,4832
2735093286,0.10956932,0.913218,0.027169341,4007,0,-0.16527602,1.2526625,-11.138679,4007
2735133289,-0.14379683,0.9202529,0.059372526,4010,0,-0.90930456,0.21341941,-8.724425,4010
2735177307,0.008192687,0.8148022,0.26562205,4029,0,0.24310872,0.072894,-8.122982,4029
2735217285,0.14334102,0.536497,0.24980614,4006,0,-1.6447694,1.1664575,-10.764255,4006
2735257285,0.54275674,0.3679675,0.4115922,3999,0,-0.8295208,3.1408195,-10.186653,3999
2735301279,0.5259366,0.00010846468,0.44781697,4001,0,2.932533,-0.76119107,-4.2695966,4001
2735349285,0.82024205,-0.113456115,0.59550375,3927,0,-0.39458376,-1.0489838,-8.53557,3927
2735390085,0.76983327,-0.30707404,0.57897604,3979,0,0.00833822,0.48535332,-6.4639754,3979
2735430113,0.7062562,-0.4640388,0.70472264,4018,0,-0.35134718,-0.16752884,-7.3391395,4018
2735474085,0.3596056,-0.35918003,0.5995038,4007,0,-1.0085858,0.514589,-6.968614,4007
2735514126,0.632608,-0.4700293,0.7945297,4047,0,-1.3375152,-0.32254705,-10.5934925,4047
2735558078,0.13961717,-0.37119427,0.6368106,3981,0,-0.3572965,-0.67605394,-8.66325,3981
2735598124,-0.09647123,-0.37557822,0.56830144,4046,0,0.1318045,-0.51510614,-5.1833744,4046
2735638878,-0.05335302,-0.39989576,0.64598274,3952,0,0.44999078,-1.4576836,-10.366075,3952
2735678885,0.06207272,-0.30224773,0.84494877,4007,0,0.82148373,0.35965446,-9.531697,4007
2735718885,-0.3469945,-0.27828413,0.78739774,4005,0,-0.54437053,0.824419,-10.606567,4005
2735758879,-0.20150566,-0.18019032,0.7950231,4000,0,0.1350771,-1.6971016,-10.154184,4000
2735802925,-0.54330456,-0.36408532,0.63869673,4042,0,0.00205031,-0.6229976,-6.763116,4042
2735842884,-0.49711695,-0.2517085,0.7143939,4003,0,1.1617658,0.635349,-7.8483915,4003
2735887679,-0.30131683,-0.19273964,0.8861911,3960,0,1.1370445,0.88679445,-10.028914,3960
2735927679,-0.52381253,-0.11295164,0.7785686,4000,0,-1.073501,-0.13958526,-10.66363,4000
2735975685,-0.4858756,-0.03745302,0.6760805,3981,0,0.3624073,0.022917889,-9.79643,3981
2736015679,-0.48641476,-0.092491634,0.8114805,3986,0,-0.3463018,1.5027785,-11.648617,3986
2736059697,-0.506514,-0.08621691,0.7478412,4019,0,-0.89215744,2.0867195,-11.50853,4019
2736103678,-0.5961644,0.12048678,0.5677346,3993,0,0.037022766,0.7096681,-11.024559,3993
2736143679,-0.26334128,-0.07596735,0.696111,3956,0,-1.0013671,-0.90390766,-10.807814,3956
2736184478,-0.53405386,-0.009386388,0.5115546,3993,0,0.40983194,-1.7742834,-9.337511,3993
2736228492,-0.8215048,-0.10702899,0.46880636,4013,0,-1.0893848,1.6129477,-8.64542,4013
2736276478,-0.25361574,-0.024199346,0.40851155,3996,0,1.6151713,-2.1300125,-7.51058,3996
2736316487,-0.12902503,-0.05984385,0.46274266,4001,0,1.1060354,-2.3140352,-11.757142,4001
2736360478,-0.3591576,-0.34791633,0.40024838,3988,0,-0.52817285,0.37703234,-9.164436,3988
2736405278,-0.09627359,0.033539798,0.28432694,4791,0,-0.05127554,1.1664208,-9.017967,4791
2736445278,-0.13284777,-0.093090326,0.2977262,4000,0,1.0446242,0.045083087,-8.409721,4000
2736489307,-0.10775707,-0.37635574,0.23776467,4028,0,2.3733926,-2.128478,-7.4917574,4028
2736529279,-0.23077445,-0.5225974,0.29270104,4001,0,2.2977736,-2.032244,-7.430594,4001
2736573279,-0.39045614,-0.5143357,0.116465315,4001,0,-1.5048716,-0.13595015,-9.63771,4001
2736613285,-0.027559346,-0.4677021,0.25204542,4007,0,-2.0438955,-1.3334826,-14.600493,4007
2736657278,-0.3467299,-0.23479787,0.027836569,3999,0,-1.1120813,0.2199366,-7.6440296,3999
2736702079,0.088884704,-0.22440778,0.034887202,3991,0,1.8265702,1.2174658,-5.1941957,3991
2736742091,0.08387504,-0.2344826,0.19161701,4012,0,0.78932375,1.3877038,-10.169649,4012
2736782079,0.02087772,-0.08704766,-0.022042824,3995,0,0.11798993,1.7243645,-9.483648,3995
2736822078,0.10894618,-0.10327313,0.15319836,3993,0,-0.740511,0.18283457,-9.852753,3993
2736866078,0.12181684,-0.22693579,0.030586708,4000,0,2.2024171,-3.1599712,-9.072972,4000
2736910078,0.026367417,-0.2573446,0.055579484,4000,0,0.2760992,-2.3192089,-8.8222685,4000
2736950079,-0.23550144,-0.36533487,-0.18766451,4001,0,2.3608866,-1.8898711,-6.054927,4001
2736990878,0.05621044,-0.16618368,0.0048783664,4000,0,0.45465776,-0.0775359,-10.487122,4000
2737030878,0.09476104,0.11232755,0.0019729591,4000,0,0.1728597,-1.1049601,-10.360103,4000
2737070879,-0.156017,0.092581324,-0.11874208,4001,0,1.1939148,-0.607968,-6.9713364,4001
2737110880,-0.04812967,0.039264414,-0.18611035,3995,0,0.5219533,-1.2096564,-8.689753,3995
2737154878,-0.15285471,0.12732054,-0.11578526,3999,0,0.5399506,0.55558056,-7.081624,3999
2737194878,-0.07032071,0.13147697,-0.16445704,3999,0,-0.15061884,0.09832221,-7.3240824,3999
2737239685,0.2925439,0.18711223,0.2620903,4006,0,-1.3856747,2.662048,-11.769457,4006
2737287679,0.4250662,0.2784824,0.0798955,4001,0,-0.13506036,-1.945812,-13.138442,4001
2737327685,0.031158678,0.25164032,-0.099879384,4005,0,0.9651017,-1.1923754,-5.212428,4005
2737371678,0.24867862,0.41073427,0.06274133,3999,0,-0.42605138,-1.4134343,-10.686345,3999
2737411700,0.5186666,0.31832516,0.20577556,4021,0,-0.5956315,0.38379225,-12.093256,4021
2737455685,0.28708595,0.16146097,-0.06949287,3995,0,0.7320696,-1.4721408,-8.596996,3995
2737495681,-0.06370236,0.3172396,-0.23327444,3987,0,0.42942026,0.56892,-5.488072,3987
2737536482,0.16514817,0.21691372,-0.063214116,3961,0,0.6559688,0.75120723,-7.0173965,3961
2737576482,-0.059230883,0.50639015,-0.15278347,4004,0,-0.3205237,-0.106104925,-8.767896,4004
2737624478,0.44277042,0.20048474,0.14321692,3977,0,-0.2958013,-0.5308392,-12.885117,3977
2737664479,0.17890121,0.22850266,-0.060608163,3982,0,-1.3663431,-1.0130407,-9.536936,3982
2737704478,0.46032426,0.32687944,0.17960873,3994,0,0.4239406,0.04094785,-12.242327,3994
2737744479,0.32434148,0.20964007,0.111333065,4000,0,0.37431443,1.1428847,-10.200531,4000
2737785282,0.37142786,0.32601953,0.13955425,3998,0,-1.3948158,0.59834117,-14.4736395,3998
2737825284,0.26410162,0.0442783,0.15818825,4006,0,-1.5543356,1.600969,-11.996522,4006
2737869301,0.04177249,0.10180325,-0.12569796,3981,0,1.75208,0.240018,-5.6802707,3981
2737909291,-0.3005269,0.039263822,-0.26918003,3995,0,-1.3145574,1.0526994,-4.149931,3995
2737953279,0.18977962,0.110365056,0.097495295,3991,0,-0.72259545,2.3805048,-8.6321,3991
2737993278,0.18612877,0.41673836,0.06961919,3994,0,-2.043806,0.1779173,-13.416556,3994
2738034113,0.35156813,0.065778755,0.23178938,4023,0,-1.6071746,0.9360474,-15.53201,4023
2738078081,0.08183467,-0.042229805,0.043131057,4001,0,0.062096704,1.6622404,-10.019903,4001
2738118095,-0.14533909,-0.15992236,-0.0068836245,4017,0,-0.87875366,1.3561791,-9.207894,4017
2738158079,-0.051408835,0.1159702,0.056402516,3990,0,-2.0335279,-0.24228744,-13.760077,3990
2738198078,0.34142885,-0.055225674,0.23953673,4000,0,-1.8810586,0.58061993,-14.022807,4000
2738238100,0.1958189,-0.084156685,0.13202162,4021,0,0.32074744,-0.6622114,-10.51983,4021
2738278085,0.03488276,0.14724047,-0.050628692,4006,0,-0.08773929,-1.1040268,-10.09989,4006
2738318887,0.4576953,0.1481671,0.2356437,4009,0,0.134306,-0.2875235,-12.084776,4009
2738366891,-0.07328883,-0.07871785,-0.00653029,4013,0,-2.223645,-1.1401429,-10.665628,4013
2738414879,0.079087086,0.3208131,-0.0876707,3994,0,-1.8285366,1.2104361,-9.204453,3994
2738454899,0.19561885,0.1161925,0.10326508,4021,0,-0.11490517,0.13360618,-12.716559,4021
2738498879,0.05503122,0.013523896,-0.008207417,3991,0,0.29916254,-0.8187279,-10.7170105,3991
2738539679,0.31316167,0.053591322,0.119887985,4793,0,-0.2620716,0.7051108,-10.795614,4793
2738583686,0.06941524,-0.14477125,-0.0391454,4007,0,1.9045073,-2.1582515,-8.010024,4007
2738623708,-0.25134617,-0.24498,-0.09770589,4030,0,1.8670154,1.1270392,-4.139696,4030
