timestamp,vel_pos_innov[0],vel_pos_innov[1],vel_pos_innov[2],vel_pos_innov[3],vel_pos_innov[4],vel_pos_innov[5],mag_innov[0],mag_innov[1],mag_innov[2],heading_innov,airspeed_innov,beta_innov,flow_innov[0],flow_innov[1],hagl_innov,vel_pos_innov_var[0],vel_pos_innov_var[1],vel_pos_innov_var[2],vel_pos_innov_var[3],vel_pos_innov_var[4],vel_pos_innov_var[5],mag_innov_var[0],mag_innov_var[1],mag_innov_var[2],heading_innov_var,airspeed_innov_var,beta_innov_var,flow_innov_var[0],flow_innov_var[1],hagl_innov_var,output_tracking_error[0],output_tracking_error[1],output_tracking_error[2],drag_innov[0],drag_innov[1],drag_innov_var[0],drag_innov_var[1],aux_vel_innov[0],aux_vel_innov[1]
2708900395,0.034965407,-0.04811112,-0.01668955,0.006828308,-0.02537918,-0.37238693,0.0,0.0,0.0,0.013893396,0.0,0.0,0.0,0.0,0.0,0.2611122,0.26111203,0.57227886,0.28889018,0.28889,4.057206,0.0,0.0,0.0,0.090147376,0.0,0.0,0.0,0.0,0.0,0.00016710968,0.0053930143,0.016116625,0.0,0.0,0.0,0.0,0.0,0.0
2709103590,0.015024284,-0.018379668,-0.018791119,0.009918213,-0.030921936,0.3341751,0.0,0.0,0.0,0.04729689,0.0,0.0,0.0,0.0,0.0,0.26104915,0.26104894,0.5723414,0.28860998,0.2886098,4.0573454,0.0,0.0,0.0,0.09014732,0.0,0.0,0.0,0.0,0.0,0.00015438019,0.0035388302,0.009686073,0.0,0.0,0.0,0.0,0.0,0.0
2709304541,0.061480936,-0.020705618,0.013392752,0.013435364,-0.037273407,0.10022926,0.0,0.0,0.0,0.0035730824,0.0,0.0,0.0,0.0,0.0,0.26096877,0.2609686,0.57231545,0.2882409,0.28824073,4.0574584,0.0,0.0,0.0,0.09014725,0.0,0.0,0.0,0.0,0.0,0.00017513294,0.003946591,0.010523621,0.0,0.0,0.0,0.0,0.0,0.0
2709505328,-0.013991383,0.008867169,0.030248223,0.0135269165,-0.0423584,-0.33545685,0.0,0.0,0.0,-0.046925902,0.0,0.0,0.0,0.0,0.0,0.26094508,0.26094493,0.57229686,0.28808153,0.28808135,4.0572796,0.0,0.0,0.0,0.09014727,0.0,0.0,0.0,0.0,0.0,0.0001802953,0.0023266647,0.0077236863,0.0,0.0,0.0,0.0,0.0,0.0
2709706016,0.013165151,-0.009479858,-0.0027277991,0.018039703,-0.039058685,-0.5136967,0.0,0.0,0.0,-0.016563438,0.0,0.0,0.0,0.0,0.0,0.26095855,0.26095834,0.5723103,0.28814688,0.28814673,4.0574155,0.0,0.0,0.0,0.09014721,0.0,0.0,0.0,0.0,0.0,0.000110814304,0.00431452,0.014017935,0.0,0.0,0.0,0.0,0.0,0.0
2709906118,0.010110657,-0.020283105,0.047448013,0.019485474,-0.052635193,-0.32886887,0.0,0.0,0.0,0.032621518,0.0,0.0,0.0,0.0,0.0,0.2609747,0.2609745,0.57231957,0.28818116,0.288181,4.0575356,0.0,0.0,0.0,0.090147234,0.0,0.0,0.0,0.0,0.0,0.0003091099,0.008266308,0.026359169,0.0,0.0,0.0,0.0,0.0,0.0
2710111024,0.012052691,0.010780062,-0.0842057,0.021007538,-0.053829193,0.27338982,0.0,0.0,0.0,-0.05385623,0.0,0.0,0.0,0.0,0.0,0.26108044,0.26108027,0.5722805,0.28849193,0.2884918,4.057392,0.0,0.0,0.0,0.09014727,0.0,0.0,0.0,0.0,0.0,0.00087010907,0.008591583,0.030288741,0.0,0.0,0.0,0.0,0.0,0.0
2710311608,-0.017312288,-0.0407482,-0.09718844,0.03541565,-0.05725479,1.1814766,0.0,0.0,0.0,-0.0039780736,0.0,0.0,0.0,0.0,0.0,0.2612091,0.26123118,0.5723418,0.28826743,0.28826737,4.0575123,0.0,0.0,0.0,0.09014727,0.0,0.0,0.0,0.0,0.0,0.0014142747,0.0267634,0.08949494,0.0,0.0,0.0,0.0,0.0,0.0
2710516530,-0.11908412,-0.09203512,-0.14827925,0.030784607,-0.081840515,1.3318977,0.0,0.0,0.0,0.01967948,0.0,0.0,0.0,0.0,0.0,0.26158354,0.2616171,0.5722974,0.288522,0.28852278,4.0572696,0.0,0.0,0.0,0.09014735,0.0,0.0,0.0,0.0,0.0,0.0008567286,0.041615248,0.14137827,0.0,0.0,0.0,0.0,0.0,0.0
2710921421,-0.004820138,-0.03946089,-0.092384815,0.05242157,-0.063697815,0.012208939,0.0,0.0,0.0,0.019408133,0.0,0.0,0.0,0.0,0.0,0.2615291,0.26154754,0.57232225,0.28867906,0.2886835,4.057272,0.0,0.0,0.0,0.090147205,0.0,0.0,0.0,0.0,0.0,0.00017681418,0.020391636,0.07709776,0.0,0.0,0.0,0.0,0.0,0.0
2712943735,-0.06563392,0.034716792,-0.06552136,0.015193939,0.022361755,-0.62877274,0.0,0.0,0.0,0.001591932,0.0,0.0,0.0,0.0,0.0,0.26105273,0.26105368,0.5722668,0.288383,0.28838468,4.0573816,0.0,0.0,0.0,0.09014678,0.0,0.0,0.0,0.0,0.0,0.00024881668,0.010835861,0.03648589,0.0,0.0,0.0,0.0,0.0,0.0
2713148388,-0.039887473,0.01705537,-0.022247553,0.007171631,0.027462006,0.116176605,0.0,0.0,0.0,0.016892899,0.0,0.0,0.0,0.0,0.0,0.26103997,0.26103857,0.5722794,0.2883911,0.28839248,4.057397,0.0,0.0,0.0,0.09014686,0.0,0.0,0.0,0.0,0.0,0.00015032454,0.0074287993,0.023309443,0.0,0.0,0.0,0.0,0.0,0.0
2713348902,-0.07351085,-0.020451672,0.023860395,-0.009605408,0.026035309,-0.30423737,0.0,0.0,0.0,0.058758203,0.0,0.0,0.0,0.0,0.0,0.26100603,0.26100338,0.57228726,0.28829512,0.2882959,4.0572715,0.0,0.0,0.0,0.09014689,0.0,0.0,0.0,0.0,0.0,0.00019272746,0.008308478,0.026446095,0.0,0.0,0.0,0.0,0.0,0.0
2713549234,0.022542331,-0.0035771728,0.03220254,-0.0052604675,0.030788422,-0.7186222,0.0,0.0,0.0,-0.0037389472,0.0,0.0,0.0,0.0,0.0,0.26101658,0.2610136,0.5723038,0.28833878,0.28833878,4.0574203,0.0,0.0,0.0,0.09014684,0.0,0.0,0.0,0.0,0.0,6.975653e-05,0.0100055495,0.034609396,0.0,0.0,0.0,0.0,0.0,0.0
2713750164,-0.17596248,-0.10304473,0.026827216,-0.034404755,0.021053314,-0.24371338,0.0,0.0,0.0,0.015657984,0.0,0.0,0.0,0.0,0.0,0.26100823,0.26100534,0.57232004,0.28837377,0.28837308,4.0573416,0.0,0.0,0.0,0.090146944,0.0,0.0,0.0,0.0,0.0,0.0002798007,0.016584354,0.053692397,0.0,0.0,0.0,0.0,0.0,0.0
2713950162,0.06759392,0.09604442,0.18128818,-0.02614212,0.04087448,0.29299164,0.0,0.0,0.0,-0.0018474646,0.0,0.0,0.0,0.0,0.0,0.26105908,0.2610562,0.57228476,0.28863212,0.28863078,4.0572243,0.0,0.0,0.0,0.09014698,0.0,0.0,0.0,0.0,0.0,0.00026171762,0.006918715,0.024786627,0.0,0.0,0.0,0.0,0.0,0.0
2714154990,-0.060908306,-0.059971366,-0.15696615,-0.027065277,0.038093567,0.36131668,0.0,0.0,0.0,-0.0060257725,0.0,0.0,0.0,0.0,0.0,0.26104805,0.2610455,0.5723014,0.28862274,0.28862086,4.057034,0.0,0.0,0.0,0.09014708,0.0,0.0,0.0,0.0,0.0,0.00012793686,0.0062479917,0.019137373,0.0,0.0,0.0,0.0,0.0,0.0
2714355830,-0.018511621,0.04782619,0.064044,-0.01121521,0.045951843,0.34700394,0.0,0.0,0.0,0.011601895,0.0,0.0,0.0,0.0,0.0,0.26101118,0.26100904,0.5723131,0.28848127,0.28847897,4.057192,0.0,0.0,0.0,0.090147026,0.0,0.0,0.0,0.0,0.0,0.00018372315,0.004511472,0.011833927,0.0,0.0,0.0,0.0,0.0,0.0
2714556538,-0.122098625,-0.036822792,0.103630364,-0.02412033,0.044631958,0.41783524,0.0,0.0,0.0,-0.021600187,0.0,0.0,0.0,0.0,0.0,0.26100278,0.26100117,0.57224745,0.28846365,0.2884611,4.057097,0.0,0.0,0.0,0.090147026,0.0,0.0,0.0,0.0,0.0,0.00029298395,0.0070363735,0.01627403,0.0,0.0,0.0,0.0,0.0,0.0
2714756575,0.15268794,0.12798436,0.08784443,0.004009247,0.056484222,-0.69880295,0.0,0.0,0.0,0.019782394,0.0,0.0,0.0,0.0,0.0,0.2610021,0.26100084,0.5722661,0.2884699,0.28846714,4.0570126,0.0,0.0,0.0,0.090146974,0.0,0.0,0.0,0.0,0.0,0.0005391284,0.0069381627,0.015161267,0.0,0.0,0.0,0.0,0.0,0.0
2714957220,-0.06131177,0.022796301,-0.14123905,-0.0015602112,0.055015564,-0.24837303,0.0,0.0,0.0,0.034328077,0.0,0.0,0.0,0.0,0.0,0.26094946,0.26094836,0.57225305,0.28822207,0.28821927,4.056996,0.0,0.0,0.0,0.09014692,0.0,0.0,0.0,0.0,0.0,0.00022394126,0.008278206,0.026178371,0.0,0.0,0.0,0.0,0.0,0.0
2715158252,0.11788359,0.02818002,-0.056001008,0.005706787,0.059249878,0.01537323,0.0,0.0,0.0,0.0075059533,0.0,0.0,0.0,0.0,0.0,0.2610054,0.26100433,0.5722271,0.2885172,0.28851438,4.0571833,0.0,0.0,0.0,0.090146944,0.0,0.0,0.0,0.0,0.0,0.0001828241,0.008023483,0.025700262,0.0,0.0,0.0,0.0,0.0,0.0
2715359007,-0.14202236,-0.05565054,0.0012566447,-0.02155304,0.044311523,-0.60695267,0.0,0.0,0.0,-0.00024176389,0.0,0.0,0.0,0.0,0.0,0.2610037,0.26100272,0.5722449,0.28849012,0.28848734,4.057091,0.0,0.0,0.0,0.09014697,0.0,0.0,0.0,0.0,0.0,0.00016384321,0.0068992367,0.0234497,0.0,0.0,0.0,0.0,0.0,0.0
2715563807,-0.04923922,0.0032996275,0.10025096,-0.03753662,0.035404205,-0.0844326,0.0,0.0,0.0,-0.048458464,0.0,0.0,0.0,0.0,0.0,0.26100528,0.2610041,0.5722627,0.2884918,0.2884891,4.0571504,0.0,0.0,0.0,0.09014713,0.0,0.0,0.0,0.0,0.0,0.0002754294,0.0053728954,0.016915325,0.0,0.0,0.0,0.0,0.0,0.0
2715763868,-0.07610188,-0.067376226,-0.07106519,-0.042102814,0.040546417,-0.50525665,0.0,0.0,0.0,-0.031713024,0.0,0.0,0.0,0.0,0.0,0.26097482,0.2609733,0.57227343,0.2883648,0.28836226,4.057063,0.0,0.0,0.0,0.09014715,0.0,0.0,0.0,0.0,0.0,0.00046183236,0.004934545,0.010309917,0.0,0.0,0.0,0.0,0.0,0.0
2715964697,0.059810378,-0.06342387,-0.066214204,-0.039878845,0.031375885,0.0951767,0.0,0.0,0.0,-0.048694164,0.0,0.0,0.0,0.0,0.0,0.26098683,0.26098505,0.57229,0.28838408,0.28838164,4.0575056,0.0,0.0,0.0,0.090147406,0.0,0.0,0.0,0.0,0.0,0.0002738898,0.002461484,0.0062845587,0.0,0.0,0.0,0.0,0.0,0.0
2716165403,-0.04047243,0.009255189,-0.08054799,-0.03180313,0.02444458,0.32811356,0.0,0.0,0.0,-0.014589831,0.0,0.0,0.0,0.0,0.0,0.26099375,0.26099166,0.5723022,0.28840306,0.28840065,4.057373,0.0,0.0,0.0,0.090147346,0.0,0.0,0.0,0.0,0.0,0.0002768958,0.003291012,0.0103576975,0.0,0.0,0.0,0.0,0.0,0.0
2716369422,-0.039797716,0.104904965,-0.06437737,-0.025875092,0.03339386,-0.13040924,0.0,0.0,0.0,-0.004375443,0.0,0.0,0.0,0.0,0.0,0.26100025,0.26099795,0.5723101,0.28839248,0.2883901,4.0575643,0.0,0.0,0.0,0.09014744,0.0,0.0,0.0,0.0,0.0,0.00023853846,0.005848804,0.018034264,0.0,0.0,0.0,0.0,0.0,0.0
2716569984,-0.062063135,-0.21740463,-0.06907153,-0.029594421,0.009693146,-0.4029007,0.0,0.0,0.0,0.0773184,0.0,0.0,0.0,0.0,0.0,0.26096502,0.26096272,0.5722854,0.28815877,0.28815645,4.057711,0.0,0.0,0.0,0.09014755,0.0,0.0,0.0,0.0,0.0,0.00022997048,0.005234368,0.009559711,0.0,0.0,0.0,0.0,0.0,0.0
2716770809,0.011111863,-0.023237113,-0.016366959,-0.029006958,0.012378693,0.9701748,0.0,0.0,0.0,0.0087694675,0.0,0.0,0.0,0.0,0.0,0.26103905,0.26103672,0.5723278,0.2884676,0.28846523,4.0578136,0.0,0.0,0.0,0.09014772,0.0,0.0,0.0,0.0,0.0,0.00014941349,0.008006845,0.02528256,0.0,0.0,0.0,0.0,0.0,0.0
2716971752,0.088357925,-0.04160201,0.11847544,-0.012302399,0.0049476624,-0.6719475,0.0,0.0,0.0,0.0010004342,0.0,0.0,0.0,0.0,0.0,0.2610148,0.26101264,0.5723281,0.28835338,0.2883511,4.0575104,0.0,0.0,0.0,0.09014779,0.0,0.0,0.0,0.0,0.0,0.00012384624,0.006596798,0.018919116,0.0,0.0,0.0,0.0,0.0,0.0
2717172514,-0.025772396,-0.14918406,0.17783546,-0.0058250427,-0.016414642,-0.6917801,0.0,0.0,0.0,-0.013230324,0.0,0.0,0.0,0.0,0.0,0.2610235,0.2610218,0.5723351,0.28835642,0.28835416,4.057634,0.0,0.0,0.0,0.09014789,0.0,0.0,0.0,0.0,0.0,0.0002585774,0.0062248395,0.015430976,0.0,0.0,0.0,0.0,0.0,0.0
2717372602,-0.2193412,-0.06980467,0.13969827,-0.018943787,-0.02565384,-0.18656921,0.0,0.0,0.0,-0.022399195,0.0,0.0,0.0,0.0,0.0,0.2610325,0.26103145,0.57226014,0.28838623,0.28838408,4.05753,0.0,0.0,0.0,0.09014806,0.0,0.0,0.0,0.0,0.0,0.0005350812,0.0074751936,0.019947764,0.0,0.0,0.0,0.0,0.0,0.0
2717573371,0.112189986,0.04130116,0.028190017,-0.009613037,-0.011074066,-0.8692093,0.0,0.0,0.0,-0.062244892,0.0,0.0,0.0,0.0,0.0,0.2610339,0.2610338,0.5722711,0.28841233,0.28841037,4.0576386,0.0,0.0,0.0,0.090148225,0.0,0.0,0.0,0.0,0.0,0.0004013162,0.0024263086,0.008514566,0.0,0.0,0.0,0.0,0.0,0.0
2717774164,0.012759228,-0.036843676,0.06525755,-0.0046157837,-0.016002655,0.4038334,0.0,0.0,0.0,-0.04038436,0.0,0.0,0.0,0.0,0.0,0.26104543,0.2610463,0.5722808,0.28843465,0.28843296,4.057763,0.0,0.0,0.0,0.09014814,0.0,0.0,0.0,0.0,0.0,0.00051269773,0.0027144235,0.008207698,0.0,0.0,0.0,0.0,0.0,0.0
2717978939,-0.15055534,-0.016622523,0.12551606,-0.020309448,-0.008773804,-0.23885345,0.0,0.0,0.0,-0.046127953,0.0,0.0,0.0,0.0,0.0,0.2610524,0.2610544,0.5722872,0.28842986,0.28842854,4.0578637,0.0,0.0,0.0,0.090148315,0.0,0.0,0.0,0.0,0.0,0.0003964819,0.0021985976,0.005121652,0.0,0.0,0.0,0.0,0.0,0.0
2718183029,-0.09383946,-0.00062723085,0.21976209,-0.037448883,0.01109314,-0.26226997,0.0,0.0,0.0,-0.041476674,0.0,0.0,0.0,0.0,0.0,0.26106653,0.26106954,0.57229203,0.2884528,0.2884519,4.057828,0.0,0.0,0.0,0.09014839,0.0,0.0,0.0,0.0,0.0,0.00029934113,0.0049418393,0.016105115,0.0,0.0,0.0,0.0,0.0,0.0
2718383787,-0.057847675,-0.06047456,0.16995704,-0.046222687,0.016345978,0.059877396,0.0,0.0,0.0,-0.09476235,0.0,0.0,0.0,0.0,0.0,0.26104492,0.26104817,0.5722929,0.28834686,0.28834644,4.0579133,0.0,0.0,0.0,0.09014838,0.0,0.0,0.0,0.0,0.0,0.00056795054,0.0025018945,0.006353287,0.0,0.0,0.0,0.0,0.0,0.0
2718584536,0.03113174,-0.13943474,0.13304377,-0.046211243,0.015087128,-0.21528816,0.0,0.0,0.0,-0.061930373,0.0,0.0,0.0,0.0,0.0,0.26105657,0.2610598,0.5723006,0.28838336,0.28838342,4.0577207,0.0,0.0,0.0,0.09014829,0.0,0.0,0.0,0.0,0.0,0.001075457,0.004400176,0.010608935,0.0,0.0,0.0,0.0,0.0,0.0
2718785309,0.05432323,-0.05438016,0.11392796,-0.018505096,0.011367798,-0.42807388,0.0,0.0,0.0,0.04625687,0.0,0.0,0.0,0.0,0.0,0.26106527,0.2610682,0.5723062,0.28839153,0.288392,4.057597,0.0,0.0,0.0,0.09014821,0.0,0.0,0.0,0.0,0.0,0.00026510848,0.0032001627,0.006484894,0.0,0.0,0.0,0.0,0.0,0.0
2718989200,-0.04527448,-0.09056109,0.05272591,-0.017986298,0.0039520264,-0.23027039,0.0,0.0,0.0,-0.003975682,0.0,0.0,0.0,0.0,0.0,0.26107484,0.26107684,0.57223535,0.28842562,0.2884264,4.057448,0.0,0.0,0.0,0.09014822,0.0,0.0,0.0,0.0,0.0,0.00016245602,0.0021350433,0.003956261,0.0,0.0,0.0,0.0,0.0,0.0
2719190179,0.015369404,-0.09922948,0.10847068,-0.019512177,-0.008560181,-0.40208435,0.0,0.0,0.0,-0.024566583,0.0,0.0,0.0,0.0,0.0,0.2610856,0.261087,0.57224977,0.28845575,0.28845668,4.0575647,0.0,0.0,0.0,0.09014813,0.0,0.0,0.0,0.0,0.0,0.0001992125,0.0040435204,0.010812782,0.0,0.0,0.0,0.0,0.0,0.0
2719390999,-0.029785682,-0.19748299,0.036726713,-0.022136688,-0.02752304,-0.041671753,0.0,0.0,0.0,-0.025992729,0.0,0.0,0.0,0.0,0.0,0.26108384,0.2610847,0.5722625,0.2884555,0.2884565,4.0574646,0.0,0.0,0.0,0.09014822,0.0,0.0,0.0,0.0,0.0,0.0003156264,0.0065500336,0.017212415,0.0,0.0,0.0,0.0,0.0,0.0
2719595741,0.054589786,-0.0033952445,0.049289346,-0.00799942,-0.027992249,-0.039772034,0.0,0.0,0.0,-0.030077785,0.0,0.0,0.0,0.0,0.0,0.26104116,0.2610419,0.572244,0.28822768,0.28822863,4.05746,0.0,0.0,0.0,0.09014837,0.0,0.0,0.0,0.0,0.0,0.00039137783,0.005647561,0.018418863,0.0,0.0,0.0,0.0,0.0,0.0
2719799816,0.022907723,-0.12262722,0.112900734,0.00011444092,-0.031848907,0.53134346,0.0,0.0,0.0,0.022185046,0.0,0.0,0.0,0.0,0.0,0.26107347,0.26107398,0.5722845,0.28841344,0.2884143,4.0573306,0.0,0.0,0.0,0.090148285,0.0,0.0,0.0,0.0,0.0,0.0003194488,0.004443012,0.011455499,0.0,0.0,0.0,0.0,0.0,0.0
2720000377,-0.06476468,-0.030100312,0.1842376,-0.0016784668,-0.02684021,-0.38326645,0.0,0.0,0.0,-0.03611676,0.0,0.0,0.0,0.0,0.0,0.2610801,0.2610805,0.5723017,0.288445,0.28844577,4.0574484,0.0,0.0,0.0,0.090148285,0.0,0.0,0.0,0.0,0.0,0.00029737203,0.002570528,0.008921572,0.0,0.0,0.0,0.0,0.0,0.0
2720201320,-0.030064806,-0.038361926,0.16725004,0.0025901794,-0.02867508,0.58382416,0.0,0.0,0.0,0.044310894,0.0,0.0,0.0,0.0,0.0,0.26108062,0.26108098,0.5722343,0.2884719,0.28847265,4.0573683,0.0,0.0,0.0,0.09014821,0.0,0.0,0.0,0.0,0.0,0.00035913562,0.006149951,0.018560529,0.0,0.0,0.0,0.0,0.0,0.0
2720402171,-0.033677872,-0.050715923,0.028071165,-0.0069007874,-0.022090912,-0.2551937,0.0,0.0,0.0,0.00076825544,0.0,0.0,0.0,0.0,0.0,0.26107666,0.2610768,0.57224953,0.2884697,0.2884704,4.057253,0.0,0.0,0.0,0.090148136,0.0,0.0,0.0,0.0,0.0,0.00041212203,0.0008168964,0.0035819078,0.0,0.0,0.0,0.0,0.0,0.0
2720606143,-0.03254566,-0.19101466,0.04639268,0.020702362,-0.031204224,0.06598854,0.0,0.0,0.0,-0.010126449,0.0,0.0,0.0,0.0,0.0,0.26101544,0.26101512,0.5722541,0.2882527,0.2882532,4.0574317,0.0,0.0,0.0,0.090148054,0.0,0.0,0.0,0.0,0.0,0.0005235724,0.0104507,0.020693019,0.0,0.0,0.0,0.0,0.0,0.0
2720806808,-0.027055513,-0.052346855,-0.018885136,0.008705139,-0.028160095,0.06331253,0.0,0.0,0.0,0.024485491,0.0,0.0,0.0,0.0,0.0,0.26102465,0.26102415,0.5722722,0.28830335,0.28830373,4.0573645,0.0,0.0,0.0,0.090148136,0.0,0.0,0.0,0.0,0.0,0.0005400324,0.007362027,0.019096904,0.0,0.0,0.0,0.0,0.0,0.0
2721007777,-0.027055513,-0.052346855,-0.018885136,0.008705139,-0.028160095,0.28077888,0.0,0.0,0.0,0.016008124,0.0,0.0,0.0,0.0,0.0,0.26102465,0.26102415,0.5722722,0.28830335,0.28830373,4.057231,0.0,0.0,0.0,0.090148136,0.0,0.0,0.0,0.0,0.0,0.00035871362,0.0021573657,0.008153796,0.0,0.0,0.0,0.0,0.0,0.0
2721212682,0.017490473,-0.099191755,0.06668115,0.019428253,-0.034622192,-0.03835678,0.0,0.0,0.0,0.02963351,0.0,0.0,0.0,0.0,0.0,0.261032,0.26103115,0.5722562,0.28844932,0.28844947,4.057278,0.0,0.0,0.0,0.09014813,0.0,0.0,0.0,0.0,0.0,0.0003186934,0.007514653,0.015134294,0.0,0.0,0.0,0.0,0.0,0.0
2721416664,0.039953772,0.012278996,0.19660711,0.015045166,-0.023952484,-0.15567398,0.0,0.0,0.0,0.020751141,0.0,0.0,0.0,0.0,0.0,0.2609818,0.26098067,0.57224333,0.28821248,0.28821248,4.056666,0.0,0.0,0.0,0.09014813,0.0,0.0,0.0,0.0,0.0,0.0002442714,0.0053543416,0.010901725,0.0,0.0,0.0,0.0,0.0,0.0
2721617458,0.039953772,0.012278996,0.19660711,0.015045166,-0.023952484,0.0075798035,0.0,0.0,0.0,0.02174963,0.0,0.0,0.0,0.0,0.0,0.2609818,0.26098067,0.57224333,0.28821248,0.28821248,4.0574145,0.0,0.0,0.0,0.090148054,0.0,0.0,0.0,0.0,0.0,0.00030708007,0.0033553247,0.006403067,0.0,0.0,0.0,0.0,0.0,0.0
2721818009,-0.0046182508,-0.010776527,0.08949995,0.010284424,-0.020393372,-0.6050415,0.0,0.0,0.0,-0.041435607,0.0,0.0,0.0,0.0,0.0,0.26097232,0.260971,0.5722806,0.28821284,0.2882126,4.0573072,0.0,0.0,0.0,0.09014798,0.0,0.0,0.0,0.0,0.0,0.00045886854,0.004812786,0.013876871,0.0,0.0,0.0,0.0,0.0,0.0
2722019000,0.02110377,0.00012835115,0.20666945,0.0075187683,-0.014476776,-1.0244141,0.0,0.0,0.0,0.018517688,0.0,0.0,0.0,0.0,0.0,0.26103246,0.2610311,0.57225174,0.2885142,0.28851384,4.0575,0.0,0.0,0.0,0.09014798,0.0,0.0,0.0,0.0,0.0,0.00021825,0.0031725909,0.0050615,0.0,0.0,0.0,0.0,0.0,0.0
2722218948,0.018594269,0.051101886,0.18476832,0.015003204,-0.0014839172,-0.42171097,0.0,0.0,0.0,0.018536694,0.0,0.0,0.0,0.0,0.0,0.26100266,0.26100135,0.57226175,0.28839168,0.28839117,4.0567236,0.0,0.0,0.0,0.09014806,0.0,0.0,0.0,0.0,0.0,0.0004093003,0.006406117,0.010921014,0.0,0.0,0.0,0.0,0.0,0.0
2722419766,-0.044530503,0.015509017,0.003052473,-0.00049209595,0.0060272217,0.25007248,0.0,0.0,0.0,-0.0021824762,0.0,0.0,0.0,0.0,0.0,0.26099837,0.26099744,0.57227904,0.2883893,0.28838873,4.0568876,0.0,0.0,0.0,0.09014798,0.0,0.0,0.0,0.0,0.0,0.00014068172,0.006007815,0.01159877,0.0,0.0,0.0,0.0,0.0,0.0
2722620552,-0.04039596,0.03401818,0.09050858,-0.0093688965,0.016075134,0.7288132,0.0,0.0,0.0,0.040181816,0.0,0.0,0.0,0.0,0.0,0.2609984,0.26099798,0.5722954,0.28840977,0.2884092,4.057356,0.0,0.0,0.0,0.09014806,0.0,0.0,0.0,0.0,0.0,0.000111438094,0.012769044,0.034845915,0.0,0.0,0.0,0.0,0.0,0.0
2722821371,0.03147438,-0.08762509,-0.0063022375,-0.005531311,0.016857147,0.04646492,0.0,0.0,0.0,0.03879253,0.0,0.0,0.0,0.0,0.0,0.26100674,0.26100668,0.57223254,0.28842843,0.28842792,4.057258,0.0,0.0,0.0,0.09014799,0.0,0.0,0.0,0.0,0.0,8.829401e-05,0.0053026546,0.018443208,0.0,0.0,0.0,0.0,0.0,0.0
2723025421,-0.0022960259,-0.015737664,0.05068052,0.0030136108,0.010551453,0.30657578,0.0,0.0,0.0,0.053054385,0.0,0.0,0.0,0.0,0.0,0.26100546,0.26100564,0.57225245,0.28844404,0.28844362,4.0566545,0.0,0.0,0.0,0.090147994,0.0,0.0,0.0,0.0,0.0,0.00014047172,0.004175524,0.013783458,0.0,0.0,0.0,0.0,0.0,0.0
2723226248,-0.007196294,0.026452478,0.0782634,-0.0001449585,0.021327972,0.35849,0.0,0.0,0.0,-0.04005997,0.0,0.0,0.0,0.0,0.0,0.26099986,0.26100013,0.57226825,0.2884308,0.28843057,4.056812,0.0,0.0,0.0,0.09014816,0.0,0.0,0.0,0.0,0.0,0.00026308832,0.00691605,0.01976665,0.0,0.0,0.0,0.0,0.0,0.0
2723426805,0.04280897,-0.015342562,0.08248711,0.0063972473,0.020832062,0.0007305145,0.0,0.0,0.0,-0.058176637,0.0,0.0,0.0,0.0,0.0,0.26099974,0.26100004,0.572286,0.288444,0.28844392,4.0572877,0.0,0.0,0.0,0.09014832,0.0,0.0,0.0,0.0,0.0,0.00037083152,0.008029751,0.023747697,0.0,0.0,0.0,0.0,0.0,0.0
2723627760,0.05404841,-0.037486322,0.06700921,0.01828003,0.015415192,0.66329765,0.0,0.0,0.0,-0.053860866,0.0,0.0,0.0,0.0,0.0,0.26096797,0.26096824,0.57229644,0.28832728,0.28832734,4.0573316,0.0,0.0,0.0,0.090148486,0.0,0.0,0.0,0.0,0.0,0.0004057088,0.006604586,0.01800138,0.0,0.0,0.0,0.0,0.0,0.0
2723828421,0.006874658,-0.080830105,0.1005038,0.014762878,0.013103485,0.22851944,0.0,0.0,0.0,-0.003239654,0.0,0.0,0.0,0.0,0.0,0.2609737,0.260974,0.5723125,0.28835413,0.28835428,4.0575147,0.0,0.0,0.0,0.09014839,0.0,0.0,0.0,0.0,0.0,0.00048111423,0.0042118323,0.010476386,0.0,0.0,0.0,0.0,0.0,0.0
2724032648,0.1203187,0.05778238,0.03107965,0.023750305,0.0151023865,0.039470673,0.0,0.0,0.0,-0.0009059608,0.0,0.0,0.0,0.0,0.0,0.26098195,0.26098225,0.5722464,0.28837657,0.2883768,4.0568786,0.0,0.0,0.0,0.09014872,0.0,0.0,0.0,0.0,0.0,0.00035924406,0.008736871,0.017153848,0.0,0.0,0.0,0.0,0.0,0.0
2724233345,0.117729776,-0.10506236,0.003716588,0.033958435,0.008785248,0.5636635,0.0,0.0,0.0,-0.019899674,0.0,0.0,0.0,0.0,0.0,0.2609784,0.26097858,0.5722622,0.28837094,0.2883712,4.05675,0.0,0.0,0.0,0.090148866,0.0,0.0,0.0,0.0,0.0,0.00038480587,0.010636341,0.022166863,0.0,0.0,0.0,0.0,0.0,0.0
2724434155,-0.031851757,0.02847236,0.14248812,0.03160858,0.006187439,0.23073578,0.0,0.0,0.0,-0.051330037,0.0,0.0,0.0,0.0,0.0,0.26093546,0.26093537,0.5722484,0.28813854,0.28813887,4.0566616,0.0,0.0,0.0,0.090148695,0.0,0.0,0.0,0.0,0.0,0.00046618225,0.005048888,0.013790151,0.0,0.0,0.0,0.0,0.0,0.0
2724638963,-0.03126999,-0.038395084,0.0491426,0.028873444,0.0051345825,-0.40690422,0.0,0.0,0.0,0.052634493,0.0,0.0,0.0,0.0,0.0,0.260954,0.26095387,0.5722666,0.28819513,0.28819546,4.0569034,0.0,0.0,0.0,0.090148695,0.0,0.0,0.0,0.0,0.0,0.00036231644,0.0016012612,0.006131282,0.0,0.0,0.0,0.0,0.0,0.0
2724843016,0.041295346,-0.065659866,0.042939305,0.019145966,-0.00011444092,-0.8296795,0.0,0.0,0.0,-0.010407954,0.0,0.0,0.0,0.0,0.0,0.26098746,0.26098746,0.57231086,0.2883689,0.2883692,4.0569463,0.0,0.0,0.0,0.09014867,0.0,0.0,0.0,0.0,0.0,0.00018155437,0.0038123988,0.009883357,0.0,0.0,0.0,0.0,0.0,0.0
2725043847,-0.023409205,-0.13031226,0.051377535,0.011081696,-0.012268066,0.2795105,0.0,0.0,0.0,-0.028323255,0.0,0.0,0.0,0.0,0.0,0.2609904,0.26099086,0.5722442,0.28836742,0.28836766,4.0568123,0.0,0.0,0.0,0.09014875,0.0,0.0,0.0,0.0,0.0,0.0004942702,0.0056737894,0.010430745,0.0,0.0,0.0,0.0,0.0,0.0
2725244609,0.0829859,0.030171474,0.0036745071,0.013538361,-0.010147095,0.6882057,0.0,0.0,0.0,-0.01847367,0.0,0.0,0.0,0.0,0.0,0.26099235,0.2609933,0.5722628,0.28839293,0.28839314,4.0567765,0.0,0.0,0.0,0.09014866,0.0,0.0,0.0,0.0,0.0,0.00052492047,0.007932765,0.024162458,0.0,0.0,0.0,0.0,0.0,0.0
2725448595,0.12846231,-0.06913108,-0.058659434,0.025054932,-0.019626617,0.36632156,0.0,0.0,0.0,-0.012110986,0.0,0.0,0.0,0.0,0.0,0.2610037,0.26100528,0.5722803,0.2884123,0.28841257,4.0569606,0.0,0.0,0.0,0.09014866,0.0,0.0,0.0,0.0,0.0,0.0004778528,0.010358147,0.029691776,0.0,0.0,0.0,0.0,0.0,0.0
2725649315,0.0031192228,-0.12899958,0.026636839,0.024742126,-0.030788422,0.27768326,0.0,0.0,0.0,0.037925072,0.0,0.0,0.0,0.0,0.0,0.26100639,0.26100868,0.5722954,0.2884056,0.28840595,4.0568576,0.0,0.0,0.0,0.09014856,0.0,0.0,0.0,0.0,0.0,0.0006040834,0.008485125,0.021413486,0.0,0.0,0.0,0.0,0.0,0.0
2725850218,0.004988268,-0.08483045,0.009978533,0.024841309,-0.044239044,-0.28394508,0.0,0.0,0.0,-0.028431877,0.0,0.0,0.0,0.0,0.0,0.26101515,0.26101795,0.5723141,0.2884253,0.28842577,4.057018,0.0,0.0,0.0,0.09014847,0.0,0.0,0.0,0.0,0.0,0.00045022217,0.007223389,0.015313894,0.0,0.0,0.0,0.0,0.0,0.0
2726050824,0.014798269,-0.077781856,-0.07917774,0.015750885,-0.047920227,0.02990532,0.0,0.0,0.0,-0.019884773,0.0,0.0,0.0,0.0,0.0,0.2609656,0.26096827,0.5722959,0.2881894,0.28819007,4.0569015,0.0,0.0,0.0,0.09014839,0.0,0.0,0.0,0.0,0.0,0.00042113595,0.007955427,0.017698608,0.0,0.0,0.0,0.0,0.0,0.0
2726251763,-0.007461183,-0.04937802,0.05691123,0.021411896,-0.04068756,-0.41589165,0.0,0.0,0.0,0.0063310936,0.0,0.0,0.0,0.0,0.0,0.26103547,0.26103804,0.5722655,0.28849453,0.2884954,4.056855,0.0,0.0,0.0,0.09014839,0.0,0.0,0.0,0.0,0.0,0.0003747931,0.0070258174,0.019257108,0.0,0.0,0.0,0.0,0.0,0.0
2726455850,-0.07208148,-0.03966908,0.041845918,0.0047454834,-0.036319733,0.18784332,0.0,0.0,0.0,-0.005067043,0.0,0.0,0.0,0.0,0.0,0.26100326,0.26100552,0.57227814,0.28837544,0.28837648,4.0566216,0.0,0.0,0.0,0.090148374,0.0,0.0,0.0,0.0,0.0,0.00043165017,0.006588023,0.016407251,0.0,0.0,0.0,0.0,0.0,0.0
2726656373,-0.012724325,0.0064715426,-0.04211378,-0.006500244,-0.03583145,0.43048668,0.0,0.0,0.0,0.013112351,0.0,0.0,0.0,0.0,0.0,0.2610093,0.2610108,0.5722991,0.28837582,0.288377,4.0568056,0.0,0.0,0.0,0.09014836,0.0,0.0,0.0,0.0,0.0,0.0004156213,0.0039807768,0.008700588,0.0,0.0,0.0,0.0,0.0,0.0
2726861326,-0.062569804,-0.056441598,-0.021912217,-0.011600494,-0.025623322,0.6029396,0.0,0.0,0.0,0.002445966,0.0,0.0,0.0,0.0,0.0,0.26096174,0.26096252,0.5722853,0.28814766,0.28814888,4.0567765,0.0,0.0,0.0,0.09014829,0.0,0.0,0.0,0.0,0.0,0.0005979187,0.005980398,0.013417096,0.0,0.0,0.0,0.0,0.0,0.0
2727061401,-0.07292972,-0.0063300617,0.11848712,-0.014823914,-0.018493652,-0.031679153,0.0,0.0,0.0,0.014110148,0.0,0.0,0.0,0.0,0.0,0.2609819,0.2609817,0.5722259,0.2882076,0.28820878,4.0566998,0.0,0.0,0.0,0.0901482,0.0,0.0,0.0,0.0,0.0,0.00046780944,0.0066304565,0.01287223,0.0,0.0,0.0,0.0,0.0,0.0
2727262001,0.07752027,0.08573467,0.11506784,-0.008159637,0.0060272217,0.5777073,0.0,0.0,0.0,-0.055285014,0.0,0.0,0.0,0.0,0.0,0.2609948,0.2609939,0.57224715,0.28823492,0.28823596,4.056691,0.0,0.0,0.0,0.09014821,0.0,0.0,0.0,0.0,0.0,0.00067271385,0.010202565,0.026836308,0.0,0.0,0.0,0.0,0.0,0.0
2727466910,0.055639207,0.06423443,-0.054197907,0.0076942444,0.017440796,-0.10440254,0.0,0.0,0.0,-0.0033588484,0.0,0.0,0.0,0.0,0.0,0.26100934,0.2610083,0.57227105,0.28828508,0.2882859,4.056879,0.0,0.0,0.0,0.090148196,0.0,0.0,0.0,0.0,0.0,0.00052703824,0.007580603,0.013413266,0.0,0.0,0.0,0.0,0.0,0.0
2727667811,0.013325418,-0.048215453,0.032690883,0.007949829,0.026161194,-0.2846508,0.0,0.0,0.0,-0.034343287,0.0,0.0,0.0,0.0,0.0,0.2610372,0.26103643,0.5723187,0.2884546,0.28845516,4.0569434,0.0,0.0,0.0,0.09014819,0.0,0.0,0.0,0.0,0.0,0.00058041356,0.0047895517,0.010607795,0.0,0.0,0.0,0.0,0.0,0.0
2727868598,-0.062141396,-0.08804417,0.017573118,-0.004272461,0.024723053,-0.16331482,0.0,0.0,0.0,-0.030709922,0.0,0.0,0.0,0.0,0.0,0.26100478,0.26100454,0.57233,0.28834438,0.2883447,4.056995,0.0,0.0,0.0,0.090148255,0.0,0.0,0.0,0.0,0.0,0.000423081,0.0067084203,0.022038959,0.0,0.0,0.0,0.0,0.0,0.0
2728072587,0.028878171,0.17494692,-0.07936144,-0.013309479,0.03704834,-0.915081,0.0,0.0,0.0,-0.01958137,0.0,0.0,0.0,0.0,0.0,0.26106825,0.2610688,0.5722983,0.28863263,0.28863278,4.0569553,0.0,0.0,0.0,0.090148255,0.0,0.0,0.0,0.0,0.0,0.00033787618,0.009877877,0.01866838,0.0,0.0,0.0,0.0,0.0,0.0
2728273398,-0.13752876,0.008398127,-0.01221168,-0.018360138,0.04319763,-0.88502884,0.0,0.0,0.0,0.017461438,0.0,0.0,0.0,0.0,0.0,0.26104623,0.26104724,0.57231444,0.28859732,0.2885974,4.05684,0.0,0.0,0.0,0.09014817,0.0,0.0,0.0,0.0,0.0,0.0003396462,0.01429251,0.036734838,0.0,0.0,0.0,0.0,0.0,0.0
2728473991,0.094218485,-0.10353556,0.06821692,-0.0231781,0.0271492,0.07100868,0.0,0.0,0.0,-0.09617699,0.0,0.0,0.0,0.0,0.0,0.26099166,0.26099283,0.5723007,0.2883356,0.28833574,4.056763,0.0,0.0,0.0,0.0901481,0.0,0.0,0.0,0.0,0.0,0.00040092046,0.002975022,0.011466941,0.0,0.0,0.0,0.0,0.0,0.0
2728674946,-0.060477566,0.04506631,-0.02033174,-0.020126343,0.033634186,-0.2332859,0.0,0.0,0.0,-0.03984839,0.0,0.0,0.0,0.0,0.0,0.26100063,0.26100144,0.57232016,0.28836736,0.2883676,4.0569596,0.0,0.0,0.0,0.09014802,0.0,0.0,0.0,0.0,0.0,0.00053714926,0.006998189,0.01871611,0.0,0.0,0.0,0.0,0.0,0.0
2728874930,0.009644799,-0.03482345,0.11585963,-0.028556824,0.033592224,0.30681992,0.0,0.0,0.0,0.0014233738,0.0,0.0,0.0,0.0,0.0,0.26099733,0.26099756,0.5722544,0.2883664,0.28836673,4.056925,0.0,0.0,0.0,0.09014811,0.0,0.0,0.0,0.0,0.0,0.00041966458,0.0066762827,0.023144724,0.0,0.0,0.0,0.0,0.0,0.0
2729075596,0.00890822,0.095529005,0.15633118,-0.015533447,0.035037994,-0.028720856,0.0,0.0,0.0,0.04358402,0.0,0.0,0.0,0.0,0.0,0.26106414,0.2610636,0.5723069,0.28864944,0.28864986,4.057097,0.0,0.0,0.0,0.090148106,0.0,0.0,0.0,0.0,0.0,0.00021586429,0.007265017,0.02089085,0.0,0.0,0.0,0.0,0.0,0.0
2729276564,0.042402796,-0.047982804,0.04867935,-0.013381958,0.031856537,-0.18399239,0.0,0.0,0.0,0.005520813,0.0,0.0,0.0,0.0,0.0,0.26101014,0.26100895,0.57228905,0.2883785,0.28837892,4.0569887,0.0,0.0,0.0,0.0901481,0.0,0.0,0.0,0.0,0.0,0.0002390392,0.00623908,0.022294939,0.0,0.0,0.0,0.0,0.0,0.0
2729477396,0.03517463,0.031926323,0.046221018,-0.013561249,0.032924652,0.1939354,0.0,0.0,0.0,0.012759954,0.0,0.0,0.0,0.0,0.0,0.26101238,0.261011,0.57230645,0.2884024,0.28840277,4.0568924,0.0,0.0,0.0,0.090148024,0.0,0.0,0.0,0.0,0.0,0.0002454475,0.01099319,0.03642865,0.0,0.0,0.0,0.0,0.0,0.0
2729677405,-0.058047034,0.071831405,0.050979376,-0.014110565,0.047798157,0.13737679,0.0,0.0,0.0,-0.0035573617,0.0,0.0,0.0,0.0,0.0,0.26101184,0.26101047,0.572324,0.28839892,0.2883992,4.057085,0.0,0.0,0.0,0.09014795,0.0,0.0,0.0,0.0,0.0,0.00037697822,0.012332708,0.039154027,0.0,0.0,0.0,0.0,0.0,0.0
2729882005,0.07391685,-0.035723783,0.00031971931,-0.021083832,0.03916931,0.13893318,0.0,0.0,0.0,-0.073289536,0.0,0.0,0.0,0.0,0.0,0.26102194,0.26102126,0.5722576,0.28841978,0.28841993,4.057235,0.0,0.0,0.0,0.09014795,0.0,0.0,0.0,0.0,0.0,0.00036025894,0.0063434294,0.021132382,0.0,0.0,0.0,0.0,0.0,0.0
2730083011,0.021687433,0.06511681,0.024821043,-0.0141067505,0.04450226,-0.117723465,0.0,0.0,0.0,-0.013122588,0.0,0.0,0.0,0.0,0.0,0.2609195,0.26091918,0.5722862,0.28793326,0.28793335,4.057437,0.0,0.0,0.0,0.09014796,0.0,0.0,0.0,0.0,0.0,0.00059644197,0.0043682735,0.008936012,0.0,0.0,0.0,0.0,0.0,0.0
2730287817,0.002877077,0.03259717,-0.09020758,-0.0172081,0.050827026,-0.14993858,0.0,0.0,0.0,-0.018658586,0.0,0.0,0.0,0.0,0.0,0.26108027,0.26108015,0.5723068,0.28866076,0.2886608,4.0574265,0.0,0.0,0.0,0.090148024,0.0,0.0,0.0,0.0,0.0,0.00028440452,0.005429517,0.011603886,0.0,0.0,0.0,0.0,0.0,0.0
2730491733,0.021247864,0.031380787,0.11213136,-0.008094788,0.046783447,-0.02929306,0.0,0.0,0.0,-0.06430758,0.0,0.0,0.0,0.0,0.0,0.2610141,0.26101407,0.5722815,0.28836662,0.28836665,4.0572824,0.0,0.0,0.0,0.090148024,0.0,0.0,0.0,0.0,0.0,0.00014216706,0.004993121,0.012397615,0.0,0.0,0.0,0.0,0.0,0.0
2730692705,-0.02568354,-0.12308625,-0.014967084,-0.013767242,0.043518066,0.001745224,0.0,0.0,0.0,-0.058877558,0.0,0.0,0.0,0.0,0.0,0.2610249,0.2610248,0.57229125,0.28839612,0.28839615,4.057384,0.0,0.0,0.0,0.09014787,0.0,0.0,0.0,0.0,0.0,0.00016595652,0.0043250346,0.0144788325,0.0,0.0,0.0,0.0,0.0,0.0
2730897487,0.08037559,-0.05559293,0.07647574,-0.017124176,0.034248352,0.049772263,0.0,0.0,0.0,-0.06541978,0.0,0.0,0.0,0.0,0.0,0.26097944,0.2609795,0.572269,0.28816772,0.28816777,4.057288,0.0,0.0,0.0,0.09014779,0.0,0.0,0.0,0.0,0.0,0.0005295819,0.0053089308,0.0160085,0.0,0.0,0.0,0.0,0.0,0.0
2731098027,0.11194816,0.06606143,0.08714843,-0.0067749023,0.042373657,-0.3568344,0.0,0.0,0.0,-0.017712317,0.0,0.0,0.0,0.0,0.0,0.26101676,0.26101676,0.57231027,0.28835335,0.28835338,4.0572977,0.0,0.0,0.0,0.09014771,0.0,0.0,0.0,0.0,0.0,0.0003391809,0.0049520815,0.009612723,0.0,0.0,0.0,0.0,0.0,0.0
2731302193,-0.06631464,0.010082405,-0.049961805,-0.012722015,0.04376602,0.4828472,0.0,0.0,0.0,-0.018650182,0.0,0.0,0.0,0.0,0.0,0.26106563,0.26106533,0.5722738,0.28861535,0.28861535,4.057167,0.0,0.0,0.0,0.09014772,0.0,0.0,0.0,0.0,0.0,0.000113670714,0.0025288686,0.00774691,0.0,0.0,0.0,0.0,0.0,0.0
2731503020,0.045811452,0.08832953,-0.043857932,-0.016838074,0.05757904,0.22370529,0.0,0.0,0.0,-0.051297456,0.0,0.0,0.0,0.0,0.0,0.2610164,0.261016,0.57225657,0.28835493,0.28835484,4.0573025,0.0,0.0,0.0,0.090147644,0.0,0.0,0.0,0.0,0.0,0.00021763152,0.004636295,0.008437347,0.0,0.0,0.0,0.0,0.0,0.0
2731703614,0.14630526,-0.030429892,0.06886041,-0.005104065,0.056152344,0.28399086,0.0,0.0,0.0,-0.07794668,0.0,0.0,0.0,0.0,0.0,0.26102388,0.2610235,0.5723514,0.288386,0.2883859,4.0574393,0.0,0.0,0.0,0.09014757,0.0,0.0,0.0,0.0,0.0,0.0003865994,0.006118729,0.0149110975,0.0,0.0,0.0,0.0,0.0,0.0
2731908372,-0.06959507,-0.07120448,0.079841614,-0.012653351,0.053894043,-0.5418396,0.0,0.0,0.0,-0.021213531,0.0,0.0,0.0,0.0,0.0,0.2610256,0.26102525,0.5722796,0.28841236,0.2884122,4.057338,0.0,0.0,0.0,0.0901475,0.0,0.0,0.0,0.0,0.0,0.00050090643,0.0011333073,0.0032319762,0.0,0.0,0.0,0.0,0.0,0.0
2732108401,0.14820687,-0.05203014,0.02623725,-0.0039749146,0.046962738,-0.5890827,0.0,0.0,0.0,0.03623517,0.0,0.0,0.0,0.0,0.0,0.26102376,0.2610233,0.5722919,0.28840962,0.2884094,4.057204,0.0,0.0,0.0,0.09014752,0.0,0.0,0.0,0.0,0.0,0.00059011753,0.0039491346,0.006183008,0.0,0.0,0.0,0.0,0.0,0.0
2732309433,-0.02408167,-0.057531558,0.011506438,0.0016975403,0.03280258,0.059778214,0.0,0.0,0.0,0.0013505593,0.0,0.0,0.0,0.0,0.0,0.26102784,0.2610273,0.5723083,0.2884324,0.28843212,4.057331,0.0,0.0,0.0,0.09014753,0.0,0.0,0.0,0.0,0.0,0.00045391274,0.004607361,0.012617113,0.0,0.0,0.0,0.0,0.0,0.0
2732514010,0.02668062,-0.017127432,-0.03857875,-0.013607025,0.031539917,0.47738075,0.0,0.0,0.0,-0.020496003,0.0,0.0,0.0,0.0,0.0,0.2610293,0.26102886,0.5723216,0.28845152,0.28845116,4.0572453,0.0,0.0,0.0,0.09014745,0.0,0.0,0.0,0.0,0.0,0.00024701396,0.0030744502,0.009552604,0.0,0.0,0.0,0.0,0.0,0.0
2732715014,0.051654086,-0.070614494,0.095823646,-0.005088806,0.027385712,0.28136063,0.0,0.0,0.0,0.013398066,0.0,0.0,0.0,0.0,0.0,0.26097748,0.2609772,0.57230425,0.2882129,0.28821248,4.0571237,0.0,0.0,0.0,0.09014739,0.0,0.0,0.0,0.0,0.0,0.0002774478,0.009307071,0.028340327,0.0,0.0,0.0,0.0,0.0,0.0
2732918968,0.079903394,-0.030762956,-0.027625203,-0.0077781677,0.01940155,-0.63793945,0.0,0.0,0.0,0.0038705394,0.0,0.0,0.0,0.0,0.0,0.26103505,0.2610353,0.5722726,0.28849217,0.28849173,4.057287,0.0,0.0,0.0,0.09014732,0.0,0.0,0.0,0.0,0.0,0.00039239333,0.003821891,0.008076428,0.0,0.0,0.0,0.0,0.0,0.0
2733119712,0.054631166,-0.031207964,-0.017478466,0.00077438354,0.016551971,0.26845932,0.0,0.0,0.0,-0.036426254,0.0,0.0,0.0,0.0,0.0,0.26103172,0.26103228,0.57228756,0.28850216,0.28850177,4.057186,0.0,0.0,0.0,0.09014724,0.0,0.0,0.0,0.0,0.0,0.00057458255,0.0032514953,0.006911328,0.0,0.0,0.0,0.0,0.0,0.0
2733320595,-0.07874057,0.00481705,0.07660663,-0.011112213,0.020339966,0.23913193,0.0,0.0,0.0,0.020616576,0.0,0.0,0.0,0.0,0.0,0.26097864,0.26097926,0.57226974,0.2882554,0.2882551,4.0573344,0.0,0.0,0.0,0.09014726,0.0,0.0,0.0,0.0,0.0,0.00020326933,0.0048523094,0.014594708,0.0,0.0,0.0,0.0,0.0,0.0
2733521407,-0.07247901,0.0029395185,0.03179753,-0.03305435,0.028728485,0.7960777,0.0,0.0,0.0,-0.010410041,0.0,0.0,0.0,0.0,0.0,0.26104042,0.26104107,0.572316,0.2885521,0.28855196,4.0574656,0.0,0.0,0.0,0.090147205,0.0,0.0,0.0,0.0,0.0,0.00023246187,0.008210086,0.021635491,0.0,0.0,0.0,0.0,0.0,0.0
2733725325,-0.02605255,0.0621003,-0.1305623,-0.04039383,0.032497406,0.4383545,0.0,0.0,0.0,-0.037047252,0.0,0.0,0.0,0.0,0.0,0.2609818,0.2609822,0.5722909,0.28827184,0.28827184,4.057724,0.0,0.0,0.0,0.09014714,0.0,0.0,0.0,0.0,0.0,0.0004178101,0.006093073,0.017047238,0.0,0.0,0.0,0.0,0.0,0.0
2733926170,0.13109663,-0.044775303,-0.0045126677,-0.025959015,0.0286026,1.0248528,0.0,0.0,0.0,-0.042608567,0.0,0.0,0.0,0.0,0.0,0.26101574,0.2610157,0.57232535,0.2884403,0.2884404,4.057839,0.0,0.0,0.0,0.09014715,0.0,0.0,0.0,0.0,0.0,0.00031425813,0.002918169,0.011012233,0.0,0.0,0.0,0.0,0.0,0.0
2734126763,-0.013176085,-0.15080695,-0.07931423,-0.024402618,0.01909256,0.23111343,0.0,0.0,0.0,0.005343236,0.0,0.0,0.0,0.0,0.0,0.26102385,0.26102322,0.57233256,0.28845656,0.2884567,4.057622,0.0,0.0,0.0,0.090147085,0.0,0.0,0.0,0.0,0.0,0.00041004727,0.010198802,0.032447513,0.0,0.0,0.0,0.0,0.0,0.0
2734331781,-0.04029338,-0.099564284,-0.011355877,-0.037685394,-0.0026931763,-0.14709473,0.0,0.0,0.0,0.0025313795,0.0,0.0,0.0,0.0,0.0,0.261029,0.26102784,0.57234156,0.28847083,0.28847098,4.0575047,0.0,0.0,0.0,0.090147115,0.0,0.0,0.0,0.0,0.0,0.00025590553,0.006993962,0.015130563,0.0,0.0,0.0,0.0,0.0,0.0
2734532648,-0.015204184,-0.16798253,0.12383795,-0.03822708,-0.016365051,1.1628838,0.0,0.0,0.0,-0.05153808,0.0,0.0,0.0,0.0,0.0,0.26096606,0.26096484,0.57231814,0.28820232,0.28820238,4.057488,0.0,0.0,0.0,0.09014703,0.0,0.0,0.0,0.0,0.0,0.00031647284,0.012543573,0.034027215,0.0,0.0,0.0,0.0,0.0,0.0
2734732637,0.12225143,-0.029147921,0.085006,-0.03148651,-0.014007568,-0.18182755,0.0,0.0,0.0,0.015404724,0.0,0.0,0.0,0.0,0.0,0.26099703,0.26099563,0.572356,0.2883785,0.28837848,4.057606,0.0,0.0,0.0,0.09014697,0.0,0.0,0.0,0.0,0.0,0.0002550238,0.005013375,0.01123783,0.0,0.0,0.0,0.0,0.0,0.0
2734933386,0.06858629,-0.09751381,0.08621979,-0.026481628,-0.019950867,0.42019272,0.0,0.0,0.0,-0.018295474,0.0,0.0,0.0,0.0,0.0,0.2609827,0.2609814,0.57236576,0.28840193,0.28840172,4.0576863,0.0,0.0,0.0,0.090146996,0.0,0.0,0.0,0.0,0.0,0.00021314777,0.0053924033,0.011980883,0.0,0.0,0.0,0.0,0.0,0.0
2735134023,-0.032263644,-0.067232504,0.09352887,-0.034072876,-0.029464722,0.72343063,0.0,0.0,0.0,-0.020866357,0.0,0.0,0.0,0.0,0.0,0.26093304,0.2609319,0.5723251,0.2886637,0.2886633,4.057515,0.0,0.0,0.0,0.09014693,0.0,0.0,0.0,0.0,0.0,0.00020989873,0.0051469374,0.012422876,0.0,0.0,0.0,0.0,0.0,0.0
2735338171,-0.13165231,-0.06478819,0.09953004,-0.029766083,-0.029361725,1.1013451,-0.007427782,0.027707666,0.047400504,0.0047141984,0.0,0.0,0.0,0.0,0.0,0.26078483,0.26078528,0.57230175,0.2883351,0.2883346,4.0575013,0.004167082,0.0041113175,0.0041676583,0.09014695,0.0,0.0,0.0,0.0,0.0,0.00027438835,0.013556504,0.03659354,0.0,0.0,0.0,0.0,0.0,0.0
2735538974,0.07840255,0.025993709,-0.012334049,-0.029922485,-0.029281616,0.29104614,-0.029879212,0.003433708,0.035630316,0.0047141984,0.0,0.0,0.0,0.0,0.0,0.26070076,0.26071575,0.5723029,0.28819683,0.28819612,4.0576334,0.0027391864,0.0027466782,0.0027427273,0.09014695,0.0,0.0,0.0,0.0,0.0,9.651556e-05,0.002306834,0.006233554,0.0,0.0,0.0,0.0,0.0,0.0
2735743800,0.16277337,0.007304013,0.23508382,0.005016327,-0.017108917,-0.24481583,-0.01702775,0.0113924295,0.041279763,0.0047141984,0.0,0.0,0.0,0.0,0.0,0.26054102,0.26058894,0.5723194,0.2876956,0.28769588,4.0582685,0.002636978,0.0026683058,0.0026339379,0.09014695,0.0,0.0,0.0,0.0,0.0,0.00018408941,0.005613426,0.012766898,0.0,0.0,0.0,0.0,0.0,0.0
2735944586,0.09583366,-0.0025194883,0.089090884,-0.0053977966,0.003452301,-0.18951416,-0.010816842,-0.0070778467,-0.030082524,0.0047141984,0.0,0.0,0.0,0.0,0.0,0.26070312,0.2607667,0.5724045,0.28849933,0.28850463,4.0582805,0.0026153538,0.0026387158,0.0025962305,0.09014695,0.0,0.0,0.0,0.0,0.0,0.0001899254,0.008465352,0.019641979,0.0,0.0,0.0,0.0,0.0,0.0
2736144834,0.03651154,0.028567195,0.03177169,0.0034332275,0.0131492615,-0.23569107,-0.020438597,0.00809709,0.022807002,0.0047141984,0.0,0.0,0.0,0.0,0.0,0.260691,0.26069796,0.57235813,0.28816047,0.2881704,4.058541,0.0026105728,0.0026405551,0.0025812306,0.09014695,0.0,0.0,0.0,0.0,0.0,0.000111706264,0.0049618375,0.008814653,0.0,0.0,0.0,0.0,0.0,0.0
2736349393,0.15516698,0.051875114,0.12903878,0.017414093,0.036930084,-0.77080536,0.005952567,0.004846424,0.017504066,0.0047141984,0.0,0.0,0.0,0.0,0.0,0.26079902,0.26072222,0.57235134,0.28815016,0.28816095,4.0585046,0.0025985541,0.0026396215,0.0025733036,0.09014695,0.0,0.0,0.0,0.0,0.0,0.00028361994,0.008087193,0.017135093,0.0,0.0,0.0,0.0,0.0,0.0
2736550189,0.12806046,-0.005470872,0.0075514764,0.019088745,0.08188248,-0.12719727,-0.007811293,0.0033290237,0.0060627162,0.0047141984,0.0,0.0,0.0,0.0,0.0,0.26085207,0.26071903,0.572419,0.2880303,0.28803486,4.059174,0.0025878171,0.0026273082,0.0025668705,0.09014695,0.0,0.0,0.0,0.0,0.0,0.00033252276,0.009538714,0.02468615,0.0,0.0,0.0,0.0,0.0,0.0
2736751394,0.030558765,-0.030042052,-0.018517256,0.003929138,0.14001846,0.11619568,0.0019703358,0.0013276488,0.01014176,0.0047141984,0.0,0.0,0.0,0.0,0.0,0.26091278,0.2607619,0.5723935,0.2880621,0.28805375,4.0590944,0.002580915,0.0026036524,0.0025610446,0.09014695,0.0,0.0,0.0,0.0,0.0,0.00021158898,0.009205278,0.027399018,0.0,0.0,0.0,0.0,0.0,0.0
2736954816,0.165138,-0.057038426,-0.008416094,0.0053424835,0.18542862,0.0037231445,-0.026339024,-0.005502239,0.04674849,0.0047141984,0.0,0.0,0.0,0.0,0.0,0.26100814,0.26086724,0.57239664,0.28832495,0.28829777,4.0589905,0.0025776147,0.0025835405,0.0025559226,0.09014695,0.0,0.0,0.0,0.0,0.0,0.00031445146,0.009156501,0.022284733,0.0,0.0,0.0,0.0,0.0,0.0
2737155754,0.09478682,-0.009509206,-0.0024481565,0.007762909,0.19408035,0.026790619,0.00809297,-0.0012652427,0.010354847,0.0047141984,0.0,0.0,0.0,0.0,0.0,0.26104373,0.2609618,0.57241726,0.28808093,0.28803518,4.059424,0.0025707798,0.0025657534,0.0025490294,0.09014695,0.0,0.0,0.0,0.0,0.0,0.00035285187,0.009728044,0.024388188,0.0,0.0,0.0,0.0,0.0,0.0
2737360578,0.08958632,-0.039491057,-0.087348595,0.0011806488,0.22024536,-0.07193756,-0.0059095174,0.010664001,0.04315269,0.0047141984,0.0,0.0,0.0,0.0,0.0,0.26117304,0.26121324,0.5723835,0.2881356,0.2880708,4.05924,0.0025542814,0.0025511417,0.002539259,0.09014695,0.0,0.0,0.0,0.0,0.0,0.0003498069,0.008947724,0.024624787,0.0,0.0,0.0,0.0,0.0,0.0
2737561202,0.08204746,-0.10037589,-0.12560934,-0.0100803375,0.220047,0.24081421,0.01176241,0.0071902424,0.0027457178,0.0047141984,0.0,0.0,0.0,0.0,0.0,0.26119095,0.26139826,0.57229567,0.2876947,0.2876228,4.058845,0.0025401057,0.0025418636,0.0025312647,0.09014695,0.0,0.0,0.0,0.0,0.0,0.000289317,0.007376232,0.02279204,0.0,0.0,0.0,0.0,0.0,0.0
2737762436,0.05088961,-0.12650919,-0.12275851,0.01558876,0.23988724,0.899189,-0.009119719,0.009149805,0.021206796,0.0047141984,0.0,0.0,0.0,0.0,0.0,0.26147395,0.26188606,0.5722731,0.28832203,0.28825614,4.058753,0.0025316528,0.0025350174,0.0025259482,0.09014695,0.0,0.0,0.0,0.0,0.0,0.00027073745,0.0067295,0.025188943,0.0,0.0,0.0,0.0,0.0,0.0
2737962306,-0.023488402,-0.14222276,-0.028681494,0.0017471313,0.24782181,-0.27514267,0.008758947,0.0045518875,-0.016040206,0.0047141984,0.0,0.0,0.0,0.0,0.0,0.26161608,0.2621584,0.5723567,0.28840202,0.28836605,4.0586653,0.002528362,0.002530699,0.0025232176,0.09014695,0.0,0.0,0.0,0.0,0.0,0.00020764978,0.0053801313,0.016071633,0.0,0.0,0.0,0.0,0.0,0.0
2738162985,0.062296033,-0.13470232,-0.13463023,0.0051879883,0.25469208,0.017112732,-0.0076295286,-0.005477205,0.015859008,0.0047141984,0.0,0.0,0.0,0.0,0.0,0.26174283,0.2623473,0.5723554,0.28849068,0.28850213,4.0588346,0.0025265822,0.0025275303,0.002521385,0.09014695,0.0,0.0,0.0,0.0,0.0,0.00022095857,0.0046434784,0.014409106,0.0,0.0,0.0,0.0,0.0,0.0
2738367835,0.109895945,-0.23536766,0.017073108,0.013687134,0.2701416,0.7064934,0.008002371,0.001853168,0.024884403,0.0047141984,0.0,0.0,0.0,0.0,0.0,0.2618863,0.2624783,0.5723747,0.28871727,0.28878707,4.0588512,0.0025249897,0.002525306,0.0025200518,0.09014695,0.0,0.0,0.0,0.0,0.0,0.00032865928,0.0023361957,0.011688363,0.0,0.0,0.0,0.0,0.0,0.0
2738568597,0.007956982,-0.20634186,0.08246479,-0.03544998,0.1827774,-0.22542953,-0.005861625,-0.005654469,0.0060909092,0.0047141984,0.0,0.0,0.0,0.0,0.0,0.26171568,0.26225257,0.5723149,0.2877323,0.28783962,4.0590715,0.002523566,0.0025235864,0.002518911,0.09014695,0.0,0.0,0.0,0.0,0.0,0.00023631821,0.003301747,0.0077319066,0.0,0.0,0.0,0.0,0.0,0.0
2738772596,0.069429874,-0.11883402,0.025473313,-0.0121536255,0.2358818,0.10897446,0.007853925,-0.016953856,-0.019500047,0.0047141984,0.0,0.0,0.0,0.0,0.0,0.26190758,0.26237524,0.572344,0.28822434,0.28838748,4.0589585,0.0025221792,0.0025221503,0.002517884,0.09014695,0.0,0.0,0.0,0.0,0.0,0.0001173588,0.002161426,0.005094969,0.0,0.0,0.0,0.0,0.0,0.0
2738977477,-0.039669633,-0.19948304,-0.09564301,-0.018505096,0.24183655,-0.054718018,0.0056969672,-0.026890025,-0.039569557,0.0047141984,0.0,0.0,0.0,0.0,0.0,0.26200244,0.2623901,0.57233423,0.2884078,0.28861034,4.0588303,0.0025205354,0.0025208534,0.0025168303,0.09014695,0.0,0.0,0.0,0.0,0.0,5.3084295e-05,0.00453315,0.009793221,0.0,0.0,0.0,0.0,0.0,0.0
2739178125,0.022631764,-0.17805517,-0.16018084,0.04593277,0.30755997,0.20335388,0.005985424,0.006199658,-0.0048846006,0.0047141984,0.0,0.0,0.0,0.0,0.0,0.2623135,0.2626178,0.57237685,0.28965306,0.28990003,4.0585012,0.002519372,0.002519841,0.0025160129,0.09014695,0.0,0.0,0.0,0.0,0.0,0.00015012125,0.0036953697,0.0096437605,0.0,0.0,0.0,0.0,0.0,0.0
2739378941,0.052366257,-0.18550718,0.033524632,0.0068855286,0.29079056,-0.52669525,-0.0014141202,0.018889055,0.0023499727,0.0047141984,0.0,0.0,0.0,0.0,0.0,0.2621714,0.2623967,0.57230717,0.2890849,0.28932974,4.0584583,0.0025183484,0.0025185752,0.0025151582,0.09014695,0.0,0.0,0.0,0.0,0.0,0.00021347962,0.0024125935,0.007723459,0.0,0.0,0.0,0.0,0.0,0.0
2739582911,0.09122455,-0.15861154,-0.055621207,0.014728546,0.27918243,-0.065200806,-0.0109060705,0.018952325,0.031983793,0.0047141984,0.0,0.0,0.0,0.0,0.0,0.26218894,0.26235107,0.57230896,0.28917068,0.2894133,4.0584245,0.002517726,0.0025177563,0.0025145297,0.09014695,0.0,0.0,0.0,0.0,0.0,0.00027153347,0.002297496,0.006902166,0.0,0.0,0.0,0.0,0.0,0.0
2739783749,-0.0035814047,-0.21468413,0.008971428,0.0049934387,0.25849915,0.11714172,0.010152519,-0.010785252,-0.036112964,0.0047141984,0.0,0.0,0.0,0.0,0.0,0.2621196,0.26222655,0.57227916,0.28897795,0.2892056,4.058677,0.002517175,0.0025169614,0.0025139456,0.09014695,0.0,0.0,0.0,0.0,0.0,0.000132781,0.0030865974,0.008803716,0.0,0.0,0.0,0.0,0.0,0.0
2739984540,0.021122098,-0.22677565,0.069193415,0.026470184,0.22903824,0.6983681,0.0017805398,-0.0003412664,-0.0022342503,0.0047141984,0.0,0.0,0.0,0.0,0.0,0.26214254,0.26219946,0.5723947,0.28921804,0.2894278,4.0587554,0.002516468,0.0025162823,0.0025133607,0.09014695,0.0,0.0,0.0,0.0,0.0,9.855998e-05,0.003159334,0.008013245,0.0,0.0,0.0,0.0,0.0,0.0
2740189441,-0.028695464,-0.2858137,-0.0011958238,0.024021149,0.18111038,-0.07110596,-0.012775645,-0.00698106,-0.004638225,0.0047141984,0.0,0.0,0.0,0.0,0.0,0.2621073,0.2621255,0.57239306,0.29025984,0.29044425,4.0584555,0.0025158764,0.0025157994,0.0025128177,0.09014695,0.0,0.0,0.0,0.0,0.0,0.00016316875,0.0068107415,0.015322237,0.0,0.0,0.0,0.0,0.0,0.0
2740393731,-0.022919178,-0.20456243,-0.061384324,0.015865326,0.17513657,0.20975113,0.0015075356,-0.0022365153,0.009017408,0.0047141984,0.0,0.0,0.0,0.0,0.0,0.2620915,0.26207894,0.572312,0.29134098,0.2914968,4.058451,0.002515232,0.0025151544,0.0025122839,0.09014695,0.0,0.0,0.0,0.0,0.0,0.00019548638,0.007606324,0.019758226,0.0,0.0,0.0,0.0,0.0,0.0
2740593993,0.040181518,-0.19865167,-0.15766203,0.034885406,0.17304611,0.07739258,0.0038397014,0.010011688,0.015940577,0.0047141984,0.0,0.0,0.0,0.0,0.0,0.26209167,0.262065,0.5723513,0.2916873,0.29181767,4.058428,0.0025145498,0.0025145176,0.0025117733,0.09014695,0.0,0.0,0.0,0.0,0.0,0.00017474209,0.005418191,0.016590735,0.0,0.0,0.0,0.0,0.0,0.0
2740794932,-0.0036115646,-0.25319505,-0.047385454,0.015407562,0.1603241,0.04613495,0.012807131,-0.009901121,-0.016218483,0.0047141984,0.0,0.0,0.0,0.0,0.0,0.26195088,0.26191917,0.57232416,0.29242983,0.2925365,4.058149,0.0025139856,0.0025140261,0.0025113514,0.09014695,0.0,0.0,0.0,0.0,0.0,0.00022739256,0.006245586,0.016162612,0.0,0.0,0.0,0.0,0.0,0.0
2740995739,-0.023429513,-0.26202798,0.014701117,0.015514374,0.12936783,-0.6849289,0.0024701506,-0.008185774,-0.016779304,0.0047141984,0.0,0.0,0.0,0.0,0.0,0.26188633,0.26185802,0.5723315,0.29346672,0.2935511,4.0581846,0.0025134266,0.0025135677,0.002510942,0.09014695,0.0,0.0,0.0,0.0,0.0,0.0002753851,0.0077614207,0.019645095,0.0,0.0,0.0,0.0,0.0,0.0
2741195770,-0.038601518,-0.20895648,-0.118867435,0.022266388,0.11506653,0.053962708,-0.0037121773,0.007204056,0.0047846437,0.0047141984,0.0,0.0,0.0,0.0,0.0,0.2618263,0.2618064,0.57234097,0.29453337,0.29459935,4.0583525,0.0025130643,0.0025130878,0.0025106496,0.09014695,0.0,0.0,0.0,0.0,0.0,0.000216208,0.0074279704,0.019498495,0.0,0.0,0.0,0.0,0.0,0.0
2741396575,0.026144743,-0.22915113,-0.10082244,0.020259857,0.08439255,-0.4944687,0.0153023,0.010129288,-0.022375047,0.0047141984,0.0,0.0,0.0,0.0,0.0,0.26174065,0.26173273,0.57234097,0.2964823,0.29653245,4.058067,0.0025127158,0.0025122878,0.002510283,0.09014695,0.0,0.0,0.0,0.0,0.0,0.00024838233,0.0075414036,0.020911843,0.0,0.0,0.0,0.0,0.0,0.0
2741597497,-0.030148745,-0.25534546,-0.02144823,-0.009944916,0.028457642,-0.23528671,0.0014689416,-0.0140069425,-0.038805336,0.0047141984,0.0,0.0,0.0,0.0,0.0,0.26155242,0.2615599,0.5723712,0.29814538,0.2981724,4.0581446,0.0025122205,0.0025117383,0.00250994,0.09014695,0.0,0.0,0.0,0.0,0.0,0.0005748306,0.018812079,0.03689007,0.0,0.0,0.0,0.0,0.0,0.0
2741798021,-0.030148745,-0.25534546,-0.02144823,-0.009944916,0.028457642,-0.06619263,-0.002117157,-0.0014960766,0.017647594,0.0047141984,0.0,0.0,0.0,0.0,0.0,0.26155242,0.2615599,0.5723712,0.29814538,0.2981724,4.058724,0.0025117446,0.002511311,0.0025096296,0.09014695,0.0,0.0,0.0,0.0,0.0,0.00032144212,0.009451666,0.025641147,0.0,0.0,0.0,0.0,0.0,0.0
2741998143,0.031655908,-0.16357565,-0.07315434,0.0046653748,0.009391785,0.15488434,0.005544454,-0.014068887,-0.039710104,0.0047141984,0.0,0.0,0.0,0.0,0.0,0.2615022,0.26150548,0.5723729,0.30042386,0.3004365,4.0587115,0.0025113132,0.0025110277,0.002509377,0.09014695,0.0,0.0,0.0,0.0,0.0,0.0005385182,0.015147506,0.032666445,0.0,0.0,0.0,0.0,0.0,0.0
2742202988,0.031655908,-0.16357565,-0.07315434,0.0046653748,0.009391785,0.14286041,0.006368071,-0.0047376156,-0.008386493,0.0047141984,0.0,0.0,0.0,0.0,0.0,0.2615022,0.26150548,0.5723729,0.30042386,0.3004365,4.058683,0.0025108415,0.0025106217,0.002509079,0.09014695,0.0,0.0,0.0,0.0,0.0,0.00037227894,0.0073033567,0.024305318,0.0,0.0,0.0,0.0,0.0,0.0
2742407790,0.042274714,-0.08787191,-0.0944666,0.0154800415,-0.024791718,-0.3014679,0.02085504,0.0061765164,-0.021113604,0.0047141984,0.0,0.0,0.0,0.0,0.0,0.2614361,0.26141888,0.5723632,0.30252314,0.30252615,4.058529,0.0025104876,0.00251029,0.0025088354,0.09014695,0.0,0.0,0.0,0.0,0.0,0.0005047823,0.012667193,0.03147953,0.0,0.0,0.0,0.0,0.0,0.0
2742608557,0.042274714,-0.08787191,-0.0944666,0.0154800415,-0.024791718,-0.9601784,0.0070293844,0.01604934,-0.0065975785,0.0047141984,0.0,0.0,0.0,0.0,0.0,0.2614361,0.26141888,0.5723632,0.30252314,0.30252615,4.0583005,0.0025102997,0.002510255,0.0025086836,0.09014695,0.0,0.0,0.0,0.0,0.0,0.00044668908,0.009603971,0.031291813,0.0,0.0,0.0,0.0,0.0,0.0
2742808450,0.016806126,-0.15932024,-0.1326747,0.020477295,-0.045391083,0.1951828,0.0091677755,-0.007363215,-0.013505757,0.0047141984,0.0,0.0,0.0,0.0,0.0,0.2614802,0.26143172,0.57240546,0.3050695,0.3050633,4.058597,0.0025100564,0.0025099304,0.0025084398,0.09014695,0.0,0.0,0.0,0.0,0.0,0.0006484934,0.017144255,0.04185895,0.0,0.0,0.0,0.0,0.0,0.0
2743013170,-0.10836983,-0.19977748,-0.1738886,0.030261993,-0.0357666,-1.0333328,-0.0049297363,-0.0014768988,-0.011005402,0.014431596,0.0,0.0,0.0,0.0,0.0,0.26153046,0.26148242,0.5724347,0.30439118,0.3043788,4.058595,0.0025099816,0.002509744,0.0025082922,0.09022455,0.0,0.0,0.0,0.0,0.0,0.0007259287,0.016550116,0.039039727,0.0,0.0,0.0,0.0,0.0,0.0
2743214194,-0.06215048,-0.13253164,-0.060768798,0.031749725,-0.057739258,-0.24165344,-0.0049297363,-0.0014768988,-0.011005402,-0.020848095,0.0,0.0,0.0,0.0,0.0,0.26150474,0.26149055,0.5724295,0.30442926,0.30441406,4.0588455,0.0025099816,0.002509744,0.0025082922,0.090222485,0.0,0.0,0.0,0.0,0.0,0.00053033535,0.017423766,0.04742583,0.0,0.0,0.0,0.0,0.0,0.0
2743414985,0.0011829138,-0.21785402,-0.07686269,0.018043518,-0.085430145,-0.30342484,-0.0049297363,-0.0014768988,-0.011005402,-0.061562836,0.0,0.0,0.0,0.0,0.0,0.26140833,0.2614307,0.57239246,0.30418462,0.30417138,4.0579805,0.0025099816,0.002509744,0.0025082922,0.09022055,0.0,0.0,0.0,0.0,0.0,0.00059883425,0.019792492,0.0517788,0.0,0.0,0.0,0.0,0.0,0.0
2743618928,-0.075132966,-0.1314199,-0.15968129,0.030693054,-0.08828354,-0.30691147,-0.0049297363,-0.0014768988,-0.011005402,-0.014636159,0.0,0.0,0.0,0.0,0.0,0.2614218,0.26147375,0.5724191,0.30539286,0.30538565,4.058441,0.0025099816,0.002509744,0.0025082922,0.09021869,0.0,0.0,0.0,0.0,0.0,0.00055022264,0.016580928,0.041531924,0.0,0.0,0.0,0.0,0.0,0.0
2743819584,-0.011278391,-0.08801353,-0.009968169,0.035087585,-0.08549881,0.2910347,-0.0049297363,-0.0014768988,-0.011005402,-0.018302858,0.0,0.0,0.0,0.0,0.0,0.2614044,0.26146722,0.5724198,0.306432,0.30643275,4.0584435,0.0025099816,0.002509744,0.0025082922,0.09021641,0.0,0.0,0.0,0.0,0.0,0.00045097127,0.011955139,0.03239133,0.0,0.0,0.0,0.0,0.0,0.0
2744020603,-0.05882132,-0.121998906,-0.06620034,0.038272858,-0.0802269,0.30159378,-0.0049297363,-0.0014768988,-0.011005402,0.05059731,0.0,0.0,0.0,0.0,0.0,0.26140597,0.26146415,0.572341,0.30544817,0.30545673,4.0581956,0.0025099816,0.002509744,0.0025082922,0.09021423,0.0,0.0,0.0,0.0,0.0,0.00043088655,0.011524797,0.030785726,0.0,0.0,0.0,0.0,0.0,0.0
2744221394,-0.032800674,-0.14894307,-0.008153573,0.038261414,-0.083545685,-0.020931244,-0.0049297363,-0.0014768988,-0.011005402,0.014210999,0.0,0.0,0.0,0.0,0.0,0.26140684,0.26145047,0.57234997,0.30546504,0.30547926,4.057434,0.0025099816,0.002509744,0.0025082922,0.090212695,0.0,0.0,0.0,0.0,0.0,0.0004964782,0.011790964,0.031180857,0.0,0.0,0.0,0.0,0.0,0.0
2744421181,-0.034557104,-0.025308967,-0.07332785,0.04761505,-0.040103912,-0.06725693,-0.0049297363,-0.0014768988,-0.011005402,0.025675476,0.0,0.0,0.0,0.0,0.0,0.2614811,0.261509,0.5723925,0.3057455,0.30576277,4.058102,0.0025099816,0.002509744,0.0025082922,0.09021107,0.0,0.0,0.0,0.0,0.0,0.00033428287,0.0047204136,0.015672226,0.0,0.0,0.0,0.0,0.0,0.0
2744622144,-0.0656898,-0.111174226,-0.06372444,0.029060364,-0.029006958,-0.80794907,-0.0049297363,-0.0014768988,-0.011005402,-0.007968843,0.0,0.0,0.0,0.0,0.0,0.26142,0.2614334,0.5723624,0.3054511,0.30546814,4.058412,0.0025099816,0.002509744,0.0025082922,0.090209164,0.0,0.0,0.0,0.0,0.0,0.0003126699,0.009104382,0.027122563,0.0,0.0,0.0,0.0,0.0,0.0
2744823027,-0.083464146,-0.07306528,0.02405712,0.022613525,0.002632141,-0.017993927,-0.0049297363,-0.0014768988,-0.011005402,-0.030922651,0.0,0.0,0.0,0.0,0.0,0.2614245,0.26142922,0.57236516,0.3054374,0.30545333,4.057595,0.0025099816,0.002509744,0.0025082922,0.090208195,0.0,0.0,0.0,0.0,0.0,0.00027286986,0.0054746005,0.012082831,0.0,0.0,0.0,0.0,0.0,0.0
2745023733,0.019486427,-0.10206759,-0.07622232,0.023342133,0.015743256,-0.19312286,-0.0049297363,-0.0014768988,-0.011005402,0.0482471,0.0,0.0,0.0,0.0,0.0,0.26141012,0.2614123,0.5723723,0.30544758,0.305462,4.057671,0.0025099816,0.002509744,0.0025082922,0.09020643,0.0,0.0,0.0,0.0,0.0,0.00049753406,0.0036844178,0.010725489,0.0,0.0,0.0,0.0,0.0,0.0
2745223833,-0.046206713,-0.13301587,0.006129604,0.029762268,0.01852417,-0.50014114,-0.0049297363,-0.0014768988,-0.011005402,0.018576324,0.0,0.0,0.0,0.0,0.0,0.26141816,0.26141974,0.5723779,0.30545634,0.3054694,4.057738,0.0025099816,0.002509744,0.0025082922,0.09020508,0.0,0.0,0.0,0.0,0.0,0.00029501013,0.009628078,0.032208424,0.0,0.0,0.0,0.0,0.0,0.0
2745428550,-0.061310768,-0.02960968,-0.055410225,0.014095306,0.008769989,-0.19220734,-0.0049297363,-0.0014768988,-0.011005402,-0.050505042,0.0,0.0,0.0,0.0,0.0,0.26135877,0.26136154,0.5723478,0.30622768,0.30623958,4.057796,0.0025099816,0.002509744,0.0025082922,0.09020367,0.0,0.0,0.0,0.0,0.0,0.00056605635,0.00874044,0.026168413,0.0,0.0,0.0,0.0,0.0,0.0
2745629364,-0.005041361,-0.014809608,-0.029794157,0.03340149,0.054855347,0.45300674,-0.0049297363,-0.0014768988,-0.011005402,0.0029050112,0.0,0.0,0.0,0.0,0.0,0.26144007,0.26144677,0.57238436,0.3065293,0.3065407,4.058129,0.0025099816,0.002509744,0.0025082922,0.09020203,0.0,0.0,0.0,0.0,0.0,0.0006341444,0.0092294635,0.022837654,0.0,0.0,0.0,0.0,0.0,0.0
2745830218,-0.06292534,-0.0026310682,0.014893077,0.024414062,0.07444954,0.10065842,-0.0049297363,-0.0014768988,-0.011005402,-0.020197332,0.0,0.0,0.0,0.0,0.0,0.26139668,0.26140302,0.5723574,0.30628732,0.3062984,4.0576186,0.0025099816,0.002509744,0.0025082922,0.090200365,0.0,0.0,0.0,0.0,0.0,0.00079587847,0.011554896,0.024250142,0.0,0.0,0.0,0.0,0.0,0.0
2746034028,-0.125777,-0.08547604,-0.056467135,0.017059326,0.104969025,0.12136459,-0.0049297363,-0.0014768988,-0.011005402,0.0042366385,0.0,0.0,0.0,0.0,0.0,0.26147887,0.26148945,0.5723154,0.30557972,0.3055911,4.057456,0.0025099816,0.002509744,0.0025082922,0.09019922,0.0,0.0,0.0,0.0,0.0,0.0006922354,0.012363145,0.028616386,0.0,0.0,0.0,0.0,0.0,0.0
2746234970,-0.15906358,-0.026012897,-0.060421433,-0.022857666,0.114500046,0.013931274,-0.0049297363,-0.0014768988,-0.011005402,-0.03218758,0.0,0.0,0.0,0.0,0.0,0.26140293,0.2614168,0.5722913,0.30528024,0.30529183,4.0572453,0.0025099816,0.002509744,0.0025082922,0.09019797,0.0,0.0,0.0,0.0,0.0,0.0008091695,0.016505659,0.037716802,0.0,0.0,0.0,0.0,0.0,0.0
2746435805,-0.066012144,0.021927238,-0.06755684,-0.026481628,0.12530708,-0.41960526,-0.0049297363,-0.0014768988,-0.011005402,-0.029462934,0.0,0.0,0.0,0.0,0.0,0.26137578,0.26139253,0.5723783,0.30724844,0.3072609,4.0574985,0.0025099816,0.002509744,0.0025082922,0.09019686,0.0,0.0,0.0,0.0,0.0,0.0005151391,0.017393112,0.038823735,0.0,0.0,0.0,0.0,0.0,0.0
2746636522,-0.1887672,-0.030191422,-0.042817857,-0.015792847,0.13390923,-0.6637802,-0.0049297363,-0.0014768988,-0.011005402,0.025016904,0.0,0.0,0.0,0.0,0.0,0.26144278,0.26146957,0.5723366,0.30966932,0.30968434,4.057594,0.0025099816,0.002509744,0.0025082922,0.090195484,0.0,0.0,0.0,0.0,0.0,0.00060254784,0.019786263,0.04332885,0.0,0.0,0.0,0.0,0.0,0.0
2746836550,-0.110958815,-0.020159483,0.08791596,-0.046318054,0.13779259,0.5070381,-0.0049297363,-0.0014768988,-0.011005402,-0.019238472,0.0,0.0,0.0,0.0,0.0,0.26137882,0.2614125,0.57231015,0.31051707,0.31053492,4.057399,0.0025099816,0.002509744,0.0025082922,0.09019414,0.0,0.0,0.0,0.0,0.0,0.00084507826,0.0187114,0.0407737,0.0,0.0,0.0,0.0,0.0,0.0
2747037456,-0.069021225,0.034014463,-0.051659524,-0.029575348,0.18030548,-0.183918,-0.0049297363,-0.0014768988,-0.011005402,-0.006401539,0.0,0.0,0.0,0.0,0.0,0.26144236,0.26148382,0.57235277,0.31191525,0.31193784,4.057483,0.0025099816,0.002509744,0.0025082922,0.09019305,0.0,0.0,0.0,0.0,0.0,0.0006342268,0.02004463,0.044999927,0.0,0.0,0.0,0.0,0.0,0.0
2747242233,-0.013927221,-0.0964793,0.02966246,-0.031024933,0.1761303,0.037303925,-0.0049297363,-0.0014768988,-0.011005402,0.003694594,0.0,0.0,0.0,0.0,0.0,0.26139262,0.26143864,0.5723274,0.31277764,0.31280458,4.057346,0.0025099816,0.002509744,0.0025082922,0.09019179,0.0,0.0,0.0,0.0,0.0,0.00042667243,0.015821561,0.04327405,0.0,0.0,0.0,0.0,0.0,0.0
2747443011,-0.08059275,-0.0965265,-0.022695774,-0.009460449,0.1903534,0.6278877,-0.0049297363,-0.0014768988,-0.011005402,0.031272173,0.0,0.0,0.0,0.0,0.0,0.26146284,0.26151186,0.5722903,0.31421593,0.314249,4.057183,0.0025099816,0.002509744,0.0025082922,0.09019045,0.0,0.0,0.0,0.0,0.0,0.00041226068,0.012517733,0.03467312,0.0,0.0,0.0,0.0,0.0,0.0
2747646930,-0.09848559,-0.011020422,0.04516942,-0.016899109,0.1877346,-0.038524628,-0.0049297363,-0.0014768988,-0.011005402,0.08324689,0.0,0.0,0.0,0.0,0.0,0.26144752,0.26149473,0.5723045,0.31430247,0.31434035,4.057324,0.0025099816,0.002509744,0.0025082922,0.090189464,0.0,0.0,0.0,0.0,0.0,0.00032962565,0.016273806,0.04351542,0.0,0.0,0.0,0.0,0.0,0.0
2747847852,-0.037306666,-0.036022425,0.030598149,-0.028728485,0.16235161,0.31920242,-0.0049297363,-0.0014768988,-0.011005402,-0.012608945,0.0,0.0,0.0,0.0,0.0,0.26139808,0.2614392,0.57228094,0.31407744,0.31411812,4.0571365,0.0025099816,0.002509744,0.0025082922,0.09018837,0.0,0.0,0.0,0.0,0.0,0.00032627597,0.011318242,0.028470652,0.0,0.0,0.0,0.0,0.0,0.0
2748048557,-0.017493606,-0.07806766,0.06420134,-0.025341034,0.16231346,-0.24637604,-0.0049297363,-0.0014768988,-0.011005402,-0.0047855973,0.0,0.0,0.0,0.0,0.0,0.26140577,0.26144066,0.57229215,0.31417525,0.31421804,4.057262,0.0025099816,0.002509744,0.0025082922,0.09018724,0.0,0.0,0.0,0.0,0.0,0.00036514367,0.008639622,0.023552695,0.0,0.0,0.0,0.0,0.0,0.0
2748249336,-0.06792998,-0.072440505,-0.060150273,-0.04027176,0.1616211,-0.41685104,-0.0049297363,-0.0014768988,-0.011005402,-0.016233742,0.0,0.0,0.0,0.0,0.0,0.2613863,0.2614138,0.57229495,0.31412327,0.31416604,4.057288,0.0025099816,0.002509744,0.0025082922,0.09018634,0.0,0.0,0.0,0.0,0.0,0.00030821154,0.0071880296,0.019685525,0.0,0.0,0.0,0.0,0.0,0.0
2748450015,0.042569876,-0.06233108,-0.11597906,-0.028640747,0.16101837,-0.2617607,-0.0049297363,-0.0014768988,-0.011005402,0.035261452,0.0,0.0,0.0,0.0,0.0,0.26141503,0.26143676,0.5723075,0.31421077,0.31425232,4.057141,0.0025099816,0.002509744,0.0025082922,0.09018538,0.0,0.0,0.0,0.0,0.0,0.00020184973,0.0068654846,0.020594794,0.0,0.0,0.0,0.0,0.0,0.0
2748650168,-0.1336366,-0.104873896,-0.009068589,-0.027748108,0.14913368,-0.5065384,-0.0049297363,-0.0014768988,-0.011005402,-0.025839925,0.0,0.0,0.0,0.0,0.0,0.26141936,0.26143825,0.5723188,0.3121699,0.31220946,4.0572796,0.0025099816,0.002509744,0.0025082922,0.09018484,0.0,0.0,0.0,0.0,0.0,0.0002108783,0.005168866,0.012924284,0.0,0.0,0.0,0.0,0.0,0.0
