timestamp,noutputs,output[0],output[1],output[2],output[3],output[4],output[5],output[6],output[7],output[8],output[9],output[10],output[11],output[12],output[13],output[14],output[15]
2708896035,8,1461.0,1454.0,1445.0,1444.0,1446.0,1456.0,1462.0,1466.0,0.0,0.0,0.0,0.0,0.0,0.0,0.0,0.0
2709071256,8,1483.0,1476.0,1467.0,1465.0,1468.0,1477.0,1484.0,1488.0,0.0,0.0,0.0,0.0,0.0,0.0,0.0,0.0
2709111939,8,1491.0,1480.0,1473.0,1468.0,1474.0,1482.0,1492.0,1493.0,0.0,0.0,0.0,0.0,0.0,0.0,0.0,0.0
2709152055,8,1488.0,1489.0,1475.0,1481.0,1478.0,1492.0,1491.0,1500.0,0.0,0.0,0.0,0.0,0.0,0.0,0.0,0.0
2709195900,8,1499.0,1492.0,1482.0,1480.0,1481.0,1492.0,1498.0,1504.0,0.0,0.0,0.0,0.0,0.0,0.0,0.0,0.0
2709236068,8,1496.0,1495.0,1489.0,1492.0,1493.0,1501.0,1501.0,1503.0,0.0,0.0,0.0,0.0,0.0,0.0,0.0,0.0
2709279888,8,1528.0,1492.0,1513.0,1477.0,1506.0,1483.0,1521.0,1498.0,0.0,0.0,0.0,0.0,0.0,0.0,0.0,0.0
2709320073,8,1513.0,1520.0,1495.0,1501.0,1487.0,1508.0,1505.0,1527.0,0.0,0.0,0.0,0.0,0.0,0.0,0.0,0.0
2709360079,8,1526.0,1508.0,1498.0,1492.0,1503.0,1515.0,1530.0,1531.0,0.0,0.0,0.0,0.0,0.0,0.0,0.0,0.0
2709404037,8,1530.0,1515.0,1506.0,1500.0,1509.0,1518.0,1532.0,1533.0,0.0,0.0,0.0,0.0,0.0,0.0,0.0,0.0
2709448823,8,1530.0,1524.0,1513.0,1513.0,1515.0,1527.0,1532.0,1538.0,0.0,0.0,0.0,0.0,0.0,0.0,0.0,0.0
2709488808,8,1533.0,1529.0,1519.0,1520.0,1521.0,1531.0,1534.0,1539.0,0.0,0.0,0.0,0.0,0.0,0.0,0.0,0.0
2709532695,8,1537.0,1536.0,1527.0,1529.0,1528.0,1538.0,1539.0,1544.0,0.0,0.0,0.0,0.0,0.0,0.0,0.0,0.0
2709572796,8,1540.0,1540.0,1535.0,1537.0,1536.0,1542.0,1542.0,1545.0,0.0,0.0,0.0,0.0,0.0,0.0,0.0,0.0
2709616748,8,1551.0,1546.0,1537.0,1536.0,1537.0,1546.0,1551.0,1556.0,0.0,0.0,0.0,0.0,0.0,0.0,0.0,0.0
2709656792,8,1553.0,1552.0,1542.0,1544.0,1543.0,1554.0,1555.0,1561.0,0.0,0.0,0.0,0.0,0.0,0.0,0.0,0.0
2709701489,8,1566.0,1556.0,1550.0,1543.0,1548.0,1554.0,1565.0,1567.0,0.0,0.0,0.0,0.0,0.0,0.0,0.0,0.0
2709741499,8,1574.0,1562.0,1552.0,1545.0,1549.0,1558.0,1571.0,1576.0,0.0,0.0,0.0,0.0,0.0,0.0,0.0,0.0
2709785553,8,1572.0,1567.0,1565.0,1559.0,1561.0,1562.0,1569.0,1570.0,0.0,0.0,0.0,0.0,0.0,0.0,0.0,0.0
2709825537,8,1559.0,1557.0,1586.0,1579.0,1589.0,1562.0,1562.0,1540.0,0.0,0.0,0.0,0.0,0.0,0.0,0.0,0.0
2709869499,8,1535.0,1542.0,1607.0,1607.0,1627.0,1571.0,1555.0,1505.0,0.0,0.0,0.0,0.0,0.0,0.0,0.0,0.0
2709909492,8,1530.0,1537.0,1624.0,1618.0,1644.0,1566.0,1550.0,1485.0,0.0,0.0,0.0,0.0,0.0,0.0,0.0,0.0
2709950461,8,1512.0,1515.0,1611.0,1606.0,1642.0,1558.0,1542.0,1466.0,0.0,0.0,0.0,0.0,0.0,0.0,0.0,0.0
2709994475,8,1495.0,1489.0,1580.0,1575.0,1616.0,1541.0,1532.0,1455.0,0.0,0.0,0.0,0.0,0.0,0.0,0.0,0.0
2710034456,8,1489.0,1459.0,1559.0,1545.0,1610.0,1531.0,1539.0,1445.0,0.0,0.0,0.0,0.0,0.0,0.0,0.0,0.0
2710078311,8,1477.0,1438.0,1525.0,1506.0,1574.0,1507.0,1526.0,1438.0,0.0,0.0,0.0,0.0,0.0,0.0,0.0,0.0
2710118442,8,1488.0,1431.0,1497.0,1461.0,1530.0,1479.0,1522.0,1449.0,0.0,0.0,0.0,0.0,0.0,0.0,0.0,0.0
2710162464,8,1477.0,1419.0,1476.0,1436.0,1502.0,1455.0,1503.0,1438.0,0.0,0.0,0.0,0.0,0.0,0.0,0.0,0.0
2710202487,8,1479.0,1418.0,1465.0,1417.0,1477.0,1435.0,1491.0,1437.0,0.0,0.0,0.0,0.0,0.0,0.0,0.0,0.0
2710247250,8,1477.0,1417.0,1458.0,1411.0,1468.0,1432.0,1487.0,1438.0,0.0,0.0,0.0,0.0,0.0,0.0,0.0,0.0
2710287286,8,1463.0,1413.0,1453.0,1416.0,1467.0,1433.0,1477.0,1431.0,0.0,0.0,0.0,0.0,0.0,0.0,0.0,0.0
2710331289,8,1460.0,1405.0,1454.0,1412.0,1470.0,1428.0,1476.0,1420.0,0.0,0.0,0.0,0.0,0.0,0.0,0.0,0.0
2710371256,8,1457.0,1403.0,1455.0,1413.0,1471.0,1426.0,1474.0,1416.0,0.0,0.0,0.0,0.0,0.0,0.0,0.0,0.0
2710411286,8,1455.0,1400.0,1448.0,1408.0,1466.0,1426.0,1473.0,1419.0,0.0,0.0,0.0,0.0,0.0,0.0,0.0,0.0
2710455133,8,1459.0,1398.0,1450.0,1404.0,1467.0,1423.0,1477.0,1417.0,0.0,0.0,0.0,0.0,0.0,0.0,0.0,0.0
2710495889,8,1462.0,1410.0,1456.0,1411.0,1462.0,1419.0,1468.0,1419.0,0.0,0.0,0.0,0.0,0.0,0.0,0.0,0.0
2710540032,8,1471.0,1423.0,1464.0,1411.0,1455.0,1409.0,1461.0,1420.0,0.0,0.0,0.0,0.0,0.0,0.0,0.0,0.0
2710580067,8,1476.0,1433.0,1463.0,1409.0,1443.0,1405.0,1457.0,1428.0,0.0,0.0,0.0,0.0,0.0,0.0,0.0,0.0
2710920716,8,1474.0,1421.0,1468.0,1413.0,1463.0,1414.0,1469.0,1422.0,0.0,0.0,0.0,0.0,0.0,0.0,0.0,0.0
2710964822,8,1475.0,1424.0,1467.0,1414.0,1460.0,1414.0,1468.0,1425.0,0.0,0.0,0.0,0.0,0.0,0.0,0.0,0.0
2711004828,8,1476.0,1425.0,1470.0,1416.0,1463.0,1415.0,1469.0,1424.0,0.0,0.0,0.0,0.0,0.0,0.0,0.0,0.0
2711045649,8,1474.0,1422.0,1469.0,1416.0,1466.0,1417.0,1471.0,1423.0,0.0,0.0,0.0,0.0,0.0,0.0,0.0,0.0
2712778415,8,1480.0,1420.0,1488.0,1426.0,1488.0,1421.0,1481.0,1415.0,0.0,0.0,0.0,0.0,0.0,0.0,0.0,0.0
2712822437,8,1480.0,1423.0,1490.0,1429.0,1488.0,1421.0,1479.0,1416.0,0.0,0.0,0.0,0.0,0.0,0.0,0.0,0.0
2712862498,8,1479.0,1423.0,1488.0,1428.0,1487.0,1421.0,1477.0,1415.0,0.0,0.0,0.0,0.0,0.0,0.0,0.0,0.0
2712907269,8,1480.0,1423.0,1488.0,1428.0,1486.0,1420.0,1477.0,1416.0,0.0,0.0,0.0,0.0,0.0,0.0,0.0,0.0
2712947269,8,1477.0,1424.0,1487.0,1430.0,1486.0,1423.0,1476.0,1416.0,0.0,0.0,0.0,0.0,0.0,0.0,0.0,0.0
2712991242,8,1479.0,1429.0,1489.0,1432.0,1484.0,1421.0,1474.0,1418.0,0.0,0.0,0.0,0.0,0.0,0.0,0.0,0.0
2713031232,8,1479.0,1428.0,1488.0,1431.0,1483.0,1421.0,1474.0,1418.0,0.0,0.0,0.0,0.0,0.0,0.0,0.0,0.0
2713075109,8,1476.0,1427.0,1484.0,1431.0,1482.0,1424.0,1475.0,1420.0,0.0,0.0,0.0,0.0,0.0,0.0,0.0,0.0
2713115107,8,1474.0,1425.0,1481.0,1430.0,1481.0,1425.0,1475.0,1420.0,0.0,0.0,0.0,0.0,0.0,0.0,0.0,0.0
2713156055,8,1477.0,1429.0,1484.0,1430.0,1479.0,1422.0,1472.0,1420.0,0.0,0.0,0.0,0.0,0.0,0.0,0.0,0.0
2713195913,8,1479.0,1431.0,1486.0,1431.0,1479.0,1420.0,1471.0,1420.0,0.0,0.0,0.0,0.0,0.0,0.0,0.0,0.0
2713240034,8,1477.0,1423.0,1482.0,1427.0,1482.0,1424.0,1478.0,1420.0,0.0,0.0,0.0,0.0,0.0,0.0,0.0,0.0
2713279901,8,1476.0,1426.0,1480.0,1428.0,1479.0,1424.0,1475.0,1422.0,0.0,0.0,0.0,0.0,0.0,0.0,0.0,0.0
2713323915,8,1478.0,1427.0,1486.0,1430.0,1481.0,1421.0,1474.0,1419.0,0.0,0.0,0.0,0.0,0.0,0.0,0.0,0.0
2713363910,8,1478.0,1425.0,1485.0,1430.0,1484.0,1424.0,1477.0,1420.0,0.0,0.0,0.0,0.0,0.0,0.0,0.0,0.0
2713403904,8,1478.0,1424.0,1484.0,1427.0,1483.0,1422.0,1476.0,1419.0,0.0,0.0,0.0,0.0,0.0,0.0,0.0,0.0
2713448826,8,1477.0,1425.0,1484.0,1429.0,1482.0,1422.0,1475.0,1418.0,0.0,0.0,0.0,0.0,0.0,0.0,0.0,0.0
2713488712,8,1478.0,1426.0,1487.0,1431.0,1485.0,1424.0,1476.0,1419.0,0.0,0.0,0.0,0.0,0.0,0.0,0.0,0.0
2713532880,8,1474.0,1422.0,1481.0,1429.0,1484.0,1426.0,1477.0,1419.0,0.0,0.0,0.0,0.0,0.0,0.0,0.0,0.0
2713572708,8,1476.0,1423.0,1483.0,1429.0,1485.0,1425.0,1477.0,1419.0,0.0,0.0,0.0,0.0,0.0,0.0,0.0,0.0
2713616851,8,1479.0,1422.0,1486.0,1428.0,1487.0,1423.0,1480.0,1417.0,0.0,0.0,0.0,0.0,0.0,0.0,0.0,0.0
2713656835,8,1479.0,1426.0,1489.0,1431.0,1486.0,1423.0,1477.0,1418.0,0.0,0.0,0.0,0.0,0.0,0.0,0.0,0.0
2713701535,8,1477.0,1426.0,1486.0,1429.0,1481.0,1420.0,1473.0,1417.0,0.0,0.0,0.0,0.0,0.0,0.0,0.0,0.0
2713741638,8,1481.0,1428.0,1490.0,1432.0,1486.0,1423.0,1477.0,1419.0,0.0,0.0,0.0,0.0,0.0,0.0,0.0,0.0
2713785501,8,1477.0,1423.0,1482.0,1428.0,1484.0,1426.0,1479.0,1421.0,0.0,0.0,0.0,0.0,0.0,0.0,0.0,0.0
2713825643,8,1475.0,1424.0,1482.0,1430.0,1484.0,1426.0,1476.0,1420.0,0.0,0.0,0.0,0.0,0.0,0.0,0.0,0.0
2713869675,8,1480.0,1424.0,1488.0,1429.0,1487.0,1422.0,1478.0,1417.0,0.0,0.0,0.0,0.0,0.0,0.0,0.0,0.0
2713913504,8,1475.0,1424.0,1483.0,1430.0,1484.0,1425.0,1476.0,1419.0,0.0,0.0,0.0,0.0,0.0,0.0,0.0,0.0
2713954455,8,1477.0,1427.0,1487.0,1432.0,1484.0,1423.0,1474.0,1418.0,0.0,0.0,0.0,0.0,0.0,0.0,0.0,0.0
2713998441,8,1475.0,1420.0,1482.0,1428.0,1486.0,1426.0,1479.0,1418.0,0.0,0.0,0.0,0.0,0.0,0.0,0.0,0.0
2714038464,8,1476.0,1424.0,1483.0,1430.0,1485.0,1427.0,1478.0,1421.0,0.0,0.0,0.0,0.0,0.0,0.0,0.0,0.0
2714082411,8,1479.0,1426.0,1485.0,1430.0,1485.0,1425.0,1478.0,1420.0,0.0,0.0,0.0,0.0,0.0,0.0,0.0,0.0
2714122466,8,1478.0,1425.0,1487.0,1431.0,1486.0,1424.0,1478.0,1419.0,0.0,0.0,0.0,0.0,0.0,0.0,0.0,0.0
2714166418,8,1476.0,1424.0,1485.0,1431.0,1487.0,1427.0,1478.0,1419.0,0.0,0.0,0.0,0.0,0.0,0.0,0.0,0.0
2714206479,8,1476.0,1424.0,1484.0,1431.0,1485.0,1425.0,1477.0,1419.0,0.0,0.0,0.0,0.0,0.0,0.0,0.0,0.0
2714251124,8,1476.0,1424.0,1486.0,1432.0,1488.0,1426.0,1478.0,1417.0,0.0,0.0,0.0,0.0,0.0,0.0,0.0,0.0
2714291121,8,1476.0,1421.0,1485.0,1429.0,1488.0,1426.0,1480.0,1418.0,0.0,0.0,0.0,0.0,0.0,0.0,0.0,0.0
2714335224,8,1478.0,1426.0,1488.0,1432.0,1486.0,1424.0,1476.0,1418.0,0.0,0.0,0.0,0.0,0.0,0.0,0.0,0.0
2714375209,8,1479.0,1426.0,1489.0,1431.0,1487.0,1422.0,1477.0,1417.0,0.0,0.0,0.0,0.0,0.0,0.0,0.0,0.0
2714419096,8,1476.0,1424.0,1484.0,1432.0,1486.0,1427.0,1478.0,1420.0,0.0,0.0,0.0,0.0,0.0,0.0,0.0,0.0
2714459108,8,1477.0,1427.0,1484.0,1430.0,1482.0,1424.0,1475.0,1421.0,0.0,0.0,0.0,0.0,0.0,0.0,0.0,0.0
2714499902,8,1478.0,1429.0,1487.0,1433.0,1483.0,1424.0,1474.0,1420.0,0.0,0.0,0.0,0.0,0.0,0.0,0.0,0.0
2714539909,8,1477.0,1428.0,1485.0,1432.0,1482.0,1424.0,1474.0,1421.0,0.0,0.0,0.0,0.0,0.0,0.0,0.0,0.0
2714584016,8,1477.0,1426.0,1485.0,1431.0,1485.0,1425.0,1476.0,1420.0,0.0,0.0,0.0,0.0,0.0,0.0,0.0,0.0
2714623918,8,1475.0,1424.0,1482.0,1430.0,1484.0,1427.0,1477.0,1420.0,0.0,0.0,0.0,0.0,0.0,0.0,0.0,0.0
2714667897,8,1478.0,1430.0,1488.0,1434.0,1485.0,1425.0,1474.0,1420.0,0.0,0.0,0.0,0.0,0.0,0.0,0.0,0.0
2714707885,8,1478.0,1428.0,1486.0,1432.0,1484.0,1424.0,1475.0,1420.0,0.0,0.0,0.0,0.0,0.0,0.0,0.0,0.0
2714752018,8,1472.0,1427.0,1479.0,1433.0,1481.0,1429.0,1474.0,1423.0,0.0,0.0,0.0,0.0,0.0,0.0,0.0,0.0
2714792857,8,1477.0,1430.0,1483.0,1434.0,1482.0,1428.0,1475.0,1424.0,0.0,0.0,0.0,0.0,0.0,0.0,0.0,0.0
2714832828,8,1478.0,1432.0,1487.0,1436.0,1484.0,1427.0,1475.0,1423.0,0.0,0.0,0.0,0.0,0.0,0.0,0.0,0.0
2714876801,8,1473.0,1429.0,1477.0,1433.0,1479.0,1431.0,1475.0,1427.0,0.0,0.0,0.0,0.0,0.0,0.0,0.0,0.0
2714916772,8,1474.0,1431.0,1480.0,1436.0,1482.0,1432.0,1475.0,1427.0,0.0,0.0,0.0,0.0,0.0,0.0,0.0,0.0
2714960856,8,1474.0,1427.0,1477.0,1433.0,1483.0,1434.0,1479.0,1428.0,0.0,0.0,0.0,0.0,0.0,0.0,0.0,0.0
2715000808,8,1470.0,1425.0,1473.0,1432.0,1480.0,1435.0,1477.0,1428.0,0.0,0.0,0.0,0.0,0.0,0.0,0.0,0.0
2715044789,8,1475.0,1427.0,1478.0,1431.0,1481.0,1431.0,1477.0,1427.0,0.0,0.0,0.0,0.0,0.0,0.0,0.0,0.0
2715085627,8,1470.0,1424.0,1471.0,1432.0,1482.0,1439.0,1481.0,1431.0,0.0,0.0,0.0,0.0,0.0,0.0,0.0,0.0
2715129666,8,1473.0,1430.0,1477.0,1434.0,1479.0,1433.0,1475.0,1429.0,0.0,0.0,0.0,0.0,0.0,0.0,0.0,0.0
2715169679,8,1473.0,1427.0,1476.0,1432.0,1480.0,1433.0,1478.0,1428.0,0.0,0.0,0.0,0.0,0.0,0.0,0.0,0.0
2715213502,8,1474.0,1432.0,1476.0,1434.0,1476.0,1432.0,1474.0,1430.0,0.0,0.0,0.0,0.0,0.0,0.0,0.0,0.0
2715257642,8,1470.0,1430.0,1469.0,1433.0,1475.0,1438.0,1475.0,1434.0,0.0,0.0,0.0,0.0,0.0,0.0,0.0,0.0
2715301511,8,1471.0,1429.0,1471.0,1433.0,1477.0,1438.0,1477.0,1434.0,0.0,0.0,0.0,0.0,0.0,0.0,0.0,0.0
2715342473,8,1470.0,1432.0,1470.0,1435.0,1474.0,1438.0,1474.0,1435.0,0.0,0.0,0.0,0.0,0.0,0.0,0.0,0.0
2715382498,8,1471.0,1436.0,1474.0,1439.0,1475.0,1438.0,1473.0,1435.0,0.0,0.0,0.0,0.0,0.0,0.0,0.0,0.0
2715426420,8,1470.0,1433.0,1471.0,1437.0,1476.0,1440.0,1475.0,1435.0,0.0,0.0,0.0,0.0,0.0,0.0,0.0,0.0
2715466457,8,1468.0,1434.0,1471.0,1439.0,1475.0,1440.0,1472.0,1435.0,0.0,0.0,0.0,0.0,0.0,0.0,0.0,0.0
2715510301,8,1468.0,1434.0,1470.0,1439.0,1475.0,1440.0,1472.0,1435.0,0.0,0.0,0.0,0.0,0.0,0.0,0.0,0.0
2715550403,8,1469.0,1435.0,1470.0,1438.0,1473.0,1439.0,1471.0,1436.0,0.0,0.0,0.0,0.0,0.0,0.0,0.0,0.0
2715595242,8,1468.0,1434.0,1469.0,1437.0,1473.0,1439.0,1472.0,1436.0,0.0,0.0,0.0,0.0,0.0,0.0,0.0,0.0
2715639113,8,1470.0,1436.0,1470.0,1438.0,1473.0,1439.0,1472.0,1437.0,0.0,0.0,0.0,0.0,0.0,0.0,0.0,0.0
2715683215,8,1471.0,1439.0,1473.0,1441.0,1474.0,1439.0,1471.0,1438.0,0.0,0.0,0.0,0.0,0.0,0.0,0.0,0.0
2715723142,8,1469.0,1435.0,1469.0,1437.0,1473.0,1440.0,1473.0,1437.0,0.0,0.0,0.0,0.0,0.0,0.0,0.0,0.0
2715763140,8,1469.0,1437.0,1469.0,1439.0,1471.0,1440.0,1471.0,1439.0,0.0,0.0,0.0,0.0,0.0,0.0,0.0,0.0
2715803130,8,1470.0,1441.0,1472.0,1442.0,1471.0,1439.0,1469.0,1439.0,0.0,0.0,0.0,0.0,0.0,0.0,0.0,0.0
2715844021,8,1472.0,1440.0,1473.0,1440.0,1473.0,1440.0,1472.0,1439.0,0.0,0.0,0.0,0.0,0.0,0.0,0.0,0.0
2715884020,8,1470.0,1439.0,1468.0,1439.0,1470.0,1441.0,1472.0,1441.0,0.0,0.0,0.0,0.0,0.0,0.0,0.0,0.0
2715924042,8,1471.0,1441.0,1470.0,1440.0,1470.0,1441.0,1471.0,1441.0,0.0,0.0,0.0,0.0,0.0,0.0,0.0,0.0
2715964009,8,1472.0,1441.0,1471.0,1440.0,1471.0,1440.0,1471.0,1441.0,0.0,0.0,0.0,0.0,0.0,0.0,0.0,0.0
2716007913,8,1472.0,1442.0,1470.0,1440.0,1469.0,1440.0,1471.0,1442.0,0.0,0.0,0.0,0.0,0.0,0.0,0.0,0.0
2716047908,8,1472.0,1440.0,1470.0,1440.0,1471.0,1441.0,1472.0,1441.0,0.0,0.0,0.0,0.0,0.0,0.0,0.0,0.0
2716091995,8,1470.0,1442.0,1470.0,1442.0,1470.0,1441.0,1470.0,1441.0,0.0,0.0,0.0,0.0,0.0,0.0,0.0,0.0
2716132816,8,1469.0,1437.0,1466.0,1438.0,1471.0,1444.0,1474.0,1442.0,0.0,0.0,0.0,0.0,0.0,0.0,0.0,0.0
2716172810,8,1468.0,1439.0,1466.0,1440.0,1470.0,1444.0,1471.0,1443.0,0.0,0.0,0.0,0.0,0.0,0.0,0.0,0.0
2716212822,8,1469.0,1440.0,1468.0,1441.0,1470.0,1443.0,1471.0,1442.0,0.0,0.0,0.0,0.0,0.0,0.0,0.0,0.0
2716256711,8,1467.0,1438.0,1465.0,1440.0,1470.0,1444.0,1471.0,1443.0,0.0,0.0,0.0,0.0,0.0,0.0,0.0,0.0
2716296692,8,1469.0,1441.0,1469.0,1441.0,1469.0,1441.0,1469.0,1441.0,0.0,0.0,0.0,0.0,0.0,0.0,0.0,0.0
2716340840,8,1467.0,1442.0,1467.0,1442.0,1467.0,1442.0,1468.0,1442.0,0.0,0.0,0.0,0.0,0.0,0.0,0.0,0.0
2716381637,8,1467.0,1440.0,1468.0,1442.0,1470.0,1443.0,1470.0,1441.0,0.0,0.0,0.0,0.0,0.0,0.0,0.0,0.0
2716421541,8,1465.0,1438.0,1464.0,1441.0,1469.0,1445.0,1470.0,1442.0,0.0,0.0,0.0,0.0,0.0,0.0,0.0,0.0
2716465498,8,1467.0,1438.0,1465.0,1440.0,1469.0,1444.0,1471.0,1443.0,0.0,0.0,0.0,0.0,0.0,0.0,0.0,0.0
2716505496,8,1468.0,1443.0,1468.0,1443.0,1468.0,1443.0,1469.0,1443.0,0.0,0.0,0.0,0.0,0.0,0.0,0.0,0.0
2716549629,8,1467.0,1440.0,1466.0,1442.0,1470.0,1445.0,1471.0,1443.0,0.0,0.0,0.0,0.0,0.0,0.0,0.0,0.0
2716589639,8,1468.0,1442.0,1469.0,1444.0,1470.0,1444.0,1469.0,1442.0,0.0,0.0,0.0,0.0,0.0,0.0,0.0,0.0
2716634397,8,1469.0,1443.0,1470.0,1444.0,1471.0,1444.0,1470.0,1443.0,0.0,0.0,0.0,0.0,0.0,0.0,0.0,0.0
2716674409,8,1470.0,1441.0,1468.0,1440.0,1469.0,1442.0,1471.0,1443.0,0.0,0.0,0.0,0.0,0.0,0.0,0.0,0.0
2716718454,8,1468.0,1443.0,1468.0,1442.0,1468.0,1443.0,1468.0,1443.0,0.0,0.0,0.0,0.0,0.0,0.0,0.0,0.0
2716758450,8,1469.0,1439.0,1469.0,1441.0,1472.0,1443.0,1472.0,1441.0,0.0,0.0,0.0,0.0,0.0,0.0,0.0,0.0
2716802451,8,1468.0,1440.0,1469.0,1443.0,1472.0,1443.0,1470.0,1441.0,0.0,0.0,0.0,0.0,0.0,0.0,0.0,0.0
2716842488,8,1466.0,1439.0,1466.0,1442.0,1470.0,1444.0,1470.0,1441.0,0.0,0.0,0.0,0.0,0.0,0.0,0.0,0.0
2716886460,8,1468.0,1442.0,1470.0,1443.0,1470.0,1442.0,1469.0,1441.0,0.0,0.0,0.0,0.0,0.0,0.0,0.0,0.0
2716927330,8,1464.0,1439.0,1465.0,1445.0,1472.0,1448.0,1471.0,1443.0,0.0,0.0,0.0,0.0,0.0,0.0,0.0,0.0
2716971129,8,1465.0,1436.0,1466.0,1443.0,1474.0,1448.0,1474.0,1442.0,0.0,0.0,0.0,0.0,0.0,0.0,0.0,0.0
2717011103,8,1466.0,1441.0,1468.0,1445.0,1472.0,1447.0,1471.0,1443.0,0.0,0.0,0.0,0.0,0.0,0.0,0.0,0.0
2717055213,8,1466.0,1439.0,1466.0,1443.0,1472.0,1448.0,1473.0,1444.0,0.0,0.0,0.0,0.0,0.0,0.0,0.0,0.0
2717095256,8,1467.0,1442.0,1469.0,1445.0,1472.0,1446.0,1470.0,1443.0,0.0,0.0,0.0,0.0,0.0,0.0,0.0,0.0
2717139125,8,1467.0,1440.0,1466.0,1443.0,1472.0,1449.0,1473.0,1445.0,0.0,0.0,0.0,0.0,0.0,0.0,0.0,0.0
2717179893,8,1473.0,1443.0,1473.0,1443.0,1474.0,1444.0,1474.0,1444.0,0.0,0.0,0.0,0.0,0.0,0.0,0.0,0.0
2717219893,8,1468.0,1437.0,1463.0,1440.0,1471.0,1450.0,1477.0,1447.0,0.0,0.0,0.0,0.0,0.0,0.0,0.0,0.0
2717263901,8,1472.0,1439.0,1468.0,1439.0,1473.0,1446.0,1477.0,1446.0,0.0,0.0,0.0,0.0,0.0,0.0,0.0,0.0
2717304010,8,1468.0,1436.0,1462.0,1440.0,1473.0,1452.0,1479.0,1448.0,0.0,0.0,0.0,0.0,0.0,0.0,0.0,0.0
2717347899,8,1467.0,1434.0,1462.0,1439.0,1475.0,1452.0,1480.0,1446.0,0.0,0.0,0.0,0.0,0.0,0.0,0.0,0.0
2717387898,8,1469.0,1442.0,1467.0,1444.0,1471.0,1449.0,1473.0,1447.0,0.0,0.0,0.0,0.0,0.0,0.0,0.0,0.0
2717431903,8,1467.0,1437.0,1463.0,1441.0,1472.0,1450.0,1476.0,1446.0,0.0,0.0,0.0,0.0,0.0,0.0,0.0,0.0
2717472803,8,1471.0,1442.0,1470.0,1445.0,1475.0,1449.0,1476.0,1446.0,0.0,0.0,0.0,0.0,0.0,0.0,0.0,0.0
2717516808,8,1470.0,1441.0,1470.0,1445.0,1475.0,1449.0,1475.0,1445.0,0.0,0.0,0.0,0.0,0.0,0.0,0.0,0.0
2717556838,8,1467.0,1438.0,1465.0,1443.0,1474.0,1450.0,1475.0,1445.0,0.0,0.0,0.0,0.0,0.0,0.0,0.0,0.0
2717600694,8,1468.0,1438.0,1467.0,1443.0,1474.0,1449.0,1475.0,1444.0,0.0,0.0,0.0,0.0,0.0,0.0,0.0,0.0
2717640825,8,1467.0,1439.0,1467.0,1444.0,1475.0,1450.0,1475.0,1445.0,0.0,0.0,0.0,0.0,0.0,0.0,0.0,0.0
2717684698,8,1466.0,1436.0,1465.0,1443.0,1475.0,1451.0,1477.0,1445.0,0.0,0.0,0.0,0.0,0.0,0.0,0.0,0.0
2717725541,8,1470.0,1444.0,1474.0,1447.0,1475.0,1445.0,1471.0,1442.0,0.0,0.0,0.0,0.0,0.0,0.0,0.0,0.0
2717765513,8,1466.0,1437.0,1468.0,1444.0,1477.0,1450.0,1475.0,1442.0,0.0,0.0,0.0,0.0,0.0,0.0,0.0,0.0
2717809601,8,1468.0,1441.0,1471.0,1447.0,1476.0,1448.0,1473.0,1442.0,0.0,0.0,0.0,0.0,0.0,0.0,0.0,0.0
2717849541,8,1466.0,1436.0,1467.0,1444.0,1477.0,1450.0,1476.0,1442.0,0.0,0.0,0.0,0.0,0.0,0.0,0.0,0.0
2717893611,8,1467.0,1438.0,1471.0,1445.0,1477.0,1447.0,1473.0,1440.0,0.0,0.0,0.0,0.0,0.0,0.0,0.0,0.0
2717933519,8,1465.0,1434.0,1464.0,1439.0,1473.0,1446.0,1474.0,1441.0,0.0,0.0,0.0,0.0,0.0,0.0,0.0,0.0
2717978413,8,1466.0,1434.0,1466.0,1440.0,1475.0,1447.0,1475.0,1440.0,0.0,0.0,0.0,0.0,0.0,0.0,0.0,0.0
2718018426,8,1468.0,1437.0,1468.0,1440.0,1473.0,1444.0,1473.0,1440.0,0.0,0.0,0.0,0.0,0.0,0.0,0.0,0.0
2718062487,8,1467.0,1435.0,1465.0,1438.0,1472.0,1444.0,1473.0,1441.0,0.0,0.0,0.0,0.0,0.0,0.0,0.0,0.0
2718102476,8,1472.0,1441.0,1473.0,1441.0,1472.0,1439.0,1471.0,1439.0,0.0,0.0,0.0,0.0,0.0,0.0,0.0,0.0
2718146408,8,1471.0,1438.0,1472.0,1439.0,1473.0,1439.0,1472.0,1438.0,0.0,0.0,0.0,0.0,0.0,0.0,0.0,0.0
2718186430,8,1471.0,1439.0,1472.0,1441.0,1475.0,1442.0,1474.0,1440.0,0.0,0.0,0.0,0.0,0.0,0.0,0.0,0.0
2718227317,8,1472.0,1437.0,1473.0,1440.0,1476.0,1441.0,1475.0,1439.0,0.0,0.0,0.0,0.0,0.0,0.0,0.0,0.0
2718267293,8,1471.0,1436.0,1472.0,1439.0,1476.0,1442.0,1476.0,1439.0,0.0,0.0,0.0,0.0,0.0,0.0,0.0,0.0
2718311266,8,1474.0,1436.0,1473.0,1439.0,1477.0,1442.0,1478.0,1440.0,0.0,0.0,0.0,0.0,0.0,0.0,0.0,0.0
2718351299,8,1470.0,1434.0,1464.0,1435.0,1471.0,1443.0,1476.0,1442.0,0.0,0.0,0.0,0.0,0.0,0.0,0.0,0.0
2718395253,8,1471.0,1433.0,1465.0,1434.0,1472.0,1442.0,1478.0,1441.0,0.0,0.0,0.0,0.0,0.0,0.0,0.0,0.0
2718439123,8,1473.0,1437.0,1471.0,1436.0,1473.0,1440.0,1476.0,1440.0,0.0,0.0,0.0,0.0,0.0,0.0,0.0,0.0
2718483116,8,1476.0,1440.0,1476.0,1437.0,1473.0,1436.0,1473.0,1438.0,0.0,0.0,0.0,0.0,0.0,0.0,0.0,0.0
2718523904,8,1471.0,1431.0,1466.0,1433.0,1474.0,1443.0,1480.0,1441.0,0.0,0.0,0.0,0.0,0.0,0.0,0.0,0.0
2718563914,8,1470.0,1433.0,1463.0,1431.0,1468.0,1440.0,1475.0,1441.0,0.0,0.0,0.0,0.0,0.0,0.0,0.0,0.0
2718608023,8,1472.0,1430.0,1462.0,1427.0,1468.0,1439.0,1478.0,1441.0,0.0,0.0,0.0,0.0,0.0,0.0,0.0,0.0
2718648026,8,1473.0,1436.0,1465.0,1432.0,1468.0,1440.0,1476.0,1444.0,0.0,0.0,0.0,0.0,0.0,0.0,0.0,0.0
2718691889,8,1474.0,1432.0,1464.0,1429.0,1469.0,1440.0,1479.0,1443.0,0.0,0.0,0.0,0.0,0.0,0.0,0.0,0.0
2718731903,8,1472.0,1436.0,1466.0,1434.0,1468.0,1439.0,1473.0,1441.0,0.0,0.0,0.0,0.0,0.0,0.0,0.0,0.0
2718776814,8,1473.0,1436.0,1466.0,1432.0,1467.0,1438.0,1474.0,1442.0,0.0,0.0,0.0,0.0,0.0,0.0,0.0,0.0
2718816846,8,1474.0,1435.0,1469.0,1433.0,1471.0,1438.0,1477.0,1440.0,0.0,0.0,0.0,0.0,0.0,0.0,0.0,0.0
2718860707,8,1473.0,1436.0,1467.0,1434.0,1470.0,1440.0,1475.0,1442.0,0.0,0.0,0.0,0.0,0.0,0.0,0.0,0.0
2718904802,8,1471.0,1433.0,1463.0,1433.0,1469.0,1442.0,1477.0,1443.0,0.0,0.0,0.0,0.0,0.0,0.0,0.0,0.0
2718948713,8,1472.0,1430.0,1463.0,1429.0,1471.0,1441.0,1480.0,1441.0,0.0,0.0,0.0,0.0,0.0,0.0,0.0,0.0
2718992845,8,1474.0,1434.0,1469.0,1431.0,1471.0,1437.0,1476.0,1439.0,0.0,0.0,0.0,0.0,0.0,0.0,0.0,0.0
2719032826,8,1474.0,1433.0,1469.0,1433.0,1474.0,1439.0,1479.0,1439.0,0.0,0.0,0.0,0.0,0.0,0.0,0.0,0.0
2719073641,8,1472.0,1437.0,1470.0,1436.0,1471.0,1439.0,1473.0,1439.0,0.0,0.0,0.0,0.0,0.0,0.0,0.0,0.0
2719113655,8,1473.0,1434.0,1472.0,1434.0,1474.0,1437.0,1476.0,1437.0,0.0,0.0,0.0,0.0,0.0,0.0,0.0,0.0
2719157639,8,1473.0,1433.0,1470.0,1434.0,1474.0,1438.0,1476.0,1438.0,0.0,0.0,0.0,0.0,0.0,0.0,0.0,0.0
2719197613,8,1475.0,1433.0,1472.0,1431.0,1473.0,1435.0,1477.0,1436.0,0.0,0.0,0.0,0.0,0.0,0.0,0.0,0.0
2719241689,8,1476.0,1433.0,1473.0,1431.0,1473.0,1433.0,1476.0,1435.0,0.0,0.0,0.0,0.0,0.0,0.0,0.0,0.0
2719281660,8,1476.0,1430.0,1469.0,1428.0,1473.0,1435.0,1479.0,1437.0,0.0,0.0,0.0,0.0,0.0,0.0,0.0,0.0
2719326479,8,1479.0,1433.0,1475.0,1431.0,1476.0,1434.0,1479.0,1436.0,0.0,0.0,0.0,0.0,0.0,0.0,0.0,0.0
2719366491,8,1478.0,1429.0,1470.0,1426.0,1473.0,1433.0,1481.0,1437.0,0.0,0.0,0.0,0.0,0.0,0.0,0.0,0.0
2719410407,8,1480.0,1432.0,1475.0,1428.0,1474.0,1431.0,1479.0,1435.0,0.0,0.0,0.0,0.0,0.0,0.0,0.0,0.0
2719450481,8,1480.0,1429.0,1475.0,1426.0,1476.0,1431.0,1482.0,1434.0,0.0,0.0,0.0,0.0,0.0,0.0,0.0,0.0
2719490458,8,1480.0,1431.0,1475.0,1428.0,1475.0,1432.0,1480.0,1435.0,0.0,0.0,0.0,0.0,0.0,0.0,0.0,0.0
2719530511,8,1478.0,1428.0,1473.0,1426.0,1475.0,1431.0,1480.0,1433.0,0.0,0.0,0.0,0.0,0.0,0.0,0.0,0.0
2719571232,8,1480.0,1428.0,1477.0,1427.0,1479.0,1430.0,1482.0,1431.0,0.0,0.0,0.0,0.0,0.0,0.0,0.0,0.0
2719611254,8,1482.0,1429.0,1478.0,1427.0,1479.0,1431.0,1483.0,1433.0,0.0,0.0,0.0,0.0,0.0,0.0,0.0,0.0
2719655229,8,1483.0,1429.0,1479.0,1425.0,1478.0,1428.0,1483.0,1432.0,0.0,0.0,0.0,0.0,0.0,0.0,0.0,0.0
2719695227,8,1484.0,1428.0,1481.0,1427.0,1482.0,1430.0,1485.0,1431.0,0.0,0.0,0.0,0.0,0.0,0.0,0.0,0.0
2719739274,8,1484.0,1432.0,1480.0,1427.0,1477.0,1428.0,1481.0,1433.0,0.0,0.0,0.0,0.0,0.0,0.0,0.0,0.0
2719779266,8,1486.0,1431.0,1482.0,1426.0,1479.0,1427.0,1483.0,1432.0,0.0,0.0,0.0,0.0,0.0,0.0,0.0,0.0
2719820076,8,1485.0,1426.0,1480.0,1423.0,1481.0,1427.0,1486.0,1431.0,0.0,0.0,0.0,0.0,0.0,0.0,0.0,0.0
2719860050,8,1482.0,1422.0,1472.0,1419.0,1477.0,1430.0,1487.0,1433.0,0.0,0.0,0.0,0.0,0.0,0.0,0.0,0.0
2719903890,8,1487.0,1429.0,1482.0,1423.0,1479.0,1425.0,1484.0,1431.0,0.0,0.0,0.0,0.0,0.0,0.0,0.0,0.0
2719944020,8,1484.0,1424.0,1475.0,1419.0,1477.0,1426.0,1485.0,1431.0,0.0,0.0,0.0,0.0,0.0,0.0,0.0,0.0
2719988075,8,1484.0,1430.0,1479.0,1425.0,1477.0,1427.0,1482.0,1432.0,0.0,0.0,0.0,0.0,0.0,0.0,0.0,0.0
2720028030,8,1481.0,1424.0,1473.0,1420.0,1475.0,1428.0,1484.0,1432.0,0.0,0.0,0.0,0.0,0.0,0.0,0.0,0.0
2720068051,8,1483.0,1427.0,1474.0,1420.0,1473.0,1426.0,1483.0,1433.0,0.0,0.0,0.0,0.0,0.0,0.0,0.0,0.0
2720108822,8,1483.0,1430.0,1475.0,1423.0,1473.0,1427.0,1481.0,1434.0,0.0,0.0,0.0,0.0,0.0,0.0,0.0,0.0
2720148820,8,1484.0,1428.0,1477.0,1422.0,1476.0,1426.0,1482.0,1432.0,0.0,0.0,0.0,0.0,0.0,0.0,0.0,0.0
2720188810,8,1484.0,1431.0,1478.0,1426.0,1477.0,1428.0,1482.0,1433.0,0.0,0.0,0.0,0.0,0.0,0.0,0.0,0.0
2720232810,8,1483.0,1431.0,1478.0,1425.0,1475.0,1426.0,1480.0,1432.0,0.0,0.0,0.0,0.0,0.0,0.0,0.0,0.0
2720272817,8,1483.0,1430.0,1476.0,1424.0,1475.0,1428.0,1482.0,1434.0,0.0,0.0,0.0,0.0,0.0,0.0,0.0,0.0
2720316864,8,1482.0,1432.0,1474.0,1424.0,1471.0,1427.0,1478.0,1435.0,0.0,0.0,0.0,0.0,0.0,0.0,0.0,0.0
2720356857,8,1482.0,1428.0,1475.0,1423.0,1474.0,1426.0,1480.0,1432.0,0.0,0.0,0.0,0.0,0.0,0.0,0.0,0.0
2720397656,8,1482.0,1426.0,1474.0,1421.0,1475.0,1427.0,1483.0,1433.0,0.0,0.0,0.0,0.0,0.0,0.0,0.0,0.0
2720437649,8,1478.0,1425.0,1469.0,1421.0,1473.0,1431.0,1482.0,1435.0,0.0,0.0,0.0,0.0,0.0,0.0,0.0,0.0
2720481625,8,1482.0,1429.0,1476.0,1423.0,1474.0,1426.0,1480.0,1432.0,0.0,0.0,0.0,0.0,0.0,0.0,0.0,0.0
2720521642,8,1481.0,1426.0,1473.0,1422.0,1475.0,1428.0,1482.0,1433.0,0.0,0.0,0.0,0.0,0.0,0.0,0.0,0.0
2720565671,8,1480.0,1431.0,1472.0,1425.0,1471.0,1430.0,1479.0,1436.0,0.0,0.0,0.0,0.0,0.0,0.0,0.0,0.0
2720605661,8,1480.0,1428.0,1471.0,1422.0,1472.0,1428.0,1480.0,1434.0,0.0,0.0,0.0,0.0,0.0,0.0,0.0,0.0
2720646471,8,1480.0,1428.0,1470.0,1422.0,1471.0,1429.0,1480.0,1435.0,0.0,0.0,0.0,0.0,0.0,0.0,0.0,0.0
2720690299,8,1478.0,1427.0,1467.0,1422.0,1470.0,1431.0,1480.0,1437.0,0.0,0.0,0.0,0.0,0.0,0.0,0.0,0.0
2720730454,8,1476.0,1425.0,1463.0,1418.0,1467.0,1430.0,1480.0,1437.0,0.0,0.0,0.0,0.0,0.0,0.0,0.0,0.0
2720774460,8,1478.0,1425.0,1467.0,1420.0,1471.0,1431.0,1483.0,1436.0,0.0,0.0,0.0,0.0,0.0,0.0,0.0,0.0
2720814487,8,1479.0,1426.0,1466.0,1418.0,1467.0,1429.0,1480.0,1437.0,0.0,0.0,0.0,0.0,0.0,0.0,0.0,0.0
2720858292,8,1478.0,1425.0,1466.0,1418.0,1468.0,1429.0,1481.0,1436.0,0.0,0.0,0.0,0.0,0.0,0.0,0.0,0.0
2720899099,8,1478.0,1429.0,1467.0,1423.0,1469.0,1432.0,1480.0,1438.0,0.0,0.0,0.0,0.0,0.0,0.0,0.0,0.0
2720943139,8,1478.0,1427.0,1467.0,1421.0,1470.0,1431.0,1481.0,1437.0,0.0,0.0,0.0,0.0,0.0,0.0,0.0,0.0
2720983238,8,1477.0,1429.0,1465.0,1422.0,1467.0,1432.0,1479.0,1439.0,0.0,0.0,0.0,0.0,0.0,0.0,0.0,0.0
2721027260,8,1478.0,1430.0,1467.0,1423.0,1468.0,1431.0,1479.0,1438.0,0.0,0.0,0.0,0.0,0.0,0.0,0.0,0.0
2721067230,8,1480.0,1433.0,1472.0,1426.0,1471.0,1430.0,1479.0,1437.0,0.0,0.0,0.0,0.0,0.0,0.0,0.0,0.0
2721107279,8,1477.0,1432.0,1469.0,1428.0,1470.0,1434.0,1478.0,1438.0,0.0,0.0,0.0,0.0,0.0,0.0,0.0,0.0
2721147302,8,1480.0,1430.0,1471.0,1425.0,1472.0,1432.0,1481.0,1437.0,0.0,0.0,0.0,0.0,0.0,0.0,0.0,0.0
2721192024,8,1479.0,1431.0,1471.0,1425.0,1471.0,1431.0,1478.0,1436.0,0.0,0.0,0.0,0.0,0.0,0.0,0.0,0.0
2721232019,8,1480.0,1433.0,1472.0,1427.0,1472.0,1431.0,1480.0,1437.0,0.0,0.0,0.0,0.0,0.0,0.0,0.0,0.0
2721275906,8,1479.0,1437.0,1473.0,1430.0,1469.0,1431.0,1475.0,1438.0,0.0,0.0,0.0,0.0,0.0,0.0,0.0,0.0
2721319999,8,1476.0,1433.0,1468.0,1427.0,1468.0,1433.0,1477.0,1439.0,0.0,0.0,0.0,0.0,0.0,0.0,0.0,0.0
2721360009,8,1477.0,1433.0,1466.0,1426.0,1467.0,1435.0,1479.0,1442.0,0.0,0.0,0.0,0.0,0.0,0.0,0.0,0.0
2721403980,8,1477.0,1433.0,1466.0,1427.0,1467.0,1435.0,1478.0,1441.0,0.0,0.0,0.0,0.0,0.0,0.0,0.0,0.0
2721443902,8,1480.0,1433.0,1472.0,1427.0,1471.0,1432.0,1479.0,1438.0,0.0,0.0,0.0,0.0,0.0,0.0,0.0,0.0
2721488828,8,1478.0,1432.0,1470.0,1427.0,1471.0,1434.0,1479.0,1439.0,0.0,0.0,0.0,0.0,0.0,0.0,0.0,0.0
2721528821,8,1478.0,1433.0,1471.0,1429.0,1472.0,1434.0,1479.0,1439.0,0.0,0.0,0.0,0.0,0.0,0.0,0.0,0.0
2721572706,8,1477.0,1433.0,1470.0,1429.0,1470.0,1434.0,1477.0,1439.0,0.0,0.0,0.0,0.0,0.0,0.0,0.0,0.0
2721612702,8,1475.0,1428.0,1465.0,1425.0,1471.0,1436.0,1481.0,1439.0,0.0,0.0,0.0,0.0,0.0,0.0,0.0,0.0
2721656810,8,1477.0,1428.0,1468.0,1426.0,1473.0,1436.0,1482.0,1438.0,0.0,0.0,0.0,0.0,0.0,0.0,0.0,0.0
2721697657,8,1476.0,1429.0,1464.0,1423.0,1468.0,1434.0,1480.0,1440.0,0.0,0.0,0.0,0.0,0.0,0.0,0.0,0.0
2721741549,8,1479.0,1429.0,1467.0,1422.0,1469.0,1432.0,1481.0,1439.0,0.0,0.0,0.0,0.0,0.0,0.0,0.0,0.0
2721781630,8,1478.0,1427.0,1464.0,1421.0,1470.0,1434.0,1483.0,1440.0,0.0,0.0,0.0,0.0,0.0,0.0,0.0,0.0
2721821635,8,1478.0,1430.0,1465.0,1421.0,1466.0,1431.0,1479.0,1440.0,0.0,0.0,0.0,0.0,0.0,0.0,0.0,0.0
2721861501,8,1480.0,1435.0,1469.0,1424.0,1465.0,1429.0,1476.0,1440.0,0.0,0.0,0.0,0.0,0.0,0.0,0.0,0.0
2721905613,8,1482.0,1434.0,1469.0,1423.0,1466.0,1429.0,1479.0,1440.0,0.0,0.0,0.0,0.0,0.0,0.0,0.0,0.0
2721945593,8,1480.0,1435.0,1470.0,1425.0,1465.0,1429.0,1476.0,1440.0,0.0,0.0,0.0,0.0,0.0,0.0,0.0,0.0
2721986446,8,1481.0,1432.0,1468.0,1421.0,1465.0,1428.0,1478.0,1439.0,0.0,0.0,0.0,0.0,0.0,0.0,0.0,0.0
2722026458,8,1480.0,1431.0,1468.0,1422.0,1467.0,1429.0,1479.0,1439.0,0.0,0.0,0.0,0.0,0.0,0.0,0.0,0.0
2722070416,8,1480.0,1435.0,1468.0,1424.0,1464.0,1430.0,1476.0,1441.0,0.0,0.0,0.0,0.0,0.0,0.0,0.0,0.0
2722110309,8,1479.0,1437.0,1471.0,1427.0,1466.0,1429.0,1474.0,1439.0,0.0,0.0,0.0,0.0,0.0,0.0,0.0,0.0
2722154510,8,1477.0,1431.0,1466.0,1424.0,1467.0,1432.0,1478.0,1439.0,0.0,0.0,0.0,0.0,0.0,0.0,0.0,0.0
2722194460,8,1477.0,1434.0,1466.0,1426.0,1465.0,1433.0,1475.0,1441.0,0.0,0.0,0.0,0.0,0.0,0.0,0.0,0.0
2722238429,8,1479.0,1433.0,1469.0,1425.0,1468.0,1430.0,1477.0,1438.0,0.0,0.0,0.0,0.0,0.0,0.0,0.0,0.0
2722279143,8,1477.0,1431.0,1467.0,1424.0,1467.0,1431.0,1477.0,1438.0,0.0,0.0,0.0,0.0,0.0,0.0,0.0,0.0
2722319253,8,1479.0,1432.0,1466.0,1422.0,1466.0,1431.0,1479.0,1440.0,0.0,0.0,0.0,0.0,0.0,0.0,0.0,0.0
2722359235,8,1477.0,1431.0,1465.0,1423.0,1466.0,1431.0,1477.0,1439.0,0.0,0.0,0.0,0.0,0.0,0.0,0.0,0.0
2722403287,8,1479.0,1431.0,1470.0,1424.0,1469.0,1429.0,1478.0,1437.0,0.0,0.0,0.0,0.0,0.0,0.0,0.0,0.0
2722447280,8,1479.0,1436.0,1471.0,1427.0,1467.0,1430.0,1475.0,1439.0,0.0,0.0,0.0,0.0,0.0,0.0,0.0,0.0
2722487290,8,1479.0,1436.0,1472.0,1427.0,1467.0,1429.0,1474.0,1438.0,0.0,0.0,0.0,0.0,0.0,0.0,0.0,0.0
2722531984,8,1478.0,1436.0,1470.0,1427.0,1465.0,1430.0,1473.0,1439.0,0.0,0.0,0.0,0.0,0.0,0.0,0.0,0.0
2722572130,8,1477.0,1434.0,1468.0,1426.0,1467.0,1432.0,1476.0,1439.0,0.0,0.0,0.0,0.0,0.0,0.0,0.0,0.0
2722612053,8,1477.0,1434.0,1468.0,1426.0,1466.0,1430.0,1475.0,1438.0,0.0,0.0,0.0,0.0,0.0,0.0,0.0,0.0
2722655893,8,1475.0,1430.0,1464.0,1423.0,1464.0,1430.0,1475.0,1437.0,0.0,0.0,0.0,0.0,0.0,0.0,0.0,0.0
2722700010,8,1474.0,1431.0,1465.0,1424.0,1464.0,1430.0,1473.0,1437.0,0.0,0.0,0.0,0.0,0.0,0.0,0.0,0.0
2722740089,8,1475.0,1433.0,1467.0,1427.0,1467.0,1433.0,1475.0,1439.0,0.0,0.0,0.0,0.0,0.0,0.0,0.0,0.0
2722780830,8,1474.0,1435.0,1468.0,1429.0,1465.0,1431.0,1472.0,1438.0,0.0,0.0,0.0,0.0,0.0,0.0,0.0,0.0
2722820842,8,1474.0,1432.0,1467.0,1427.0,1467.0,1433.0,1475.0,1438.0,0.0,0.0,0.0,0.0,0.0,0.0,0.0,0.0
2722864696,8,1474.0,1436.0,1468.0,1430.0,1466.0,1433.0,1472.0,1439.0,0.0,0.0,0.0,0.0,0.0,0.0,0.0,0.0
2722904701,8,1474.0,1433.0,1468.0,1428.0,1467.0,1432.0,1473.0,1437.0,0.0,0.0,0.0,0.0,0.0,0.0,0.0,0.0
2722948840,8,1472.0,1435.0,1465.0,1429.0,1464.0,1433.0,1471.0,1439.0,0.0,0.0,0.0,0.0,0.0,0.0,0.0,0.0
2722988865,8,1476.0,1437.0,1469.0,1429.0,1466.0,1432.0,1473.0,1439.0,0.0,0.0,0.0,0.0,0.0,0.0,0.0,0.0
2723032702,8,1472.0,1435.0,1463.0,1429.0,1464.0,1437.0,1473.0,1442.0,0.0,0.0,0.0,0.0,0.0,0.0,0.0,0.0
2723073501,8,1474.0,1435.0,1465.0,1428.0,1465.0,1434.0,1473.0,1440.0,0.0,0.0,0.0,0.0,0.0,0.0,0.0,0.0
2723113514,8,1474.0,1432.0,1465.0,1426.0,1466.0,1433.0,1475.0,1439.0,0.0,0.0,0.0,0.0,0.0,0.0,0.0,0.0
2723157604,8,1471.0,1432.0,1462.0,1428.0,1464.0,1436.0,1474.0,1441.0,0.0,0.0,0.0,0.0,0.0,0.0,0.0,0.0
2723197648,8,1472.0,1434.0,1463.0,1427.0,1463.0,1433.0,1472.0,1440.0,0.0,0.0,0.0,0.0,0.0,0.0,0.0,0.0
2723241495,8,1471.0,1431.0,1461.0,1426.0,1464.0,1435.0,1474.0,1440.0,0.0,0.0,0.0,0.0,0.0,0.0,0.0,0.0
2723281499,8,1472.0,1431.0,1461.0,1426.0,1465.0,1436.0,1475.0,1441.0,0.0,0.0,0.0,0.0,0.0,0.0,0.0,0.0
2723326448,8,1471.0,1430.0,1460.0,1425.0,1465.0,1437.0,1476.0,1442.0,0.0,0.0,0.0,0.0,0.0,0.0,0.0,0.0
2723366410,8,1474.0,1433.0,1464.0,1427.0,1464.0,1434.0,1474.0,1441.0,0.0,0.0,0.0,0.0,0.0,0.0,0.0,0.0
2723410298,8,1472.0,1435.0,1463.0,1429.0,1464.0,1436.0,1473.0,1442.0,0.0,0.0,0.0,0.0,0.0,0.0,0.0,0.0
2723454442,8,1473.0,1431.0,1463.0,1426.0,1467.0,1436.0,1477.0,1441.0,0.0,0.0,0.0,0.0,0.0,0.0,0.0,0.0
2723498457,8,1478.0,1433.0,1469.0,1427.0,1468.0,1432.0,1477.0,1438.0,0.0,0.0,0.0,0.0,0.0,0.0,0.0,0.0
2723538316,8,1473.0,1429.0,1461.0,1426.0,1468.0,1439.0,1480.0,1443.0,0.0,0.0,0.0,0.0,0.0,0.0,0.0,0.0
2723579253,8,1473.0,1434.0,1465.0,1428.0,1466.0,1435.0,1474.0,1440.0,0.0,0.0,0.0,0.0,0.0,0.0,0.0,0.0
2723623240,8,1474.0,1431.0,1465.0,1427.0,1468.0,1435.0,1476.0,1439.0,0.0,0.0,0.0,0.0,0.0,0.0,0.0,0.0
2723663238,8,1473.0,1432.0,1466.0,1430.0,1470.0,1439.0,1478.0,1441.0,0.0,0.0,0.0,0.0,0.0,0.0,0.0,0.0
2723703123,8,1472.0,1431.0,1464.0,1428.0,1467.0,1435.0,1474.0,1439.0,0.0,0.0,0.0,0.0,0.0,0.0,0.0,0.0
2723747307,8,1473.0,1431.0,1467.0,1428.0,1469.0,1434.0,1476.0,1437.0,0.0,0.0,0.0,0.0,0.0,0.0,0.0,0.0
2723791232,8,1473.0,1434.0,1468.0,1430.0,1468.0,1434.0,1473.0,1438.0,0.0,0.0,0.0,0.0,0.0,0.0,0.0,0.0
2723832045,8,1475.0,1432.0,1468.0,1429.0,1470.0,1435.0,1477.0,1439.0,0.0,0.0,0.0,0.0,0.0,0.0,0.0,0.0
2723875903,8,1473.0,1434.0,1468.0,1431.0,1469.0,1435.0,1474.0,1438.0,0.0,0.0,0.0,0.0,0.0,0.0,0.0,0.0
2723915918,8,1474.0,1432.0,1466.0,1428.0,1468.0,1434.0,1475.0,1438.0,0.0,0.0,0.0,0.0,0.0,0.0,0.0,0.0
2723956054,8,1475.0,1433.0,1467.0,1428.0,1469.0,1435.0,1476.0,1439.0,0.0,0.0,0.0,0.0,0.0,0.0,0.0,0.0
2723996022,8,1473.0,1434.0,1466.0,1430.0,1467.0,1435.0,1474.0,1439.0,0.0,0.0,0.0,0.0,0.0,0.0,0.0,0.0
2724040080,8,1472.0,1434.0,1465.0,1430.0,1467.0,1436.0,1474.0,1440.0,0.0,0.0,0.0,0.0,0.0,0.0,0.0,0.0
2724080050,8,1472.0,1432.0,1464.0,1428.0,1467.0,1437.0,1476.0,1440.0,0.0,0.0,0.0,0.0,0.0,0.0,0.0,0.0
2724124700,8,1468.0,1429.0,1458.0,1428.0,1466.0,1441.0,1477.0,1442.0,0.0,0.0,0.0,0.0,0.0,0.0,0.0,0.0
2724164702,8,1475.0,1434.0,1467.0,1428.0,1467.0,1434.0,1475.0,1440.0,0.0,0.0,0.0,0.0,0.0,0.0,0.0,0.0
2724204898,8,1474.0,1433.0,1464.0,1428.0,1468.0,1438.0,1478.0,1443.0,0.0,0.0,0.0,0.0,0.0,0.0,0.0,0.0
2724248788,8,1474.0,1434.0,1464.0,1429.0,1466.0,1438.0,1476.0,1443.0,0.0,0.0,0.0,0.0,0.0,0.0,0.0,0.0
2724292712,8,1473.0,1434.0,1462.0,1428.0,1465.0,1438.0,1476.0,1444.0,0.0,0.0,0.0,0.0,0.0,0.0,0.0,0.0
2724336789,8,1473.0,1433.0,1461.0,1427.0,1464.0,1439.0,1477.0,1445.0,0.0,0.0,0.0,0.0,0.0,0.0,0.0,0.0
2724380804,8,1473.0,1431.0,1461.0,1426.0,1466.0,1439.0,1479.0,1444.0,0.0,0.0,0.0,0.0,0.0,0.0,0.0,0.0
2724421636,8,1475.0,1435.0,1465.0,1430.0,1469.0,1440.0,1478.0,1444.0,0.0,0.0,0.0,0.0,0.0,0.0,0.0,0.0
2724461600,8,1475.0,1436.0,1464.0,1430.0,1466.0,1438.0,1476.0,1444.0,0.0,0.0,0.0,0.0,0.0,0.0,0.0,0.0
2724505498,8,1475.0,1434.0,1464.0,1428.0,1467.0,1438.0,1478.0,1444.0,0.0,0.0,0.0,0.0,0.0,0.0,0.0,0.0
2724545604,8,1472.0,1431.0,1461.0,1428.0,1468.0,1441.0,1479.0,1444.0,0.0,0.0,0.0,0.0,0.0,0.0,0.0,0.0
2724589539,8,1476.0,1429.0,1465.0,1426.0,1471.0,1438.0,1482.0,1441.0,0.0,0.0,0.0,0.0,0.0,0.0,0.0,0.0
2724629507,8,1475.0,1430.0,1460.0,1424.0,1467.0,1440.0,1482.0,1445.0,0.0,0.0,0.0,0.0,0.0,0.0,0.0,0.0
2724674421,8,1475.0,1429.0,1461.0,1424.0,1469.0,1439.0,1483.0,1444.0,0.0,0.0,0.0,0.0,0.0,0.0,0.0,0.0
2724714445,8,1477.0,1431.0,1464.0,1426.0,1469.0,1438.0,1482.0,1444.0,0.0,0.0,0.0,0.0,0.0,0.0,0.0,0.0
2724754309,8,1477.0,1432.0,1465.0,1427.0,1469.0,1438.0,1481.0,1444.0,0.0,0.0,0.0,0.0,0.0,0.0,0.0,0.0
2724798329,8,1477.0,1433.0,1466.0,1428.0,1470.0,1439.0,1481.0,1444.0,0.0,0.0,0.0,0.0,0.0,0.0,0.0,0.0
2724842469,8,1476.0,1432.0,1463.0,1427.0,1469.0,1440.0,1481.0,1444.0,0.0,0.0,0.0,0.0,0.0,0.0,0.0,0.0
2724882398,8,1477.0,1433.0,1468.0,1428.0,1471.0,1437.0,1480.0,1442.0,0.0,0.0,0.0,0.0,0.0,0.0,0.0,0.0
2724923261,8,1476.0,1432.0,1466.0,1428.0,1471.0,1439.0,1481.0,1443.0,0.0,0.0,0.0,0.0,0.0,0.0,0.0,0.0
2724963231,8,1479.0,1432.0,1466.0,1426.0,1470.0,1438.0,1483.0,1444.0,0.0,0.0,0.0,0.0,0.0,0.0,0.0,0.0
2725007306,8,1478.0,1430.0,1464.0,1425.0,1470.0,1439.0,1484.0,1444.0,0.0,0.0,0.0,0.0,0.0,0.0,0.0,0.0
2725047315,8,1479.0,1434.0,1467.0,1427.0,1468.0,1437.0,1481.0,1445.0,0.0,0.0,0.0,0.0,0.0,0.0,0.0,0.0
2725091222,8,1481.0,1433.0,1468.0,1425.0,1469.0,1435.0,1482.0,1443.0,0.0,0.0,0.0,0.0,0.0,0.0,0.0,0.0
2725131142,8,1480.0,1431.0,1466.0,1425.0,1471.0,1438.0,1485.0,1444.0,0.0,0.0,0.0,0.0,0.0,0.0,0.0,0.0
2725175287,8,1482.0,1436.0,1471.0,1428.0,1471.0,1435.0,1482.0,1444.0,0.0,0.0,0.0,0.0,0.0,0.0,0.0,0.0
2725216053,8,1481.0,1430.0,1465.0,1422.0,1470.0,1436.0,1485.0,1444.0,0.0,0.0,0.0,0.0,0.0,0.0,0.0,0.0
2725256087,8,1479.0,1430.0,1463.0,1423.0,1469.0,1439.0,1485.0,1446.0,0.0,0.0,0.0,0.0,0.0,0.0,0.0,0.0
2725299935,8,1481.0,1434.0,1467.0,1425.0,1469.0,1436.0,1483.0,1444.0,0.0,0.0,0.0,0.0,0.0,0.0,0.0,0.0
2725340067,8,1480.0,1431.0,1466.0,1422.0,1467.0,1433.0,1481.0,1442.0,0.0,0.0,0.0,0.0,0.0,0.0,0.0,0.0
2725384064,8,1478.0,1431.0,1464.0,1422.0,1466.0,1433.0,1480.0,1442.0,0.0,0.0,0.0,0.0,0.0,0.0,0.0,0.0
2725424063,8,1481.0,1434.0,1468.0,1424.0,1467.0,1433.0,1480.0,1443.0,0.0,0.0,0.0,0.0,0.0,0.0,0.0,0.0
2725468706,8,1478.0,1431.0,1464.0,1422.0,1465.0,1432.0,1479.0,1442.0,0.0,0.0,0.0,0.0,0.0,0.0,0.0,0.0
2725508797,8,1480.0,1432.0,1466.0,1423.0,1466.0,1432.0,1480.0,1442.0,0.0,0.0,0.0,0.0,0.0,0.0,0.0,0.0
2725548822,8,1478.0,1433.0,1466.0,1426.0,1468.0,1436.0,1480.0,1443.0,0.0,0.0,0.0,0.0,0.0,0.0,0.0,0.0
2725588808,8,1477.0,1436.0,1466.0,1427.0,1464.0,1433.0,1475.0,1442.0,0.0,0.0,0.0,0.0,0.0,0.0,0.0,0.0
2725632862,8,1478.0,1432.0,1466.0,1424.0,1466.0,1433.0,1478.0,1441.0,0.0,0.0,0.0,0.0,0.0,0.0,0.0,0.0
2725672851,8,1478.0,1431.0,1465.0,1424.0,1467.0,1434.0,1480.0,1442.0,0.0,0.0,0.0,0.0,0.0,0.0,0.0,0.0
2725717491,8,1478.0,1432.0,1465.0,1423.0,1466.0,1434.0,1479.0,1442.0,0.0,0.0,0.0,0.0,0.0,0.0,0.0,0.0
2725757608,8,1480.0,1433.0,1468.0,1423.0,1466.0,1430.0,1479.0,1440.0,0.0,0.0,0.0,0.0,0.0,0.0,0.0,0.0
2725801647,8,1481.0,1436.0,1470.0,1424.0,1465.0,1429.0,1476.0,1440.0,0.0,0.0,0.0,0.0,0.0,0.0,0.0,0.0
2725841624,8,1480.0,1430.0,1466.0,1422.0,1468.0,1433.0,1481.0,1441.0,0.0,0.0,0.0,0.0,0.0,0.0,0.0,0.0
2725885527,8,1479.0,1430.0,1466.0,1422.0,1467.0,1432.0,1480.0,1440.0,0.0,0.0,0.0,0.0,0.0,0.0,0.0,0.0
2725925498,8,1480.0,1431.0,1470.0,1423.0,1469.0,1430.0,1480.0,1438.0,0.0,0.0,0.0,0.0,0.0,0.0,0.0,0.0
2725966391,8,1476.0,1426.0,1460.0,1419.0,1466.0,1436.0,1482.0,1442.0,0.0,0.0,0.0,0.0,0.0,0.0,0.0,0.0
2726010401,8,1478.0,1427.0,1464.0,1420.0,1469.0,1434.0,1483.0,1440.0,0.0,0.0,0.0,0.0,0.0,0.0,0.0,0.0
2726050423,8,1481.0,1427.0,1467.0,1419.0,1469.0,1429.0,1482.0,1438.0,0.0,0.0,0.0,0.0,0.0,0.0,0.0,0.0
2726094295,8,1481.0,1427.0,1467.0,1419.0,1468.0,1430.0,1483.0,1438.0,0.0,0.0,0.0,0.0,0.0,0.0,0.0,0.0
2726134443,8,1479.0,1429.0,1466.0,1421.0,1468.0,1432.0,1481.0,1440.0,0.0,0.0,0.0,0.0,0.0,0.0,0.0,0.0
2726178408,8,1477.0,1425.0,1462.0,1419.0,1468.0,1434.0,1483.0,1440.0,0.0,0.0,0.0,0.0,0.0,0.0,0.0,0.0
2726218460,8,1479.0,1426.0,1465.0,1419.0,1470.0,1433.0,1484.0,1440.0,0.0,0.0,0.0,0.0,0.0,0.0,0.0,0.0
2726263121,8,1479.0,1425.0,1464.0,1421.0,1472.0,1437.0,1487.0,1441.0,0.0,0.0,0.0,0.0,0.0,0.0,0.0,0.0
2726303107,8,1480.0,1427.0,1468.0,1420.0,1470.0,1431.0,1483.0,1438.0,0.0,0.0,0.0,0.0,0.0,0.0,0.0,0.0
2726347283,8,1478.0,1426.0,1464.0,1421.0,1470.0,1434.0,1484.0,1440.0,0.0,0.0,0.0,0.0,0.0,0.0,0.0,0.0
2726387293,8,1478.0,1428.0,1465.0,1423.0,1471.0,1437.0,1484.0,1442.0,0.0,0.0,0.0,0.0,0.0,0.0,0.0,0.0
2726431107,8,1476.0,1422.0,1462.0,1420.0,1473.0,1438.0,1487.0,1440.0,0.0,0.0,0.0,0.0,0.0,0.0,0.0,0.0
2726471109,8,1476.0,1420.0,1458.0,1415.0,1468.0,1436.0,1487.0,1441.0,0.0,0.0,0.0,0.0,0.0,0.0,0.0,0.0
2726511910,8,1478.0,1424.0,1461.0,1419.0,1470.0,1437.0,1487.0,1443.0,0.0,0.0,0.0,0.0,0.0,0.0,0.0,0.0
2726556053,8,1479.0,1421.0,1461.0,1415.0,1470.0,1434.0,1488.0,1440.0,0.0,0.0,0.0,0.0,0.0,0.0,0.0,0.0
2726596005,8,1477.0,1425.0,1460.0,1418.0,1468.0,1436.0,1485.0,1442.0,0.0,0.0,0.0,0.0,0.0,0.0,0.0,0.0
2726640021,8,1478.0,1427.0,1462.0,1419.0,1467.0,1434.0,1483.0,1442.0,0.0,0.0,0.0,0.0,0.0,0.0,0.0,0.0
2726679899,8,1477.0,1425.0,1461.0,1418.0,1467.0,1435.0,1484.0,1442.0,0.0,0.0,0.0,0.0,0.0,0.0,0.0,0.0
2726724048,8,1478.0,1424.0,1461.0,1417.0,1468.0,1435.0,1486.0,1442.0,0.0,0.0,0.0,0.0,0.0,0.0,0.0,0.0
2726764021,8,1476.0,1426.0,1461.0,1420.0,1468.0,1436.0,1483.0,1442.0,0.0,0.0,0.0,0.0,0.0,0.0,0.0,0.0
2726808031,8,1478.0,1426.0,1461.0,1418.0,1467.0,1434.0,1484.0,1442.0,0.0,0.0,0.0,0.0,0.0,0.0,0.0,0.0
2726848833,8,1478.0,1428.0,1462.0,1420.0,1467.0,1435.0,1483.0,1443.0,0.0,0.0,0.0,0.0,0.0,0.0,0.0,0.0
2726892866,8,1477.0,1424.0,1459.0,1417.0,1467.0,1435.0,1485.0,1442.0,0.0,0.0,0.0,0.0,0.0,0.0,0.0,0.0
2726932864,8,1478.0,1423.0,1459.0,1415.0,1467.0,1435.0,1486.0,1442.0,0.0,0.0,0.0,0.0,0.0,0.0,0.0,0.0
2726972876,8,1478.0,1426.0,1462.0,1419.0,1468.0,1434.0,1484.0,1442.0,0.0,0.0,0.0,0.0,0.0,0.0,0.0,0.0
2727012867,8,1476.0,1421.0,1459.0,1416.0,1469.0,1436.0,1487.0,1441.0,0.0,0.0,0.0,0.0,0.0,0.0,0.0,0.0
2727056813,8,1482.0,1425.0,1468.0,1418.0,1473.0,1431.0,1486.0,1438.0,0.0,0.0,0.0,0.0,0.0,0.0,0.0,0.0
2727097604,8,1480.0,1425.0,1465.0,1418.0,1469.0,1430.0,1483.0,1438.0,0.0,0.0,0.0,0.0,0.0,0.0,0.0,0.0
2727141653,8,1481.0,1429.0,1468.0,1420.0,1468.0,1430.0,1481.0,1439.0,0.0,0.0,0.0,0.0,0.0,0.0,0.0,0.0
2727181646,8,1477.0,1423.0,1461.0,1416.0,1466.0,1431.0,1483.0,1439.0,0.0,0.0,0.0,0.0,0.0,0.0,0.0,0.0
2727225506,8,1478.0,1421.0,1462.0,1415.0,1469.0,1431.0,1485.0,1438.0,0.0,0.0,0.0,0.0,0.0,0.0,0.0,0.0
2727265628,8,1479.0,1423.0,1463.0,1415.0,1468.0,1429.0,1484.0,1437.0,0.0,0.0,0.0,0.0,0.0,0.0,0.0,0.0
2727306312,8,1480.0,1423.0,1462.0,1413.0,1466.0,1429.0,1484.0,1438.0,0.0,0.0,0.0,0.0,0.0,0.0,0.0,0.0
2727350452,8,1479.0,1423.0,1462.0,1414.0,1466.0,1428.0,1483.0,1438.0,0.0,0.0,0.0,0.0,0.0,0.0,0.0,0.0
2727394431,8,1479.0,1419.0,1462.0,1412.0,1469.0,1429.0,1486.0,1436.0,0.0,0.0,0.0,0.0,0.0,0.0,0.0,0.0
2727434308,8,1479.0,1422.0,1464.0,1414.0,1468.0,1428.0,1483.0,1436.0,0.0,0.0,0.0,0.0,0.0,0.0,0.0,0.0
2727474298,8,1481.0,1422.0,1468.0,1415.0,1472.0,1427.0,1485.0,1434.0,0.0,0.0,0.0,0.0,0.0,0.0,0.0,0.0
2727518419,8,1481.0,1427.0,1470.0,1419.0,1470.0,1427.0,1481.0,1434.0,0.0,0.0,0.0,0.0,0.0,0.0,0.0,0.0
2727558477,8,1479.0,1424.0,1466.0,1416.0,1468.0,1426.0,1481.0,1434.0,0.0,0.0,0.0,0.0,0.0,0.0,0.0,0.0
2727602435,8,1478.0,1420.0,1464.0,1414.0,1470.0,1430.0,1485.0,1435.0,0.0,0.0,0.0,0.0,0.0,0.0,0.0,0.0
2727643102,8,1481.0,1419.0,1465.0,1412.0,1471.0,1427.0,1486.0,1434.0,0.0,0.0,0.0,0.0,0.0,0.0,0.0,0.0
2727687280,8,1482.0,1418.0,1467.0,1412.0,1473.0,1427.0,1488.0,1433.0,0.0,0.0,0.0,0.0,0.0,0.0,0.0,0.0
2727727280,8,1483.0,1422.0,1471.0,1414.0,1473.0,1425.0,1486.0,1432.0,0.0,0.0,0.0,0.0,0.0,0.0,0.0,0.0
2727771126,8,1484.0,1419.0,1472.0,1412.0,1474.0,1422.0,1486.0,1429.0,0.0,0.0,0.0,0.0,0.0,0.0,0.0,0.0
2727811116,8,1483.0,1418.0,1469.0,1411.0,1474.0,1424.0,1488.0,1431.0,0.0,0.0,0.0,0.0,0.0,0.0,0.0,0.0
2727856009,8,1483.0,1420.0,1470.0,1411.0,1471.0,1422.0,1485.0,1431.0,0.0,0.0,0.0,0.0,0.0,0.0,0.0,0.0
2727895919,8,1486.0,1421.0,1473.0,1412.0,1473.0,1421.0,1486.0,1430.0,0.0,0.0,0.0,0.0,0.0,0.0,0.0,0.0
2727939914,8,1486.0,1416.0,1470.0,1408.0,1475.0,1423.0,1491.0,1430.0,0.0,0.0,0.0,0.0,0.0,0.0,0.0,0.0
2727979889,8,1484.0,1414.0,1469.0,1407.0,1475.0,1421.0,1490.0,1428.0,0.0,0.0,0.0,0.0,0.0,0.0,0.0,0.0
2728023995,8,1486.0,1417.0,1470.0,1408.0,1473.0,1421.0,1489.0,1431.0,0.0,0.0,0.0,0.0,0.0,0.0,0.0,0.0
2728063999,8,1487.0,1416.0,1470.0,1408.0,1475.0,1422.0,1491.0,1431.0,0.0,0.0,0.0,0.0,0.0,0.0,0.0,0.0
2728107911,8,1489.0,1417.0,1473.0,1407.0,1475.0,1419.0,1491.0,1429.0,0.0,0.0,0.0,0.0,0.0,0.0,0.0,0.0
2728147893,8,1488.0,1420.0,1474.0,1410.0,1475.0,1421.0,1489.0,1430.0,0.0,0.0,0.0,0.0,0.0,0.0,0.0,0.0
2728188795,8,1487.0,1416.0,1469.0,1406.0,1473.0,1421.0,1490.0,1431.0,0.0,0.0,0.0,0.0,0.0,0.0,0.0,0.0
2728228706,8,1490.0,1418.0,1473.0,1407.0,1474.0,1420.0,1491.0,1431.0,0.0,0.0,0.0,0.0,0.0,0.0,0.0,0.0
2728272857,8,1490.0,1419.0,1473.0,1407.0,1473.0,1419.0,1490.0,1431.0,0.0,0.0,0.0,0.0,0.0,0.0,0.0,0.0
2728316857,8,1488.0,1418.0,1470.0,1407.0,1473.0,1422.0,1492.0,1433.0,0.0,0.0,0.0,0.0,0.0,0.0,0.0,0.0
2728356711,8,1487.0,1419.0,1469.0,1408.0,1472.0,1424.0,1491.0,1434.0,0.0,0.0,0.0,0.0,0.0,0.0,0.0,0.0
2728400839,8,1488.0,1425.0,1471.0,1411.0,1467.0,1420.0,1484.0,1435.0,0.0,0.0,0.0,0.0,0.0,0.0,0.0,0.0
2728441660,8,1490.0,1424.0,1473.0,1411.0,1472.0,1423.0,1489.0,1435.0,0.0,0.0,0.0,0.0,0.0,0.0,0.0,0.0
2728485495,8,1486.0,1421.0,1465.0,1409.0,1469.0,1426.0,1489.0,1438.0,0.0,0.0,0.0,0.0,0.0,0.0,0.0,0.0
2728525661,8,1487.0,1425.0,1468.0,1411.0,1467.0,1424.0,1486.0,1438.0,0.0,0.0,0.0,0.0,0.0,0.0,0.0,0.0
2728569677,8,1485.0,1424.0,1465.0,1410.0,1466.0,1425.0,1487.0,1439.0,0.0,0.0,0.0,0.0,0.0,0.0,0.0,0.0
2728613626,8,1485.0,1424.0,1466.0,1411.0,1467.0,1425.0,1486.0,1438.0,0.0,0.0,0.0,0.0,0.0,0.0,0.0,0.0
2728653683,8,1487.0,1429.0,1470.0,1415.0,1466.0,1425.0,1483.0,1439.0,0.0,0.0,0.0,0.0,0.0,0.0,0.0,0.0
2728694294,8,1486.0,1427.0,1468.0,1414.0,1467.0,1426.0,1485.0,1438.0,0.0,0.0,0.0,0.0,0.0,0.0,0.0,0.0
2728738459,8,1481.0,1428.0,1463.0,1416.0,1464.0,1429.0,1482.0,1441.0,0.0,0.0,0.0,0.0,0.0,0.0,0.0,0.0
2728778317,8,1481.0,1427.0,1463.0,1415.0,1463.0,1428.0,1481.0,1441.0,0.0,0.0,0.0,0.0,0.0,0.0,0.0,0.0
2728818301,8,1484.0,1430.0,1465.0,1416.0,1464.0,1428.0,1482.0,1442.0,0.0,0.0,0.0,0.0,0.0,0.0,0.0,0.0
2728862423,8,1483.0,1432.0,1467.0,1418.0,1464.0,1429.0,1481.0,1442.0,0.0,0.0,0.0,0.0,0.0,0.0,0.0,0.0
2728902474,8,1481.0,1429.0,1463.0,1417.0,1463.0,1429.0,1481.0,1441.0,0.0,0.0,0.0,0.0,0.0,0.0,0.0,0.0
2728946415,8,1480.0,1426.0,1461.0,1415.0,1465.0,1432.0,1485.0,1443.0,0.0,0.0,0.0,0.0,0.0,0.0,0.0,0.0
2728987221,8,1479.0,1431.0,1466.0,1422.0,1466.0,1432.0,1479.0,1441.0,0.0,0.0,0.0,0.0,0.0,0.0,0.0,0.0
2729031232,8,1482.0,1427.0,1467.0,1418.0,1469.0,1430.0,1484.0,1439.0,0.0,0.0,0.0,0.0,0.0,0.0,0.0,0.0
2729071098,8,1477.0,1425.0,1460.0,1418.0,1467.0,1435.0,1484.0,1442.0,0.0,0.0,0.0,0.0,0.0,0.0,0.0,0.0
2729115116,8,1477.0,1425.0,1461.0,1418.0,1467.0,1433.0,1483.0,1441.0,0.0,0.0,0.0,0.0,0.0,0.0,0.0,0.0
2729155122,8,1481.0,1427.0,1466.0,1418.0,1468.0,1431.0,1484.0,1439.0,0.0,0.0,0.0,0.0,0.0,0.0,0.0,0.0
2729195910,8,1479.0,1426.0,1461.0,1419.0,1469.0,1436.0,1486.0,1443.0,0.0,0.0,0.0,0.0,0.0,0.0,0.0,0.0
2729240021,8,1481.0,1424.0,1464.0,1416.0,1470.0,1432.0,1487.0,1440.0,0.0,0.0,0.0,0.0,0.0,0.0,0.0,0.0
2729283893,8,1480.0,1428.0,1463.0,1418.0,1466.0,1433.0,1483.0,1443.0,0.0,0.0,0.0,0.0,0.0,0.0,0.0,0.0
2729323901,8,1482.0,1429.0,1467.0,1419.0,1469.0,1431.0,1484.0,1441.0,0.0,0.0,0.0,0.0,0.0,0.0,0.0,0.0
2729368055,8,1481.0,1424.0,1463.0,1416.0,1469.0,1434.0,1488.0,1442.0,0.0,0.0,0.0,0.0,0.0,0.0,0.0,0.0
2729407941,8,1483.0,1424.0,1464.0,1416.0,1471.0,1435.0,1490.0,1443.0,0.0,0.0,0.0,0.0,0.0,0.0,0.0,0.0
2729447896,8,1480.0,1423.0,1462.0,1415.0,1469.0,1433.0,1488.0,1441.0,0.0,0.0,0.0,0.0,0.0,0.0,0.0,0.0
2729492713,8,1484.0,1427.0,1467.0,1417.0,1470.0,1431.0,1487.0,1441.0,0.0,0.0,0.0,0.0,0.0,0.0,0.0,0.0
2729532773,8,1484.0,1425.0,1466.0,1416.0,1472.0,1433.0,1489.0,1441.0,0.0,0.0,0.0,0.0,0.0,0.0,0.0,0.0
2729576862,8,1483.0,1422.0,1463.0,1413.0,1470.0,1432.0,1490.0,1441.0,0.0,0.0,0.0,0.0,0.0,0.0,0.0,0.0
2729616817,8,1485.0,1424.0,1466.0,1414.0,1470.0,1430.0,1489.0,1441.0,0.0,0.0,0.0,0.0,0.0,0.0,0.0,0.0
2729660818,8,1484.0,1427.0,1465.0,1416.0,1469.0,1432.0,1488.0,1443.0,0.0,0.0,0.0,0.0,0.0,0.0,0.0,0.0
2729700797,8,1485.0,1426.0,1466.0,1415.0,1470.0,1431.0,1489.0,1442.0,0.0,0.0,0.0,0.0,0.0,0.0,0.0,0.0
2729745675,8,1486.0,1421.0,1464.0,1412.0,1472.0,1432.0,1493.0,1442.0,0.0,0.0,0.0,0.0,0.0,0.0,0.0,0.0
2729785659,8,1485.0,1422.0,1464.0,1413.0,1471.0,1433.0,1492.0,1443.0,0.0,0.0,0.0,0.0,0.0,0.0,0.0,0.0
2729829502,8,1486.0,1425.0,1465.0,1413.0,1469.0,1431.0,1490.0,1443.0,0.0,0.0,0.0,0.0,0.0,0.0,0.0,0.0
2729869534,8,1486.0,1424.0,1468.0,1415.0,1474.0,1432.0,1492.0,1441.0,0.0,0.0,0.0,0.0,0.0,0.0,0.0,0.0
2729909629,8,1482.0,1420.0,1461.0,1412.0,1470.0,1433.0,1492.0,1441.0,0.0,0.0,0.0,0.0,0.0,0.0,0.0,0.0
2729949637,8,1485.0,1421.0,1464.0,1410.0,1469.0,1428.0,1490.0,1440.0,0.0,0.0,0.0,0.0,0.0,0.0,0.0,0.0
2729993637,8,1488.0,1422.0,1469.0,1411.0,1472.0,1427.0,1491.0,1438.0,0.0,0.0,0.0,0.0,0.0,0.0,0.0,0.0
2730034500,8,1489.0,1426.0,1471.0,1413.0,1472.0,1427.0,1490.0,1439.0,0.0,0.0,0.0,0.0,0.0,0.0,0.0,0.0
2730074448,8,1489.0,1421.0,1470.0,1410.0,1473.0,1426.0,1492.0,1437.0,0.0,0.0,0.0,0.0,0.0,0.0,0.0,0.0
2730114413,8,1489.0,1424.0,1470.0,1412.0,1472.0,1426.0,1491.0,1438.0,0.0,0.0,0.0,0.0,0.0,0.0,0.0,0.0
2730158387,8,1486.0,1422.0,1468.0,1412.0,1472.0,1429.0,1490.0,1439.0,0.0,0.0,0.0,0.0,0.0,0.0,0.0,0.0
2730198399,8,1485.0,1419.0,1465.0,1410.0,1473.0,1431.0,1493.0,1439.0,0.0,0.0,0.0,0.0,0.0,0.0,0.0,0.0
2730242461,8,1486.0,1422.0,1468.0,1414.0,1475.0,1431.0,1492.0,1439.0,0.0,0.0,0.0,0.0,0.0,0.0,0.0,0.0
2730282472,8,1484.0,1421.0,1464.0,1411.0,1470.0,1430.0,1490.0,1439.0,0.0,0.0,0.0,0.0,0.0,0.0,0.0,0.0
2730323266,8,1486.0,1426.0,1470.0,1416.0,1472.0,1429.0,1488.0,1439.0,0.0,0.0,0.0,0.0,0.0,0.0,0.0,0.0
2730367295,8,1486.0,1419.0,1469.0,1411.0,1475.0,1428.0,1492.0,1436.0,0.0,0.0,0.0,0.0,0.0,0.0,0.0,0.0
2730411226,8,1484.0,1422.0,1468.0,1413.0,1471.0,1427.0,1487.0,1436.0,0.0,0.0,0.0,0.0,0.0,0.0,0.0,0.0
2730455109,8,1483.0,1417.0,1465.0,1412.0,1475.0,1431.0,1493.0,1437.0,0.0,0.0,0.0,0.0,0.0,0.0,0.0,0.0
2730495126,8,1485.0,1420.0,1468.0,1412.0,1473.0,1428.0,1490.0,1436.0,0.0,0.0,0.0,0.0,0.0,0.0,0.0,0.0
2730540045,8,1483.0,1418.0,1467.0,1412.0,1475.0,1429.0,1491.0,1436.0,0.0,0.0,0.0,0.0,0.0,0.0,0.0,0.0
2730580029,8,1482.0,1420.0,1465.0,1413.0,1472.0,1431.0,1489.0,1438.0,0.0,0.0,0.0,0.0,0.0,0.0,0.0,0.0
2730623899,8,1486.0,1420.0,1469.0,1412.0,1474.0,1427.0,1491.0,1436.0,0.0,0.0,0.0,0.0,0.0,0.0,0.0,0.0
2730663896,8,1484.0,1419.0,1468.0,1412.0,1474.0,1429.0,1491.0,1436.0,0.0,0.0,0.0,0.0,0.0,0.0,0.0,0.0
2730707989,8,1484.0,1420.0,1466.0,1412.0,1473.0,1430.0,1491.0,1437.0,0.0,0.0,0.0,0.0,0.0,0.0,0.0,0.0
2730747996,8,1483.0,1419.0,1464.0,1411.0,1472.0,1430.0,1491.0,1437.0,0.0,0.0,0.0,0.0,0.0,0.0,0.0,0.0
2730791906,8,1486.0,1422.0,1470.0,1413.0,1473.0,1426.0,1489.0,1436.0,0.0,0.0,0.0,0.0,0.0,0.0,0.0,0.0
2730832712,8,1486.0,1420.0,1469.0,1411.0,1473.0,1426.0,1490.0,1435.0,0.0,0.0,0.0,0.0,0.0,0.0,0.0,0.0
2730872712,8,1486.0,1422.0,1468.0,1412.0,1472.0,1427.0,1489.0,1437.0,0.0,0.0,0.0,0.0,0.0,0.0,0.0,0.0
2730912709,8,1487.0,1421.0,1467.0,1408.0,1470.0,1424.0,1490.0,1436.0,0.0,0.0,0.0,0.0,0.0,0.0,0.0,0.0
2730956826,8,1483.0,1418.0,1461.0,1407.0,1468.0,1428.0,1490.0,1439.0,0.0,0.0,0.0,0.0,0.0,0.0,0.0,0.0
2730996820,8,1487.0,1424.0,1468.0,1410.0,1467.0,1423.0,1487.0,1437.0,0.0,0.0,0.0,0.0,0.0,0.0,0.0,0.0
2731040702,8,1484.0,1422.0,1465.0,1411.0,1468.0,1427.0,1487.0,1438.0,0.0,0.0,0.0,0.0,0.0,0.0,0.0,0.0
2731081496,8,1483.0,1422.0,1462.0,1411.0,1468.0,1430.0,1489.0,1440.0,0.0,0.0,0.0,0.0,0.0,0.0,0.0,0.0
2731121514,8,1485.0,1424.0,1469.0,1413.0,1469.0,1425.0,1485.0,1436.0,0.0,0.0,0.0,0.0,0.0,0.0,0.0,0.0
2731165665,8,1484.0,1417.0,1466.0,1411.0,1474.0,1429.0,1492.0,1436.0,0.0,0.0,0.0,0.0,0.0,0.0,0.0,0.0
2731205638,8,1482.0,1418.0,1464.0,1412.0,1473.0,1431.0,1491.0,1437.0,0.0,0.0,0.0,0.0,0.0,0.0,0.0,0.0
2731249751,8,1482.0,1420.0,1465.0,1412.0,1471.0,1428.0,1488.0,1436.0,0.0,0.0,0.0,0.0,0.0,0.0,0.0,0.0
2731289515,8,1481.0,1417.0,1465.0,1412.0,1473.0,1429.0,1489.0,1435.0,0.0,0.0,0.0,0.0,0.0,0.0,0.0,0.0
2731333632,8,1482.0,1421.0,1467.0,1415.0,1473.0,1429.0,1487.0,1435.0,0.0,0.0,0.0,0.0,0.0,0.0,0.0,0.0
2731374669,8,1482.0,1419.0,1465.0,1411.0,1471.0,1427.0,1488.0,1435.0,0.0,0.0,0.0,0.0,0.0,0.0,0.0,0.0
2731418433,8,1478.0,1415.0,1461.0,1410.0,1471.0,1429.0,1488.0,1434.0,0.0,0.0,0.0,0.0,0.0,0.0,0.0,0.0
2731458423,8,1483.0,1417.0,1467.0,1410.0,1473.0,1426.0,1490.0,1433.0,0.0,0.0,0.0,0.0,0.0,0.0,0.0,0.0
2731502491,8,1484.0,1422.0,1469.0,1413.0,1471.0,1424.0,1486.0,1434.0,0.0,0.0,0.0,0.0,0.0,0.0,0.0,0.0
2731542516,8,1483.0,1422.0,1466.0,1412.0,1469.0,1425.0,1486.0,1435.0,0.0,0.0,0.0,0.0,0.0,0.0,0.0,0.0
2731587317,8,1484.0,1417.0,1464.0,1408.0,1470.0,1426.0,1490.0,1436.0,0.0,0.0,0.0,0.0,0.0,0.0,0.0,0.0
2731627311,8,1485.0,1418.0,1466.0,1409.0,1472.0,1426.0,1491.0,1436.0,0.0,0.0,0.0,0.0,0.0,0.0,0.0,0.0
2731671249,8,1488.0,1422.0,1472.0,1411.0,1472.0,1422.0,1487.0,1433.0,0.0,0.0,0.0,0.0,0.0,0.0,0.0,0.0
2731711142,8,1487.0,1423.0,1474.0,1412.0,1473.0,1421.0,1486.0,1431.0,0.0,0.0,0.0,0.0,0.0,0.0,0.0,0.0
2731755232,8,1484.0,1420.0,1469.0,1410.0,1470.0,1421.0,1485.0,1431.0,0.0,0.0,0.0,0.0,0.0,0.0,0.0,0.0
2731799136,8,1485.0,1418.0,1468.0,1409.0,1472.0,1424.0,1489.0,1433.0,0.0,0.0,0.0,0.0,0.0,0.0,0.0,0.0
2731839239,8,1484.0,1419.0,1468.0,1410.0,1472.0,1425.0,1489.0,1434.0,0.0,0.0,0.0,0.0,0.0,0.0,0.0,0.0
2731883900,8,1488.0,1418.0,1471.0,1407.0,1473.0,1420.0,1489.0,1431.0,0.0,0.0,0.0,0.0,0.0,0.0,0.0,0.0
2731923901,8,1488.0,1419.0,1472.0,1409.0,1474.0,1422.0,1490.0,1431.0,0.0,0.0,0.0,0.0,0.0,0.0,0.0,0.0
2731968015,8,1484.0,1420.0,1470.0,1412.0,1473.0,1425.0,1488.0,1433.0,0.0,0.0,0.0,0.0,0.0,0.0,0.0,0.0
2732007916,8,1483.0,1417.0,1465.0,1408.0,1470.0,1425.0,1488.0,1433.0,0.0,0.0,0.0,0.0,0.0,0.0,0.0,0.0
2732051900,8,1486.0,1420.0,1472.0,1412.0,1474.0,1423.0,1488.0,1431.0,0.0,0.0,0.0,0.0,0.0,0.0,0.0,0.0
2732091887,8,1486.0,1416.0,1468.0,1406.0,1472.0,1422.0,1490.0,1432.0,0.0,0.0,0.0,0.0,0.0,0.0,0.0,0.0
2732136026,8,1486.0,1419.0,1470.0,1409.0,1473.0,1422.0,1489.0,1432.0,0.0,0.0,0.0,0.0,0.0,0.0,0.0,0.0
2732176841,8,1489.0,1418.0,1472.0,1407.0,1473.0,1420.0,1490.0,1431.0,0.0,0.0,0.0,0.0,0.0,0.0,0.0,0.0
2732220752,8,1487.0,1421.0,1471.0,1411.0,1472.0,1423.0,1488.0,1433.0,0.0,0.0,0.0,0.0,0.0,0.0,0.0,0.0
2732264821,8,1488.0,1419.0,1473.0,1410.0,1476.0,1423.0,1491.0,1431.0,0.0,0.0,0.0,0.0,0.0,0.0,0.0,0.0
2732304713,8,1489.0,1423.0,1475.0,1413.0,1475.0,1423.0,1489.0,1433.0,0.0,0.0,0.0,0.0,0.0,0.0,0.0,0.0
2732348877,8,1486.0,1422.0,1470.0,1413.0,1472.0,1425.0,1488.0,1435.0,0.0,0.0,0.0,0.0,0.0,0.0,0.0,0.0
2732389617,8,1486.0,1422.0,1471.0,1412.0,1472.0,1424.0,1488.0,1434.0,0.0,0.0,0.0,0.0,0.0,0.0,0.0,0.0
2732433506,8,1486.0,1422.0,1469.0,1411.0,1470.0,1424.0,1488.0,1436.0,0.0,0.0,0.0,0.0,0.0,0.0,0.0,0.0
2732473601,8,1487.0,1424.0,1473.0,1415.0,1474.0,1425.0,1488.0,1435.0,0.0,0.0,0.0,0.0,0.0,0.0,0.0,0.0
2732517626,8,1486.0,1420.0,1468.0,1410.0,1472.0,1425.0,1489.0,1435.0,0.0,0.0,0.0,0.0,0.0,0.0,0.0,0.0
2732557679,8,1487.0,1423.0,1471.0,1413.0,1473.0,1426.0,1489.0,1436.0,0.0,0.0,0.0,0.0,0.0,0.0,0.0,0.0
2732601500,8,1483.0,1422.0,1465.0,1413.0,1469.0,1428.0,1487.0,1438.0,0.0,0.0,0.0,0.0,0.0,0.0,0.0,0.0
2732641541,8,1484.0,1425.0,1469.0,1416.0,1472.0,1428.0,1486.0,1437.0,0.0,0.0,0.0,0.0,0.0,0.0,0.0,0.0
2732686452,8,1485.0,1424.0,1469.0,1414.0,1471.0,1427.0,1488.0,1437.0,0.0,0.0,0.0,0.0,0.0,0.0,0.0,0.0
2732726460,8,1483.0,1425.0,1467.0,1415.0,1469.0,1427.0,1484.0,1437.0,0.0,0.0,0.0,0.0,0.0,0.0,0.0,0.0
2732766476,8,1486.0,1426.0,1473.0,1417.0,1472.0,1426.0,1485.0,1435.0,0.0,0.0,0.0,0.0,0.0,0.0,0.0,0.0
2732810305,8,1482.0,1425.0,1466.0,1416.0,1468.0,1429.0,1484.0,1438.0,0.0,0.0,0.0,0.0,0.0,0.0,0.0,0.0
2732850303,8,1481.0,1427.0,1467.0,1418.0,1468.0,1429.0,1482.0,1438.0,0.0,0.0,0.0,0.0,0.0,0.0,0.0,0.0
2732894417,8,1481.0,1430.0,1468.0,1420.0,1467.0,1428.0,1480.0,1438.0,0.0,0.0,0.0,0.0,0.0,0.0,0.0,0.0
2732934488,8,1483.0,1429.0,1471.0,1421.0,1470.0,1428.0,1482.0,1437.0,0.0,0.0,0.0,0.0,0.0,0.0,0.0,0.0
2732979111,8,1479.0,1427.0,1463.0,1419.0,1468.0,1434.0,1485.0,1442.0,0.0,0.0,0.0,0.0,0.0,0.0,0.0,0.0
2733019121,8,1480.0,1431.0,1469.0,1423.0,1469.0,1430.0,1480.0,1438.0,0.0,0.0,0.0,0.0,0.0,0.0,0.0,0.0
2733063192,8,1484.0,1430.0,1472.0,1420.0,1470.0,1428.0,1482.0,1438.0,0.0,0.0,0.0,0.0,0.0,0.0,0.0,0.0
2733103132,8,1481.0,1429.0,1468.0,1422.0,1471.0,1433.0,1483.0,1440.0,0.0,0.0,0.0,0.0,0.0,0.0,0.0,0.0
2733147212,8,1480.0,1431.0,1466.0,1422.0,1466.0,1432.0,1480.0,1441.0,0.0,0.0,0.0,0.0,0.0,0.0,0.0,0.0
2733187265,8,1483.0,1429.0,1468.0,1418.0,1467.0,1428.0,1482.0,1439.0,0.0,0.0,0.0,0.0,0.0,0.0,0.0,0.0
2733232036,8,1483.0,1428.0,1467.0,1418.0,1469.0,1430.0,1484.0,1439.0,0.0,0.0,0.0,0.0,0.0,0.0,0.0,0.0
2733272018,8,1482.0,1427.0,1466.0,1418.0,1469.0,1432.0,1485.0,1440.0,0.0,0.0,0.0,0.0,0.0,0.0,0.0,0.0
2733315913,8,1481.0,1431.0,1467.0,1422.0,1467.0,1432.0,1481.0,1441.0,0.0,0.0,0.0,0.0,0.0,0.0,0.0,0.0
2733356041,8,1481.0,1428.0,1467.0,1421.0,1470.0,1433.0,1484.0,1441.0,0.0,0.0,0.0,0.0,0.0,0.0,0.0,0.0
2733400017,8,1479.0,1426.0,1463.0,1420.0,1470.0,1436.0,1487.0,1442.0,0.0,0.0,0.0,0.0,0.0,0.0,0.0,0.0
2733444028,8,1481.0,1429.0,1465.0,1420.0,1468.0,1433.0,1483.0,1442.0,0.0,0.0,0.0,0.0,0.0,0.0,0.0,0.0
2733484821,8,1480.0,1426.0,1465.0,1420.0,1471.0,1434.0,1486.0,1441.0,0.0,0.0,0.0,0.0,0.0,0.0,0.0,0.0
2733528841,8,1480.0,1428.0,1464.0,1420.0,1468.0,1433.0,1483.0,1441.0,0.0,0.0,0.0,0.0,0.0,0.0,0.0,0.0
2733568874,8,1478.0,1427.0,1463.0,1421.0,1469.0,1435.0,1484.0,1442.0,0.0,0.0,0.0,0.0,0.0,0.0,0.0,0.0
2733612834,8,1480.0,1430.0,1467.0,1422.0,1468.0,1432.0,1481.0,1440.0,0.0,0.0,0.0,0.0,0.0,0.0,0.0,0.0
2733652802,8,1477.0,1423.0,1460.0,1416.0,1468.0,1433.0,1485.0,1440.0,0.0,0.0,0.0,0.0,0.0,0.0,0.0,0.0
2733696822,8,1475.0,1423.0,1457.0,1417.0,1466.0,1437.0,1485.0,1443.0,0.0,0.0,0.0,0.0,0.0,0.0,0.0,0.0
2733736857,8,1478.0,1429.0,1463.0,1419.0,1464.0,1431.0,1480.0,1441.0,0.0,0.0,0.0,0.0,0.0,0.0,0.0,0.0
2733781525,8,1478.0,1424.0,1460.0,1415.0,1466.0,1432.0,1483.0,1440.0,0.0,0.0,0.0,0.0,0.0,0.0,0.0,0.0
2733821496,8,1476.0,1425.0,1459.0,1417.0,1466.0,1434.0,1483.0,1442.0,0.0,0.0,0.0,0.0,0.0,0.0,0.0,0.0
2733865533,8,1477.0,1427.0,1462.0,1420.0,1466.0,1433.0,1481.0,1441.0,0.0,0.0,0.0,0.0,0.0,0.0,0.0,0.0
2733905514,8,1479.0,1430.0,1466.0,1420.0,1465.0,1429.0,1478.0,1438.0,0.0,0.0,0.0,0.0,0.0,0.0,0.0,0.0
2733949531,8,1476.0,1425.0,1461.0,1418.0,1466.0,1433.0,1482.0,1440.0,0.0,0.0,0.0,0.0,0.0,0.0,0.0,0.0
2733993628,8,1477.0,1427.0,1463.0,1420.0,1467.0,1432.0,1481.0,1440.0,0.0,0.0,0.0,0.0,0.0,0.0,0.0,0.0
2734033532,8,1478.0,1429.0,1464.0,1421.0,1466.0,1431.0,1479.0,1440.0,0.0,0.0,0.0,0.0,0.0,0.0,0.0,0.0
2734078338,8,1476.0,1426.0,1462.0,1419.0,1466.0,1432.0,1481.0,1439.0,0.0,0.0,0.0,0.0,0.0,0.0,0.0,0.0
2734118424,8,1474.0,1427.0,1462.0,1421.0,1466.0,1433.0,1479.0,1439.0,0.0,0.0,0.0,0.0,0.0,0.0,0.0,0.0
2734162418,8,1475.0,1428.0,1463.0,1421.0,1465.0,1431.0,1477.0,1438.0,0.0,0.0,0.0,0.0,0.0,0.0,0.0,0.0
2734202406,8,1479.0,1430.0,1468.0,1421.0,1467.0,1428.0,1478.0,1437.0,0.0,0.0,0.0,0.0,0.0,0.0,0.0,0.0
2734246344,8,1476.0,1432.0,1465.0,1423.0,1464.0,1430.0,1475.0,1439.0,0.0,0.0,0.0,0.0,0.0,0.0,0.0,0.0
2734287292,8,1478.0,1434.0,1469.0,1424.0,1465.0,1429.0,1475.0,1438.0,0.0,0.0,0.0,0.0,0.0,0.0,0.0,0.0
2734331249,8,1476.0,1431.0,1462.0,1424.0,1465.0,1435.0,1478.0,1443.0,0.0,0.0,0.0,0.0,0.0,0.0,0.0,0.0
2734375294,8,1477.0,1430.0,1462.0,1422.0,1466.0,1435.0,1481.0,1443.0,0.0,0.0,0.0,0.0,0.0,0.0,0.0,0.0
2734415269,8,1478.0,1429.0,1464.0,1423.0,1468.0,1435.0,1481.0,1441.0,0.0,0.0,0.0,0.0,0.0,0.0,0.0,0.0
2734459135,8,1477.0,1428.0,1463.0,1422.0,1468.0,1435.0,1482.0,1441.0,0.0,0.0,0.0,0.0,0.0,0.0,0.0,0.0
2734499222,8,1472.0,1429.0,1462.0,1425.0,1465.0,1434.0,1475.0,1438.0,0.0,0.0,0.0,0.0,0.0,0.0,0.0,0.0
2734544022,8,1467.0,1420.0,1456.0,1414.0,1458.0,1423.0,1469.0,1430.0,0.0,0.0,0.0,0.0,0.0,0.0,0.0,0.0
2734584100,8,1459.0,1410.0,1447.0,1407.0,1454.0,1420.0,1466.0,1424.0,0.0,0.0,0.0,0.0,0.0,0.0,0.0,0.0
2734627892,8,1456.0,1413.0,1448.0,1406.0,1446.0,1411.0,1455.0,1418.0,0.0,0.0,0.0,0.0,0.0,0.0,0.0,0.0
2734667888,8,1455.0,1409.0,1446.0,1403.0,1446.0,1408.0,1455.0,1415.0,0.0,0.0,0.0,0.0,0.0,0.0,0.0,0.0
2734711997,8,1452.0,1402.0,1440.0,1397.0,1445.0,1409.0,1456.0,1413.0,0.0,0.0,0.0,0.0,0.0,0.0,0.0,0.0
2734752056,8,1449.0,1396.0,1436.0,1393.0,1444.0,1407.0,1456.0,1410.0,0.0,0.0,0.0,0.0,0.0,0.0,0.0,0.0
2734795906,8,1447.0,1402.0,1436.0,1396.0,1439.0,1405.0,1450.0,1411.0,0.0,0.0,0.0,0.0,0.0,0.0,0.0,0.0
2734835910,8,1449.0,1399.0,1436.0,1392.0,1439.0,1403.0,1451.0,1410.0,0.0,0.0,0.0,0.0,0.0,0.0,0.0,0.0
2734876718,8,1447.0,1401.0,1436.0,1395.0,1439.0,1406.0,1450.0,1411.0,0.0,0.0,0.0,0.0,0.0,0.0,0.0,0.0
2734920803,8,1503.0,1413.0,1391.0,1309.0,1355.0,1363.0,1467.0,1467.0,0.0,0.0,0.0,0.0,0.0,0.0,0.0,0.0
2734964717,8,1485.0,1416.0,1411.0,1345.0,1385.0,1378.0,1458.0,1449.0,0.0,0.0,0.0,0.0,0.0,0.0,0.0,0.0
2735008805,8,1473.0,1411.0,1429.0,1371.0,1417.0,1394.0,1461.0,1434.0,0.0,0.0,0.0,0.0,0.0,0.0,0.0,0.0
2735049610,8,1474.0,1416.0,1446.0,1390.0,1437.0,1404.0,1466.0,1430.0,0.0,0.0,0.0,0.0,0.0,0.0,0.0,0.0
2735093516,8,1468.0,1421.0,1457.0,1413.0,1456.0,1420.0,1468.0,1429.0,0.0,0.0,0.0,0.0,0.0,0.0,0.0,0.0
2735133513,8,1211.0,1519.0,1229.0,1619.0,1353.0,1694.0,1335.0,1594.0,0.0,0.0,0.0,0.0,0.0,0.0,0.0,0.0
2735177620,8,1229.0,1483.0,1264.0,1599.0,1393.0,1665.0,1358.0,1550.0,0.0,0.0,0.0,0.0,0.0,0.0,0.0,0.0
2735217618,8,1273.0,1467.0,1312.0,1567.0,1414.0,1610.0,1374.0,1511.0,0.0,0.0,0.0,0.0,0.0,0.0,0.0,0.0
2735257634,8,1322.0,1470.0,1344.0,1528.0,1404.0,1555.0,1382.0,1497.0,0.0,0.0,0.0,0.0,0.0,0.0,0.0,0.0
2735301498,8,1359.0,1479.0,1365.0,1503.0,1392.0,1517.0,1385.0,1494.0,0.0,0.0,0.0,0.0,0.0,0.0,0.0,0.0
2735349673,8,1393.0,1492.0,1391.0,1483.0,1380.0,1477.0,1383.0,1487.0,0.0,0.0,0.0,0.0,0.0,0.0,0.0,0.0
2735390446,8,1412.0,1496.0,1405.0,1471.0,1377.0,1456.0,1383.0,1480.0,0.0,0.0,0.0,0.0,0.0,0.0,0.0,0.0
2735430495,8,1423.0,1493.0,1416.0,1465.0,1383.0,1446.0,1389.0,1474.0,0.0,0.0,0.0,0.0,0.0,0.0,0.0,0.0
2735474305,8,1429.0,1481.0,1421.0,1456.0,1392.0,1441.0,1400.0,1466.0,0.0,0.0,0.0,0.0,0.0,0.0,0.0,0.0
2735514487,8,1435.0,1478.0,1425.0,1451.0,1396.0,1437.0,1405.0,1464.0,0.0,0.0,0.0,0.0,0.0,0.0,0.0,0.0
2735558465,8,1436.0,1468.0,1421.0,1443.0,1400.0,1438.0,1415.0,1463.0,0.0,0.0,0.0,0.0,0.0,0.0,0.0,0.0
2735598579,8,1440.0,1457.0,1423.0,1435.0,1409.0,1437.0,1425.0,1459.0,0.0,0.0,0.0,0.0,0.0,0.0,0.0,0.0
2735647282,8,1443.0,1452.0,1423.0,1430.0,1411.0,1435.0,1430.0,1457.0,0.0,0.0,0.0,0.0,0.0,0.0,0.0,0.0
2735687266,8,1449.0,1451.0,1429.0,1428.0,1417.0,1434.0,1437.0,1457.0,0.0,0.0,0.0,0.0,0.0,0.0,0.0,0.0
2735731133,8,1450.0,1445.0,1428.0,1424.0,1421.0,1436.0,1444.0,1457.0,0.0,0.0,0.0,0.0,0.0,0.0,0.0,0.0
2735775232,8,1452.0,1442.0,1426.0,1421.0,1421.0,1435.0,1446.0,1457.0,0.0,0.0,0.0,0.0,0.0,0.0,0.0,0.0
2735815257,8,1456.0,1441.0,1428.0,1419.0,1425.0,1436.0,1453.0,1458.0,0.0,0.0,0.0,0.0,0.0,0.0,0.0,0.0
