timestamp,ref_timestamp,ref_lat,ref_lon,x,y,z,delta_xy[0],delta_xy[1],delta_z,vx,vy,vz,z_deriv,delta_vxy[0],delta_vxy[1],delta_vz,ax,ay,az,yaw,ref_alt,dist_bottom,dist_bottom_rate,eph,epv,evh,evv,vxy_max,vz_max,hagl_min,hagl_max,xy_valid,z_valid,v_xy_valid,v_z_valid,xy_reset_counter,z_reset_counter,vxy_reset_counter,vz_reset_counter,xy_global,z_global,dist_bottom_valid
2709103590,24513993,37.1022343,-76.3875393,32.916203,-48.31322,-5.56447,0.0031594795,0.0022642463,0.0,0.03247164,-0.016187726,0.007867036,0.036856174,0.029716546,0.0518782,0.32375565,-0.9979121,-0.30494905,-0.9065233,-0.070129454,-0.77790034,0.1,-0.007867036,0.2643249,0.23837024,0.14325798,0.09838959,inf,inf,inf,inf,1,1,1,1,2,0,2,2,1,1,0
2709208575,24513993,37.1022343,-76.3875393,32.918312,-48.31209,-5.5617285,0.0031594795,0.0022642463,0.0,0.06388036,-0.020082599,0.013614276,0.040613297,0.029716546,0.0518782,0.32375565,-1.9793859,1.3475276,0.32069784,-0.07009579,-0.77790034,0.1,-0.013614276,0.2756409,0.23921625,0.14775628,0.098905206,inf,inf,inf,inf,1,1,1,1,2,0,2,2,1,1,0
2709308565,24513993,37.1022343,-76.3875393,32.91798,-48.30971,-5.5567555,0.0031594795,0.0022642463,0.0,0.045577213,-0.0073697944,0.01721911,0.04460298,0.029716546,0.0518782,0.32375565,0.18266949,2.294223,0.5735446,-0.06932764,-0.77790034,0.1,-0.01721911,0.26525018,0.23920359,0.14367978,0.09861853,inf,inf,inf,inf,1,1,1,1,2,0,2,2,1,1,0
2709408705,24513993,37.1022343,-76.3875393,32.918636,-48.30806,-5.556591,0.0031594795,0.0022642463,0.0,0.026109884,-0.014566439,0.013666104,0.036737014,0.029716546,0.0518782,0.32375565,-0.47944376,0.14215353,0.1642187,-0.06938992,-0.77790034,0.1,-0.013666104,0.2543285,0.23841067,0.13922366,0.09812829,inf,inf,inf,inf,1,1,1,1,2,0,2,2,1,1,0
2709513365,24513993,37.1022343,-76.3875393,32.91949,-48.30531,-5.558496,0.0031594795,0.0022642463,0.0,0.019641511,-0.019978583,0.017199544,0.03433778,0.029716546,0.0518782,0.32375565,0.24834304,-0.21805602,0.16669182,-0.06972581,-0.77790034,0.1,-0.017199544,0.26538783,0.23774141,0.14375074,0.09826812,inf,inf,inf,inf,1,1,1,1,2,0,2,2,1,1,0
2709613383,24513993,37.1022343,-76.3875393,32.920696,-48.303326,-5.5565667,0.0031594795,0.0022642463,0.0,0.032016475,-0.00957476,0.010918509,0.026535654,0.029716546,0.0518782,0.32375565,-0.79807264,-0.0294235,-0.62820834,-0.070220895,-0.77790034,0.1,-0.010918509,0.25534275,0.23760994,0.1396439,0.09795544,inf,inf,inf,inf,1,1,1,1,2,0,2,2,1,1,0
2709714139,24513993,37.1022343,-76.3875393,32.92127,-48.30078,-5.5603824,0.0031594795,0.0022642463,0.0,0.0230586,-0.009885607,0.012718016,0.021698827,0.029716546,0.0518782,0.32375565,0.08289329,-0.12830134,-0.021459596,-0.07024456,-0.77790034,0.1,-0.012718016,0.26558763,0.23801535,0.14388171,0.09832689,inf,inf,inf,inf,1,1,1,1,2,0,2,2,1,1,0
2709814163,24513993,37.1022343,-76.3875393,32.92226,-48.29838,-5.5661035,0.0031594795,0.0022642463,0.0,0.041464735,-0.020687625,-0.009616011,-0.007838874,0.029716546,0.0518782,0.32375565,-0.32257557,-0.8412383,-0.109303854,-0.06938351,-0.77790034,0.1,0.009616011,0.25543672,0.23780629,0.1397212,0.09799956,inf,inf,inf,inf,1,1,1,1,2,0,2,2,1,1,0
2709918126,24513993,37.1022343,-76.3875393,32.922867,-48.294476,-5.579692,0.0031594795,0.0022642463,0.0,0.005565722,-0.0021842942,-0.019151844,-0.028929636,0.029716546,0.0518782,0.32375565,-0.0703532,0.39037812,-2.5662901,-0.06439885,-0.77790034,0.1,0.019151844,0.26665366,0.23885871,0.14431956,0.09854197,inf,inf,inf,inf,1,1,1,1,2,0,2,2,1,1,0
2710018927,24513993,37.1022343,-76.3875393,32.90441,-48.28754,-5.6067443,0.0031594795,0.0022642463,0.0,-0.36735827,0.06535944,-0.33560643,-0.35286048,0.029716546,0.0518782,0.32375565,-4.01889,-1.9699106,-2.7847464,-0.05720917,-0.77790034,0.12222099,0.33560643,0.25547257,0.2380535,0.13996841,0.098047845,inf,inf,inf,inf,1,1,1,1,2,0,2,2,1,1,0
2710118927,24513993,37.1022343,-76.3875393,32.86649,-48.277733,-5.669657,0.0031594795,0.0022642463,0.0,-0.29297122,0.029877942,-0.75459194,-0.77913207,0.029716546,0.0518782,0.32375565,-0.7798297,1.8584831,-3.9451041,-0.04963381,-0.77790034,0.18513393,0.75459194,0.26671487,0.23913142,0.14498235,0.09859819,inf,inf,inf,inf,1,1,1,1,2,0,2,2,1,1,0
2710223122,24513993,37.1022343,-76.3875393,32.82444,-48.269573,-5.782728,0.0031594795,0.0022642463,0.0,-0.4886336,0.055217534,-1.0045947,-1.046613,0.029716546,0.0518782,0.32375565,0.77353853,-1.4271214,-1.4564263,-0.043235593,-0.77790034,0.2982049,1.0045947,0.25649118,0.23891507,0.14187014,0.09827493,inf,inf,inf,inf,1,1,1,1,2,0,2,2,1,1,0
2710323752,24513993,37.1022343,-76.3875393,32.77339,-48.260094,-5.9235196,0.0031594795,0.0022642463,0.0,-0.49354813,0.027042925,-1.093026,-1.1641731,0.029716546,0.0518782,0.32375565,-2.564235,1.7288139,-1.0728787,-0.039046068,-0.77790034,0.43899632,1.093026,0.2678283,0.23820986,0.14794001,0.09839523,inf,inf,inf,inf,1,1,1,1,2,0,2,2,1,1,0
2710423713,24513993,37.1022343,-76.3875393,32.719643,-48.253025,-6.075275,0.0031594795,0.0022642463,0.0,-0.53232425,0.024830647,-1.1098174,-1.213502,0.029716546,0.0518782,0.32375565,-0.5272793,1.7677183,2.3968866,-0.035585802,-0.77790034,0.59075165,1.1098174,0.2563104,0.23718736,0.14357448,0.097893886,inf,inf,inf,inf,1,1,1,1,2,0,2,2,1,1,0
2710524562,24513993,37.1022343,-76.3875393,32.668613,-48.24449,-6.2408895,0.0031594795,0.0022642463,0.0,-0.50424045,-0.010244987,-1.1178378,-1.2618904,0.029716546,0.0518782,0.32375565,-0.6222795,2.5190995,-0.4853877,-0.032653634,-0.77790034,0.75636625,1.1178378,0.26771098,0.23821566,0.1484635,0.09844619,inf,inf,inf,inf,1,1,1,1,2,0,2,2,1,1,0
2710933405,24513993,37.1022343,-76.3875393,32.515102,-48.21821,-6.957714,0.0031594795,0.0022642463,0.0,-0.17270975,0.05424817,-1.0598803,-1.3681266,0.029716546,0.0518782,0.32375565,-0.056842368,0.15710695,0.99076414,-0.033315938,-0.77790034,1.4731908,1.0598803,0.26913816,0.2377274,0.1478805,0.09831768,inf,inf,inf,inf,1,1,1,1,2,0,2,2,1,1,0
2711038171,24513993,37.1022343,-76.3875393,32.49689,-48.20736,-7.108118,0.0031594795,0.0022642463,0.0,-0.07350364,0.07648156,-1.046417,-1.3567017,0.029716546,0.0518782,0.32375565,1.5217043,-1.6815972,0.35411078,-0.033279184,-0.77790034,1.6235948,1.046417,0.25864616,0.23756965,0.1432598,0.0979988,inf,inf,inf,inf,1,1,1,1,2,0,2,2,1,1,0
2712866793,24513993,37.1022343,-76.3875393,32.676777,-48.166164,-8.57858,0.0031594795,0.0022642463,0.0,0.08981271,-0.07066788,-0.9781759,-0.868505,0.029716546,0.0518782,0.32375565,0.39399147,0.4609326,2.406252,-0.040857766,-0.77790034,3.0940566,0.9781759,0.26109228,0.23862292,0.14225325,0.098338194,inf,inf,inf,inf,1,1,1,1,2,0,2,2,1,1,0
2712967808,24513993,37.1022343,-76.3875393,32.68447,-48.175453,-8.664793,0.0031594795,0.0022642463,0.0,0.065809995,-0.07240853,-0.9906879,-0.8816339,0.029716546,0.0518782,0.32375565,-1.5089298,-1.1158661,-2.7969456,-0.042054024,-0.77790034,3.1802697,0.9906879,0.27253658,0.23795061,0.14682445,0.09846582,inf,inf,inf,inf,1,1,1,1,2,0,2,2,1,1,0
2713071788,24513993,37.1022343,-76.3875393,32.69122,-48.184647,-8.752513,0.0031594795,0.0022642463,0.0,0.052373443,-0.057956822,-0.98765564,-0.87714547,0.029716546,0.0518782,0.32375565,0.4607005,1.6258919,-0.043861628,-0.043949906,-0.77790034,3.2679896,0.98765564,0.2616273,0.23755449,0.1423704,0.09813793,inf,inf,inf,inf,1,1,1,1,2,0,2,2,1,1,0
2713172588,24513993,37.1022343,-76.3875393,32.69649,-48.192257,-8.840324,0.0031594795,0.0022642463,0.0,0.038974937,-0.0506919,-0.9872855,-0.878181,0.029716546,0.0518782,0.32375565,0.92892534,-1.0224351,-2.4225264,-0.045639813,-0.77790034,3.355801,0.9872855,0.27310148,0.23858242,0.14695765,0.098673105,inf,inf,inf,inf,1,1,1,1,2,0,2,2,1,1,0
2713272602,24513993,37.1022343,-76.3875393,32.702118,-48.198296,-8.9287,0.0031594795,0.0022642463,0.0,0.036694393,-0.021481022,-0.9941913,-0.8865871,0.029716546,0.0518782,0.32375565,2.125158,-0.81523496,1.1512468,-0.047895946,-0.77790034,3.4441772,0.9941913,0.26169223,0.23782846,0.14235358,0.09820439,inf,inf,inf,inf,1,1,1,1,2,0,2,2,1,1,0
2713376595,24513993,37.1022343,-76.3875393,32.70731,-48.203037,-9.017849,0.0031594795,0.0022642463,0.0,0.019258073,-0.018601887,-0.9795249,-0.8714568,0.029716546,0.0518782,0.32375565,-1.251614,-1.1756258,-1.2508491,-0.0495721,-0.77790034,3.5333257,0.9795249,0.2732566,0.23893394,0.14696403,0.09875466,inf,inf,inf,inf,1,1,1,1,2,0,2,2,1,1,0
2713477360,24513993,37.1022343,-76.3875393,32.711063,-48.207092,-9.1066475,0.0031594795,0.0022642463,0.0,0.01599509,-0.0013854988,-0.9950666,-0.8892809,0.029716546,0.0518782,0.32375565,-1.2243942,0.61786747,-1.7369865,-0.05103655,-0.77790034,3.6221242,0.9950666,0.2626776,0.23710579,0.14271083,0.09805171,inf,inf,inf,inf,1,1,1,1,2,0,2,2,1,1,0
2713577382,24513993,37.1022343,-76.3875393,32.713554,-48.209824,-9.1899185,0.0031594795,0.0022642463,0.0,0.0016745958,-0.0054393793,-0.98657656,-0.87724197,0.029716546,0.0518782,0.32375565,-1.6425135,1.7633027,-0.86636746,-0.051637765,-0.77790034,3.7053952,0.98657656,0.27329096,0.23923513,0.14690399,0.09883052,inf,inf,inf,inf,1,1,1,1,2,0,2,2,1,1,0
2713681330,24513993,37.1022343,-76.3875393,32.719543,-48.21049,-9.274449,0.0031594795,0.0022642463,0.0,0.0060957423,0.0134495,-0.98749316,-0.8733881,0.029716546,0.0518782,0.32375565,1.7525773,0.34004298,2.566637,-0.05271618,-0.77790034,3.789926,0.98749316,0.26278135,0.23744017,0.14268261,0.098124176,inf,inf,inf,inf,1,1,1,1,2,0,2,2,1,1,0
2713782000,24513993,37.1022343,-76.3875393,32.72462,-48.21012,-9.348391,0.0031594795,0.0022642463,0.0,-0.0057346555,-0.0027576925,-0.98767895,-0.8622769,0.029716546,0.0518782,0.32375565,-0.40361208,-2.1995893,-0.37038612,-0.053279683,-0.77790034,3.8638673,0.98767895,0.2742989,0.23847453,0.14725329,0.098660044,inf,inf,inf,inf,1,1,1,1,2,0,2,2,1,1,0
2713882149,24513993,37.1022343,-76.3875393,32.72733,-48.212486,-9.429569,0.0031594795,0.0022642463,0.0,-0.013493956,0.0027538545,-0.9926552,-0.8638466,0.029716546,0.0518782,0.32375565,-0.6595141,-1.9342773,-4.1768622,-0.054119375,-0.77790034,3.945046,0.9926552,0.26274768,0.23778728,0.14261818,0.0982003,inf,inf,inf,inf,1,1,1,1,2,0,2,2,1,1,0
2713982997,24513993,37.1022343,-76.3875393,32.728573,-48.215263,-9.511472,0.0031594795,0.0022642463,0.0,-0.01964951,0.009858624,-0.9877912,-0.8570127,0.029716546,0.0518782,0.32375565,0.1443409,-0.73632807,1.8823925,-0.05515776,-0.77790034,4.0269485,0.9877912,0.27426046,0.23883903,0.14721271,0.098742254,inf,inf,inf,inf,1,1,1,1,2,0,2,2,1,1,0
2714086817,24513993,37.1022343,-76.3875393,32.73053,-48.217743,-9.596125,0.0031594795,0.0022642463,0.0,-0.02514986,0.008413909,-0.9787022,-0.8458078,0.029716546,0.0518782,0.32375565,-0.015935631,0.3644207,-0.71235853,-0.055833925,-0.77790034,4.1116014,0.9787022,0.26349187,0.23702057,0.14287825,0.09803988,inf,inf,inf,inf,1,1,1,1,2,0,2,2,1,1,0
2714186830,24513993,37.1022343,-76.3875393,32.731636,-48.21987,-9.6773,0.0031594795,0.0022642463,0.0,-0.026188089,-0.000460156,-0.9873497,-0.85299426,0.029716546,0.0518782,0.32375565,0.457532,0.09672853,1.0393549,-0.056466267,-0.77790034,4.192777,0.9873497,0.27467355,0.23784408,0.14728165,0.0985585,inf,inf,inf,inf,1,1,1,1,2,0,2,2,1,1,0
2714287815,24513993,37.1022343,-76.3875393,32.731873,-48.22426,-9.763382,0.0031594795,0.0022642463,0.0,-0.03633224,-0.011112219,-0.9870726,-0.85413545,0.029716546,0.0518782,0.32375565,-1.4208837,1.1239284,-2.372444,-0.056686707,-0.77790034,4.2788587,0.9870726,0.26308843,0.23711611,0.14266087,0.098095804,inf,inf,inf,inf,1,1,1,1,2,0,2,2,1,1,0
2714391767,24513993,37.1022343,-76.3875393,32.731293,-48.228676,-9.852706,0.0031594795,0.0022642463,0.0,-0.029771166,-0.011929145,-0.9820559,-0.8517931,0.029716546,0.0518782,0.32375565,1.36335,-0.6514862,-0.33515045,-0.057278104,-0.77790034,4.3681827,0.9820559,0.27460635,0.23817337,0.14725488,0.09863705,inf,inf,inf,inf,1,1,1,1,2,0,2,2,1,1,0
2714492560,24513993,37.1022343,-76.3875393,32.733448,-48.233448,-9.939617,0.0031594795,0.0022642463,0.0,-0.031020815,-0.021131814,-0.9851412,-0.8580907,0.029716546,0.0518782,0.32375565,0.47994852,-1.6434422,-1.2823939,-0.057937104,-0.77790034,4.455094,0.9851412,0.26398027,0.23811053,0.14301288,0.0983521,inf,inf,inf,inf,1,1,1,1,2,0,2,2,1,1,0
2714592617,24513993,37.1022343,-76.3875393,32.7345,-48.23724,-10.031633,0.0031594795,0.0022642463,0.0,-0.02727299,-0.005979161,-0.9859878,-0.86665845,0.029716546,0.0518782,0.32375565,0.5008866,-1.4056392,1.4219112,-0.05921211,-0.77790034,4.54711,0.9859878,0.2746334,0.23858269,0.14726117,0.0987309,inf,inf,inf,inf,1,1,1,1,2,0,2,2,1,1,0
2714696544,24513993,37.1022343,-76.3875393,32.73153,-48.24531,-10.1296625,0.0031594795,0.0022642463,0.0,-0.03464633,-0.0034535434,-0.9715899,-0.8622735,0.029716546,0.0518782,0.32375565,-0.1535264,1.3048953,0.14149575,-0.060168594,-0.77790034,4.645139,0.9715899,0.26400256,0.23685022,0.14303783,0.09804471,inf,inf,inf,inf,1,1,1,1,2,0,2,2,1,1,0
2714797437,24513993,37.1022343,-76.3875393,32.72794,-48.252266,-10.225525,0.0031594795,0.0022642463,0.0,-0.034317646,0.008321784,-0.96828055,-0.8684856,0.029716546,0.0518782,0.32375565,0.4689937,1.4479762,3.3079884,-0.061604068,-0.77790034,4.7410016,0.96828055,0.27556637,0.23792554,0.14761956,0.098590106,inf,inf,inf,inf,1,1,1,1,2,0,2,2,1,1,0
2714901183,24513993,37.1022343,-76.3875393,32.72563,-48.260895,-10.325139,0.0031594795,0.0022642463,0.0,-0.029439343,-0.016168362,-0.9767147,-0.88612556,0.029716546,0.0518782,0.32375565,0.1607584,-0.96774954,-1.892505,-0.06259613,-0.77790034,4.8406157,0.9767147,0.2649254,0.23782924,0.14338101,0.09830943,inf,inf,inf,inf,1,1,1,1,2,0,2,2,1,1,0
2715001218,24513993,37.1022343,-76.3875393,32.723213,-48.267315,-10.424966,0.0031594795,0.0022642463,0.0,-0.029030636,-0.0046943594,-0.97527647,-0.895856,0.029716546,0.0518782,0.32375565,-0.06257436,-2.2661664,0.92911595,-0.064724736,-0.77790034,4.9404426,0.97527647,0.27571255,0.23837885,0.14763297,0.098700315,inf,inf,inf,inf,1,1,1,1,2,0,2,2,1,1,0
2715106163,24513993,37.1022343,-76.3875393,32.718052,-48.27661,-10.53103,0.0031594795,0.0022642463,0.0,-0.032557018,-0.029661931,-0.9913367,-0.923451,0.029716546,0.0518782,0.32375565,-1.2861487,1.3474445,-0.7031961,-0.06601055,-0.77790034,5.0465064,0.9913367,0.2649212,0.23661086,0.14339413,0.098013654,inf,inf,inf,inf,1,1,1,1,2,0,2,2,1,1,0
2715206158,24513993,37.1022343,-76.3875393,32.71371,-48.284565,-10.632618,0.0031594795,0.0022642463,0.0,-0.024807163,-0.03870316,-0.98308873,-0.9251715,0.029716546,0.0518782,0.32375565,0.13518019,0.77423155,0.24418129,-0.06792521,-0.77790034,5.1480947,0.98308873,0.2765333,0.23767161,0.14796539,0.09854903,inf,inf,inf,inf,1,1,1,1,2,0,2,2,1,1,0
2715306122,24513993,37.1022343,-76.3875393,32.714546,-48.292046,-10.734487,0.0031594795,0.0022642463,0.0,-0.014965974,-0.038241293,-0.99073213,-0.9415985,0.029716546,0.0518782,0.32375565,-0.6969425,1.6058972,-1.1426718,-0.069953315,-0.77790034,5.2499633,0.99073213,0.26492855,0.23701698,0.14338684,0.09809972,inf,inf,inf,inf,1,1,1,1,2,0,2,2,1,1,0
2715411003,24513993,37.1022343,-76.3875393,32.716312,-48.29956,-10.843287,0.0031594795,0.0022642463,0.0,0.00035863539,-0.03306054,-0.9872474,-0.94851255,0.029716546,0.0518782,0.32375565,0.15523571,-0.2619649,-0.12810269,-0.07223034,-0.77790034,5.358764,0.9872474,0.25548777,0.23749585,0.13950987,0.097959734,inf,inf,inf,inf,1,1,1,1,2,0,2,2,1,1,0
2715514982,24513993,37.1022343,-76.3875393,32.72113,-48.30754,-10.9513855,0.0031594795,0.0022642463,0.0,0.012159485,-0.04629418,-0.9977231,-0.9675426,0.029716546,0.0518782,0.32375565,0.3099029,-0.86887556,-0.022685211,-0.074049644,-0.77790034,5.466862,0.9977231,0.2662428,0.23834081,0.14387485,0.09849079,inf,inf,inf,inf,1,1,1,1,2,0,2,2,1,1,0
2715615841,24513993,37.1022343,-76.3875393,32.72599,-48.31408,-11.051536,0.0031594795,0.0022642463,0.0,0.019899549,-0.037474398,-1.0001748,-0.97218657,0.029716546,0.0518782,0.32375565,0.3489814,-0.06807406,0.63133544,-0.07594849,-0.77790034,5.5670123,1.0001748,0.25513205,0.2376125,0.13934752,0.098012745,inf,inf,inf,inf,1,1,1,1,2,0,2,2,1,1,0
2715715780,24513993,37.1022343,-76.3875393,32.73454,-48.32016,-11.147809,0.0031594795,0.0022642463,0.0,0.031795256,-0.036928266,-1.0047019,-0.9753915,0.029716546,0.0518782,0.32375565,0.13198091,-0.5845308,-0.31130672,-0.07740118,-0.77790034,5.6632857,1.0047019,0.266218,0.2370151,0.14390065,0.098162726,inf,inf,inf,inf,1,1,1,1,2,0,2,2,1,1,0
2715816709,24513993,37.1022343,-76.3875393,32.74227,-48.325016,-11.240708,0.0031594795,0.0022642463,0.0,0.040835768,-0.026299581,-0.99605584,-0.96120876,0.029716546,0.0518782,0.32375565,0.33104753,-0.77686054,0.43062273,-0.07898121,-0.77790034,5.756185,0.99605584,0.2551851,0.23801847,0.13941742,0.09809435,inf,inf,inf,inf,1,1,1,1,2,0,2,2,1,1,0
2715920534,24513993,37.1022343,-76.3875393,32.750793,-48.329052,-11.336574,0.0031594795,0.0022642463,0.0,0.050073083,-0.022532102,-1.008011,-0.9683286,0.029716546,0.0518782,0.32375565,0.7160783,0.20260698,0.5915789,-0.08010815,-0.77790034,5.8520503,1.008011,0.26627645,0.23739177,0.14398317,0.098233335,inf,inf,inf,inf,1,1,1,1,2,0,2,2,1,1,0
2716020568,24513993,37.1022343,-76.3875393,32.759235,-48.332127,-11.432313,0.0031594795,0.0022642463,0.0,0.057736468,-0.017001547,-1.0119784,-0.9713281,0.029716546,0.0518782,0.32375565,-0.27208313,-0.5812552,-1.1409143,-0.0810809,-0.77790034,5.9477897,1.0119784,0.25606665,0.23728293,0.13979271,0.09791525,inf,inf,inf,inf,1,1,1,1,2,0,2,2,1,1,0
2716121349,24513993,37.1022343,-76.3875393,32.76925,-48.335274,-11.527183,0.0031594795,0.0022642463,0.0,0.06347322,-0.021200983,-1.018064,-0.9740458,0.029716546,0.0518782,0.32375565,0.192052,-0.7988583,-2.366156,-0.08153423,-0.77790034,6.0426593,1.018064,0.2663301,0.23771624,0.14406006,0.098283626,inf,inf,inf,inf,1,1,1,1,2,0,2,2,1,1,0
2716225362,24513993,37.1022343,-76.3875393,32.779617,-48.33815,-11.631319,0.0031594795,0.0022642463,0.0,0.07004123,-0.0031491867,-1.0210826,-0.9794242,0.029716546,0.0518782,0.32375565,0.5663373,0.5956451,1.3460326,-0.08262812,-0.77790034,6.1467957,1.0210826,0.256039,0.23753405,0.13986325,0.097953096,inf,inf,inf,inf,1,1,1,1,2,0,2,2,1,1,0
2716325661,24513993,37.1022343,-76.3875393,32.790882,-48.343407,-11.736847,0.0031594795,0.0022642463,0.0,0.07019844,-0.016910933,-1.0385126,-1.0036927,0.029716546,0.0518782,0.32375565,-0.84397894,0.26150054,-2.0464635,-0.0830573,-0.77790034,6.2523236,1.0385126,0.26727167,0.23861146,0.14449197,0.09849066,inf,inf,inf,inf,1,1,1,1,2,0,2,2,1,1,0
2716426129,24513993,37.1022343,-76.3875393,32.80156,-48.345753,-11.844874,0.0031594795,0.0022642463,0.0,0.07274201,-0.0063267103,-1.0475469,-1.0192306,0.029716546,0.0518782,0.32375565,0.742645,0.75069046,2.3475757,-0.0838862,-0.77790034,6.360351,1.0475469,0.25621063,0.23783533,0.14001629,0.09800014,inf,inf,inf,inf,1,1,1,1,2,0,2,2,1,1,0
2716529992,24513993,37.1022343,-76.3875393,32.813576,-48.343987,-11.953336,0.0031594795,0.0022642463,0.0,0.06768681,-0.00312091,-1.0407515,-1.0151184,0.029716546,0.0518782,0.32375565,0.042262066,1.0372611,-0.49951202,-0.08410736,-0.77790034,6.4688125,1.0407515,0.26737064,0.23886053,0.14461929,0.0985339,inf,inf,inf,inf,1,1,1,1,2,0,2,2,1,1,0
2716630684,24513993,37.1022343,-76.3875393,32.82389,-48.341946,-12.054279,0.0031594795,0.0022642463,0.0,0.062112965,0.015703838,-1.0421616,-1.0144593,0.029716546,0.0518782,0.32375565,-0.63508534,0.73484945,1.3824859,-0.08460577,-0.77790034,6.569756,1.0421616,0.2570845,0.23871824,0.14042167,0.09820712,inf,inf,inf,inf,1,1,1,1,2,0,2,2,1,1,0
2716730972,24513993,37.1022343,-76.3875393,32.83336,-48.33967,-12.158514,0.0031594795,0.0022642463,0.0,0.059515182,0.025206648,-1.0507042,-1.0248463,0.029716546,0.0518782,0.32375565,0.35078922,0.10582478,2.7600632,-0.08481217,-0.77790034,6.6739907,1.0507042,0.26829383,0.23973997,0.14500597,0.09873886,inf,inf,inf,inf,1,1,1,1,2,0,2,2,1,1,0
2716834829,24513993,37.1022343,-76.3875393,32.840805,-48.33682,-12.272377,0.0031594795,0.0022642463,0.0,0.049708515,0.022289673,-1.058939,-1.0390587,0.029716546,0.0518782,0.32375565,0.48029158,0.1562258,2.2950246,-0.08454067,-0.77790034,6.7878537,1.058939,0.25759798,0.23758835,0.14065188,0.09796795,inf,inf,inf,inf,1,1,1,1,2,0,2,2,1,1,0
2716935745,24513993,37.1022343,-76.3875393,32.84543,-48.33337,-12.382718,0.0031594795,0.0022642463,0.0,0.036075585,0.025828252,-1.0530038,-1.0377202,0.029716546,0.0518782,0.32375565,-0.21111467,-0.271575,-0.94204134,-0.08461272,-0.77790034,6.898195,1.0530038,0.26795202,0.23800151,0.14488974,0.098330505,inf,inf,inf,inf,1,1,1,1,2,0,2,2,1,1,0
2717035737,24513993,37.1022343,-76.3875393,32.84888,-48.328552,-12.493338,0.0031594795,0.0022642463,0.0,0.02428216,0.018726867,-1.0716748,-1.0612617,0.029716546,0.0518782,0.32375565,-0.53396726,0.25337064,0.07354275,-0.08408935,-0.77790034,7.0088143,1.0716748,0.2576122,0.23780559,0.14067261,0.09800109,inf,inf,inf,inf,1,1,1,1,2,0,2,2,1,1,0
2717139768,24513993,37.1022343,-76.3875393,32.851376,-48.321213,-12.605932,0.0031594795,0.0022642463,0.0,0.011614769,0.02596447,-1.0671166,-1.0584356,0.029716546,0.0518782,0.32375565,-0.16405186,-1.611232,-1.83072,-0.083914496,-0.77790034,7.121409,1.0671166,0.2689409,0.2388618,0.14530881,0.098533325,inf,inf,inf,inf,1,1,1,1,2,0,2,2,1,1,0
2717240690,24513993,37.1022343,-76.3875393,32.854332,-48.31429,-12.707587,0.0031594795,0.0022642463,0.0,-0.00062912237,0.018744815,-1.0684959,-1.0541428,0.029716546,0.0518782,0.32375565,-0.22690636,-0.8416596,-0.22270428,-0.08330066,-0.77790034,7.223064,1.0684959,0.25769323,0.2380675,0.14071542,0.09804093,inf,inf,inf,inf,1,1,1,1,2,0,2,2,1,1,0
2717340674,24513993,37.1022343,-76.3875393,32.859596,-48.30651,-12.808055,0.0031594795,0.0022642463,0.0,-0.00389883,0.035815142,-1.0729401,-1.0528502,0.029716546,0.0518782,0.32375565,-0.59491044,-1.31188,2.355301,-0.08298915,-0.77790034,7.3235316,1.0729401,0.26902995,0.2391455,0.14533575,0.09858245,inf,inf,inf,inf,1,1,1,1,2,0,2,2,1,1,0
2717441339,24513993,37.1022343,-76.3875393,32.861637,-48.300938,-12.908861,0.0031594795,0.0022642463,0.0,-0.012825703,0.014367105,-1.0842148,-1.0577875,0.029716546,0.0518782,0.32375565,-0.12489748,-1.2673571,-1.306367,-0.08197307,-0.77790034,7.424338,1.0842148,0.25776482,0.23836356,0.14075987,0.098096505,inf,inf,inf,inf,1,1,1,1,2,0,2,2,1,1,0
2717545476,24513993,37.1022343,-76.3875393,32.86093,-48.29675,-13.016009,0.0031594795,0.0022642463,0.0,-0.02441698,0.0013858741,-1.0965519,-1.0668204,0.029716546,0.0518782,0.32375565,-0.27883637,-0.10005385,-1.7874366,-0.081368566,-0.77790034,7.531486,1.0965519,0.26901877,0.2393741,0.14539163,0.098627254,inf,inf,inf,inf,1,1,1,1,2,0,2,2,1,1,0
2717649360,24513993,37.1022343,-76.3875393,32.858833,-48.293385,-13.123406,0.0031594795,0.0022642463,0.0,-0.035678357,0.008256132,-1.0881037,-1.0548629,0.029716546,0.0518782,0.32375565,-0.59292495,0.21666043,-0.1761699,-0.081116386,-0.77790034,7.638883,1.0881037,0.25867608,0.23754202,0.14119339,0.09790353,inf,inf,inf,inf,1,1,1,1,2,0,2,2,1,1,0
2717750135,24513993,37.1022343,-76.3875393,32.85549,-48.290676,-13.228889,0.0031594795,0.0022642463,0.0,-0.038353957,0.0045220284,-1.104866,-1.0693984,0.029716546,0.0518782,0.32375565,0.43949464,1.3307682,2.5353286,-0.08084476,-0.77790034,7.744366,1.104866,0.2699808,0.23852687,0.14579585,0.098424636,inf,inf,inf,inf,1,1,1,1,2,0,2,2,1,1,0
2717850028,24513993,37.1022343,-76.3875393,32.852814,-48.28925,-13.335191,0.0031594795,0.0022642463,0.0,-0.04555971,0.0009782221,-1.1065934,-1.0699806,0.029716546,0.0518782,0.32375565,1.9837571,1.640482,3.0748787,-0.0803144,-0.77790034,7.8506675,1.1065934,0.2586619,0.23941956,0.14121261,0.098340146,inf,inf,inf,inf,1,1,1,1,2,0,2,2,1,1,0
2717954010,24513993,37.1022343,-76.3875393,32.851135,-48.288445,-13.446941,0.0031594795,0.0022642463,0.0,-0.052158233,-0.012305863,-1.1176071,-1.0800599,0.029716546,0.0518782,0.32375565,1.4573687,-1.4936029,3.7859986,-0.07936276,-0.77790034,7.962418,1.1176071,0.27005944,0.23873635,0.1458511,0.0984512,inf,inf,inf,inf,1,1,1,1,2,0,2,2,1,1,0
2718054959,24513993,37.1022343,-76.3875393,32.85001,-48.2888,-13.553881,0.0031594795,0.0022642463,0.0,-0.05664276,-0.011131461,-1.1332088,-1.0925584,0.029716546,0.0518782,0.32375565,0.5018605,-1.7563088,1.660735,-0.078189075,-0.77790034,8.069357,1.1332088,0.2595756,0.23851386,0.14163552,0.09812117,inf,inf,inf,inf,1,1,1,1,2,0,2,2,1,1,0
2718155012,24513993,37.1022343,-76.3875393,32.849224,-48.289948,-13.6572275,0.0031594795,0.0022642463,0.0,-0.058160633,-0.021261327,-1.1377729,-1.0907743,0.029716546,0.0518782,0.32375565,1.547523,-0.4795744,1.8838956,-0.07673504,-0.77790034,8.172705,1.1377729,0.27058184,0.23926677,0.14611721,0.09862118,inf,inf,inf,inf,1,1,1,1,2,0,2,2,1,1,0
2718255848,24513993,37.1022343,-76.3875393,32.84811,-48.291008,-13.765538,0.0031594795,0.0022642463,0.0,-0.060209893,-0.01969038,-1.1527524,-1.1029617,0.029716546,0.0518782,0.32375565,0.79221416,-1.2922922,3.9889467,-0.07552224,-0.77790034,8.281015,1.1527524,0.2592709,0.23844501,0.14152354,0.09812634,inf,inf,inf,inf,1,1,1,1,2,0,2,2,1,1,0
2718359833,24513993,37.1022343,-76.3875393,32.84738,-48.291763,-13.878381,0.0031594795,0.0022642463,0.0,-0.060209185,-0.020411052,-1.1702727,-1.1185567,0.029716546,0.0518782,0.32375565,-1.0341645,-1.7381309,-4.1945744,-0.07404732,-0.77790034,8.393858,1.1702727,0.27061942,0.2394403,0.14618585,0.09865387,inf,inf,inf,inf,1,1,1,1,2,0,2,2,1,1,0
2718459587,24513993,37.1022343,-76.3875393,32.846565,-48.29107,-13.989305,0.0031594795,0.0022642463,0.0,-0.0554548,-0.023321994,-1.1756588,-1.1239257,0.029716546,0.0518782,0.32375565,0.0145647675,-1.5944678,-3.0676157,-0.07289329,-0.77790034,8.504782,1.1756588,0.26023158,0.23926435,0.14199108,0.09832888,inf,inf,inf,inf,1,1,1,1,2,0,2,2,1,1,0
2718560550,24513993,37.1022343,-76.3875393,32.845078,-48.28959,-14.106064,0.0031594795,0.0022642463,0.0,-0.049458247,-0.013939456,-1.199671,-1.1512291,0.029716546,0.0518782,0.32375565,-0.8293913,-0.82577133,-0.4291206,-0.07191793,-0.77790034,8.62154,1.199671,0.27073768,0.23964705,0.14626287,0.098685436,inf,inf,inf,inf,1,1,1,1,2,0,2,2,1,1,0
2718664540,24513993,37.1022343,-76.3875393,32.84305,-48.28792,-14.231549,0.0031594795,0.0022642463,0.0,-0.046691988,-0.008338958,-1.1965729,-1.1553235,0.029716546,0.0518782,0.32375565,-2.424647,1.3302032,-3.2810113,-0.07095961,-0.77790034,8.747026,1.1965729,0.26034206,0.23779383,0.14206573,0.09796322,inf,inf,inf,inf,1,1,1,1,2,0,2,2,1,1,0
2718764547,24513993,37.1022343,-76.3875393,32.8409,-48.28633,-14.352477,0.0031594795,0.0022642463,0.0,-0.038753215,-0.010957542,-1.2043964,-1.1684687,0.029716546,0.0518782,0.32375565,-1.2395426,0.51610345,0.054400593,-0.07035223,-0.77790034,8.867954,1.2043964,0.2717591,0.23879097,0.14672203,0.09849196,inf,inf,inf,inf,1,1,1,1,2,0,2,2,1,1,0
2718865351,24513993,37.1022343,-76.3875393,32.839767,-48.284283,-14.473335,0.0031594795,0.0022642463,0.0,-0.030489627,0.0077424897,-1.2069734,-1.17378,0.029716546,0.0518782,0.32375565,-1.4110557,1.1647955,0.043391887,-0.070273146,-0.77790034,8.9888115,1.2069734,0.260354,0.23800096,0.14209431,0.09801494,inf,inf,inf,inf,1,1,1,1,2,0,2,2,1,1,0
2718969334,24513993,37.1022343,-76.3875393,32.83946,-48.282143,-14.596844,0.0031594795,0.0022642463,0.0,-0.020486817,-0.012422359,-1.211192,-1.1790999,0.029716546,0.0518782,0.32375565,0.933287,0.59931535,-1.2141596,-0.069471225,-0.77790034,9.11232,1.211192,0.27186164,0.23907852,0.14675374,0.09856088,inf,inf,inf,inf,1,1,1,1,2,0,2,2,1,1,0
2719070024,24513993,37.1022343,-76.3875393,32.839565,-48.279037,-14.717455,0.0031594795,0.0022642463,0.0,-0.012884582,0.0010376247,-1.2189249,-1.1881988,0.029716546,0.0518782,0.32375565,0.6644513,-0.23656814,2.420572,-0.06946533,-0.77790034,9.232931,1.2189249,0.2612976,0.23721685,0.14245796,0.09785235,inf,inf,inf,inf,1,1,1,1,2,0,2,2,1,1,0
2719170035,24513993,37.1022343,-76.3875393,32.839645,-48.276337,-14.842053,0.0031594795,0.0022642463,0.0,-0.00940811,-0.005587833,-1.2284912,-1.2026289,0.029716546,0.0518782,0.32375565,1.4569043,0.34655374,-0.44770262,-0.068688825,-0.77790034,9.357531,1.2284912,0.27185977,0.23932247,0.14674605,0.09862782,inf,inf,inf,inf,1,1,1,1,2,0,2,2,1,1,0
2719274149,24513993,37.1022343,-76.3875393,32.84075,-48.2706,-14.970284,0.0031594795,0.0022642463,0.0,-0.006299195,-0.0017733378,-1.2318752,-1.2081715,0.029716546,0.0518782,0.32375565,1.0370513,-0.64912695,2.1791856,-0.067809656,-0.77790034,9.485762,1.2318752,0.26138306,0.237499,0.14250334,0.09791903,inf,inf,inf,inf,1,1,1,1,2,0,2,2,1,1,0
2719374978,24513993,37.1022343,-76.3875393,32.84205,-48.26431,-15.0957,0.0031594795,0.0022642463,0.0,0.0007341864,0.00539637,-1.2489309,-1.2276576,0.029716546,0.0518782,0.32375565,0.86466736,0.6727443,1.830029,-0.06667644,-0.77790034,9.611177,1.2489309,0.27285334,0.23851068,0.14712842,0.09845399,inf,inf,inf,inf,1,1,1,1,2,0,2,2,1,1,0
2719474920,24513993,37.1022343,-76.3875393,32.842186,-48.258568,-15.221374,0.0031594795,0.0022642463,0.0,-0.0027860084,0.0015469559,-1.24453,-1.2260602,0.029716546,0.0518782,0.32375565,0.5272701,-0.15551491,0.9758278,-0.06502304,-0.77790034,9.736851,1.24453,0.26200858,0.23808327,0.14275753,0.098122366,inf,inf,inf,inf,1,1,1,1,2,0,2,2,1,1,0
2719575732,24513993,37.1022343,-76.3875393,32.841896,-48.25437,-15.348156,0.0031594795,0.0022642463,0.0,0.0015809941,-1.0148156e-05,-1.2615322,-1.2449504,0.029716546,0.0518782,0.32375565,1.0258943,1.2348113,1.220194,-0.06311947,-0.77790034,9.863632,1.2615322,0.27260864,0.23850094,0.14703771,0.09849155,inf,inf,inf,inf,1,1,1,1,2,0,2,2,1,1,0
2719679765,24513993,37.1022343,-76.3875393,32.84111,-48.247856,-15.482252,0.0031594795,0.0022642463,0.0,-0.003015262,-0.00064135715,-1.262162,-1.2499492,0.029716546,0.0518782,0.32375565,0.76733434,-1.9423133,-0.4457802,-0.061361343,-0.77790034,9.997728,1.262162,0.26203266,0.23833837,0.14274785,0.09819197,inf,inf,inf,inf,1,1,1,1,2,0,2,2,1,1,0
2719779742,24513993,37.1022343,-76.3875393,32.839947,-48.241974,-15.608313,0.0031594795,0.0022642463,0.0,-0.0033418995,-0.0097197965,-1.2788416,-1.2668377,0.029716546,0.0518782,0.32375565,0.053924024,-0.98280054,-0.91219205,-0.059509646,-0.77790034,10.123789,1.2788416,0.27362925,0.23773997,0.14742172,0.09833476,inf,inf,inf,inf,1,1,1,1,2,0,2,2,1,1,0
2719880557,24513993,37.1022343,-76.3875393,32.83988,-48.23675,-15.736814,0.0031594795,0.0022642463,0.0,-0.0060682935,-0.020033557,-1.290453,-1.2793418,0.029716546,0.0518782,0.32375565,-0.47167143,-0.99187326,-3.2403767,-0.057792187,-0.77790034,10.252291,1.290453,0.26212633,0.23865885,0.14279546,0.09827136,inf,inf,inf,inf,1,1,1,1,2,0,2,2,1,1,0
2719984535,24513993,37.1022343,-76.3875393,32.839985,-48.23241,-15.866066,0.0031594795,0.0022642463,0.0,-0.007538369,0.00742813,-1.2736229,-1.2595558,0.029716546,0.0518782,0.32375565,-1.2799922,1.6879725,0.5244025,-0.057275154,-0.77790034,10.381542,1.2736229,0.2736364,0.23798065,0.14739367,0.098397866,inf,inf,inf,inf,1,1,1,1,2,0,2,2,1,1,0
2720084371,24513993,37.1022343,-76.3875393,32.84038,-48.22807,-15.990872,0.0031594795,0.0022642463,0.0,-0.009177982,-0.003921249,-1.27195,-1.255985,0.029716546,0.0518782,0.32375565,-1.5508317,1.0545547,-2.0054736,-0.05650387,-0.77790034,10.50635,1.27195,0.2630694,0.23787908,0.14315565,0.098107904,inf,inf,inf,inf,1,1,1,1,2,0,2,2,1,1,0
2720185193,24513993,37.1022343,-76.3875393,32.84075,-48.22533,-16.119255,0.0031594795,0.0022642463,0.0,-0.0021040684,-0.007037691,-1.2692032,-1.2537761,0.029716546,0.0518782,0.32375565,1.1283679,0.16501018,0.034038685,-0.056321718,-0.77790034,10.634731,1.2692032,0.27371716,0.238311,0.14740953,0.09848093,inf,inf,inf,inf,1,1,1,1,2,0,2,2,1,1,0
2720289190,24513993,37.1022343,-76.3875393,32.842052,-48.222263,-16.259388,0.0031594795,0.0022642463,0.0,0.0039166273,-0.018728837,-1.2953027,-1.2876811,0.029716546,0.0518782,0.32375565,0.07891699,0.6668832,0.5872699,-0.056248117,-0.77790034,10.774864,1.2953027,0.2631478,0.23822518,0.14314425,0.09819661,inf,inf,inf,inf,1,1,1,1,2,0,2,2,1,1,0
2720390023,24513993,37.1022343,-76.3875393,32.843445,-48.220455,-16.39429,0.0031594795,0.0022642463,0.0,0.005882316,-0.016168263,-1.2958292,-1.29339,0.029716546,0.0518782,0.32375565,-0.3963397,0.6868394,3.7632914,-0.05674098,-0.77790034,10.909767,1.2958292,0.27470556,0.23758166,0.14771783,0.098334126,inf,inf,inf,inf,1,1,1,1,2,0,2,2,1,1,0
2720494151,24513993,37.1022343,-76.3875393,32.842087,-48.21839,-16.529596,0.0031594795,0.0022642463,0.0,0.005419837,-0.020072725,-1.2936646,-1.2920064,0.029716546,0.0518782,0.32375565,0.22402793,-0.911679,-1.3895642,-0.05740435,-0.77790034,11.045073,1.2936646,0.26399097,0.23745619,0.14344166,0.09805013,inf,inf,inf,inf,1,1,1,1,2,0,2,2,1,1,0
2720598004,24513993,37.1022343,-76.3875393,32.840645,-48.217896,-16.665577,0.0031594795,0.0022642463,0.0,0.0043021673,-0.04110741,-1.2928444,-1.292417,0.029716546,0.0518782,0.32375565,0.039790366,-1.2647095,-1.5944524,-0.05780445,-0.77790034,11.181053,1.2928444,0.27567986,0.23854856,0.1480884,0.09859569,inf,inf,inf,inf,1,1,1,1,2,0,2,2,1,1,0
2720698818,24513993,37.1022343,-76.3875393,32.839485,-48.21363,-16.799728,0.0031594795,0.0022642463,0.0,0.0060973302,-0.033409994,-1.3068833,-1.3097732,0.029716546,0.0518782,0.32375565,-0.60871315,0.35041955,-0.109799266,-0.058669712,-0.77790034,11.315205,1.3068833,0.264163,0.23780018,0.14350161,0.09813786,inf,inf,inf,inf,1,1,1,1,2,0,2,2,1,1,0
2720798921,24513993,37.1022343,-76.3875393,32.83852,-48.21133,-16.933905,0.0031594795,0.0022642463,0.0,0.0019154579,-0.038583566,-1.3009578,-1.3075625,0.029716546,0.0518782,0.32375565,-1.1136057,-0.5562888,0.318365,-0.059555974,-0.77790034,11.449381,1.3009578,0.27586195,0.2389047,0.14813578,0.09868703,inf,inf,inf,inf,1,1,1,1,2,0,2,2,1,1,0
2720899708,24513993,37.1022343,-76.3875393,32.838055,-48.208717,-17.067364,0.0031594795,0.0022642463,0.0,0.004701259,-0.042173166,-1.2999756,-1.308336,0.029716546,0.0518782,0.32375565,-0.572664,0.30332872,-0.9918878,-0.060343422,-0.77790034,11.58284,1.2999756,0.26518348,0.2370829,0.14383353,0.09799493,inf,inf,inf,inf,1,1,1,1,2,0,2,2,1,1,0
2721003756,24513993,37.1022343,-76.3875393,32.837776,-48.20861,-17.202068,0.0031594795,0.0022642463,0.0,0.0019115498,-0.05059674,-1.2839694,-1.2915715,0.029716546,0.0518782,0.32375565,0.43559083,0.7716301,0.25927013,-0.061452735,-0.77790034,11.717545,1.2839694,0.27684125,0.23813382,0.14845596,0.098537534,inf,inf,inf,inf,1,1,1,1,2,0,2,2,1,1,0
2721107746,24513993,37.1022343,-76.3875393,32.837418,-48.207096,-17.332752,0.0031594795,0.0022642463,0.0,0.0066460776,-0.051256407,-1.2835021,-1.2869473,0.029716546,0.0518782,0.32375565,0.62364006,-1.1474258,-0.4451089,-0.06289577,-0.77790034,11.848228,1.2835021,0.2656319,0.23778357,0.1439422,0.09823327,inf,inf,inf,inf,1,1,1,1,2,0,2,2,1,1,0
2721212682,24513993,37.1022343,-76.3875393,32.836937,-48.20769,-17.462112,0.0031594795,0.0022642463,0.0,0.0029892481,-0.05072966,-1.2750638,-1.272799,0.029716546,0.0518782,0.32375565,0.24684158,-0.008045634,1.4753238,-0.06386209,-0.77790034,11.977589,1.2750638,0.25535977,0.23764415,0.1396732,0.097928025,inf,inf,inf,inf,1,1,1,1,2,0,2,2,1,1,0
2721316537,24513993,37.1022343,-76.3875393,32.83522,-48.20648,-17.59029,0.0031594795,0.0022642463,0.0,-0.002436093,-0.053937327,-1.2864659,-1.2789599,0.029716546,0.0518782,0.32375565,-0.2339663,-0.00048639742,-1.280164,-0.06491894,-0.77790034,12.105766,1.2864659,0.26648706,0.23703285,0.14420642,0.09808344,inf,inf,inf,inf,1,1,1,1,2,0,2,2,1,1,0
2721416664,24513993,37.1022343,-76.3875393,32.83348,-48.2075,-17.716305,0.0031594795,0.0022642463,0.0,0.0005422541,-0.052463606,-1.2809844,-1.2719007,0.029716546,0.0518782,0.32375565,0.38017526,-1.1337757,3.3087761,-0.066211864,-0.77790034,12.231781,1.2809844,0.2555252,0.2363772,0.13974793,0.097631566,inf,inf,inf,inf,1,1,1,1,2,0,2,2,1,1,0
2721521375,24513993,37.1022343,-76.3875393,32.830482,-48.209682,-17.853052,0.0031594795,0.0022642463,0.0,-0.005357406,-0.0743537,-1.3028046,-1.2966856,0.029716546,0.0518782,0.32375565,-0.5370502,0.0012789795,-2.2221186,-0.06645661,-0.77790034,12.368528,1.3028046,0.26666138,0.237447,0.14431772,0.09819145,inf,inf,inf,inf,1,1,1,1,2,0,2,2,1,1,0
2721621227,24513993,37.1022343,-76.3875393,32.82797,-48.213203,-17.98207,0.0031594795,0.0022642463,0.0,-0.008044653,-0.07660773,-1.291254,-1.286101,0.029716546,0.0518782,0.32375565,-0.5961637,-1.3720218,-2.4870436,-0.06712744,-0.77790034,12.497547,1.291254,0.25620058,0.23732413,0.13995667,0.09789004,inf,inf,inf,inf,1,1,1,1,2,0,2,2,1,1,0
2721722165,24513993,37.1022343,-76.3875393,32.82677,-48.216187,-18.115452,0.0031594795,0.0022642463,0.0,-0.0071344576,-0.07155209,-1.2936711,-1.2927096,0.029716546,0.0518782,0.32375565,-1.2746743,-0.15274915,-1.7851833,-0.067430854,-0.77790034,12.630928,1.2936711,0.2665736,0.23783763,0.14424412,0.09828266,inf,inf,inf,inf,1,1,1,1,2,0,2,2,1,1,0
2721826211,24513993,37.1022343,-76.3875393,32.825577,-48.22068,-18.258148,0.0031594795,0.0022642463,0.0,-0.008997862,-0.08261705,-1.2942908,-1.3017375,0.029716546,0.0518782,0.32375565,0.44825375,1.5884991,-1.3230816,-0.06739633,-0.77790034,12.773624,1.2942908,0.25635895,0.23770268,0.1400532,0.097980544,inf,inf,inf,inf,1,1,1,1,2,0,2,2,1,1,0
2721926009,24513993,37.1022343,-76.3875393,32.824337,-48.22539,-18.391226,0.0031594795,0.0022642463,0.0,-0.007413306,-0.07436948,-1.2946165,-1.304756,0.029716546,0.0518782,0.32375565,-0.8605696,0.71047693,-0.5562384,-0.067549676,-0.77790034,12.906702,1.2946165,0.2676231,0.23714928,0.144594,0.0981401,inf,inf,inf,inf,1,1,1,1,2,0,2,2,1,1,0
2722026922,24513993,37.1022343,-76.3875393,32.823162,-48.2312,-18.52347,0.0031594795,0.0022642463,0.0,-0.0044488288,-0.07816928,-1.2927804,-1.3034463,0.029716546,0.0518782,0.32375565,-0.22043842,-0.8736614,-1.1416888,-0.0678384,-0.77790034,13.038946,1.2927804,0.25721952,0.23701113,0.14034674,0.09783579,inf,inf,inf,inf,1,1,1,1,2,0,2,2,1,1,0
2722130931,24513993,37.1022343,-76.3875393,32.821712,-48.23752,-18.656303,0.0031594795,0.0022642463,0.0,-0.0035173758,-0.0714599,-1.2998785,-1.3075554,0.029716546,0.0518782,0.32375565,-1.2343565,-0.301428,-0.08065797,-0.068362445,-0.77790034,13.17178,1.2998785,0.26808587,0.2378165,0.1447573,0.098355286,inf,inf,inf,inf,1,1,1,1,2,0,2,2,1,1,0
2722234969,24513993,37.1022343,-76.3875393,32.820362,-48.244698,-18.791779,0.0031594795,0.0022642463,0.0,-0.0017693747,-0.075314425,-1.2892302,-1.2969255,0.029716546,0.0518782,0.32375565,0.2710886,1.823369,-0.18897794,-0.068196416,-0.77790034,13.307255,1.2892302,0.2577129,0.23768827,0.140507,0.098054685,inf,inf,inf,inf,1,1,1,1,2,0,2,2,1,1,0
2722335861,24513993,37.1022343,-76.3875393,32.818798,-48.252243,-18.920021,0.0031594795,0.0022642463,0.0,-0.0025019837,-0.058513414,-1.2847205,-1.289453,0.029716546,0.0518782,0.32375565,-0.5426849,2.4492266,0.30717754,-0.06873334,-0.77790034,13.435497,1.2847205,0.2680691,0.23816632,0.14476371,0.098444544,inf,inf,inf,inf,1,1,1,1,2,0,2,2,1,1,0
2722435746,24513993,37.1022343,-76.3875393,32.81788,-48.25962,-19.04736,0.0031594795,0.0022642463,0.0,0.00086685596,-0.047109157,-1.2961805,-1.2985255,0.029716546,0.0518782,0.32375565,-0.013626541,0.9573598,2.1431482,-0.06926573,-0.77790034,13.562836,1.2961805,0.25778654,0.23808633,0.1405472,0.098146066,inf,inf,inf,inf,1,1,1,1,2,0,2,2,1,1,0
2722536537,24513993,37.1022343,-76.3875393,32.81785,-48.266792,-19.178442,0.0031594795,0.0022642463,0.0,0.0012185789,-0.052081507,-1.2916723,-1.2944844,0.029716546,0.0518782,0.32375565,0.13457061,0.5371801,-1.3737279,-0.06942734,-0.77790034,13.693918,1.2916723,0.26814634,0.238543,0.14477865,0.09852708,inf,inf,inf,inf,1,1,1,1,2,0,2,2,1,1,0
2722640586,24513993,37.1022343,-76.3875393,32.81826,-48.27403,-19.32168,0.0031594795,0.0022642463,0.0,-0.0054457546,-0.049989805,-1.2870233,-1.2980896,0.029716546,0.0518782,0.32375565,-1.1503199,-0.29174346,0.5083344,-0.06984895,-0.77790034,13.837156,1.2870233,0.25776538,0.23672748,0.14054292,0.0978179,inf,inf,inf,inf,1,1,1,1,2,0,2,2,1,1,0
2722740637,24513993,37.1022343,-76.3875393,32.819313,-48.281258,-19.460321,0.0031594795,0.0022642463,0.0,-0.002276165,-0.04548548,-1.3067918,-1.3251255,0.029716546,0.0518782,0.32375565,-0.4106793,0.13494083,-2.4303887,-0.070374556,-0.77790034,13.975798,1.3067918,0.2690975,0.23784745,0.14517516,0.09837573,inf,inf,inf,inf,1,1,1,1,2,0,2,2,1,1,0
2722841391,24513993,37.1022343,-76.3875393,32.819504,-48.286842,-19.597687,0.0031594795,0.0022642463,0.0,-0.011023157,-0.046855167,-1.2949035,-1.3177125,0.029716546,0.0518782,0.32375565,-1.1293342,-1.3524996,-2.7198792,-0.07092635,-0.77790034,14.113163,1.2949035,0.25782338,0.23713,0.1405837,0.09791054,inf,inf,inf,inf,1,1,1,1,2,0,2,2,1,1,0
2722945351,24513993,37.1022343,-76.3875393,32.81886,-48.290844,-19.740078,0.0031594795,0.0022642463,0.0,-0.013122184,-0.018750321,-1.3010755,-1.328418,0.029716546,0.0518782,0.32375565,-0.69081795,0.29107043,-0.205549,-0.0720817,-0.77790034,14.255554,1.3010755,0.26915252,0.23826188,0.14520074,0.09847311,inf,inf,inf,inf,1,1,1,1,2,0,2,2,1,1,0
2723045407,24513993,37.1022343,-76.3875393,32.817524,-48.294113,-19.875252,0.0031594795,0.0022642463,0.0,-0.019489743,-0.02082906,-1.3002818,-1.3296181,0.029716546,0.0518782,0.32375565,-0.46581006,-0.4465832,-0.30109277,-0.072594,-0.77790034,14.390728,1.3002818,0.2587062,0.23647374,0.14089243,0.097775504,inf,inf,inf,inf,1,1,1,1,2,0,2,2,1,1,0
2723146174,24513993,37.1022343,-76.3875393,32.81538,-48.29684,-20.016426,0.0031594795,0.0022642463,0.0,-0.022077305,-0.024065815,-1.30664,-1.3427446,0.029716546,0.0518782,0.32375565,0.19974908,-1.3520099,-1.9800191,-0.07290463,-0.77790034,14.531902,1.30664,0.2691079,0.23860903,0.1451574,0.098558754,inf,inf,inf,inf,1,1,1,1,2,0,2,2,1,1,0
2723250059,24513993,37.1022343,-76.3875393,32.812645,-48.29982,-20.159163,0.0031594795,0.0022642463,0.0,-0.031328596,-0.015857954,-1.2977077,-1.3369027,0.029716546,0.0518782,0.32375565,-0.30710655,0.6656262,-0.95492524,-0.07327679,-0.77790034,14.674639,1.2977077,0.2587577,0.23685336,0.14092596,0.097857796,inf,inf,inf,inf,1,1,1,1,2,0,2,2,1,1,0
2723350951,24513993,37.1022343,-76.3875393,32.80959,-48.303196,-20.29891,0.0031594795,0.0022642463,0.0,-0.033774026,-0.019288387,-1.2943779,-1.3377302,0.029716546,0.0518782,0.32375565,-1.7089292,0.049485102,-2.0669608,-0.07349084,-0.77790034,14.814386,1.2943779,0.27004516,0.23790933,0.14551117,0.098404326,inf,inf,inf,inf,1,1,1,1,2,0,2,2,1,1,0
2723450786,24513993,37.1022343,-76.3875393,32.80552,-48.306442,-20.43796,0.0031594795,0.0022642463,0.0,-0.035596818,-0.016244762,-1.2933565,-1.341263,0.029716546,0.0518782,0.32375565,0.16249073,-0.33173805,-0.6781372,-0.07345081,-0.77790034,14.953436,1.2933565,0.25955623,0.2377861,0.14122565,0.09810653,inf,inf,inf,inf,1,1,1,1,2,0,2,2,1,1,0
2723555312,24513993,37.1022343,-76.3875393,32.800404,-48.30951,-20.580061,0.0031594795,0.0022642463,0.0,-0.04276584,-0.006930152,-1.2877139,-1.3380127,0.029716546,0.0518782,0.32375565,-0.85621727,-0.8166386,-2.0533211,-0.073492736,-0.77790034,15.095537,1.2877139,0.27053013,0.23860388,0.1456534,0.09862524,inf,inf,inf,inf,1,1,1,1,2,0,2,2,1,1,0
2723659581,24513993,37.1022343,-76.3875393,32.793835,-48.312008,-20.723213,0.0031594795,0.0022642463,0.0,-0.051174678,-0.016859924,-1.2783595,-1.3309647,0.029716546,0.0518782,0.32375565,-0.45740718,-0.2860664,-1.1712117,-0.07310948,-0.77790034,15.238689,1.2783595,0.26007155,0.23679638,0.14137134,0.09792095,inf,inf,inf,inf,1,1,1,1,2,0,2,2,1,1,0
2723759718,24513993,37.1022343,-76.3875393,32.78666,-48.313847,-20.856419,0.0031594795,0.0022642463,0.0,-0.05444673,-0.011340564,-1.2897495,-1.3409172,0.029716546,0.0518782,0.32375565,-1.2786611,-0.4738264,-3.9732406,-0.07283594,-0.77790034,15.371895,1.2897495,0.27062404,0.23899499,0.14567661,0.09871027,inf,inf,inf,inf,1,1,1,1,2,0,2,2,1,1,0
2723860403,24513993,37.1022343,-76.3875393,32.778965,-48.314663,-20.991398,0.0031594795,0.0022642463,0.0,-0.056361675,-0.014328353,-1.2907095,-1.3410066,0.029716546,0.0518782,0.32375565,-0.15876475,-1.1021838,-2.3485985,-0.07244083,-0.77790034,15.506874,1.2907095,0.26014793,0.23715381,0.14142667,0.09799339,inf,inf,inf,inf,1,1,1,1,2,0,2,2,1,1,0
2723964627,24513993,37.1022343,-76.3875393,32.77107,-48.314564,-21.128313,0.0031594795,0.0022642463,0.0,-0.058586963,0.0068664066,-1.2807959,-1.3279887,0.029716546,0.0518782,0.32375565,-0.086059764,1.0059872,1.0063848,-0.07245069,-0.77790034,15.643789,1.2807959,0.27150887,0.23820254,0.14598967,0.098533705,inf,inf,inf,inf,1,1,1,1,2,0,2,2,1,1,0
2724068554,24513993,37.1022343,-76.3875393,32.761116,-48.31545,-21.261618,0.0031594795,0.0022642463,0.0,-0.057679396,0.010095723,-1.2866644,-1.3275652,0.029716546,0.0518782,0.32375565,0.6210941,0.79535294,0.708193,-0.07220991,-0.77790034,15.777094,1.2866644,0.26106638,0.2381252,0.14183578,0.09824025,inf,inf,inf,inf,1,1,1,1,2,0,2,2,1,1,0
2724169334,24513993,37.1022343,-76.3875393,32.751217,-48.316444,-21.388334,0.0031594795,0.0022642463,0.0,-0.057785302,0.01471257,-1.2784652,-1.3120939,0.029716546,0.0518782,0.32375565,0.19705667,-1.1164691,1.2016764,-0.07213249,-0.77790034,15.9038105,1.2784652,0.2715794,0.238589,0.1460585,0.09861931,inf,inf,inf,inf,1,1,1,1,2,0,2,2,1,1,0
2724269361,24513993,37.1022343,-76.3875393,32.73951,-48.315796,-21.511333,0.0031594795,0.0022642463,0.0,-0.05297382,0.016372906,-1.280577,-1.3049225,0.029716546,0.0518782,0.32375565,1.3718064,0.42244595,0.0757765,-0.07222554,-0.77790034,16.02681,1.280577,0.26105097,0.23678517,0.14180627,0.097918876,inf,inf,inf,inf,1,1,1,1,2,0,2,2,1,1,0
2724373347,24513993,37.1022343,-76.3875393,32.727962,-48.314213,-21.639668,0.0031594795,0.0022642463,0.0,-0.052618954,0.01566974,-1.2677174,-1.2845969,0.029716546,0.0518782,0.32375565,0.8071206,-1.7134744,0.23614779,-0.07244409,-0.77790034,16.155144,1.2677174,0.27255496,0.23791303,0.14647813,0.0984742,inf,inf,inf,inf,1,1,1,1,2,0,2,2,1,1,0
2724474146,24513993,37.1022343,-76.3875393,32.71846,-48.31344,-21.767063,0.0031594795,0.0022642463,0.0,-0.043446943,0.018700793,-1.280672,-1.2942902,0.029716546,0.0518782,0.32375565,-0.261864,-0.010521309,1.2267928,-0.07254925,-0.77790034,16.28254,1.280672,0.2612332,0.23720413,0.14195046,0.09802098,inf,inf,inf,inf,1,1,1,1,2,0,2,2,1,1,0
2724574116,24513993,37.1022343,-76.3875393,32.71068,-48.3129,-21.894627,0.0031594795,0.0022642463,0.0,-0.03555266,0.010762957,-1.2758341,-1.2878071,0.029716546,0.0518782,0.32375565,0.40960878,0.87083155,0.57975936,-0.0722965,-0.77790034,16.410103,1.2758341,0.27274743,0.2383119,0.14656623,0.098567635,inf,inf,inf,inf,1,1,1,1,2,0,2,2,1,1,0
2724679027,24513993,37.1022343,-76.3875393,32.704487,-48.311916,-22.030647,0.0031594795,0.0022642463,0.0,-0.020974098,-0.000565663,-1.2787814,-1.2916945,0.029716546,0.0518782,0.32375565,0.96873474,0.47259465,-0.60969144,-0.0717517,-0.77790034,16.546124,1.2787814,0.26225144,0.23817661,0.14239968,0.09827025,inf,inf,inf,inf,1,1,1,1,2,0,2,2,1,1,0
2724778779,24513993,37.1022343,-76.3875393,32.700554,-48.311153,-22.159893,0.0031594795,0.0022642463,0.0,-0.008339966,0.008976507,-1.268694,-1.2819338,0.029716546,0.0518782,0.32375565,1.206761,1.7485024,1.8511983,-0.07144524,-0.77790034,16.67537,1.268694,0.27373746,0.2375536,0.14697908,0.09840586,inf,inf,inf,inf,1,1,1,1,2,0,2,2,1,1,0
2724878786,24513993,37.1022343,-76.3875393,32.697388,-48.309746,-22.288929,0.0031594795,0.0022642463,0.0,0.00351219,0.011492859,-1.2709275,-1.2842896,0.029716546,0.0518782,0.32375565,0.5266885,0.68674433,0.20279202,-0.071072005,-0.77790034,16.804405,1.2709275,0.26191056,0.23826662,0.1422235,0.098321855,inf,inf,inf,inf,1,1,1,1,2,0,2,2,1,1,0
2724979749,24513993,37.1022343,-76.3875393,32.69571,-48.308537,-22.414728,0.0031594795,0.0022642463,0.0,0.018023878,0.0046638325,-1.2669097,-1.2765522,0.029716546,0.0518782,0.32375565,1.4921921,0.57943964,0.4407113,-0.070509896,-0.77790034,16.930204,1.2669097,0.2733661,0.23763128,0.1468002,0.09845461,inf,inf,inf,inf,1,1,1,1,2,0,2,2,1,1,0
2725083751,24513993,37.1022343,-76.3875393,32.696285,-48.30524,-22.544533,0.0031594795,0.0022642463,0.0,0.031810105,-0.0060529565,-1.2679963,-1.2746019,0.029716546,0.0518782,0.32375565,0.5177656,0.02077802,-0.49975052,-0.06985621,-0.77790034,17.060009,1.2679963,0.26284572,0.23756881,0.14264125,0.09816953,inf,inf,inf,inf,1,1,1,1,2,0,2,2,1,1,0
2725188381,24513993,37.1022343,-76.3875393,32.698917,-48.3023,-22.677055,0.0031594795,0.0022642463,0.0,0.043761812,-0.0054802503,-1.2580737,-1.2639434,0.029716546,0.0518782,0.32375565,0.6482674,-0.93323386,0.26990226,-0.06942231,-0.77790034,17.192532,1.2580737,0.27435797,0.23863754,0.14721861,0.098714195,inf,inf,inf,inf,1,1,1,1,2,0,2,2,1,1,0
2725288531,24513993,37.1022343,-76.3875393,32.70124,-48.30082,-22.810896,0.0031594795,0.0022642463,0.0,0.056452803,-0.0005499269,-1.2689492,-1.2812119,0.029716546,0.0518782,0.32375565,0.2204971,0.6136136,0.40187064,-0.06907694,-0.77790034,17.326372,1.2689492,0.2628292,0.23791996,0.14260374,0.098256685,inf,inf,inf,inf,1,1,1,1,2,0,2,2,1,1,0
2725392582,24513993,37.1022343,-76.3875393,32.705143,-48.299904,-22.951033,0.0031594795,0.0022642463,0.0,0.06883674,-0.014943642,-1.2811842,-1.2996056,0.029716546,0.0518782,0.32375565,-0.20868203,-1.3053375,-1.404901,-0.06859574,-0.77790034,17.466509,1.2811842,0.2744314,0.23903897,0.14727567,0.0988055,inf,inf,inf,inf,1,1,1,1,2,0,2,2,1,1,0
2725493489,24513993,37.1022343,-76.3875393,32.707138,-48.29725,-23.091578,0.0031594795,0.0022642463,0.0,0.07736904,-0.0039962567,-1.2954792,-1.3229436,0.029716546,0.0518782,0.32375565,-1.1914474,-1.1766562,-1.4141896,-0.06843661,-0.77790034,17.607054,1.2954792,0.26375532,0.23720966,0.14303991,0.0980978,inf,inf,inf,inf,1,1,1,1,2,0,2,2,1,1,0
2725593351,24513993,37.1022343,-76.3875393,32.711052,-48.295113,-23.2299,0.0031594795,0.0022642463,0.0,0.082188025,0.0051873606,-1.2820164,-1.3163012,0.029716546,0.0518782,0.32375565,-0.544454,-0.31010917,2.7942553,-0.06838487,-0.77790034,17.745377,1.2820164,0.2744106,0.23766573,0.14729223,0.09847004,inf,inf,inf,inf,1,1,1,1,2,0,2,2,1,1,0
2725693317,24513993,37.1022343,-76.3875393,32.715355,-48.2894,-23.36892,0.0031594795,0.0022642463,0.0,0.08941602,-0.0031047198,-1.2973983,-1.3376515,0.029716546,0.0518782,0.32375565,0.0047120163,0.37906298,1.1427187,-0.06780525,-0.77790034,17.884396,1.2973983,0.2638228,0.23760101,0.14310116,0.09818667,inf,inf,inf,inf,1,1,1,1,2,0,2,2,1,1,0
2725798151,24513993,37.1022343,-76.3875393,32.72158,-48.28398,-23.511868,0.0031594795,0.0022642463,0.0,0.09556874,0.024366677,-1.28763,-1.330674,0.029716546,0.0518782,0.32375565,0.8334519,-0.1994298,1.9917592,-0.06801053,-0.77790034,18.027344,1.28763,0.27539313,0.23867168,0.1477183,0.09873138,inf,inf,inf,inf,1,1,1,1,2,0,2,2,1,1,0
2725902016,24513993,37.1022343,-76.3875393,32.72786,-48.27573,-23.650791,0.0031594795,0.0022642463,0.0,0.09590212,0.00900314,-1.3018374,-1.3440691,0.029716546,0.0518782,0.32375565,-0.69312423,-0.86793965,-2.9018126,-0.067204334,-0.77790034,18.166267,1.3018374,0.26474914,0.23857883,0.14347826,0.09843755,inf,inf,inf,inf,1,1,1,1,2,0,2,2,1,1,0
2726002935,24513993,37.1022343,-76.3875393,32.735195,-48.269062,-23.77873,0.0031594795,0.0022642463,0.0,0.09702905,0.024954643,-1.2903485,-1.3258811,0.029716546,0.0518782,0.32375565,-0.7850931,-2.5895169,-0.8054907,-0.06682329,-0.77790034,18.294207,1.2903485,0.27545,0.23902635,0.14774954,0.09880652,inf,inf,inf,inf,1,1,1,1,2,0,2,2,1,1,0
2726106932,24513993,37.1022343,-76.3875393,32.74258,-48.259174,-23.913246,0.0031594795,0.0022642463,0.0,0.09436782,0.020911215,-1.2952117,-1.3271558,0.029716546,0.0518782,0.32375565,-1.1887596,2.425329,-0.9545173,-0.06583689,-0.77790034,18.428722,1.2952117,0.26483774,0.23720406,0.14353372,0.09810671,inf,inf,inf,inf,1,1,1,1,2,0,2,2,1,1,0
2726206787,24513993,37.1022343,-76.3875393,32.750324,-48.251663,-24.03918,0.0031594795,0.0022642463,0.0,0.09303786,0.017728984,-1.2998532,-1.3252952,0.029716546,0.0518782,0.32375565,-0.92319596,0.26547387,-1.5591178,-0.06523521,-0.77790034,18.554657,1.2998532,0.27655187,0.23831753,0.14819081,0.09865338,inf,inf,inf,inf,1,1,1,1,2,0,2,2,1,1,0
2726307815,24513993,37.1022343,-76.3875393,32.757607,-48.24314,-24.165735,0.0031594795,0.0022642463,0.0,0.091380835,0.019507796,-1.2832396,-1.3027896,0.029716546,0.0518782,0.32375565,0.2601222,-0.18983777,-0.6485218,-0.06502478,-0.77790034,18.681211,1.2832396,0.26574022,0.23819494,0.14391568,0.09836488,inf,inf,inf,inf,1,1,1,1,2,0,2,2,1,1,0
2726407854,24513993,37.1022343,-76.3875393,32.765125,-48.237843,-24.291357,0.0031594795,0.0022642463,0.0,0.08789513,0.010009166,-1.2930068,-1.3075638,0.029716546,0.0518782,0.32375565,-0.4013317,-1.1506053,1.0123274,-0.0647824,-0.77790034,18.806833,1.2930068,0.27649114,0.23866516,0.14815952,0.098742135,inf,inf,inf,inf,1,1,1,1,2,0,2,2,1,1,0
2726512509,24513993,37.1022343,-76.3875393,32.774208,-48.232384,-24.424002,0.0031594795,0.0022642463,0.0,0.0781887,-0.012838194,-1.2915161,-1.3022256,0.029716546,0.0518782,0.32375565,-0.56690544,0.36511707,-0.50599635,-0.06457801,-0.77790034,18.939478,1.2915161,0.2653895,0.23665434,0.14375027,0.098035164,inf,inf,inf,inf,1,1,1,1,2,0,2,2,1,1,0
2726616522,24513993,37.1022343,-76.3875393,32.782635,-48.230118,-24.556652,0.0031594795,0.0022642463,0.0,0.067467615,-0.026399031,-1.2888113,-1.2965785,0.029716546,0.0518782,0.32375565,-0.32589233,0.8377435,-1.9465567,-0.064239874,-0.77790034,19.072128,1.2888113,0.25515798,0.23654778,0.1395601,0.09773861,inf,inf,inf,inf,1,1,1,1,2,0,2,2,1,1,0
2726716420,24513993,37.1022343,-76.3875393,32.790512,-48.229195,-24.686062,0.0031594795,0.0022642463,0.0,0.06088995,-0.03151127,-1.2892134,-1.2960185,0.029716546,0.0518782,0.32375565,0.7013749,0.895491,1.7211609,-0.06472029,-0.77790034,19.201538,1.2892134,0.2663542,0.23767577,0.1441344,0.09830326,inf,inf,inf,inf,1,1,1,1,2,0,2,2,1,1,0
2726817634,24513993,37.1022343,-76.3875393,32.797733,-48.230984,-24.814964,0.0031594795,0.0022642463,0.0,0.056788746,-0.057743356,-1.2973629,-1.3018229,0.029716546,0.0518782,0.32375565,0.60111296,-0.2406078,0.73911667,-0.06468908,-0.77790034,19.33044,1.2973629,0.25534618,0.23696034,0.1396914,0.097837895,inf,inf,inf,inf,1,1,1,1,2,0,2,2,1,1,0
2726921339,24513993,37.1022343,-76.3875393,32.80592,-48.23324,-24.952545,0.0031594795,0.0022642463,0.0,0.050508946,-0.077953234,-1.3064584,-1.3131726,0.029716546,0.0518782,0.32375565,0.123736575,1.3574324,-0.70008343,-0.06451209,-0.77790034,19.468021,1.3064584,0.26646945,0.23804286,0.14425217,0.09839929,inf,inf,inf,inf,1,1,1,1,2,0,2,2,1,1,0
2727021379,24513993,37.1022343,-76.3875393,32.813343,-48.237385,-25.084406,0.0031594795,0.0022642463,0.0,0.04212855,-0.06807148,-1.2907276,-1.2989435,0.029716546,0.0518782,0.32375565,-0.68580216,-0.43512362,0.1348553,-0.064975485,-0.77790034,19.599882,1.2907276,0.25634953,0.23632556,0.1401166,0.097712114,inf,inf,inf,inf,1,1,1,1,2,0,2,2,1,1,0
2727122227,24513993,37.1022343,-76.3875393,32.82119,-48.24303,-25.220465,0.0031594795,0.0022642463,0.0,0.03788964,-0.07671463,-1.301714,-1.314183,0.029716546,0.0518782,0.32375565,-0.908993,1.6454618,1.5802606,-0.06468084,-0.77790034,19.73594,1.301714,0.26665103,0.2368128,0.14436133,0.098106354,inf,inf,inf,inf,1,1,1,1,2,0,2,2,1,1,0
2727226223,24513993,37.1022343,-76.3875393,32.827747,-48.250828,-25.362776,0.0031594795,0.0022642463,0.0,0.03523362,-0.08097784,-1.2997879,-1.3177819,0.029716546,0.0518782,0.32375565,1.1926988,-1.6744483,1.1964678,-0.06454127,-0.77790034,19.878252,1.2997879,0.2564248,0.23671758,0.14018837,0.09781809,inf,inf,inf,inf,1,1,1,1,2,0,2,2,1,1,0
2727326829,24513993,37.1022343,-76.3875393,32.831837,-48.261036,-25.50596,0.0031594795,0.0022642463,0.0,0.028363163,-0.09575586,-1.3073468,-1.3345771,0.029716546,0.0518782,0.32375565,1.9010973,0.86726385,0.781048,-0.06383476,-0.77790034,20.021437,1.3073468,0.26770073,0.23787385,0.14477138,0.098391905,inf,inf,inf,inf,1,1,1,1,2,0,2,2,1,1,0
2727427110,24513993,37.1022343,-76.3875393,32.834183,-48.272102,-25.649197,0.0031594795,0.0022642463,0.0,0.014666828,-0.087903276,-1.3098434,-1.3456056,0.029716546,0.0518782,0.32375565,-0.5533734,1.856933,0.43384364,-0.06349101,-0.77790034,20.164673,1.3098434,0.257405,0.23777287,0.1405856,0.098100446,inf,inf,inf,inf,1,1,1,1,2,0,2,2,1,1,0
2727530960,24513993,37.1022343,-76.3875393,32.834396,-48.284847,-25.787256,0.0031594795,0.0022642463,0.0,0.005122561,-0.079692796,-1.3035264,-1.3370337,0.029716546,0.0518782,0.32375565,0.5229024,0.6122111,2.7217753,-0.063088894,-0.77790034,20.302732,1.3035264,0.2682916,0.23694138,0.14501104,0.0982286,inf,inf,inf,inf,1,1,1,1,2,0,2,2,1,1,0
2727631713,24513993,37.1022343,-76.3875393,32.833508,-48.296513,-25.921274,0.0031594795,0.0022642463,0.0,-0.0055014836,-0.086071976,-1.3003577,-1.3325932,0.029716546,0.0518782,0.32375565,0.40383786,-0.22407724,-1.1489353,-0.062113162,-0.77790034,20.43675,1.3003577,0.25789288,0.23683299,0.1407447,0.09793154,inf,inf,inf,inf,1,1,1,1,2,0,2,2,1,1,0
2727735814,24513993,37.1022343,-76.3875393,32.831303,-48.307438,-26.061918,0.0031594795,0.0022642463,0.0,-0.014824025,-0.08320807,-1.3064286,-1.3400791,0.029716546,0.0518782,0.32375565,0.6168991,1.0399213,2.3508005,-0.06089454,-0.77790034,20.577394,1.3064286,0.2691539,0.2378998,0.14529954,0.098481,inf,inf,inf,inf,1,1,1,1,2,0,2,2,1,1,0
2727835741,24513993,37.1022343,-76.3875393,32.829037,-48.316425,-26.202984,0.0031594795,0.0022642463,0.0,-0.024139581,-0.07317849,-1.3095932,-1.3504742,0.029716546,0.0518782,0.32375565,0.9584416,1.6161675,1.4914223,-0.059425473,-0.77790034,20.71846,1.3095932,0.2575775,0.23693734,0.14056009,0.09798568,inf,inf,inf,inf,1,1,1,1,2,0,2,2,1,1,0
2727940556,24513993,37.1022343,-76.3875393,32.827038,-48.323933,-26.353722,0.0031594795,0.0022642463,0.0,-0.0310478,-0.052621923,-1.3161535,-1.3658905,0.029716546,0.0518782,0.32375565,-0.28101274,-1.398719,-0.062776186,-0.058404483,-0.77790034,20.869198,1.3161535,0.26882344,0.23800223,0.1451417,0.09853346,inf,inf,inf,inf,1,1,1,1,2,0,2,2,1,1,0
2728040435,24513993,37.1022343,-76.3875393,32.82438,-48.33192,-26.49623,0.0031594795,0.0022642463,0.0,-0.036325306,-0.057069376,-1.3227949,-1.377889,0.029716546,0.0518782,0.32375565,-1.067816,-0.4493304,-2.5966027,-0.056759216,-0.77790034,21.011705,1.3227949,0.25839567,0.23793331,0.14090015,0.09823387,inf,inf,inf,inf,1,1,1,1,2,0,2,2,1,1,0
2728140565,24513993,37.1022343,-76.3875393,32.82119,-48.34189,-26.629894,0.0031594795,0.0022642463,0.0,-0.042095423,-0.048605345,-1.3147676,-1.366437,0.029716546,0.0518782,0.32375565,-2.0167942,0.9676214,-3.2202656,-0.055522252,-0.77790034,21.14537,1.3147676,0.26879188,0.23841022,0.14511259,0.09861962,inf,inf,inf,inf,1,1,1,1,2,0,2,2,1,1,0
2728245397,24513993,37.1022343,-76.3875393,32.819057,-48.35098,-26.765245,0.0031594795,0.0022642463,0.0,-0.035726193,-0.027090138,-1.3032157,-1.3471982,0.029716546,0.0518782,0.32375565,0.3461003,-0.49386364,0.53368855,-0.05506819,-0.77790034,21.280722,1.3032157,0.25829726,0.23661491,0.14081447,0.09791236,inf,inf,inf,inf,1,1,1,1,2,0,2,2,1,1,0
2728345586,24513993,37.1022343,-76.3875393,32.819717,-48.359276,-26.88887,0.0031594795,0.0022642463,0.0,-0.031001562,-0.034291524,-1.3038226,-1.3365148,0.029716546,0.0518782,0.32375565,0.3938436,0.73108363,-0.9014873,-0.054542102,-0.77790034,21.404346,1.3038226,0.26966223,0.23775633,0.1454136,0.098475315,inf,inf,inf,inf,1,1,1,1,2,0,2,2,1,1,0
2728446147,24513993,37.1022343,-76.3875393,32.81941,-48.364418,-27.020487,0.0031594795,0.0022642463,0.0,-0.025949549,-0.0017003184,-1.291345,-1.3215362,0.029716546,0.0518782,0.32375565,-1.2333217,1.62322,1.9416459,-0.055835642,-0.77790034,21.535963,1.291345,0.25839815,0.23705193,0.14084505,0.098014034,inf,inf,inf,inf,1,1,1,1,2,0,2,2,1,1,0
2728546027,24513993,37.1022343,-76.3875393,32.818867,-48.367382,-27.151352,0.0031594795,0.0022642463,0.0,-0.021469139,0.0032242849,-1.2925149,-1.3206357,0.029716546,0.0518782,0.32375565,-0.85302204,2.627922,-1.7462413,-0.05665445,-0.77790034,21.666828,1.2925149,0.26967895,0.23813611,0.14544089,0.098569125,inf,inf,inf,inf,1,1,1,1,2,0,2,2,1,1,0
2728650151,24513993,37.1022343,-76.3875393,32.81972,-48.36962,-27.286327,0.0031594795,0.0022642463,0.0,-0.00788838,0.023733702,-1.2906628,-1.3156257,0.029716546,0.0518782,0.32375565,0.7103281,-1.3459408,2.0832415,-0.05866556,-0.77790034,21.801804,1.2906628,0.25933447,0.23806429,0.14123197,0.0982721,inf,inf,inf,inf,1,1,1,1,2,0,2,2,1,1,0
2728750959,24513993,37.1022343,-76.3875393,32.82175,-48.37094,-27.411999,0.0031594795,0.0022642463,0.0,-0.00062045816,0.03204155,-1.2973031,-1.314718,0.029716546,0.0518782,0.32375565,0.062510975,1.2110858,-0.040446084,-0.060339943,-0.77790034,21.927475,1.2973031,0.26976904,0.23853353,0.14546806,0.09865419,inf,inf,inf,inf,1,1,1,1,2,0,2,2,1,1,0
