timestamp,roll,pitch,yaw,thrust
2709067141,0.054180197,0.11445384,0.0016382096,0.54299366
2709107870,0.05081206,0.113770545,0.0015718363,0.5506572
2709151817,0.049980476,0.09255023,0.0017314864,0.5618237
2709191839,0.048222445,0.12883915,0.0031827465,0.56852794
2709235827,0.053556953,0.07337549,0.001194594,0.57781005
2709279792,0.05816081,0.11431292,0.0003706342,0.58772033
2709319799,-0.011500282,0.11214529,0.00088978297,0.5957242
2709359859,0.049334228,0.104260184,-0.0010018338,0.6056416
2709403810,0.04600722,0.11440277,0.000349015,0.61362535
2709448604,0.049784765,0.11449479,0.0003939562,0.6242082
2709488597,0.040786456,0.10509689,0.00074890064,0.63139206
2709532596,0.043952532,0.112966776,0.0011218714,0.6421484
2709572621,0.032615826,0.09333468,0.0014459719,0.6500994
2709616606,0.03821981,0.10077821,0.0017369314,0.6591401
2709656612,0.04004623,0.081334725,0.0018428323,0.66840434
2709701389,0.026224151,0.0876079,0.0016835952,0.6776761
2709741395,0.031108756,0.111545615,0.0016596249,0.6856554
2709785396,0.047562666,0.12858829,0.0011805958,0.69334525
2709825393,0.034443576,0.08472916,-0.00024127914,0.6955214
2709869392,0.016407253,-0.018752554,-0.0029823289,0.69847965
2709909395,-0.024328034,-0.11352201,-0.0068602944,0.699549
2709950260,-0.0618395,-0.3068409,-0.011092321,0.67831826
2709990206,-0.05053336,-0.5500971,-0.016396413,0.6446967
2710030204,-0.0360032,-0.65461,-0.022876404,0.62166166
2710070232,0.0008686584,-0.55162454,-0.02904026,0.5921825
2710114202,0.064513355,-0.39187115,-0.032685157,0.55584997
2710154210,0.057717815,-0.50068694,-0.03924905,0.53028727
2710198210,0.040976536,-0.6051077,-0.046750993,0.50891316
2710239001,0.06840866,-0.51423705,-0.049603965,0.4964852
2710279036,0.10734057,-0.35761696,-0.05083879,0.4898957
2710323004,0.119232565,-0.32944342,-0.05329725,0.4840957
2710363014,0.11453535,-0.35633397,-0.056386713,0.4836294
2710407097,0.08460542,-0.29964513,-0.05877956,0.48198104
2710447102,0.1317285,-0.2049894,-0.060781624,0.48036683
2710487831,0.11021496,-0.19245434,-0.062594526,0.4840128
2710527822,0.09429459,-0.18797548,-0.063544594,0.4813165
2710571805,0.019629914,-0.13804021,-0.06346605,0.48466477
2710952610,-0.109463334,0.16294792,-0.061297916,0.49169102
2710996616,-0.13597147,0.17839885,-0.0605966,0.49206787
2711037449,-0.11108687,0.18268715,-0.06116253,0.49340162
2711077391,-0.08760195,0.15661909,-0.061359126,0.49391952
2712798199,-0.02218213,-0.06373919,-0.050770134,0.50542164
2712838202,-0.029360738,-0.061301515,-0.050114766,0.50597936
2712882261,-0.02130111,-0.06353846,-0.049438782,0.505135
2712923042,-0.020442003,-0.06296271,-0.04859589,0.50394183
2712963092,-0.02900307,-0.065472156,-0.04743255,0.5053826
2713007078,-0.062211227,-0.059448194,-0.04571232,0.5053969
2713047118,-0.074320965,-0.06521722,-0.0443176,0.5063527
2713086995,-0.05602307,-0.06735391,-0.043446336,0.5048159
2713131024,-0.041642163,-0.06339714,-0.042273387,0.50472116
2713171842,-0.073209554,-0.061557554,-0.04079263,0.5033232
2713211832,-0.085794516,-0.052967068,-0.03937842,0.5037808
2713255843,-0.022376787,-0.056878883,-0.038861997,0.50385004
2713295796,-0.043981817,-0.04784386,-0.037128795,0.50332993
2713339875,-0.062297985,-0.040369064,-0.0355491,0.5033197
2713383807,-0.054933444,-0.043665178,-0.034571,0.5037482
2713423806,-0.06043286,-0.05503316,-0.033367842,0.50484747
2713464604,-0.063905194,-0.03673587,-0.032090757,0.5042425
2713508631,-0.017542074,-0.05164641,-0.032061607,0.50358325
2713548627,-0.017233707,-0.05614499,-0.031217223,0.5042885
2713592612,-0.04216347,-0.059465002,-0.030497314,0.5047053
2713632609,-0.0146447,-0.04329473,-0.02997442,0.50472987
2713676650,-0.03756893,-0.057198554,-0.029277293,0.5050199
2713717477,-0.05575698,-0.046814725,-0.02834838,0.50299126
2713757463,-0.051872265,-0.039598517,-0.02768194,0.50624573
2713797474,-0.058403295,-0.040397704,-0.027411463,0.50712574
2713841405,-0.023906933,-0.043759808,-0.027218217,0.50321066
2713881397,-0.024785755,-0.044612676,-0.026660316,0.5060319
2713925485,-0.008988423,-0.05014492,-0.026004178,0.50651574
2713966261,0.007270159,-0.05215604,-0.02587114,0.505109
2714010237,-0.037633806,-0.053884707,-0.02462333,0.5067098
2714054226,-0.00034514396,-0.053205203,-0.02438957,0.50538117
2714094220,-0.010106659,-0.044725914,-0.023684286,0.5053639
2714138208,-0.014814001,-0.054445155,-0.023180261,0.5068163
2714178240,-0.004725838,-0.04805185,-0.022725808,0.505904
2714222281,-0.006351866,-0.043498144,-0.02226586,0.5060158
2714262993,-0.017557684,-0.054408386,-0.021984674,0.50614476
2714306993,0.010368433,-0.05906313,-0.022042524,0.5068607
2714351004,-0.029624425,-0.04724098,-0.020992346,0.5085199
2714394998,0.0014390158,-0.031720854,-0.020947857,0.5064647
2714438996,-0.010182795,-0.022712817,-0.020174615,0.5058125
2714478993,-0.026708022,-0.037217002,-0.019653292,0.50944906
2714523879,-0.021332616,-0.022014864,-0.0187965,0.5052786
2714563835,-0.05229803,-0.022039134,-0.018010154,0.5087444
2714607840,0.002824795,-0.023327509,-0.01814475,0.50643784
2714647854,-0.006850614,-0.03489955,-0.017540488,0.5080897
2714691856,-0.050337836,-0.028893873,-0.016038164,0.5082111
2714731838,-0.035997417,-0.030885864,-0.015534084,0.5098855
2714772667,-0.0027962837,-0.044315718,-0.01546238,0.50849473
2714812670,0.02922837,-0.04585726,-0.014438087,0.5072057
2714856634,-0.025593676,-0.0329392,-0.012437536,0.5101077
2714896636,0.008288205,-0.045745846,-0.011786689,0.5101991
2714940699,-0.033582225,-0.03932143,-0.010127803,0.50906587
2714980694,-0.021111842,-0.025198946,-0.008799294,0.5074797
2715024636,0.03126984,-0.030129481,-0.008218929,0.5075024
2715065392,-0.0048035397,-0.03092305,-0.0063625486,0.5062658
2715105452,0.0122683225,-0.016877366,-0.0050762286,0.5049209
2715145444,0.030219894,-0.018723885,-0.003950738,0.5077168
2715189495,0.0009627507,-0.012708111,-0.002065953,0.5060963
2715233422,0.053891644,-0.011500525,-0.0014332773,0.5043406
2715277455,0.040923644,-0.001636511,0.00041278847,0.50569916
2715318248,0.06197569,0.009308923,0.0018071209,0.5066217
2715358277,0.0480579,0.014444789,0.0031694954,0.5068841
2715402244,0.064719096,0.015452928,0.0043228436,0.50623304
2715442232,0.05177023,0.027160551,0.0058634332,0.50793976
2715486235,0.06425683,0.027488824,0.0071022036,0.5082086
2715526261,0.0308734,0.023319477,0.008726551,0.50867337
2715570997,0.041298784,0.01884345,0.009885076,0.5081148
2715610997,0.041995216,0.031150375,0.011216457,0.5080897
2715655045,0.037601788,0.03400016,0.012314482,0.50881314
2715695031,0.025472278,0.035836417,0.013518078,0.5076169
2715739018,0.037213538,0.03409949,0.014346323,0.5074057
2715783024,0.025451113,0.034578495,0.015474122,0.5090907
2715823819,0.03615455,0.05013402,0.016468367,0.50832176
2715867836,0.034440286,0.049024154,0.01726956,0.50892276
2715907812,0.0136663895,0.04391914,0.018453097,0.51035523
2715951882,0.025220243,0.04277968,0.018869795,0.509745
2715991834,0.017070659,0.059335828,0.019809254,0.5092554
2716035830,0.029242184,0.059568007,0.020289978,0.5095675
2716075802,-0.00045497413,0.059322085,0.021179728,0.5099924
2716116651,0.0062303375,0.050099906,0.021312257,0.5115137
2716160606,0.0029634119,0.0609624,0.022334626,0.5109727
2716204613,0.0026572375,0.065287605,0.022966374,0.5099302
2716244596,0.0077406606,0.056755383,0.023360614,0.51174915
2716284641,0.059739932,0.05430406,0.023043444,0.50778204
2716324661,0.014905576,0.0646712,0.02471986,0.508505
2716364615,0.0063615115,0.051220223,0.025190178,0.51009554
2716405435,0.050706863,0.04756688,0.024745645,0.5086403
2716449451,0.041577026,0.048734285,0.02519955,0.50910944
2716489467,0.021671688,0.05238191,0.025765397,0.50958025
2716533451,0.031507086,0.04504297,0.025725082,0.510833
2716577398,0.013884955,0.03977486,0.02619058,0.5122774
2716617485,0.033742357,0.041495565,0.02601621,0.50878835
2716662244,0.02763556,0.03933561,0.026111515,0.51043993
2716702228,0.008782001,0.046485737,0.026587896,0.5092813
2716746215,0.030780472,0.041560493,0.026044806,0.508499
2716786228,-0.0141732665,0.03352735,0.027115751,0.51047957
2716830201,0.012711303,0.026100446,0.02655084,0.5092791
2716870216,-0.006882633,0.03242255,0.026839146,0.51031727
2716915026,-0.008435933,0.029782008,0.02681915,0.5096972
2716954995,0.034915153,0.010838124,0.0260348,0.51242185
2716999018,0.017224278,0.005910768,0.026221808,0.5125915
2717038993,0.025157485,0.008126304,0.025697876,0.5112107
2717082991,0.017206298,0.005079563,0.025734492,0.512801
2717123022,0.040850457,-0.0018788928,0.024972454,0.5118112
2717163810,-0.024371143,-0.00018161231,0.025979705,0.5140832
2717203795,0.050365105,0.00911424,0.024485981,0.5120446
2717243841,0.03966249,0.003435862,0.024321102,0.5144655
2717283818,-0.0075771753,0.012438369,0.024484027,0.5147161
2717323830,0.010444359,0.01856935,0.023576774,0.5140065
2717367800,0.0023720502,0.016597776,0.02338067,0.51470596
2717411843,0.004897252,0.01718589,0.022993509,0.51475036
2717456599,0.020576563,0.016280264,0.022366703,0.5154921
2717496604,0.040783346,0.014083481,0.021623034,0.5129665
2717540610,0.043958798,0.016800318,0.021183837,0.5129393
2717580592,0.038357154,0.0060745957,0.021169962,0.5147985
2717624598,0.052986603,-0.0031904925,0.020457529,0.5152862
2717664589,0.03669,-0.0042926166,0.020436464,0.51151997
2717709395,0.015635274,-0.0027092462,0.020600764,0.51263577
2717749446,0.053710617,-0.008238833,0.019764079,0.51323915
2717793477,0.034076042,-0.015589743,0.01951172,0.5142536
2717833437,0.0626844,-0.021652494,0.01878054,0.5122288
2717877395,0.035954274,-0.023894548,0.018451124,0.51203656
2717917451,0.077448055,-0.0058380584,0.017401252,0.5094905
2717961499,0.07059427,-0.006100248,0.016743794,0.50965995
2718002273,0.03884932,-0.008143049,0.016391162,0.5122357
2718042420,0.01826203,-0.005602269,0.015490079,0.5109298
2718086194,0.014504634,0.0027492451,0.014749024,0.5101916
2718126241,0.0142016,-0.009330181,0.013762082,0.51349485
2718170211,0.0148147335,-0.009882437,0.012709483,0.5117808
2718215011,0.021954095,0.0014147299,0.011889032,0.511709
2718255040,-0.013459578,-0.0049024117,0.011128838,0.51222366
2718294996,0.026998144,-0.0069522075,0.009654033,0.51177996
2718339055,-0.0060294196,-0.004943302,0.009297063,0.51334035
2718379044,0.04874359,0.012765444,0.007590949,0.50737727
2718422999,0.01810001,0.011728333,0.0071116197,0.5080307
2718462989,0.043454163,0.027464818,0.0063180453,0.5086213
2718507841,0.044454336,0.02975036,0.0054690684,0.5083103
2718547845,0.024774162,0.039392304,0.0049144574,0.5067147
2718591802,0.025007492,0.040368512,0.0040423363,0.50611895
2718631814,0.026645279,0.053884543,0.0035599663,0.50827885
2718671801,-0.017949834,0.042178903,0.0036955061,0.509024
2718711807,-0.0118358685,0.035054572,0.003122329,0.5097721
2718755830,-0.01503583,0.04120652,0.00286845,0.5102347
2718796664,0.034845047,0.037601992,0.0018476091,0.50773937
2718836653,0.019611847,0.05357864,0.0018242968,0.5051482
2718880600,0.052953146,0.052557442,0.0007267675,0.50572604
2718920607,0.021031056,0.066063404,0.0014674762,0.5074253
2718964653,0.054978557,0.063257694,0.00039515755,0.50562865
2719004604,0.025716923,0.06405083,0.00078025705,0.5087883
2719048598,0.05018596,0.061228942,-0.00021992024,0.50817645
2719089396,-0.0066650687,0.053832646,0.00072764483,0.50933975
2719133441,0.008499868,0.056335926,-0.00014244787,0.50750446
2719173432,0.010350662,0.04617353,-0.0007459229,0.50801474
2719213437,0.015453076,0.030815369,-0.0016381585,0.50776523
2719257390,0.003991783,0.032302022,-0.002303175,0.5069991
2719301450,-0.010730587,0.04306688,-0.0028295475,0.5065514
2719342307,0.008255243,0.03720389,-0.00374666,0.5086382
2719386243,-0.0035958292,0.032963138,-0.004551482,0.50917333
2719430252,0.007524673,0.03733536,-0.006003866,0.50676566
2719470304,-0.01326368,0.04915209,-0.006676965,0.5078055
2719514202,0.008779795,0.049775716,-0.008382692,0.5057797
2719555001,-0.013594232,0.033928484,-0.009417863,0.5104155
2719595003,-0.0020524522,0.047574826,-0.010920784,0.5091389
2719635002,0.0067918184,0.03271044,-0.01249557,0.5088078
2719679038,-0.009081179,0.027948406,-0.013627815,0.5099
2719719055,-0.0054637725,0.035924435,-0.014961369,0.50797147
2719763000,-0.049955208,0.035253193,-0.015158528,0.509708
2719802999,-0.027380265,0.026003111,-0.016548801,0.5088253
2719847815,-0.05752358,0.033235725,-0.01745432,0.5095686
2719887855,-0.037204996,0.03552037,-0.018394124,0.5074863
2719931811,-0.02097102,0.03617415,-0.019771593,0.507677
2719971806,-0.011032719,0.04813696,-0.020351624,0.5052976
2720011799,-0.0038089755,0.054085683,-0.020784374,0.50486773
2720055824,0.017738424,0.045800224,-0.02191252,0.5039793
2720096639,0.0052576363,0.06107108,-0.021764707,0.50500536
2720136648,0.008798448,0.064219296,-0.02211874,0.5047601
2720180608,0.005502798,0.05896221,-0.022060841,0.50500196
2720224621,-0.008118605,0.065107174,-0.021621652,0.50436455
2720264635,-0.004255973,0.06758584,-0.02186318,0.50540227
2720308598,-0.008696497,0.06103703,-0.02162048,0.5036949
2720348621,-0.018755045,0.0754076,-0.02109436,0.5042618
2720393419,-0.011466554,0.06433134,-0.021102289,0.5035821
2720433426,-0.030486561,0.06246308,-0.020125408,0.50393605
2720477445,0.02674455,0.05952419,-0.02093515,0.5031703
2720517402,-0.002318199,0.058250867,-0.01982683,0.50338537
2720561410,0.013133177,0.058116082,-0.019800834,0.5023862
2720601437,0.032285973,0.056379966,-0.019483835,0.5040774
2720646221,0.0007410434,0.050649133,-0.018489964,0.5040824
2720686245,-0.0030177147,0.06704267,-0.017855732,0.50090444
2720726256,-0.0018041097,0.059656635,-0.017287651,0.5061066
2720770263,-0.00886965,0.06068088,-0.01641283,0.50362664
2720814245,0.028042357,0.060781084,-0.016569544,0.5012321
2720854243,0.0017071768,0.07168623,-0.01525728,0.5040684
2720894235,-0.016246324,0.05280682,-0.014693283,0.50584775
2720935046,0.010501755,0.054564986,-0.014492393,0.5054488
2720975053,0.042203248,0.044272743,-0.014238672,0.5036317
2721019073,0.006297184,0.0433105,-0.01278062,0.504977
2721059057,-0.0016205078,0.052601404,-0.011534819,0.50604725
2721103041,-0.0046274434,0.041546658,-0.010699857,0.5065573
2721143042,0.018359685,0.0573258,-0.010081547,0.5043452
2721187797,0.022583527,0.049147498,-0.009771432,0.50612944
2721227803,0.016442489,0.04732287,-0.009103697,0.5049088
2721271812,0.04086382,0.038843736,-0.008948181,0.50555533
2721311796,0.01220853,0.04871369,-0.00730979,0.50481766
2721355797,0.0066320235,0.041006092,-0.00640227,0.50674075
2721395845,0.029183283,0.03852464,-0.0060937344,0.50413215
2721435813,-0.008202082,0.047780965,-0.004543059,0.5064429
2721476631,0.024642948,0.05155961,-0.00490179,0.50516695
2721520609,0.0032815929,0.046222776,-0.003711696,0.50630987
2721560602,0.023340428,0.040087204,-0.0039601577,0.50650954
2721604621,0.02189556,0.039377593,-0.0035357224,0.50628144
2721644657,-0.0051183896,0.035858378,-0.0028913494,0.50623095
2721684621,0.005437513,0.0218634,-0.0027605437,0.5068255
2721725392,0.019712642,0.041017674,-0.0028895785,0.503926
2721765448,0.07377471,0.049244337,-0.0033473114,0.5054089
2721805422,0.038949173,0.0449679,-0.002942879,0.5040747
2721849413,0.028906826,0.055801738,-0.002850947,0.5031859
2721889400,0.020270884,0.04391803,-0.00275683,0.5064085
2721933437,0.024022795,0.04795019,-0.0029119633,0.50461465
2721974234,0.017796637,0.053120025,-0.0024544506,0.50379884
2722018250,0.024618166,0.058719933,-0.0025517016,0.50266296
2722062228,0.0143723395,0.04980008,-0.0022311658,0.5032141
2722102236,-0.0030975952,0.062155094,-0.0015255322,0.50296223
2722146202,0.045499075,0.06626856,-0.0024412805,0.501846
2722186244,0.012764806,0.057870436,-0.0019216656,0.50476456
2722230245,0.019155886,0.05535328,-0.001938167,0.5045177
2722271001,-0.0006883477,0.06319131,-0.0015225336,0.5037071
2722314994,-0.015910067,0.06313015,-0.00096229994,0.5041871
2722359040,0.015547131,0.055092692,-0.0015480025,0.5027697
2722403053,0.00877586,0.049589247,-0.0010437683,0.5045101
2722447089,-0.026500557,0.048722137,0.00015130994,0.50595057
2722487105,-0.031670228,0.040876653,0.00030080474,0.50534105
2722531831,-0.03292587,0.045196235,0.00073073467,0.5046705
2722571855,-0.008103358,0.03823286,0.00031166084,0.5044455
2722611845,-0.011597444,0.03581601,0.0008591726,0.50371623
2722655793,0.0044990527,0.03424464,0.0007840872,0.5003874
2722699833,-0.0011753468,0.02982613,0.001364813,0.5006452
2722739848,-0.00074489636,0.036036976,0.0020239647,0.504277
2722780648,-0.021389471,0.031893127,0.0027766908,0.50310385
2722820635,-0.0024669918,0.027571343,0.0028084833,0.50361073
2722864596,-0.035390936,0.024967693,0.0040173824,0.5044086
2722904601,-0.010830501,0.00711888,0.0041927155,0.5033398
2722948656,-0.031587865,0.007897146,0.004925592,0.5023254
2722988640,-0.033474427,0.010030826,0.005511805,0.50514555
2723032603,-0.0016317893,0.0048300056,0.0055753984,0.50392455
2723073398,-0.01121158,0.009747392,0.00621063,0.50369275
2723113397,-0.0032454224,0.007361705,0.0059900032,0.50306284
2723157448,0.0048544393,0.0031593044,0.0063212644,0.50270855
2723197452,-0.01931746,0.007904323,0.007237496,0.50159544
2723241393,0.0064948276,0.005934974,0.006979794,0.50158024
2723281397,0.020121858,0.0043967254,0.007098442,0.502067
2723326259,0.027351504,-0.0008624571,0.0070140976,0.5023057
2723366235,0.0032368451,0.022138027,0.008140554,0.50328547
2723410202,0.005602394,0.015825188,0.0080113495,0.5036219
2723454245,0.031181406,0.007930864,0.007280405,0.5037477
2723498233,0.0071661426,0.0015954211,0.007566681,0.5053179
2723538217,0.06477135,0.006852081,0.0066207815,0.504438
2723579046,0.011924771,0.0027562024,0.0071516735,0.50417334
2723623082,0.02717705,0.001737207,0.0067023723,0.50356555
2723663088,0.040100534,-0.0152206095,0.0066729155,0.50678504
2723703020,0.027813049,-0.013997443,0.0064002536,0.50307965
2723747098,0.018592082,-0.014962293,0.006443024,0.50405407
2723791070,0.0036072135,-0.014716379,0.0066561294,0.504645
2723831824,0.02230159,-0.017380659,0.0059860055,0.50599194
2723875799,-0.00064256135,-0.023527116,0.006066985,0.50555605
2723915810,0.010203727,-0.018141266,0.005474634,0.5041483
2723955799,0.0114837065,-0.017270518,0.0053155483,0.5053687
2723995839,-0.016410347,-0.020287307,0.005548522,0.50464404
2724039904,-0.005567084,-0.023520488,0.005294473,0.5048348
2724079879,0.012526783,-0.023692638,0.0051271045,0.5041514
2724124603,0.046767868,-0.021424415,0.004386701,0.5025657
2724164605,-0.012604928,-0.012681787,0.0050852187,0.5050282
2724204637,0.028485812,-0.015330128,0.004642985,0.5063037
2724248636,0.011689292,-0.013503746,0.0050028446,0.50590855
2724292608,0.013597753,-0.009449142,0.0051602228,0.5053383
2724336632,0.025774099,-0.0007142208,0.0049025686,0.5049037
2724380621,0.03982685,0.0060719415,0.004812872,0.5047434
2724421397,0.028268032,-0.0101681035,0.005235845,0.50826466
2724461397,0.0007696574,-0.0014255857,0.0056653093,0.5067507
2724505396,0.019680094,0.008461376,0.005324794,0.50670344
2724545417,0.048438154,-0.0028050975,0.004790132,0.5058042
2724589400,0.04237477,-0.0024660805,0.004818447,0.5067302
2724629403,0.059909463,0.015916878,0.004258365,0.5056745
2724674234,0.060368747,0.016074529,0.004504385,0.50579005
2724714253,0.04341111,0.019704817,0.0044310824,0.50732285
2724754210,0.022223352,0.028062295,0.004114174,0.50782686
2724794234,0.014190469,0.007959835,0.003957741,0.5082075
2724838224,0.006809677,0.013422717,0.0036382426,0.5085478
2724878199,0.05606933,0.020080999,0.002557729,0.50658965
2724923067,0.029074226,0.018729482,0.0026158036,0.508391
2724963041,0.02840944,0.019831156,0.0024267898,0.50889784
2725007129,0.0483728,0.025340294,0.001764241,0.50776416
2725047090,0.021966038,0.03431295,0.0018809009,0.5087481
2725091041,0.022879828,0.03722524,0.0012520521,0.50839835
2725131024,0.048654057,0.04448167,0.00040556933,0.509493
2725175064,0.0045673926,0.038565584,0.00078177534,0.51124734
2725215813,0.046206262,0.043319754,-0.00018341091,0.5076192
2725255860,0.062167794,0.050720982,-0.0006427759,0.5079012
2725299794,0.027141912,0.042897247,-0.00021674258,0.5090274
2725339887,0.032933764,0.05254755,-0.00079581206,0.50524974
2725383799,0.023593763,0.05580801,-0.00086930365,0.5045908
2725423841,0.01569058,0.056939527,-0.0008532731,0.5069384
2725468611,0.015285372,0.055350084,-0.0012925075,0.5035663
2725508623,0.017964471,0.06665362,-0.0016965794,0.50504595
2725548596,0.019289296,0.046404276,-0.0020610006,0.5069806
2725588593,-0.024553718,0.047832835,-0.0015130253,0.5045702
2725632602,0.0055343504,0.05251617,-0.0022766995,0.504729
2725672652,0.00941187,0.035925724,-0.002584373,0.50490147
2725717389,0.004077139,0.03999524,-0.002723974,0.5045987
2725757409,-0.020410681,0.04792148,-0.0024235137,0.50468236
2725801455,-0.053415436,0.052312594,-0.0018597367,0.5050852
2725841402,-0.008987615,0.045078833,-0.0030023104,0.50509536
2725885408,-0.014417836,0.052744042,-0.0031624225,0.50405765
2725925396,-0.036141396,0.037363254,-0.0033013402,0.50524795
2725966241,0.029315835,0.047877606,-0.0045322813,0.5022764
2726006203,-0.03892979,0.04574971,-0.003924259,0.5045461
2726050269,-0.00858722,0.03958442,-0.00505456,0.5033414
2726090199,0.004760162,0.05656967,-0.0054688267,0.5041171
2726134261,-0.015347011,0.051369715,-0.005420571,0.50423986
2726178204,0.016770087,0.04242884,-0.0066686645,0.5026127
2726218285,0.005368633,0.04652614,-0.0068185837,0.5043062
2726263006,0.025727406,0.03713922,-0.007434342,0.5063025
2726302997,-0.014383,0.036109433,-0.0068056425,0.5044428
2726347091,0.006849201,0.038144115,-0.0074643744,0.5043934
2726387102,0.014745018,0.021413684,-0.007612481,0.5066157
2726431000,0.052844167,0.016580215,-0.008519954,0.50480515
2726470999,0.06993216,0.0351895,-0.008535474,0.5010605
2726515866,0.03985083,0.024684556,-0.007872821,0.50426316
2726555896,0.073692344,0.029247252,-0.008859276,0.5025843
2726599837,0.060938492,0.027098948,-0.00843831,0.50110644
2726639868,0.04721062,0.034947243,-0.007861918,0.5030791
2726679799,0.060839456,0.03802308,-0.008118954,0.50279754
2726723889,0.08033389,0.037730392,-0.008355241,0.50292146
2726767851,0.061424013,0.0372149,-0.007800225,0.5034372
2726807855,0.068991266,0.032257393,-0.007823048,0.50313437
2726848647,0.05532462,0.03227263,-0.007537831,0.503662
2726892644,0.08284995,0.038138684,-0.0078087235,0.5019427
2726932680,0.10339172,0.037531417,-0.0082113985,0.5018164
2726972694,0.065990195,0.030509979,-0.007822558,0.5036054
2727012667,0.09951406,0.035210893,-0.008555163,0.501959
2727056632,0.07236981,0.03153857,-0.008200858,0.50514656
2727097401,0.051476687,0.02722279,-0.008134616,0.50264895
2727141456,0.024290921,0.032904796,-0.007656234,0.5039993
2727181453,0.06690796,0.029152118,-0.008755018,0.5000376
2727225408,0.06965756,0.025390748,-0.009223137,0.50047135
2727265433,0.04892015,0.03402262,-0.00874792,0.50029516
2727306209,0.05554917,0.037534263,-0.009306491,0.4999293
2727350261,0.043718822,0.03521761,-0.009557664,0.4993723
2727394242,0.0757055,0.030857168,-0.010404537,0.49936125
2727434204,0.054488666,0.024876673,-0.010400951,0.49940518
2727478256,0.03239135,0.025116282,-0.010401622,0.49951985
2727518236,-0.0019633528,0.011821548,-0.010241062,0.50252813
2727562283,0.07260189,0.00396003,-0.012062019,0.5018119
2727611030,0.015130041,0.012686273,-0.011798418,0.50274515
2727654995,0.035460547,0.014799063,-0.012643576,0.50111717
2727695045,0.05401911,0.0058194376,-0.013892407,0.5023718
2727739047,0.03615153,0.006045755,-0.014483853,0.50092477
2727779056,0.014896669,0.0033111752,-0.014973551,0.50195724
2727819004,0.027032845,-0.014939734,-0.01610001,0.5017285
2727859837,0.0595181,-0.0065094107,-0.017410733,0.4999291
2727903795,-0.0013260836,-0.008442682,-0.017746976,0.50060827
2727943876,0.0012078327,-0.0029982144,-0.018752862,0.49888292
2727987808,0.05086715,-0.010554909,-0.020425718,0.4985418
2728027834,0.037420496,0.0047086473,-0.021308774,0.4978681
2728071795,0.04739191,0.0052248696,-0.022344112,0.49882525
2728111860,0.037996788,0.009273619,-0.023019446,0.4984784
2728156649,0.01808975,0.012938674,-0.02350098,0.49926987
2728196597,0.043526635,0.02076607,-0.024473058,0.50015706
2728240607,0.021902448,0.019564532,-0.024779864,0.5008657
2728280598,0.022467976,0.026077598,-0.025116036,0.502547
2728324614,0.04237472,0.029412292,-0.02577169,0.5022905
2728364614,0.02412758,0.034859054,-0.025293285,0.5029377
2728404599,0.05902738,0.02849572,-0.025525618,0.5006485
2728449403,-0.015740981,0.031681854,-0.023297729,0.50360644
2728489401,0.004565552,0.038542386,-0.023029167,0.5012631
2728533398,0.008770862,0.028987702,-0.022315597,0.50223696
2728577403,0.01312071,0.038749706,-0.021449814,0.5028753
2728617431,0.013629229,0.046617143,-0.020439148,0.5012689
2728658203,0.0390919,0.055398446,-0.019643571,0.5026492
2728702286,0.00024527215,0.052357145,-0.017637612,0.5054814
2728742409,0.0033923197,0.054019105,-0.016689826,0.5027713
2728786217,-0.023179913,0.061044626,-0.014678335,0.5020255
2728826208,-0.024970723,0.045253877,-0.0131766675,0.5030544
2728870225,-0.04279117,0.04388901,-0.011473574,0.5044895
2728910202,-0.0047552115,0.04312931,-0.01061809,0.5015997
2728955033,0.03861565,0.03659605,-0.010175638,0.50098103
2728995007,-0.01828644,0.05001514,-0.008204392,0.5013222
2729039073,0.004372765,0.04420704,-0.007562539,0.50296867
2729079032,0.013842389,0.038191214,-0.006596109,0.5030324
2729123041,-0.010958256,0.038746383,-0.005195666,0.5032113
2729167155,-0.011825263,0.031809647,-0.0044497536,0.5038974
2729207819,-0.014382402,0.028455645,-0.003932156,0.5033285
2729251795,-0.012692145,0.027242376,-0.0031592262,0.5040672
2729291804,-0.032671504,0.012929388,-0.0022424005,0.505275
2729335836,0.025195858,0.008066533,-0.0030137333,0.5045965
2729375843,0.027828643,0.012316814,-0.0022433624,0.5034878
2729419797,-0.017403716,0.0062789177,-0.0013051982,0.50580186
2729460599,0.024741236,0.009853638,-0.0017165828,0.5033427
2729504661,0.050776035,0.010668106,-0.0019680504,0.50498587
2729544643,0.023922006,0.012214185,-0.0015001775,0.5032011
2729588612,0.0030755978,0.016320584,-0.0015052743,0.50540507
2729632631,0.023479126,0.025618155,-0.0019153594,0.5050319
2729672632,0.062219486,0.021536257,-0.0030353302,0.5058379
2729716600,0.014815794,0.033004582,-0.0024696456,0.50591284
2729757403,0.0072213192,0.02983525,-0.0025992878,0.50736064
2729801429,0.05824161,0.035585716,-0.0036348016,0.5055166
2729841429,0.041927144,0.0324067,-0.00374681,0.5058775
2729885444,0.059007272,0.035991993,-0.0043609384,0.5050657
2729929432,0.046990555,0.040000353,-0.0043629203,0.50521344
2729973435,0.06362804,0.04384389,-0.0052844896,0.5036554
2730014271,0.028999172,0.035072174,-0.0050343843,0.5038656
2730054330,0.079627484,0.037110526,-0.0065319836,0.5028421
2730098192,0.043770626,0.03005873,-0.0063337395,0.5050536
2730138243,0.03063162,0.035310842,-0.006577148,0.5035931
2730178250,0.034266498,0.03326782,-0.0069923615,0.50612956
2730218260,0.02584542,0.03181451,-0.0074467855,0.50642776
2730262271,0.027972136,0.03427045,-0.007623051,0.5059074
2730302994,0.0531585,0.018338088,-0.00830102,0.5050512
2730347003,-0.0022747135,0.028491106,-0.0077675786,0.5042882
2730387071,-0.0069939545,0.008518349,-0.0076443534,0.50721335
2730431013,0.031928703,0.00061299664,-0.008601636,0.5067882
2730471008,0.039762616,-0.00036233888,-0.00873652,0.50498575
2730514999,-0.0072300117,-0.00025326572,-0.008131073,0.50498754
2730555810,0.052419815,-0.008906139,-0.008886837,0.5028321
2730599840,0.012354025,-0.008684991,-0.008519245,0.5045318
2730639798,0.0114793815,-0.012325168,-0.008402845,0.5033819
2730683795,0.008856555,-0.010122897,-0.008561212,0.5019118
2730723805,0.024160147,-0.008663589,-0.008856734,0.50292814
2730763808,0.03235017,-0.003046763,-0.008943181,0.50342095
2730803796,0.020169549,-0.010079356,-0.009081061,0.5017726
2730848635,-0.00097539497,-0.005318579,-0.008669436,0.5030533
2730888616,-0.020449301,-0.016328488,-0.00811805,0.505512
2730932608,-0.022075754,-0.02089807,-0.008397368,0.50359476
2730972619,0.011849144,-0.0057750386,-0.008474883,0.50064826
2731016603,0.008645839,-0.011693805,-0.008388752,0.50310844
2731060592,-0.0098771425,-0.010618484,-0.008177172,0.5030442
2731101400,0.034496848,-0.010849146,-0.008899936,0.5026007
2731145501,-0.014500918,-0.0077377735,-0.008020251,0.5026354
2731185447,-0.035388883,0.0037144027,-0.0072897985,0.5013041
2731229413,0.012536028,-0.0012658127,-0.007978513,0.501726
2731269395,0.004462867,-0.0142958835,-0.007600231,0.5043514
2731313473,0.018580645,-0.0066076573,-0.007472037,0.5026711
2731354293,0.0129836695,-0.009125544,-0.0073693194,0.50151354
2731398245,-0.00048653875,-0.0069616116,-0.0069298637,0.5024875
2731438252,-0.003619303,-0.023197196,-0.00706915,0.50445175
2731482424,0.038072605,-0.016462997,-0.0076467996,0.50128853
2731526230,0.004384376,-0.0045166686,-0.0067737103,0.5012909
2731566293,-0.034808658,-0.024256598,-0.0061641987,0.5040881
2731615018,-0.015314247,-0.009786682,-0.006430156,0.50149596
2731654997,-0.01175857,-0.0012675378,-0.00691374,0.5023273
2731698994,0.024142686,-0.012879817,-0.007883058,0.5007289
2731739018,-0.01744344,-0.011246848,-0.007853454,0.49953824
2731783018,-0.004384414,-0.0072168927,-0.008414743,0.5000456
2731822992,-0.003571129,-0.021059759,-0.008632711,0.50179356
2731863795,-0.0173271,-0.00084338145,-0.0090001505,0.49847624
2731907803,-0.02058391,-0.0049556093,-0.009116146,0.5010138
2731947829,-0.004692413,-0.0026191326,-0.00958414,0.5000262
2731991807,0.00033289095,0.0009271434,-0.010143807,0.49817115
2732031811,-0.020569442,0.0069604283,-0.009850148,0.5002406
2732075792,-0.018160004,0.006022499,-0.01023711,0.5010491
2732115818,-0.009000061,0.011068018,-0.01056721,0.5007607
2732160680,-0.037285704,0.0038237078,-0.010173126,0.5009862
2732200646,-0.008411041,0.014375847,-0.011075316,0.5012102
2732244664,-0.029467372,0.008007291,-0.011082934,0.50080454
2732284652,-0.043508697,0.008930838,-0.0106735015,0.50154954
2732328657,-0.042514656,0.0032859794,-0.010851125,0.5028937
2732368647,-0.026693972,0.0071817115,-0.010951947,0.50271076
2732409446,-0.00419031,0.00204333,-0.011096979,0.5012882
2732453408,-0.0060886866,-0.0016218195,-0.011012907,0.50024384
2732493395,-0.00064832205,0.023178633,-0.010454972,0.500144
2732537397,-0.023219056,0.010116946,-0.009772389,0.5007819
2732577442,-0.019178396,0.025326543,-0.009333119,0.5012457
2732621395,-0.026654715,0.016179822,-0.008569399,0.50241137
2732662234,-0.021074016,0.02147588,-0.00793173,0.501782
2732706253,-0.029342145,0.015071021,-0.007272005,0.5019174
2732746274,-0.0065249433,0.018046372,-0.006881139,0.5007636
2732790218,-0.015158109,0.016332325,-0.00577872,0.50170547
2732830208,-0.038540952,0.010683508,-0.0043769605,0.5034272
2732874258,-0.033672974,0.0043930607,-0.0036124196,0.50287324
2732914214,0.011003303,0.010322526,-0.003095006,0.5001348
2732959012,-0.0400406,-0.00039922542,-0.0013532883,0.5015814
2732998995,-0.022251325,0.0070643583,-0.00039717727,0.5021401
2733043071,-0.00369983,-7.271662e-05,0.00027784117,0.5027366
2733083032,-0.023608297,0.0053090737,0.001665761,0.5023376
2733126999,-0.028422117,0.0025600034,0.0025005431,0.502808
2733167087,3.7968048e-06,0.011256793,0.002954562,0.50504297
2733207805,-0.04247449,0.00323071,0.004188766,0.50389576
2733251844,-0.050050482,0.0099379355,0.004326718,0.504343
2733291832,-0.025542738,0.0059218407,0.0046998495,0.5044683
2733335806,0.014801971,0.0051778937,0.004823136,0.5028585
2733375800,0.010093204,0.014148474,0.0057448805,0.5027009
2733415808,0.023535268,0.004060669,0.0061698016,0.505351
2733455789,0.0076266276,0.011306606,0.0070570284,0.50316
2733500636,0.025599089,0.013936229,0.0076016355,0.5037803
2733540632,-0.0009176213,-0.008286756,0.008339285,0.5063033
2733584605,0.015408915,0.002534622,0.008874306,0.5050027
2733624600,0.034347676,0.0006660416,0.008895762,0.50115335
2733668639,0.026529897,0.004578077,0.009616755,0.5017425
2733708647,0.01490619,0.006685051,0.010165181,0.50348705
2733749486,0.03550776,0.010793933,0.009793327,0.5011552
2733793436,0.006976898,0.015924321,0.011124523,0.5021288
2733837474,0.03820588,0.014858095,0.010966558,0.50192016
2733877486,0.027947772,0.006149066,0.010722537,0.50134313
2733917442,0.04418122,-0.0040433477,0.010661002,0.50267136
2733957467,0.029562375,0.0013824704,0.011050067,0.4992707
2734001400,0.015157819,0.0028810103,0.011389069,0.5003553
2734042273,0.008629494,-0.0077618174,0.011604414,0.5030807
2734086331,0.021456938,-0.011593487,0.011432101,0.50173223
2734126283,0.0016388517,0.0024953908,0.011866405,0.5012262
2734170244,-0.017695231,-0.0019871858,0.012402742,0.5017626
2734210259,-0.013082062,-0.027010154,0.012320479,0.5041555
2734254324,-0.042712644,-0.020955207,0.012814613,0.5031831
2734295040,-0.058323648,-0.025953706,0.013545638,0.5043802
2734335047,0.0150395455,-0.028004142,0.012853053,0.50311387
2734379004,-0.011065468,-0.026749633,0.013424518,0.5034329
2734418992,-0.01361412,-0.019471055,0.013786811,0.5030401
2734463034,-0.015216246,-0.026858553,0.013982154,0.5031826
2734503022,-0.002411083,-0.014425188,0.013826117,0.49707693
2734547813,0.0011353162,-0.022751233,0.013841763,0.48565355
2734591847,0.01563509,-0.033179577,0.013427937,0.47629526
2734631843,0.017056303,-0.033142712,0.013290289,0.46831048
2734671845,0.008385478,-0.04364153,0.013127985,0.46241388
2734715802,-0.034633238,-0.03473871,0.013822172,0.45972225
2734755809,-0.06894303,-0.038831215,0.013683084,0.4577083
2734799829,-0.020829646,-0.04354127,0.013069854,0.456889
2734840656,-0.037535354,-0.04479684,0.013151046,0.45386395
2734880634,-0.034105454,-0.035370853,0.013187261,0.45618734
2734924608,-0.019500919,0.87266463,0.021079388,0.43374157
2734964614,-0.03334762,0.87266463,0.022520373,0.44383466
2735008626,0.012599249,0.87266463,0.014698448,0.4570254
2735049433,-0.018906381,0.87266463,0.017399423,0.47232857
2735093414,-0.01833884,0.87266463,0.015592856,0.48660597
2735133407,0.87266463,0.26071846,0.7853982,0.49133232
2735177434,0.87266463,0.037476648,0.7853982,0.48878247
2735217441,0.87266463,-0.14458773,0.7853982,0.48584443
2735257453,0.87266463,-0.24273771,0.7853982,0.48030332
2735301394,0.8321465,-0.2748996,0.7853982,0.47875968
2735349447,0.6963425,-0.33580244,0.7853982,0.47702935
2735390222,0.5377867,-0.37857446,0.7853982,0.4757448
2735430246,0.35406297,-0.3392067,0.7853982,0.47763914
2735474205,0.22450662,-0.31029278,0.7853982,0.4772506
2735514301,0.064678535,-0.29458618,0.7853982,0.4780811
2735558207,-0.027274277,-0.2722202,0.7853982,0.47676694
2735598278,-0.12248902,-0.22861017,0.7853982,0.47670874
2735647109,-0.24488956,-0.19449568,0.7853982,0.47600633
2735686989,-0.30548292,-0.18156427,0.7853982,0.48002985
2735731017,-0.3448509,-0.15097511,0.7853982,0.48097065
2735775045,-0.40396798,-0.12535165,0.7853982,0.47995725
2735815066,-0.41516152,-0.09899903,0.7853982,0.48333108
2735855850,-0.41251358,-0.08422872,0.7398124,0.48443887
2735895844,-0.43737683,-0.039002404,0.67966217,0.48518458
2735939792,-0.4053734,-0.026887506,0.62114644,0.48704943
2735979802,-0.4006765,-0.01614009,0.5696242,0.48691103
2736023823,-0.39835113,-0.0023895756,0.5154023,0.4864706
2736063839,-0.33005947,0.0017763008,0.46895328,0.48381165
2736107797,-0.3304581,0.009355749,0.419721,0.48584607
2736147801,-0.24633689,0.015699798,0.37612638,0.48271406
2736192692,-0.22668666,-0.029607454,0.33019248,0.48084533
2736236618,-0.2108353,-0.11733779,0.28625932,0.48601726
2736276649,-0.17952353,-0.17557816,0.24859634,0.48226136
2736316649,-0.15665904,-0.22681883,0.2148808,0.48434913
2736360674,-0.10821282,-0.2595877,0.18110283,0.4817516
2736405403,-0.044435754,-0.3156243,0.14796172,0.47734615
2736445402,-0.058503717,-0.35625175,0.119351685,0.4793978
2736489433,-0.050072182,-0.37570485,0.08439299,0.48161304
2736529428,-0.041825235,-0.38262624,0.060493637,0.48320457
2736573498,0.028674014,-0.38118416,0.038495403,0.4820032
2736613393,0.02072574,-0.40153384,0.021273859,0.4864617
2736657468,0.059038576,-0.38178405,0.0024529372,0.4820483
2736702236,0.069877185,-0.3994323,-0.013691167,0.48671085
2736742260,0.048514005,-0.38249055,-0.027116325,0.49058482
2736782245,0.10390111,-0.37995058,-0.037310865,0.48903722
2736822230,0.12620915,-0.3401793,-0.04284527,0.48920006
2736866251,0.06749139,-0.30109873,-0.050000228,0.49560437
2736910211,0.073482126,-0.2042265,-0.048767895,0.49238318
2736950203,0.032154582,-0.14404435,-0.049871724,0.4935281
2736991034,0.097072534,-0.06852503,-0.045690823,0.49425477
2737030998,0.097771294,-0.0046849363,-0.042541865,0.49244308
2737070988,0.09140576,0.03951088,-0.04124442,0.4947324
2737110997,0.13641778,0.077045254,-0.041242793,0.4939323
2737155046,0.13450277,0.10683862,-0.037818268,0.49527887
2737195048,0.15051655,0.12977286,-0.034931187,0.4930329
2737239807,0.18623021,0.13857006,-0.030323194,0.49436763
2737287830,0.13052423,0.12545834,-0.026617771,0.49694735
2737327816,0.094042964,0.11664362,-0.023465829,0.49893507
2737371828,0.05537934,0.1153983,-0.018605456,0.49941593
2737411841,0.036147866,0.09804556,-0.016904388,0.5002838
2737455840,0.07656675,0.065882504,-0.015818957,0.50142604
2737495800,0.1145632,0.038027212,-0.0144061195,0.49936384
2737536652,0.08374857,0.019612754,-0.0108035905,0.50038385
2737576637,0.102004424,-0.008764911,-0.009226282,0.4985105
2737624597,0.042958066,-0.033764664,-0.005719207,0.5036583
2737664593,0.07130319,-0.04091239,-0.003974208,0.4992522
2737704639,0.036159348,-0.077183336,-0.0028431898,0.4995652
2737744621,0.036202207,-0.10006083,-0.0015220165,0.4991292
2737785448,0.03782307,-0.10917952,-7.260643e-05,0.49615812
2737825442,0.02444869,-0.117760316,0.0015099656,0.49518922
2737869460,0.07498472,-0.16550301,0.0018073572,0.49352646
2737909450,0.1040959,-0.16130054,0.0031070337,0.48971042
2737953435,0.08464522,-0.18088369,0.005268504,0.48941365
2738001406,0.0015714602,-0.18666634,0.0050756475,0.4900071
2738042261,-0.045423098,-0.20850328,0.0058628623,0.49402633
2738086199,-0.0018820633,-0.21230873,0.006781879,0.49293825
2738126232,0.007904033,-0.22753003,0.0071289823,0.4920762
2738170254,0.028441116,-0.22339988,0.007750581,0.48704767
2738214204,0.080354385,-0.2411321,0.0098455865,0.48940763
2738262274,0.007775003,-0.24178246,0.008650335,0.48916182
2738302995,0.03109448,-0.23409581,0.0098854685,0.48905066
2738343049,-0.0027116511,-0.2491143,0.009689857,0.49033105
2738391023,0.03241822,-0.26177484,0.00884149,0.49102706
2738431039,0.024678435,-0.25762138,0.008765446,0.486858
2738475049,0.048794433,-0.25346035,0.0086942185,0.49005955
2738518997,0.043854564,-0.26621008,0.008536316,0.4889409
2738559791,-0.020132994,-0.27013695,0.0068264147,0.49387127
2738603795,0.014560993,-0.24569026,0.008132493,0.48666283
2738643804,-0.021919694,-0.24345624,0.008006298,0.49107644
2738687804,0.014129166,-0.24079901,0.009023093,0.49137104
2738727801,-0.03122506,-0.2421338,0.008313016,0.49348196
2738771813,0.0052068653,-0.24927856,0.008981677,0.48994157
2738811832,-0.000122030186,-0.23679924,0.009077916,0.49354142
2738856651,0.044544563,-0.2152172,0.010647617,0.4887233
2738904640,-0.017878702,-0.217847,0.0102912355,0.48727396
2738944696,-0.052132063,-0.21969602,0.010661568,0.48895922
2738988598,-0.04204241,-0.20255557,0.011348497,0.4918413
2739028638,-0.032481845,-0.19755296,0.011805904,0.4903132
2739072626,-0.0107057905,-0.19666088,0.0112626385,0.49166852
2739113449,0.037479706,-0.19639678,0.01147039,0.4936627
2739161444,-0.055810343,-0.18246536,0.009746648,0.49499783
2739209397,0.0077071656,-0.19013698,0.011006811,0.49593073
2739249423,0.032081585,-0.19338894,0.010960655,0.49553865
2739297448,-0.005645665,-0.18937232,0.01052161,0.49573362
2739338223,-0.024974316,-0.2076968,0.009196575,0.49508435
2739378242,0.029796973,-0.20488183,0.008779984,0.49110022
2739426202,0.047438245,-0.20257367,0.008399006,0.48832837
2739466217,0.0011731731,-0.20037523,0.008388328,0.48864505
2739510248,0.0874852,-0.22305472,0.008436836,0.48840204
2739550262,0.037817314,-0.21180637,0.007890037,0.4889386
2739594203,0.11432579,-0.23136967,0.007033623,0.48756975
2739634998,0.060616087,-0.21624663,0.0068396134,0.48978963
2739679050,0.099998385,-0.22580929,0.005403592,0.4879942
2739723003,0.042459138,-0.21724929,0.004188639,0.49315664
2739767138,0.064300284,-0.21528465,0.0036009306,0.49646577
2739815011,0.10335813,-0.2143981,0.0027075978,0.4911578
2739855795,0.06323316,-0.20838329,0.0016248525,0.49289525
2739899848,0.070241205,-0.20628183,0.0002397492,0.49238136
2739939798,0.074409425,-0.2140124,-0.00031663475,0.49580863
2739979795,0.09514259,-0.20598716,-0.0011521145,0.49535736
2740019860,0.027206868,-0.19624579,-0.0018437625,0.49207792
2740063790,0.008356929,-0.1927012,-0.00437224,0.49006456
2740103851,0.025738884,-0.18640286,-0.003308599,0.49449623
2740147804,0.114261344,-0.18227635,-0.004170465,0.49102178
2740188614,0.05783763,-0.17358232,-0.0044814292,0.4936326
2740232601,0.036691345,-0.17006762,-0.0051723532,0.4925456
2740272607,0.03900352,-0.16163656,-0.0060083074,0.48913443
2740312622,0.059055142,-0.17331243,-0.0068177143,0.49140152
2740356622,0.012369446,-0.16411936,-0.008142059,0.49014577
2740400603,0.017201668,-0.16708377,-0.009160762,0.4944474
2740441395,0.022294419,-0.14532699,-0.010012565,0.48959062
2740481391,0.052072164,-0.12952198,-0.0109776575,0.49295333
2740521402,0.045208886,-0.1394842,-0.0119375745,0.49298537
2740561396,0.050564274,-0.12154524,-0.012769418,0.48961332
2740605397,0.0349573,-0.10244856,-0.013671772,0.49367663
2740649410,0.03183847,-0.093567505,-0.014807703,0.49735144
2740690200,-0.0029530975,-0.07485781,-0.014863424,0.49631375
2740730215,-0.019080473,-0.08102335,-0.014517525,0.50047284
2740778231,-0.019818842,-0.053175196,-0.0149080455,0.49562258
2740822292,0.00033201498,-0.062457055,-0.015351187,0.49873325
2740862293,-0.062301412,-0.07699455,-0.015111466,0.5003005
2740906217,-0.036916792,-0.08808298,-0.015375445,0.49986944
2740946229,-0.06941983,-0.08690226,-0.015431985,0.49318275
2740991024,-0.10699247,-0.09822805,-0.015450283,0.4941052
2741031069,-0.06384412,-0.09131922,-0.014168203,0.49611768
2741074989,-0.07258989,-0.10755744,-0.013196524,0.49309188
2741115041,-0.05049853,-0.12780982,-0.012126229,0.4934778
2741159040,0.0028767115,-0.12908897,-0.009279633,0.49735934
2741199095,-0.03858377,-0.13466382,-0.00880474,0.4911808
2741239843,0.022127178,-0.14598352,-0.0073620058,0.49141967
2741279875,-0.06083936,-0.14535032,-0.00652455,0.49857318
2741327841,0.0077502094,-0.1597652,-0.0037661346,0.49375135
2741367834,0.009825776,-0.1416509,-0.002457663,0.49061543
2741411809,-0.00059424655,-0.12678263,-0.0019993738,0.49026924
2741456007,0.07118554,-0.14294581,-0.00036660142,0.4949402
2741496615,0.0031941847,-0.12967916,0.0014919366,0.49292108
2741536638,-0.0006117489,-0.153299,0.0032598027,0.49620482
2741576691,0.019206002,-0.1601112,0.0042954753,0.49469757
2741620603,0.039398957,-0.14733365,0.0059023304,0.48894086
2741660619,0.0391327,-0.1508943,0.0070369327,0.4920056
2741704635,0.061758254,-0.1560568,0.007733963,0.4899944
2741744656,0.057579383,-0.1513515,0.008202768,0.48848268
2741792633,0.06372069,-0.16067944,0.009152794,0.49082613
2741833456,0.07766813,-0.15908054,0.009605722,0.49384746
2741877447,0.09962313,-0.15232627,0.010959871,0.4952421
2741917438,0.040342323,-0.13683538,0.012611886,0.49704078
2741961456,0.12224242,-0.14543985,0.013032652,0.4949045
2742001438,0.10210691,-0.13926895,0.01469044,0.49296245
2742041449,0.11094262,-0.1130036,0.016493775,0.49419257
2742086195,0.09127778,-0.1119196,0.018605968,0.49198857
2742126253,0.054965977,-0.10788164,0.020402674,0.4959903
2742166228,0.043974962,-0.110659525,0.021521334,0.49783552
2742206247,0.0804425,-0.10642195,0.02244477,0.4970047
2742254247,0.07691811,-0.12189937,0.023458922,0.49572763
2742294285,0.10795698,-0.120389104,0.024271086,0.4946617
2742335003,0.09532465,-0.10973549,0.02386692,0.49099475
2742375062,0.19751714,-0.14089435,0.024552654,0.48858878
2742418998,0.14113551,-0.1274262,0.02497885,0.48161548
2742459046,0.20107807,-0.11642991,0.025029587,0.4860815
2742502999,0.24781533,-0.14028972,0.024006315,0.48855472
2742543057,0.2267489,-0.12989633,0.023850901,0.4892265
2742583801,0.2368032,-0.12484115,0.022463497,0.48947373
2742623843,0.21435775,-0.12685709,0.020472445,0.48770016
2742671803,0.15263201,-0.10270052,0.018833311,0.492261
2742711835,0.11513194,-0.12687024,0.01663338,0.49226934
2742751793,0.083357885,-0.12771519,0.013827037,0.4923378
2742791831,0.11676478,-0.13284852,0.010162227,0.4915178
2742839822,0.091655545,-0.12819088,0.006942861,0.48645848
2742880603,-0.020440083,-0.1363305,0.004035863,0.48712158
2742920599,0.0050813924,-0.13185175,0.0012438975,0.4851564
2742964609,-0.067172974,-0.13954198,-0.0016429031,0.48398787
2743004602,-0.043275893,-0.12647563,-0.004398643,0.48175272
2743048617,-0.09517734,-0.114505306,-0.0066709225,0.481566
2743088596,-0.07795036,-0.13245901,-0.008501223,0.48602203
2743133392,-0.08509669,-0.10152865,-0.010217448,0.47960547
2743177474,-0.13273057,-0.094303876,-0.0111277085,0.4787413
2743217469,-0.08541888,-0.08534879,-0.012480515,0.48240092
2743257396,-0.12538844,-0.0723278,-0.012733604,0.4827382
2743301395,-0.121811815,-0.064080864,-0.013502789,0.4862077
2743341413,-0.1321546,-0.059601378,-0.013207947,0.48355052
2743382282,-0.15117072,-0.04306086,-0.014084866,0.4784735
2743426282,-0.13531296,-0.057043716,-0.013819702,0.4855525
2743466262,-0.1346787,-0.038094237,-0.014039687,0.48149785
2743510208,-0.14416832,-0.0458423,-0.014105475,0.48775533
2743550216,-0.12912652,-0.044169027,-0.0147644505,0.48343474
2743594261,-0.14289035,-0.03259097,-0.013915785,0.4884134
2743634288,-0.122973055,-0.030916655,-0.014390137,0.48545238
2743675064,-0.10141084,-0.04831455,-0.0148956375,0.487355
2743715000,-0.046454526,-0.044950396,-0.014769824,0.4876221
2743759044,-0.07056067,-0.03380197,-0.01403206,0.4870166
2743799017,-0.045325663,-0.039528366,-0.014034978,0.4884211
2743843094,-0.074168056,-0.023051083,-0.012735731,0.48706967
2743883864,-0.035195075,-0.027142925,-0.0125118075,0.4864128
2743927802,-0.06862029,-0.034453176,-0.012668022,0.4885062
2743967848,-0.025453152,-0.031881165,-0.012932667,0.48441455
2744015807,0.03479617,-0.0565975,-0.014333524,0.48758265
2744055831,-0.012161101,-0.057855885,-0.0127796745,0.4906776
2744099832,0.041065525,-0.07039533,-0.013220156,0.49032593
2744139865,-0.007257501,-0.06189069,-0.0123864245,0.489114
2744180640,-0.022763144,-0.061066516,-0.011363141,0.49015167
2744224607,0.023830071,-0.057387844,-0.01173811,0.48343456
2744264612,0.0058918754,-0.061441816,-0.011586915,0.48819095
2744308644,0.045503944,-0.07313719,-0.012409238,0.48064947
2744348661,0.036709286,-0.06362888,-0.011803356,0.48038083
2744392606,0.050720125,-0.07738353,-0.01280759,0.47647405
2744433392,0.01718738,-0.08460493,-0.012538564,0.48205265
2744477409,0.048663013,-0.07903787,-0.013558753,0.4783767
2744521402,0.025387287,-0.088153474,-0.0127125,0.47871947
2744561407,-0.004152824,-0.07310747,-0.013286691,0.47825867
2744605449,-0.0058419025,-0.0691748,-0.012490066,0.47891706
2744645480,-0.067041084,-0.050509185,-0.012525366,0.47752628
2744689396,-0.063510135,-0.05566134,-0.012515,0.47541267
2744729402,-0.034665745,-0.057244107,-0.0128338775,0.47786668
2744774235,-0.0684075,-0.046178382,-0.012547923,0.47635025
2744814274,-0.0066319434,-0.05926249,-0.013390286,0.4765545
2744858251,-0.04465584,-0.051308572,-0.013187585,0.47572622
2744898240,0.009001171,-0.061033145,-0.0133559415,0.4833602
2744942299,-0.016427897,-0.049583964,-0.01293216,0.47888276
2744987095,-0.023814896,-0.04146886,-0.012463624,0.47848743
2745030998,-0.051356018,-0.02481693,-0.011408662,0.4797018
2745071001,-0.008748018,-0.02841081,-0.012422456,0.47817698
2745111021,0.0024784012,-0.0220388,-0.011965265,0.4792982
2745155142,0.027587222,-0.021369472,-0.012507283,0.48059162
2745194993,-0.018601093,-0.0056046746,-0.010644173,0.48177183
2745239803,0.060747247,-0.035686553,-0.012002616,0.48164475
2745283828,0.0034345249,-0.05132461,-0.0120083075,0.48292932
2745327799,-0.07097256,-0.030316163,-0.010898565,0.48475605
2745371884,-0.061351817,-0.03407225,-0.0107785845,0.4822504
2745415856,-0.002511772,-0.04392,-0.011472965,0.4804492
2745455863,-0.016379327,-0.048406288,-0.011238535,0.47902706
2745499875,-0.026548654,-0.06280796,-0.011365395,0.48229152
2745540608,-0.002687063,-0.07269101,-0.011657632,0.47928968
2745580706,-0.007272928,-0.08691117,-0.011008016,0.48474038
2745624598,0.015691213,-0.08341202,-0.011259905,0.48185185
2745664648,-0.063358136,-0.095339976,-0.010635727,0.48577544
2745708644,0.005302209,-0.08226226,-0.010957612,0.48249552
2745748698,-0.030897494,-0.08485402,-0.010183445,0.48174688
2745793395,0.0032777402,-0.0829559,-0.009661638,0.47798035
2745837435,-0.01967239,-0.1137571,-0.009658808,0.48136067
2745877439,0.017623289,-0.0990626,-0.009296969,0.4749667
2745921448,-0.047981154,-0.10304883,-0.0087139895,0.48070315
2745961399,0.04003475,-0.10575764,-0.008761681,0.47995
2746005418,-0.027545612,-0.09924039,-0.007319133,0.48321414
2746045453,0.025753358,-0.09432528,-0.0072391764,0.48091176
2746090206,-0.00069576345,-0.075016715,-0.006461008,0.47909653
2746130217,-0.0075980853,-0.08505691,-0.006250678,0.48117375
2746174207,0.010119877,-0.08793559,-0.006075685,0.4776647
2746214220,-0.04431448,-0.07374571,-0.0056863595,0.47623628
2746258216,-0.02016149,-0.0836332,-0.005202726,0.47401646
2746298213,-0.019255275,-0.09087825,-0.0054542124,0.4759402
2746343053,-0.070278876,-0.098520175,-0.005110899,0.4777791
2746383016,-0.027743788,-0.08994557,-0.0057934145,0.47495937
2746423001,-0.022964438,-0.10644132,-0.004898494,0.47837737
2746463027,-0.087285176,-0.089747384,-0.0052007157,0.47834104
2746503065,-0.039742,-0.10596003,-0.006047339,0.4749491
2746543034,-0.0014942498,-0.09475809,-0.005980811,0.48266757
2746587804,-0.026718974,-0.1132162,-0.0056720083,0.47826064
2746627798,-0.018442556,-0.093863636,-0.0062155803,0.48031333
2746671827,-0.052985314,-0.0810097,-0.006317678,0.48170164
2746711833,-0.13998629,-0.09825718,-0.005973673,0.4800985
2746755818,-0.114311,-0.06515314,-0.0060836,0.47953534
2746799840,-0.068247855,-0.06020409,-0.0061656064,0.47912082
2746843849,-0.017108096,-0.06522833,-0.007598809,0.4772231
2746884642,-0.08494471,-0.057608616,-0.0067252857,0.47709063
2746924593,-0.106835395,-0.05826873,-0.006850236,0.4783787
2746968632,-0.13327032,-0.056968614,-0.0075510903,0.47575307
2747008661,-0.108481534,-0.05583986,-0.008158906,0.47848693
2747052613,-0.0971681,-0.026247412,-0.008604458,0.47532853
2747092627,-0.08387776,-0.058921393,-0.008639959,0.47826263
2747137404,-0.09638876,-0.040970445,-0.009367628,0.47311255
2747181445,-0.11399922,-0.034336124,-0.008866024,0.47247908
2747221456,-0.042187758,-0.038746953,-0.0102594,0.47493193
2747265423,-0.060963497,-0.04031958,-0.008782036,0.47202912
2747305401,-0.050188575,-0.018453505,-0.008318836,0.47137836
2747349446,-0.041335803,-0.020990843,-0.0083517805,0.4746067
2747390267,-0.07196284,-0.024117652,-0.0068385517,0.4727701
2747434204,-0.07073177,-0.02185123,-0.0061037326,0.47819152
2747474201,-0.06465143,-0.0040920414,-0.005123175,0.47772276
2747518250,-0.076268844,-0.0042134924,-0.0043554865,0.47968277
2747558260,-0.09096621,0.0005771015,-0.0037176008,0.4772194
2747602248,-0.050417162,5.1046318e-05,-0.0039032318,0.4789615
2747642231,-0.09266282,0.009111213,-0.0026741456,0.47934154
2747682999,-0.09938551,0.0013608409,-0.002272442,0.47146165
2747722997,-0.07233194,-0.003644036,-0.0017436603,0.47042617
2747767091,-0.050177984,-0.001459566,-0.0014996465,0.47111997
2747807090,0.0026407575,-0.0031533919,-0.001453254,0.47542316
2747851005,-0.025095448,-0.0059639146,-0.00022104944,0.4792414
2747891843,0.0002843942,0.0063480707,0.00047006688,0.47863865
2747935870,-0.017521044,0.010846881,0.0012165643,0.47938955
2747975891,-0.04992999,0.015234668,0.0016590662,0.47990513
2748019856,-0.031222649,0.024661375,0.0016889591,0.47930598
2748059865,-0.09321257,0.024348523,0.0029510194,0.47927225
2748103852,-0.04745699,0.024975257,0.0020262026,0.4784671
2748143882,-0.07345654,0.009000751,0.0015916433,0.47644258
2748187840,-0.07880656,0.023164561,0.001694947,0.4738167
2748228598,-0.06317527,-0.0010878632,0.0002117402,0.47569734
2748268643,-0.0019970825,0.0019236114,-0.00081450085,0.47515875
2748312645,-0.10422054,0.005665673,0.0006648145,0.47306287
2748352809,-0.03324729,-0.01687646,-0.0010470401,0.4738228
2748396610,-0.076008804,-0.0128056,-0.00076484936,0.47152346
2748436651,-0.05096515,-0.022593325,-0.0007002119,0.47421438
2748481405,-0.10427492,-0.033687327,-0.0003286729,0.47012192
2748521451,-0.05994708,-0.020693216,0.00035857226,0.4747535
2748565402,-0.05879902,-0.045880083,0.00035785494,0.47227904
2748609398,-0.05345611,-0.052596718,0.0011479799,0.47510695
2748653403,-0.14895137,-0.028709022,0.004473865,0.476008
2748693400,-0.11326176,-0.02903228,0.00486351,0.4772835
2748734221,-0.054586507,-0.02836969,0.004707362,0.47533357
2748778199,-0.14600508,-0.0069276895,0.0076750256,0.47878593
2748818231,-0.12837495,-0.031028053,0.007907785,0.47688064
2748862246,-0.15640801,0.0054389755,0.010299348,0.47827247
2748902404,-0.12026562,-0.008972931,0.010604146,0.47771364
2748946232,-0.0893534,0.024360644,0.011790227,0.47795254
2748991089,-0.046327394,0.02183007,0.011861875,0.48296306
2749031050,-0.08513416,0.05271979,0.013923006,0.48133585
2749075027,-0.02373396,0.036651395,0.0137131335,0.4830849
2749115052,-0.06051685,0.058675695,0.015367552,0.4833502
2749159083,-0.011489101,0.042692132,0.015342114,0.48691726
2749199063,-0.023772934,0.06566265,0.016653689,0.48430565
2749239041,-0.030148253,0.054787226,0.017144304,0.4888766
2749283798,-0.0054916656,0.0629372,0.017120503,0.48843843
2749323816,-0.017531205,0.06271737,0.017350486,0.49173975
2749363877,-0.018946694,0.06640658,0.01715668,0.49223888
2749407796,0.009949331,0.06467236,0.016009599,0.49116257
2749451810,0.054872576,0.053946413,0.014295055,0.48821867
2749495791,0.013586743,0.04859764,0.014244626,0.48945877
2749536629,0.04390943,0.047077116,0.012693375,0.48669255
2749580620,0.01858811,0.033667244,0.012055181,0.4904227
2749620596,-6.00692e-05,0.0280269,0.010853661,0.48966616
2749660620,-0.0020826191,0.03054899,0.009735337,0.4896926
2749700614,0.020604901,0.027274136,0.008786493,0.49496126
2749744661,-0.028729027,0.03326005,0.008764904,0.4911364
2749784606,0.047284182,0.040472016,0.0070668347,0.49075803
2749825401,0.063506946,0.039925855,0.006050292,0.4904172
2749865400,0.036671672,0.04133816,0.005801555,0.49302292
2749909396,0.007058377,0.035906456,0.0054066195,0.4892501
2749949404,0.036782097,0.022015214,0.004944658,0.49221468
2749993408,-0.032906424,0.018923702,0.005071951,0.48960087
2750033411,0.03282638,0.021896392,0.0036174776,0.48653573
2750073395,0.0017057626,0.025432244,0.0040989844,0.48759022
2750118210,-0.03130845,0.024755793,0.0045365742,0.48517644
2750158246,-0.055338383,0.016309878,0.0048408685,0.49051884
2750202269,-0.050978765,0.030133031,0.004452346,0.48741698
2750242322,-0.08257599,0.02655255,0.004595686,0.49146575
2750282234,-0.017045416,0.032870017,0.0031019943,0.48958403
2750323008,-0.015486991,0.027892273,0.0030875672,0.4888792
2750367070,-0.0313541,0.053137045,0.0036624724,0.49005562
2750406998,-0.0642536,0.036289684,0.0035872494,0.4892001
2750450996,-0.046167396,0.05094253,0.0030852864,0.49247858
2750490995,-0.087656006,0.034735218,0.003279488,0.491099
2750534997,-0.02542678,0.049837094,0.0020361845,0.49215534
2750575003,-0.08496295,0.04391867,0.0031221972,0.49461263
2750619843,0.0016981254,0.04121195,0.0011859311,0.49097145
2750663847,-0.0286728,0.016027521,0.0013124363,0.4895048
2750707865,-0.07847953,0.024294099,0.0017742432,0.4888619
2750747901,-0.040553536,0.01821888,0.0007041153,0.488353
2750791841,-0.047577057,0.029821686,0.000849949,0.48895872
2750831846,-0.02216803,0.019916436,0.00014065251,0.49027956
2750872646,-0.0154807065,0.015939787,-0.00017706428,0.4876769
2750912649,-0.06407629,0.0142633505,0.0009128545,0.49146238
2750952643,-0.024211008,0.032081097,0.0002065673,0.48993883
2750996675,-0.0661277,0.031970706,0.0009969607,0.4930474
2751036608,-0.056303006,0.0416381,0.0011909996,0.49075317
2751080633,-0.035581402,0.03361851,0.0014462459,0.49568215
2751120643,-0.04832172,0.055168733,0.0019957316,0.491664
2751161474,-0.0760354,0.047254562,0.0024443236,0.49130812
2751201441,-0.036637038,0.056925412,0.0025394799,0.49102315
2751245486,-0.029266583,0.049402185,0.002416835,0.49632812
2751285422,-0.019010147,0.06744668,0.0025586337,0.49329525
2751329467,0.042309724,0.070791475,0.0016686043,0.49459782
2751369457,-0.004711234,0.07260112,0.0031321077,0.49558243
2751410262,-0.039041426,0.049768243,0.0037883853,0.4958199
2751450233,-0.01796847,0.07631207,0.003887419,0.49116042
2751494271,0.0055887103,0.061195433,0.0029795626,0.49605656
2751534253,0.031932615,0.067412786,0.0030886726,0.4919469
2751578244,-0.002370967,0.075332865,0.0040828045,0.49170852
2751618249,0.03229181,0.07467598,0.003711835,0.49179158
2751662315,-0.0656747,0.099709556,0.0066155246,0.4911308
2751703041,-0.05650338,0.07655495,0.0072079254,0.49537438
2751747072,-0.02250195,0.07929601,0.006879148,0.49477997
2751791039,-0.020696655,0.06820257,0.006509136,0.49032515
2751831056,-0.03535605,0.06935891,0.0072407466,0.4923548
2751871002,-0.019798394,0.06917028,0.007427253,0.49547684
2751914997,-0.056631614,0.069254115,0.008693672,0.49213606
2751955803,-0.022575703,0.07543717,0.008292743,0.49140352
2751995799,-0.049876597,0.0638946,0.008900719,0.49440032
2752039825,-0.048506945,0.0793913,0.009056898,0.49226117
2752079836,-0.071429566,0.0757085,0.009411693,0.49562722
2752123805,-0.102806285,0.0821638,0.010434945,0.49559724
2752163804,-0.078191526,0.0778936,0.009792096,0.4982103
2752204613,-0.047055498,0.09327212,0.009425162,0.49508214
2752244613,-0.0955705,0.07343042,0.01060642,0.49912265
2752288638,-0.041404,0.08175334,0.009342774,0.49775237
2752328600,-0.03441801,0.06388266,0.008437733,0.5020226
2752372612,-0.06727403,0.080089904,0.009005666,0.49792373
2752412613,-0.006230775,0.082447864,0.007563554,0.4960833
2752456596,-0.057397217,0.0845345,0.008308562,0.49889243
2752497419,-0.060052864,0.10895448,0.0080627715,0.49774373
2752537396,-0.040484708,0.09516008,0.0070841853,0.49972486
2752581400,0.008460641,0.09160359,0.005022457,0.49676806
2752625444,-0.05390457,0.10339174,0.006335907,0.49386802
2752665440,-0.017737094,0.10910147,0.005169588,0.49192333
2752705392,-0.02153442,0.10964294,0.0046414034,0.49386793
2752746248,-0.02921359,0.1041156,0.003987737,0.49237052
2752790237,0.0021044782,0.117839485,0.002578389,0.49262398
2752834253,0.023100032,0.10487658,0.0017065065,0.49216574
2752874302,0.02992854,0.105774134,0.0012527483,0.49207702
2752918202,-0.047122885,0.11534054,0.0030116881,0.49163112
2752958247,-0.03463388,0.12257733,0.0027805213,0.492612
2753002266,-0.02293528,0.116201535,0.0015193804,0.49547824
2753043077,0.009306176,0.11161052,0.0006685562,0.4951117
2753086999,-0.021323664,0.10534694,0.0009850822,0.4940784
2753127092,-0.010296611,0.10407187,0.0007417612,0.49751812
2753171113,-0.04987581,0.098081514,0.002034428,0.5004422
2753215010,-0.052082203,0.09071977,0.0016393466,0.5035685
2753255805,-0.011623129,0.09731534,0.0006485227,0.50311553
2753299799,-0.044703446,0.10375347,0.0018615081,0.50344586
2753339850,-0.06476989,0.10773431,0.0022166208,0.5049513
2753383802,-0.056841534,0.10081274,0.0021327464,0.50890505
2753423796,-0.03391517,0.095778935,0.0014659924,0.5067616
2753467811,-0.037079293,0.1135875,0.0018680355,0.5054163
2753507835,-0.040245343,0.09607304,0.0017703555,0.50952697
2753548616,-0.0073866607,0.10628473,0.0012133998,0.50733876
2753592627,0.01013856,0.10750987,0.0008550004,0.5090777
2753636619,-0.016647948,0.105842784,0.0014374221,0.5073519
2753676640,-0.04173542,0.11461735,0.0017324777,0.50705373
2753720611,0.013297624,0.10316044,0.00034698748,0.5051249
2753760609,0.019214693,0.10429287,-0.000213071,0.5048726
2753804623,-0.026278585,0.10526375,0.0009847753,0.5026324
2753845420,-0.03927041,0.07980019,0.00048934505,0.5058696
2753885419,-0.04620537,0.09198588,0.0007070603,0.5036576
2753929407,0.015261787,0.08247147,-0.00047502323,0.50220037
2753969395,0.0345424,0.07172908,-0.000707899,0.5020865
2754013422,-0.043462146,0.07257278,0.0014507675,0.50246274
2754053408,-0.036464736,0.08233287,0.0015946402,0.5028133
2754098193,0.014792213,0.0616734,0.0004213081,0.5033071
2754138261,0.045704063,0.062064856,0.00036049093,0.50125384
