timestamp,timestamp_sample,control[0],control[1],control[2],control[3],control[4],control[5],control[6],control[7]
2708895865,2708895685,0.008140114,0.016615558,0.0011990168,0.5077533,0.0,0.0,0.0,-1.0
2709067210,2709066879,0.008448629,0.017462863,0.00023071551,0.54299366,0.0,0.0,0.0,-1.0
2709107888,2709107713,0.008310824,0.017625345,0.0005845146,0.5506572,0.0,0.0,0.0,-1.0
2709151835,2709151679,0.008572357,0.013180689,0.006112828,0.5618237,0.0,0.0,0.0,-1.0
2709191857,2709191678,0.0062683825,0.015280796,0.006033818,0.56852794,0.0,0.0,0.0,-1.0
2709235845,2709235703,0.008164224,0.0063498677,0.002497326,0.57781005,0.0,0.0,0.0,-1.0
2709279811,2709279678,-0.000666033,0.01960672,-0.024552733,0.58772033,0.0,0.0,0.0,-1.0
2709319817,2709319678,-0.00088617747,0.023573425,0.011318631,0.5957242,0.0,0.0,0.0,-1.0
2709359878,2709359685,0.017258108,0.027915739,-0.002243193,0.6056416,0.0,0.0,0.0,-1.0
2709403832,2709403683,0.012961197,0.024552437,-0.0025762322,0.61362535,0.0,0.0,0.0,-1.0
2709444622,2709444478,0.0090160845,0.020241015,0.002395127,0.6232767,0.0,0.0,0.0,-1.0
2709484662,2709484521,0.007889943,0.0187257,0.0022754031,0.63026875,0.0,0.0,0.0,-1.0
2709528622,2709528483,0.007901485,0.010500891,0.0029435346,0.6412565,0.0,0.0,0.0,-1.0
2709568631,2709568478,0.0044054384,0.007883892,0.0022201203,0.6492345,0.0,0.0,0.0,-1.0
2709608634,2709608488,0.0045556487,0.014730117,0.003572826,0.6589613,0.0,0.0,0.0,-1.0
2709652652,2709652503,0.008239249,0.011142417,0.0031362695,0.66689837,0.0,0.0,0.0,-1.0
2709693434,2709693297,0.0091348095,0.019856807,-0.001818365,0.6761231,0.0,0.0,0.0,-1.0
2709733457,2709733302,0.007996522,0.022145323,0.0002521515,0.6842031,0.0,0.0,0.0,-1.0
2709777418,2709777278,0.00018590572,0.0067182807,-0.0045726504,0.69315577,0.0,0.0,0.0,-1.0
2709817427,2709817278,-0.005331369,-0.024532083,-0.010504672,0.6964513,0.0,0.0,0.0,-1.0
2709861418,2709861283,-0.0116892,-0.070748225,-0.019936765,0.689504,0.0,0.0,0.0,-1.0
2709905446,2709905279,-0.017232537,-0.112566434,-0.02484593,0.6997785,0.0,0.0,0.0,-1.0
2709945429,2709945279,-0.010029356,-0.12078349,-0.028536165,0.6780857,0.0,0.0,0.0,-1.0
2709990224,2709990078,0.004417714,-0.10572535,-0.036742717,0.6446967,0.0,0.0,0.0,-1.0
2710030225,2710030078,0.028738536,-0.099879615,-0.045680027,0.62166166,0.0,0.0,0.0,-1.0
2710074222,2710074078,0.024108382,-0.0753995,-0.044625066,0.583095,0.0,0.0,0.0,-1.0
2710114221,2710114078,0.026293473,-0.030317392,-0.040102854,0.55584997,0.0,0.0,0.0,-1.0
2710158240,2710158079,0.033057,-0.012967993,-0.043978024,0.52810085,0.0,0.0,0.0,-1.0
2710198228,2710198086,0.015955701,0.010146642,-0.042536955,0.50891316,0.0,0.0,0.0,-1.0
2710243117,2710242884,0.017662771,0.017196802,-0.037555743,0.4960634,0.0,0.0,0.0,-1.0
2710283031,2710282889,0.02105435,0.0058354046,-0.036668073,0.48713446,0.0,0.0,0.0,-1.0
2710327123,2710326879,0.022583865,-0.0017264783,-0.03670386,0.48409772,0.0,0.0,0.0,-1.0
2710367140,2710366924,0.015711054,-0.0019412129,-0.0396341,0.47976878,0.0,0.0,0.0,-1.0
2710411118,2710410878,0.023244489,0.000105608255,-0.039382443,0.47902352,0.0,0.0,0.0,-1.0
2710455048,2710454878,0.02323965,0.0027922252,-0.043965705,0.47895497,0.0,0.0,0.0,-1.0
2710495811,2710495678,0.009272707,0.0037321243,-0.03903137,0.48113298,0.0,0.0,0.0,-1.0
2710539866,2710539694,-0.007750407,0.011627229,-0.03919214,0.48301122,0.0,0.0,0.0,-1.0
2710579855,2710579678,-0.015171027,0.023612417,-0.034044933,0.48280242,0.0,0.0,0.0,-1.0
2710960627,2710960483,-0.0071489825,0.011195795,-0.042988114,0.49140173,0.0,0.0,0.0,-1.0
2711000629,2711000482,0.00061299314,0.0102671655,-0.04109105,0.48958126,0.0,0.0,0.0,-1.0
2711045473,2711045278,-0.0010406704,0.0065126778,-0.041969337,0.4919226,0.0,0.0,0.0,-1.0
2712806255,2712806113,-0.0061419825,-0.009241553,-0.052275628,0.50541943,0.0,0.0,0.0,-1.0
2712850227,2712850081,-0.0041249013,-0.00933941,-0.05136428,0.5055146,0.0,0.0,0.0,-1.0
2712891056,2712890879,-0.004279012,-0.008613429,-0.0507961,0.5043523,0.0,0.0,0.0,-1.0
2712935069,2712934884,-0.009335377,-0.009869275,-0.0482064,0.5059953,0.0,0.0,0.0,-1.0
2712975093,2712974885,-0.00847354,-0.009426527,-0.047356494,0.50571597,0.0,0.0,0.0,-1.0
2713019017,2713018878,-0.0048765135,-0.0077980473,-0.04727439,0.50501084,0.0,0.0,0.0,-1.0
2713059052,2713058878,-0.0014669931,-0.0072447816,-0.04530934,0.50340885,0.0,0.0,0.0,-1.0
2713103041,2713102878,-0.011456188,-0.006841941,-0.047928594,0.5062856,0.0,0.0,0.0,-1.0
2713143861,2713143678,-0.006845442,-0.007774287,-0.04704634,0.5042323,0.0,0.0,0.0,-1.0
2713183856,2713183691,-0.0029604398,-0.004412376,-0.047375448,0.50281245,0.0,0.0,0.0,-1.0
2713227861,2713227722,-0.009368506,-0.006889077,-0.044370797,0.5036659,0.0,0.0,0.0,-1.0
2713267818,2713267678,-0.010290717,-0.0065151537,-0.046336897,0.5050224,0.0,0.0,0.0,-1.0
2713311855,2713311678,-0.0017691255,-0.006581615,-0.044188336,0.5026942,0.0,0.0,0.0,-1.0
2713351824,2713351679,-0.004000096,-0.007076582,-0.044614576,0.5040894,0.0,0.0,0.0,-1.0
2713391860,2713391678,-0.0039972803,-0.006845869,-0.04306712,0.5035922,0.0,0.0,0.0,-1.0
2713431857,2713431678,-0.0060470304,-0.0066615543,-0.045358405,0.50357205,0.0,0.0,0.0,-1.0
2713476622,2713476484,0.0015706765,-0.00854079,-0.045201045,0.50384235,0.0,0.0,0.0,-1.0
2713516649,2713516498,-0.0013948356,-0.008754363,-0.047690548,0.50432986,0.0,0.0,0.0,-1.0
2713556622,2713556478,-0.0047237393,-0.010789412,-0.045951575,0.5059667,0.0,0.0,0.0,-1.0
2713600695,2713600494,-0.0063253473,-0.010466089,-0.049716543,0.507833,0.0,0.0,0.0,-1.0
2713644623,2713644484,-0.002946494,-0.007684773,-0.047138456,0.50467,0.0,0.0,0.0,-1.0
2713685413,2713685284,-0.008895443,-0.008341239,-0.046042774,0.5051807,0.0,0.0,0.0,-1.0
2713725437,2713725295,-0.009326586,-0.010529474,-0.04786605,0.50868434,0.0,0.0,0.0,-1.0
2713765432,2713765278,-0.009083559,-0.010326482,-0.048605602,0.50692976,0.0,0.0,0.0,-1.0
2713809485,2713809278,-0.00033936225,-0.0098105455,-0.04630874,0.50453407,0.0,0.0,0.0,-1.0
2713849421,2713849286,-0.0012615813,-0.009949496,-0.04609157,0.5067239,0.0,0.0,0.0,-1.0
2713893414,2713893278,-0.0031522342,-0.0116062695,-0.04813098,0.506661,0.0,0.0,0.0,-1.0
2713933448,2713933297,-0.002838759,-0.012996566,-0.049932037,0.5072298,0.0,0.0,0.0,-1.0
2713978267,2713978079,-0.0066660317,-0.0108881015,-0.047770225,0.50694585,0.0,0.0,0.0,-1.0
2714018267,2714018078,-0.006931587,-0.010258841,-0.047211234,0.5081006,0.0,0.0,0.0,-1.0
2714062254,2714062078,-0.0011665178,-0.007992977,-0.04639059,0.50524485,0.0,0.0,0.0,-1.0
2714102241,2714102078,-0.00072504854,-0.007824648,-0.046125017,0.5068104,0.0,0.0,0.0,-1.0
2714146281,2714146085,-0.0020058902,-0.0075173033,-0.047721207,0.50726485,0.0,0.0,0.0,-1.0
2714186222,2714186078,-0.001908601,-0.011023987,-0.04872217,0.50688684,0.0,0.0,0.0,-1.0
2714230234,2714230079,-0.0027328755,-0.010883,-0.04742185,0.50693005,0.0,0.0,0.0,-1.0
2714271025,2714270885,-0.0036199419,-0.008127146,-0.046673045,0.50559664,0.0,0.0,0.0,-1.0
2714311036,2714310885,-0.0068855486,-0.01005572,-0.048555404,0.5071989,0.0,0.0,0.0,-1.0
2714351022,2714350880,-0.0090247635,-0.0091925245,-0.047571555,0.5085199,0.0,0.0,0.0,-1.0
2714395026,2714394878,-0.004121038,-0.0063889087,-0.046636615,0.5064647,0.0,0.0,0.0,-1.0
2714439015,2714438878,-0.007838262,-0.005977122,-0.048558466,0.5058125,0.0,0.0,0.0,-1.0
2714479023,2714478878,-0.010443412,-0.008512338,-0.048361827,0.50944906,0.0,0.0,0.0,-1.0
2714523897,2714523678,-0.008046446,-0.0066914195,-0.04472612,0.5052786,0.0,0.0,0.0,-1.0
2714563853,2714563680,-0.012779908,-0.00845066,-0.04505929,0.5087444,0.0,0.0,0.0,-1.0
2714607858,2714607678,-0.0039644707,-0.0083537605,-0.046299618,0.50643784,0.0,0.0,0.0,-1.0
2714647872,2714647729,-0.0041674743,-0.010230599,-0.044853315,0.5080897,0.0,0.0,0.0,-1.0
2714691875,2714691685,-0.010512245,-0.008813781,-0.046057805,0.5082111,0.0,0.0,0.0,-1.0
2714731856,2714731680,-0.0057626106,-0.009465439,-0.047151826,0.5098855,0.0,0.0,0.0,-1.0
2714772685,2714772479,0.0006816033,-0.0110876225,-0.044085752,0.50849473,0.0,0.0,0.0,-1.0
2714812689,2714812478,0.006105573,-0.008744723,-0.041768465,0.5072057,0.0,0.0,0.0,-1.0
2714856652,2714856492,-0.003773181,-0.009394474,-0.043719456,0.5101077,0.0,0.0,0.0,-1.0
2714896655,2714896484,0.00029873778,-0.010484608,-0.043090258,0.5101991,0.0,0.0,0.0,-1.0
2714940718,2714940488,-0.004547992,-0.009415425,-0.037134897,0.50906587,0.0,0.0,0.0,-1.0
2714980712,2714980483,-0.0020435143,-0.006938735,-0.038866777,0.5074797,0.0,0.0,0.0,-1.0
2715024654,2715024478,0.0061253924,-0.0081752,-0.035774305,0.5075024,0.0,0.0,0.0,-1.0
2715065411,2715065278,0.0012194205,-0.00708748,-0.034260426,0.5062658,0.0,0.0,0.0,-1.0
2715105470,2715105293,0.00027333893,-0.0039893915,-0.038648847,0.5049209,0.0,0.0,0.0,-1.0
2715145463,2715145279,0.0009384901,-0.004631764,-0.03754362,0.5077168,0.0,0.0,0.0,-1.0
2715189527,2715189278,-0.0031904238,-0.004391777,-0.032697257,0.5060963,0.0,0.0,0.0,-1.0
2715233446,2715233300,0.004269568,-0.0021822928,-0.033230666,0.5043406,0.0,0.0,0.0,-1.0
2715273469,2715273278,0.004325798,-0.0019131863,-0.030652143,0.50603193,0.0,0.0,0.0,-1.0
2715318266,2715318084,0.00602308,-0.0011366119,-0.031986773,0.5066217,0.0,0.0,0.0,-1.0
2715358299,2715358087,0.004003755,-0.0032341548,-0.030016765,0.5068841,0.0,0.0,0.0,-1.0
2715402263,2715402078,0.0061328574,-0.004019897,-0.030628655,0.50623304,0.0,0.0,0.0,-1.0
2715442251,2715442085,0.004604614,-0.0031113187,-0.030760584,0.50793976,0.0,0.0,0.0,-1.0
2715486254,2715486078,0.0046411324,-0.0038358828,-0.030318456,0.5082086,0.0,0.0,0.0,-1.0
2715526279,2715526082,6.398099e-06,-0.0049318084,-0.02819192,0.50867337,0.0,0.0,0.0,-1.0
2715571026,2715570878,0.0021413607,-0.004233383,-0.029292539,0.5081148,0.0,0.0,0.0,-1.0
2715611015,2715610879,0.0014220446,-0.0033297811,-0.027808845,0.5080897,0.0,0.0,0.0,-1.0
2715655064,2715654878,0.0018845404,-0.0018691731,-0.02772829,0.50881314,0.0,0.0,0.0,-1.0
2715695050,2715694878,0.0012987616,-0.0017510608,-0.026795957,0.5076169,0.0,0.0,0.0,-1.0
2715739040,2715738885,0.0033737263,-0.0021443637,-0.026860159,0.5074057,0.0,0.0,0.0,-1.0
2715783046,2715782900,0.0014083625,-0.0026153948,-0.027936619,0.5090907,0.0,0.0,0.0,-1.0
2715823838,2715823705,0.0031637487,1.2624834e-05,-0.025422659,0.50832176,0.0,0.0,0.0,-1.0
2715867854,2715867679,0.002837862,0.00070589856,-0.026680123,0.50892276,0.0,0.0,0.0,-1.0
2715907830,2715907697,0.0006356335,0.00013415332,-0.02458811,0.51035523,0.0,0.0,0.0,-1.0
2715951901,2715951714,0.004390629,0.0015239725,-0.02612735,0.509745,0.0,0.0,0.0,-1.0
2715991859,2715991710,0.0012442679,0.0021744038,-0.024867529,0.5092554,0.0,0.0,0.0,-1.0
2716035852,2716035678,0.0041046063,0.0018838337,-0.02418394,0.5095675,0.0,0.0,0.0,-1.0
2716075820,2716075680,0.0010899671,0.0006713412,-0.024011273,0.5099924,0.0,0.0,0.0,-1.0
2716116670,2716116483,0.0020768342,0.0003100669,-0.02673966,0.5115137,0.0,0.0,0.0,-1.0
2716160624,2716160485,0.0016352832,0.00053397904,-0.02584676,0.5109727,0.0,0.0,0.0,-1.0
2716204631,2716204485,0.001706328,0.001296359,-0.023868883,0.5099302,0.0,0.0,0.0,-1.0
2716244618,2716244478,0.0022917013,-0.0008636797,-0.025171382,0.51174915,0.0,0.0,0.0,-1.0
2716284660,2716284485,0.01020238,-0.0005467704,-0.022558704,0.50778204,0.0,0.0,0.0,-1.0
2716324679,2716324500,0.0014514357,-0.00023696729,-0.020307556,0.508505,0.0,0.0,0.0,-1.0
2716364633,2716364489,-0.0004484787,-0.0025757402,-0.022354677,0.51009554,0.0,0.0,0.0,-1.0
2716405457,2716405278,0.0067961393,-0.0015623089,-0.022729533,0.5086403,0.0,0.0,0.0,-1.0
2716449469,2716449281,0.00433282,0.00050725095,-0.023790602,0.50910944,0.0,0.0,0.0,-1.0
2716489485,2716489284,0.003247702,0.0002986504,-0.020670343,0.50958025,0.0,0.0,0.0,-1.0
2716533469,2716533278,0.0036930589,-0.0013669492,-0.02258853,0.510833,0.0,0.0,0.0,-1.0
2716577417,2716577278,0.00227548,-0.001792827,-0.024453465,0.5122774,0.0,0.0,0.0,-1.0
2716617503,2716617279,0.0062145307,0.00022889685,-0.021504108,0.50878835,0.0,0.0,0.0,-1.0
2716662266,2716662078,0.0062401677,-8.9176756e-05,-0.022455854,0.51043993,0.0,0.0,0.0,-1.0
2716702246,2716702080,0.003344733,0.00079583615,-0.020724699,0.5092813,0.0,0.0,0.0,-1.0
2716746233,2716746085,0.008203818,-0.0003324298,-0.020010345,0.508499,0.0,0.0,0.0,-1.0
2716786250,2716786110,-9.661882e-05,-0.0019945365,-0.021583995,0.51047957,0.0,0.0,0.0,-1.0
2716830220,2716830078,0.0031409618,-0.0026571068,-0.021168113,0.5092791,0.0,0.0,0.0,-1.0
2716870234,2716870090,-0.0012199855,-0.0021286663,-0.021536652,0.51031727,0.0,0.0,0.0,-1.0
2716915044,2716914885,-0.00062106486,-0.0031700917,-0.022035748,0.5096972,0.0,0.0,0.0,-1.0
2716955017,2716954878,0.005878093,-0.004761237,-0.024962619,0.51242185,0.0,0.0,0.0,-1.0
2716999037,2716998891,0.003900099,-0.004681424,-0.023927813,0.5125915,0.0,0.0,0.0,-1.0
2717039011,2717038878,0.0075910715,-0.002488555,-0.022520758,0.5112107,0.0,0.0,0.0,-1.0
2717083021,2717082878,0.004234782,-0.0026488116,-0.024387717,0.512801,0.0,0.0,0.0,-1.0
2717123041,2717122878,0.009998157,-0.001959814,-0.022112558,0.5118112,0.0,0.0,0.0,-1.0
2717163828,2717163679,-0.00035497444,-0.0005488286,-0.022580944,0.5140832,0.0,0.0,0.0,-1.0
2717207820,2717207685,0.0017607618,0.00082029623,-0.021492396,0.51393515,0.0,0.0,0.0,-1.0
2717247818,2717247679,0.0065230783,0.0021646745,-0.02492776,0.5134382,0.0,0.0,0.0,-1.0
2717291819,2717291679,0.0036779952,0.0016066695,-0.022782365,0.51414543,0.0,0.0,0.0,-1.0
2717331838,2717331685,0.010484149,-0.0004346277,-0.026066503,0.5135141,0.0,0.0,0.0,-1.0
2717375823,2717375678,0.008150797,-0.00046520392,-0.024571192,0.5131462,0.0,0.0,0.0,-1.0
2717415832,2717415679,0.011694577,-6.593237e-05,-0.02184518,0.5131736,0.0,0.0,0.0,-1.0
2717460686,2717460494,0.012867208,0.0001340645,-0.023279425,0.511782,0.0,0.0,0.0,-1.0
2717500652,2717500478,0.0070078843,-0.0023870238,-0.02133777,0.51519626,0.0,0.0,0.0,-1.0
2717544712,2717544494,0.006225608,-0.0022052205,-0.021347277,0.51429236,0.0,0.0,0.0,-1.0
2717584685,2717584482,0.009013376,-0.0018805347,-0.023042144,0.51258665,0.0,0.0,0.0,-1.0
2717628663,2717628487,0.005505029,-0.003362635,-0.022359647,0.5127655,0.0,0.0,0.0,-1.0
2717668649,2717668482,0.008549848,-0.0039674053,-0.024323907,0.51542795,0.0,0.0,0.0,-1.0
2717709463,2717709278,0.0033031274,-0.004887196,-0.021005157,0.51263577,0.0,0.0,0.0,-1.0
2717749464,2717749278,0.008356815,-0.0051986612,-0.024094488,0.51323915,0.0,0.0,0.0,-1.0
2717793496,2717793284,0.005843552,-0.006035533,-0.02284915,0.5142536,0.0,0.0,0.0,-1.0
2717833507,2717833278,0.0073920097,-0.0040824865,-0.024191532,0.5122288,0.0,0.0,0.0,-1.0
2717877458,2717877278,0.0037726788,-0.005434591,-0.024847547,0.51203656,0.0,0.0,0.0,-1.0
2717917469,2717917285,0.01059069,-0.0016703329,-0.024949905,0.5094905,0.0,0.0,0.0,-1.0
2717961518,2717961278,0.008882632,-0.0020163842,-0.026328051,0.50965995,0.0,0.0,0.0,-1.0
2718002291,2718002085,0.002827768,-0.0024431474,-0.024592998,0.5122357,0.0,0.0,0.0,-1.0
2718042443,2718042112,0.0002477888,-0.0031103846,-0.024892706,0.5109298,0.0,0.0,0.0,-1.0
2718086212,2718086078,0.0005184422,-0.0011040906,-0.025631348,0.5101916,0.0,0.0,0.0,-1.0
2718126288,2718126115,0.0006576568,-0.0039297664,-0.029295214,0.51349485,0.0,0.0,0.0,-1.0
2718170275,2718170078,0.001902126,-0.0035966542,-0.027657392,0.5117808,0.0,0.0,0.0,-1.0
2718211064,2718210878,-0.0007636437,-0.0027703666,-0.029166522,0.51196074,0.0,0.0,0.0,-1.0
2718255065,2718254917,-0.00097099575,-0.0015060314,-0.031256586,0.51222366,0.0,0.0,0.0,-1.0
2718295014,2718294878,0.007974807,-0.00143265,-0.029391047,0.51177996,0.0,0.0,0.0,-1.0
2718339077,2718338885,0.0019313204,-0.0007016662,-0.029084543,0.51334035,0.0,0.0,0.0,-1.0
2718379066,2718378885,0.009898253,0.004840829,-0.029184977,0.50737727,0.0,0.0,0.0,-1.0
2718423018,2718422878,0.0058369907,0.0028720659,-0.029688131,0.5080307,0.0,0.0,0.0,-1.0
2718463007,2718462878,0.0073637716,0.0068991412,-0.03030163,0.5086213,0.0,0.0,0.0,-1.0
2718503810,2718503678,0.00057566975,0.004074891,-0.026362948,0.5087228,0.0,0.0,0.0,-1.0
2718547864,2718547688,0.0067743845,0.0053866673,-0.027174106,0.5067147,0.0,0.0,0.0,-1.0
2718587856,2718587678,0.0029477463,0.0051266416,-0.027118124,0.50845724,0.0,0.0,0.0,-1.0
2718631832,2718631688,0.008002365,0.0051786127,-0.026368188,0.50827885,0.0,0.0,0.0,-1.0
2718671823,2718671678,0.0016730193,0.003766283,-0.027154198,0.509024,0.0,0.0,0.0,-1.0
2718711825,2718711678,0.003438771,0.003613994,-0.031276356,0.5097721,0.0,0.0,0.0,-1.0
2718755848,2718755678,0.0021675678,0.003235295,-0.029561505,0.5102347,0.0,0.0,0.0,-1.0
2718796683,2718796498,0.009899031,0.0027863893,-0.029127097,0.50773937,0.0,0.0,0.0,-1.0
2718836672,2718836491,0.009367361,0.006195157,-0.02849115,0.5051482,0.0,0.0,0.0,-1.0
2718880619,2718880483,0.013485906,0.006235034,-0.030860163,0.50572604,0.0,0.0,0.0,-1.0
2718920626,2718920482,0.008068294,0.0060624382,-0.026135484,0.5074253,0.0,0.0,0.0,-1.0
2718960625,2718960478,0.00207855,0.0027492573,-0.02991024,0.5097715,0.0,0.0,0.0,-1.0
2719004653,2719004483,0.0056028957,0.0036433465,-0.028831191,0.5087883,0.0,0.0,0.0,-1.0
2719048617,2719048478,0.0092469,0.0042257654,-0.030776821,0.50817645,0.0,0.0,0.0,-1.0
2719089414,2719089278,0.0011451311,0.0026601604,-0.029773632,0.50933975,0.0,0.0,0.0,-1.0
2719133459,2719133281,0.0025357758,0.004830548,-0.031064102,0.50750446,0.0,0.0,0.0,-1.0
2719173450,2719173278,0.004642225,0.002107746,-0.031044316,0.50801474,0.0,0.0,0.0,-1.0
2719213455,2719213278,0.004827475,0.0018280803,-0.03389227,0.50776523,0.0,0.0,0.0,-1.0
2719257409,2719257279,0.0039017687,0.0033744492,-0.03459584,0.5069991,0.0,0.0,0.0,-1.0
2719301469,2719301280,0.002715574,0.0040854607,-0.033475034,0.5065514,0.0,0.0,0.0,-1.0
2719342406,2719342080,0.0037887094,0.0031862129,-0.037277978,0.5086382,0.0,0.0,0.0,-1.0
2719382317,2719382085,0.006049655,0.0056741014,-0.03687664,0.50728154,0.0,0.0,0.0,-1.0
2719426250,2719426080,0.001062699,0.005453122,-0.038490158,0.5086814,0.0,0.0,0.0,-1.0
2719466251,2719466078,0.005722328,0.0045177797,-0.039525148,0.5076291,0.0,0.0,0.0,-1.0
2719510315,2719510085,0.0013913044,0.0018189342,-0.040150158,0.5111493,0.0,0.0,0.0,-1.0
2719550413,2719550085,0.0025180895,0.004947723,-0.041047506,0.50676435,0.0,0.0,0.0,-1.0
2719595021,2719594878,0.0032632593,0.0041703545,-0.042159423,0.5091389,0.0,0.0,0.0,-1.0
2719635020,2719634878,0.0062959837,0.0032139474,-0.042636298,0.5088078,0.0,0.0,0.0,-1.0
2719679057,2719678878,0.002460335,0.0025859543,-0.045447063,0.5099,0.0,0.0,0.0,-1.0
2719719074,2719718878,0.0067734267,0.0045622983,-0.045187134,0.50797147,0.0,0.0,0.0,-1.0
2719763018,2719762878,-0.0018140275,0.0050195493,-0.043908283,0.509708,0.0,0.0,0.0,-1.0
2719803017,2719802878,0.0014828497,0.006732768,-0.046622917,0.5088253,0.0,0.0,0.0,-1.0
2719847833,2719847694,-0.002702712,0.006852047,-0.044508684,0.5095686,0.0,0.0,0.0,-1.0
2719887873,2719887678,-7.584528e-05,0.008049148,-0.04480279,0.5074863,0.0,0.0,0.0,-1.0
2719931830,2719931691,0.0018843743,0.0062600197,-0.042117942,0.507677,0.0,0.0,0.0,-1.0
2719971824,2719971686,0.0044359043,0.009428109,-0.04293639,0.5052976,0.0,0.0,0.0,-1.0
2720011818,2720011678,0.0041810297,0.010265243,-0.044090874,0.50486773,0.0,0.0,0.0,-1.0
2720055846,2720055678,0.007461706,0.0084817,-0.044788472,0.5039793,0.0,0.0,0.0,-1.0
2720096657,2720096508,0.004548134,0.009976764,-0.043589007,0.50500536,0.0,0.0,0.0,-1.0
2720136666,2720136485,0.0061259833,0.009255164,-0.04126799,0.5047601,0.0,0.0,0.0,-1.0
2720180626,2720180482,0.0034134546,0.010941585,-0.043241896,0.50500196,0.0,0.0,0.0,-1.0
2720224639,2720224497,0.002277397,0.010398445,-0.04256098,0.50436455,0.0,0.0,0.0,-1.0
2720264653,2720264482,0.003023695,0.010878511,-0.04160144,0.50540227,0.0,0.0,0.0,-1.0
2720308617,2720308478,0.0022447528,0.010749544,-0.039720267,0.5036949,0.0,0.0,0.0,-1.0
2720348640,2720348492,0.00048772217,0.011816425,-0.041832767,0.5042618,0.0,0.0,0.0,-1.0
2720389422,2720389279,0.0033126748,0.009086991,-0.042569205,0.50476557,0.0,0.0,0.0,-1.0
2720429421,2720429278,0.010819136,0.009543149,-0.03996998,0.50419086,0.0,0.0,0.0,-1.0
2720473434,2720473300,0.0024424049,0.008688232,-0.040815387,0.50530374,0.0,0.0,0.0,-1.0
2720513450,2720513279,0.004107256,0.00828784,-0.04196319,0.50304604,0.0,0.0,0.0,-1.0
2720557415,2720557286,0.004048184,0.009920694,-0.03875001,0.50379366,0.0,0.0,0.0,-1.0
2720597418,2720597279,0.0017682721,0.010292336,-0.038140792,0.5043431,0.0,0.0,0.0,-1.0
2720642300,2720642093,0.0057112277,0.012268601,-0.03948991,0.5029386,0.0,0.0,0.0,-1.0
2720682287,2720682108,0.006703842,0.010506718,-0.037655257,0.50386494,0.0,0.0,0.0,-1.0
2720726275,2720726078,0.0012154105,0.010370838,-0.03907917,0.5061066,0.0,0.0,0.0,-1.0
2720770282,2720770078,0.0014609937,0.012517314,-0.036845896,0.50362664,0.0,0.0,0.0,-1.0
2720810300,2720810118,0.0026285285,0.011527277,-0.037101995,0.5036985,0.0,0.0,0.0,-1.0
2720854262,2720854080,0.0030987882,0.010500496,-0.035653315,0.5040684,0.0,0.0,0.0,-1.0
2720894253,2720894078,-0.00022331523,0.008412102,-0.037724607,0.50584775,0.0,0.0,0.0,-1.0
2720935064,2720934878,0.0051830034,0.008635615,-0.037297327,0.5054488,0.0,0.0,0.0,-1.0
2720975072,2720974878,0.009206107,0.00937788,-0.036453612,0.5036317,0.0,0.0,0.0,-1.0
2721019099,2721018903,0.0039732214,0.008518221,-0.037035417,0.504977,0.0,0.0,0.0,-1.0
2721059076,2721058898,0.0034222037,0.0100442935,-0.035647042,0.50604725,0.0,0.0,0.0,-1.0
2721103059,2721102878,0.003525896,0.008567352,-0.034622874,0.5065573,0.0,0.0,0.0,-1.0
2721143061,2721142885,0.0072125923,0.0108059365,-0.0327157,0.5043452,0.0,0.0,0.0,-1.0
2721187816,2721187678,0.007900931,0.009177351,-0.03355037,0.50612944,0.0,0.0,0.0,-1.0
2721227822,2721227689,0.0073404503,0.00906168,-0.032641698,0.5049088,0.0,0.0,0.0,-1.0
2721271830,2721271678,0.010235975,0.008967481,-0.035055287,0.50555533,0.0,0.0,0.0,-1.0
2721311814,2721311678,0.006178815,0.009958621,-0.03219716,0.50481766,0.0,0.0,0.0,-1.0
2721355816,2721355681,0.0052062795,0.010289089,-0.033257812,0.50674075,0.0,0.0,0.0,-1.0
2721395867,2721395715,0.008741815,0.010336235,-0.03284746,0.50413215,0.0,0.0,0.0,-1.0
2721435832,2721435690,0.0012794607,0.012488076,-0.033988096,0.5064429,0.0,0.0,0.0,-1.0
2721476649,2721476511,0.007374638,0.01055163,-0.03335417,0.50516695,0.0,0.0,0.0,-1.0
2721520627,2721520491,0.0039056917,0.009731997,-0.034666378,0.50630987,0.0,0.0,0.0,-1.0
2721560620,2721560478,0.0071600233,0.008132069,-0.035493016,0.50650954,0.0,0.0,0.0,-1.0
2721604639,2721604503,0.0066939197,0.009774942,-0.032943502,0.50628144,0.0,0.0,0.0,-1.0
2721644675,2721644522,0.003833999,0.008331994,-0.03360397,0.50623095,0.0,0.0,0.0,-1.0
2721684640,2721684483,0.003927393,0.007827623,-0.03475044,0.5068255,0.0,0.0,0.0,-1.0
2721725411,2721725278,0.004929842,0.013359805,-0.03788953,0.503926,0.0,0.0,0.0,-1.0
2721765466,2721765278,0.01042199,0.012463097,-0.03539311,0.5054089,0.0,0.0,0.0,-1.0
2721805487,2721805278,0.006110811,0.013489972,-0.034913626,0.5040747,0.0,0.0,0.0,-1.0
2721849433,2721849278,0.0038555423,0.015242942,-0.037118096,0.5031859,0.0,0.0,0.0,-1.0
2721889419,2721889278,0.0032401844,0.012440398,-0.03514684,0.5064085,0.0,0.0,0.0,-1.0
2721933456,2721933284,0.0032338698,0.013765402,-0.035931963,0.50461465,0.0,0.0,0.0,-1.0
2721974253,2721974104,0.0036415313,0.01463284,-0.0329254,0.50379884,0.0,0.0,0.0,-1.0
2722014254,2722014079,0.0016941997,0.014082934,-0.03466417,0.5050373,0.0,0.0,0.0,-1.0
2722058217,2722058080,0.0016364254,0.014190358,-0.035878345,0.5040108,0.0,0.0,0.0,-1.0
2722102255,2722102084,-0.0011139082,0.014888114,-0.03325858,0.50296223,0.0,0.0,0.0,-1.0
2722142295,2722142078,-0.002688173,0.011589811,-0.034005005,0.50614953,0.0,0.0,0.0,-1.0
2722182299,2722182085,-0.0018599656,0.011253865,-0.036902677,0.5054404,0.0,0.0,0.0,-1.0
2722226228,2722226078,-0.0026584808,0.012833394,-0.03277038,0.5043035,0.0,0.0,0.0,-1.0
2722267076,2722266879,-0.00060716254,0.010635604,-0.033489477,0.5055034,0.0,0.0,0.0,-1.0
2722311037,2722310901,0.002055832,0.010131141,-0.03385411,0.5052568,0.0,0.0,0.0,-1.0
2722351033,2722350890,0.0082378285,0.01241066,-0.03368575,0.5025445,0.0,0.0,0.0,-1.0
2722395024,2722394878,0.003321103,0.011554957,-0.034940634,0.50361204,0.0,0.0,0.0,-1.0
2722435013,2722434878,0.0076664863,0.011746777,-0.035543572,0.50356835,0.0,0.0,0.0,-1.0
2722479036,2722478898,-0.0003865699,0.011225904,-0.03512883,0.5053317,0.0,0.0,0.0,-1.0
2722519814,2722519682,0.0067014555,0.010892065,-0.033247557,0.5054159,0.0,0.0,0.0,-1.0
2722563821,2722563682,0.0032869878,0.011706669,-0.031939093,0.50470394,0.0,0.0,0.0,-1.0
2722607853,2722607678,0.004829445,0.011534974,-0.032318935,0.50293684,0.0,0.0,0.0,-1.0
2722647861,2722647722,0.004787032,0.009662183,-0.033443227,0.50384367,0.0,0.0,0.0,-1.0
2722691864,2722691695,0.0020016623,0.008558391,-0.031625245,0.5050849,0.0,0.0,0.0,-1.0
2722731822,2722731685,0.0035593957,0.007189678,-0.030721568,0.50302535,0.0,0.0,0.0,-1.0
2722772708,2722772482,0.0035210017,0.008073639,-0.03102797,0.5018097,0.0,0.0,0.0,-1.0
2722812639,2722812480,0.0021996824,0.0083812345,-0.03245898,0.50420076,0.0,0.0,0.0,-1.0
2722856672,2722856487,-1.4133111e-05,0.008779092,-0.030074585,0.5031969,0.0,0.0,0.0,-1.0
2722896656,2722896485,-7.48614e-05,0.009050806,-0.032078605,0.5038096,0.0,0.0,0.0,-1.0
2722940670,2722940489,0.0007714064,0.009799134,-0.028290765,0.5038185,0.0,0.0,0.0,-1.0
2722980633,2722980485,-0.00196766,0.008708702,-0.029186271,0.5045193,0.0,0.0,0.0,-1.0
2723024642,2723024482,0.0035694146,0.008936802,-0.026607832,0.5038308,0.0,0.0,0.0,-1.0
2723064652,2723064504,0.005568629,0.008776998,-0.026900997,0.502387,0.0,0.0,0.0,-1.0
2723109414,2723109278,0.008030214,0.008480312,-0.027145209,0.50250405,0.0,0.0,0.0,-1.0
2723149432,2723149279,0.008893996,0.0111395605,-0.028214462,0.5011435,0.0,0.0,0.0,-1.0
2723193434,2723193282,0.009685733,0.010252535,-0.031038392,0.5019915,0.0,0.0,0.0,-1.0
2723233420,2723233278,0.008907925,0.009729917,-0.028323773,0.5032785,0.0,0.0,0.0,-1.0
2723277414,2723277278,0.007069917,0.009900866,-0.02938089,0.50373614,0.0,0.0,0.0,-1.0
2723317416,2723317278,0.0076170745,0.0082329735,-0.030016294,0.50409085,0.0,0.0,0.0,-1.0
2723358222,2723358079,0.0052925413,0.007751818,-0.029692182,0.5043432,0.0,0.0,0.0,-1.0
2723402259,2723402087,0.007284659,0.0072634825,-0.027060699,0.50458956,0.0,0.0,0.0,-1.0
2723442243,2723442078,0.0045547215,0.009659329,-0.03097835,0.5037532,0.0,0.0,0.0,-1.0
2723486216,2723486080,0.010738131,0.009220344,-0.02946221,0.5027823,0.0,0.0,0.0,-1.0
2723526242,2723526085,0.0024004886,0.009779497,-0.028935531,0.50603694,0.0,0.0,0.0,-1.0
2723571017,2723570878,0.0067289337,0.01040137,-0.030421272,0.5054777,0.0,0.0,0.0,-1.0
2723611017,2723610878,0.004890445,0.009829845,-0.028922006,0.50511163,0.0,0.0,0.0,-1.0
2723655062,2723654883,0.0059839115,0.008526909,-0.030540109,0.5043825,0.0,0.0,0.0,-1.0
2723695061,2723694878,0.006934535,0.0071604927,-0.030415257,0.5050837,0.0,0.0,0.0,-1.0
2723739025,2723738879,0.004282069,0.00569747,-0.030968465,0.5064961,0.0,0.0,0.0,-1.0
2723779011,2723778878,0.009639641,0.0048693754,-0.03154986,0.5045462,0.0,0.0,0.0,-1.0
2723819822,2723819679,0.009954914,0.005447336,-0.029898448,0.5037867,0.0,0.0,0.0,-1.0
2723859810,2723859679,0.0027827253,0.0053794365,-0.029828256,0.5057592,0.0,0.0,0.0,-1.0
2723903850,2723903678,0.0057324767,0.0066141835,-0.030547023,0.50376856,0.0,0.0,0.0,-1.0
2723943818,2723943680,0.005000142,0.008213399,-0.030738315,0.50426865,0.0,0.0,0.0,-1.0
2723987821,2723987685,0.005756703,0.008430658,-0.0294002,0.5046779,0.0,0.0,0.0,-1.0
2724027826,2724027678,0.0024108442,0.0077527887,-0.033337206,0.50584346,0.0,0.0,0.0,-1.0
2724071811,2724071678,0.0045210975,0.00821831,-0.031074572,0.50518537,0.0,0.0,0.0,-1.0
2724111820,2724111685,0.0026857334,0.006946126,-0.030613681,0.50697815,0.0,0.0,0.0,-1.0
2724156633,2724156481,0.000958247,0.007718063,-0.030094266,0.50694615,0.0,0.0,0.0,-1.0
2724196622,2724196478,0.007936637,0.0093622105,-0.030035175,0.5041456,0.0,0.0,0.0,-1.0
2724240710,2724240519,0.008034982,0.008490341,-0.028835874,0.505021,0.0,0.0,0.0,-1.0
2724280662,2724280483,0.0076475777,0.009409085,-0.029566366,0.50532925,0.0,0.0,0.0,-1.0
2724320628,2724320485,0.012025523,0.011162989,-0.028473247,0.5051259,0.0,0.0,0.0,-1.0
2724360625,2724360484,0.0043144366,0.00806518,-0.028165374,0.5085212,0.0,0.0,0.0,-1.0
2724401420,2724401279,0.0067424276,0.010420543,-0.028962832,0.5061785,0.0,0.0,0.0,-1.0
2724441413,2724441278,0.0069378125,0.011866483,-0.030385515,0.50462216,0.0,0.0,0.0,-1.0
2724485416,2724485280,0.005938105,0.010635373,-0.029121576,0.5060101,0.0,0.0,0.0,-1.0
2724529467,2724529297,0.011295647,0.010489046,-0.03008305,0.50603414,0.0,0.0,0.0,-1.0
2724569423,2724569279,0.010175018,0.012012761,-0.027335627,0.5067583,0.0,0.0,0.0,-1.0
2724613469,2724613321,0.012958237,0.011813326,-0.03222742,0.5069716,0.0,0.0,0.0,-1.0
2724654258,2724654079,0.010846403,0.009703221,-0.027180346,0.50708616,0.0,0.0,0.0,-1.0
2724698295,2724698085,0.011654807,0.011419615,-0.031507365,0.5070981,0.0,0.0,0.0,-1.0
2724738311,2724738085,0.010343403,0.010869556,-0.03209589,0.508134,0.0,0.0,0.0,-1.0
2724782304,2724782078,0.009656296,0.009252037,-0.03173274,0.5088473,0.0,0.0,0.0,-1.0
2724822286,2724822078,0.0084493,0.008973233,-0.03248688,0.5081514,0.0,0.0,0.0,-1.0
2724866282,2724866078,0.009213013,0.00879813,-0.03168615,0.507558,0.0,0.0,0.0,-1.0
2724907097,2724906879,0.012061716,0.009116237,-0.031846218,0.5079742,0.0,0.0,0.0,-1.0
2724951026,2724950880,0.01326304,0.010128824,-0.031887736,0.5083929,0.0,0.0,0.0,-1.0
2724991023,2724990885,0.011257874,0.012609688,-0.032003056,0.50778574,0.0,0.0,0.0,-1.0
2725035057,2725034878,0.009243608,0.012858143,-0.03462805,0.5085542,0.0,0.0,0.0,-1.0
2725079011,2725078878,0.006662564,0.012164188,-0.033437062,0.5090305,0.0,0.0,0.0,-1.0
2725119038,2725118885,0.008159256,0.013022598,-0.03244599,0.5101159,0.0,0.0,0.0,-1.0
2725159030,2725158885,0.0049958313,0.012398444,-0.033162363,0.50966084,0.0,0.0,0.0,-1.0
2725199821,2725199685,0.009558671,0.015472668,-0.036382083,0.50785625,0.0,0.0,0.0,-1.0
2725243850,2725243679,0.0045142868,0.014396187,-0.03352849,0.508838,0.0,0.0,0.0,-1.0
2725283875,2725283685,0.006796197,0.014253408,-0.033659726,0.50810635,0.0,0.0,0.0,-1.0
2725327828,2725327679,0.0076539596,0.01300225,-0.032010283,0.5071817,0.0,0.0,0.0,-1.0
2725367818,2725367680,0.008134182,0.016084276,-0.033128224,0.5046762,0.0,0.0,0.0,-1.0
2725415836,2725415695,0.0035907328,0.011265656,-0.034041356,0.5092487,0.0,0.0,0.0,-1.0
2725455815,2725455679,0.008988644,0.013332035,-0.032210242,0.5056291,0.0,0.0,0.0,-1.0
2725500652,2725500502,0.0073397444,0.0115250265,-0.03231297,0.50650734,0.0,0.0,0.0,-1.0
2725540675,2725540488,0.008982251,0.013657152,-0.0337375,0.5040634,0.0,0.0,0.0,-1.0
2725584632,2725584480,0.0066130557,0.013229361,-0.036634285,0.50577915,0.0,0.0,0.0,-1.0
2725624621,2725624482,0.009520653,0.014047434,-0.032374542,0.50379497,0.0,0.0,0.0,-1.0
2725668667,2725668519,0.002584858,0.0144881755,-0.032762095,0.5045832,0.0,0.0,0.0,-1.0
2725709494,2725709314,0.008043145,0.015229184,-0.034664083,0.5036219,0.0,0.0,0.0,-1.0
2725749489,2725749298,0.0040614624,0.013392591,-0.034478534,0.5053617,0.0,0.0,0.0,-1.0
2725793458,2725793279,0.001835504,0.014161592,-0.03270598,0.50454634,0.0,0.0,0.0,-1.0
2725833460,2725833278,0.0054784473,0.015300102,-0.035177767,0.5033939,0.0,0.0,0.0,-1.0
2725877479,2725877283,0.007900477,0.01570543,-0.0348548,0.5012952,0.0,0.0,0.0,-1.0
2725917484,2725917278,0.0043445253,0.014522293,-0.036390737,0.50470793,0.0,0.0,0.0,-1.0
2725961481,2725961287,0.0001038171,0.014505147,-0.036544185,0.50552523,0.0,0.0,0.0,-1.0
2726002258,2726002079,0.009637976,0.015415262,-0.037533067,0.50378156,0.0,0.0,0.0,-1.0
2726046218,2726046078,0.006673283,0.015321256,-0.036645316,0.5044707,0.0,0.0,0.0,-1.0
2726086249,2726086114,0.0036846614,0.0126269115,-0.037761655,0.50599307,0.0,0.0,0.0,-1.0
2726126288,2726126097,0.0072240876,0.012261941,-0.036354095,0.50445026,0.0,0.0,0.0,-1.0
2726170227,2726170078,0.01463515,0.012930242,-0.03576053,0.50399774,0.0,0.0,0.0,-1.0
2726214251,2726214091,0.009173916,0.012273553,-0.037907977,0.50674534,0.0,0.0,0.0,-1.0
2726259062,2726258885,0.0068226564,0.012425731,-0.0375904,0.5057073,0.0,0.0,0.0,-1.0
2726299014,2726298878,0.01451861,0.012563279,-0.03844666,0.5043952,0.0,0.0,0.0,-1.0
2726343061,2726342879,0.014881335,0.011411774,-0.039828733,0.50594,0.0,0.0,0.0,-1.0
2726383046,2726382900,0.01431548,0.0131587805,-0.03844054,0.50329274,0.0,0.0,0.0,-1.0
2726427121,2726426878,0.011023523,0.013000589,-0.036498874,0.50287396,0.0,0.0,0.0,-1.0
2726467082,2726466879,0.01053672,0.013048886,-0.036660533,0.50665116,0.0,0.0,0.0,-1.0
2726511820,2726511681,0.017802825,0.01434239,-0.035930242,0.5043823,0.0,0.0,0.0,-1.0
2726551825,2726551678,0.01257105,0.013768323,-0.032892693,0.5030935,0.0,0.0,0.0,-1.0
2726595867,2726595691,0.01634608,0.014669253,-0.035164807,0.5031446,0.0,0.0,0.0,-1.0
2726635868,2726635678,0.015799174,0.0131332455,-0.03659258,0.50363714,0.0,0.0,0.0,-1.0
2726679817,2726679685,0.014572515,0.014924396,-0.035110313,0.50279754,0.0,0.0,0.0,-1.0
2726719832,2726719679,0.010351383,0.011832153,-0.033502273,0.5047152,0.0,0.0,0.0,-1.0
2726763882,2726763695,0.014622607,0.013138997,-0.034256727,0.5034279,0.0,0.0,0.0,-1.0
2726803826,2726803685,0.012727068,0.01470141,-0.03521888,0.5029698,0.0,0.0,0.0,-1.0
2726844720,2726844526,0.012846899,0.015372207,-0.036747545,0.50272876,0.0,0.0,0.0,-1.0
2726888642,2726888478,0.010814029,0.015420772,-0.035303473,0.5037064,0.0,0.0,0.0,-1.0
2726928637,2726928481,0.007952855,0.015659904,-0.035621062,0.50449044,0.0,0.0,0.0,-1.0
2726972713,2726972482,0.013583999,0.014860442,-0.03560028,0.5036054,0.0,0.0,0.0,-1.0
2727012686,2727012484,0.019257605,0.014811666,-0.036709756,0.501959,0.0,0.0,0.0,-1.0
2727056650,2727056480,0.010925919,0.013142629,-0.041268986,0.50514656,0.0,0.0,0.0,-1.0
2727097420,2727097278,0.010365184,0.014083425,-0.038906235,0.50264895,0.0,0.0,0.0,-1.0
2727141478,2727141278,0.006551271,0.014072261,-0.037505925,0.5039993,0.0,0.0,0.0,-1.0
2727181512,2727181278,0.0137839215,0.015312816,-0.03709931,0.5000376,0.0,0.0,0.0,-1.0
2727225428,2727225285,0.01505257,0.0140465405,-0.03916852,0.50047135,0.0,0.0,0.0,-1.0
2727265496,2727265296,0.011930369,0.015543352,-0.039638832,0.50029516,0.0,0.0,0.0,-1.0
2727306227,2727306085,0.012800783,0.01733934,-0.039491292,0.4999293,0.0,0.0,0.0,-1.0
2727350283,2727350079,0.011566886,0.016606543,-0.038891252,0.4993723,0.0,0.0,0.0,-1.0
2727390269,2727390078,0.008453958,0.0136448145,-0.040212683,0.5015391,0.0,0.0,0.0,-1.0
2727434222,2727434078,0.011399924,0.014847945,-0.040558387,0.49940518,0.0,0.0,0.0,-1.0
2727474217,2727474078,0.0098884385,0.012757066,-0.043284953,0.501505,0.0,0.0,0.0,-1.0
2727518255,2727518080,0.0047161365,0.011780912,-0.04057177,0.50252813,0.0,0.0,0.0,-1.0
2727558268,2727558078,0.007498804,0.013139908,-0.040292464,0.499703,0.0,0.0,0.0,-1.0
2727602261,2727602080,0.014002947,0.01272643,-0.041319076,0.50004035,0.0,0.0,0.0,-1.0
2727643014,2727642878,0.012680128,0.014349485,-0.04379486,0.49992523,0.0,0.0,0.0,-1.0
2727687115,2727686884,0.0135611035,0.013822074,-0.045659136,0.50049937,0.0,0.0,0.0,-1.0
2727727111,2727726878,0.007812985,0.0125069795,-0.04596191,0.50212604,0.0,0.0,0.0,-1.0
2727771032,2727770879,0.0077091097,0.012285813,-0.048934564,0.5007005,0.0,0.0,0.0,-1.0
2727811028,2727810885,0.011564067,0.012952656,-0.048093516,0.50059265,0.0,0.0,0.0,-1.0
2727855850,2727855709,0.007930556,0.014232309,-0.04677979,0.49957523,0.0,0.0,0.0,-1.0
2727895837,2727895678,0.005816859,0.013770594,-0.048461106,0.5016798,0.0,0.0,0.0,-1.0
2727939829,2727939685,0.012698278,0.014806526,-0.051283468,0.5008068,0.0,0.0,0.0,-1.0
2727979811,2727979678,0.012711382,0.013976317,-0.051549237,0.49842763,0.0,0.0,0.0,-1.0
2728023843,2728023711,0.010185995,0.016467458,-0.050482143,0.49983877,0.0,0.0,0.0,-1.0
2728063847,2728063679,0.011912977,0.015876124,-0.051096674,0.50068575,0.0,0.0,0.0,-1.0
2728107830,2728107688,0.00914221,0.016804494,-0.05339335,0.50099903,0.0,0.0,0.0,-1.0
2728147815,2728147678,0.0073859277,0.015395157,-0.05116665,0.5023979,0.0,0.0,0.0,-1.0
2728188639,2728188481,0.012114477,0.01734249,-0.051039208,0.49943107,0.0,0.0,0.0,-1.0
2728228618,2728228478,0.008980596,0.018042127,-0.05252233,0.5013047,0.0,0.0,0.0,-1.0
2728272696,2728272487,0.007425692,0.018388268,-0.05208912,0.50123686,0.0,0.0,0.0,-1.0
2728316660,2728316482,0.011915907,0.018623067,-0.05061886,0.5013036,0.0,0.0,0.0,-1.0
2728356630,2728356481,0.012034257,0.01859079,-0.048796445,0.5018165,0.0,0.0,0.0,-1.0
2728400698,2728400478,0.0037109852,0.020015217,-0.045419548,0.5011723,0.0,0.0,0.0,-1.0
2728441498,2728441324,0.00694276,0.018745922,-0.047870215,0.50426173,0.0,0.0,0.0,-1.0
2728485412,2728485279,0.013365601,0.020356352,-0.044645336,0.50171334,0.0,0.0,0.0,-1.0
2728525422,2728525278,0.007929527,0.021167045,-0.043527234,0.5025774,0.0,0.0,0.0,-1.0
2728569481,2728569327,0.010544089,0.021966206,-0.042739104,0.50092554,0.0,0.0,0.0,-1.0
2728609492,2728609298,0.008777702,0.019561905,-0.041294884,0.5034999,0.0,0.0,0.0,-1.0
2728653451,2728653312,0.0038754456,0.020011753,-0.04108284,0.5036382,0.0,0.0,0.0,-1.0
2728694216,2728694084,0.0070467615,0.01934695,-0.042051736,0.5030059,0.0,0.0,0.0,-1.0
2728734242,2728734085,0.010712352,0.01913848,-0.041217487,0.5024758,0.0,0.0,0.0,-1.0
2728778239,2728778090,0.008772069,0.01987876,-0.0370633,0.5004955,0.0,0.0,0.0,-1.0
2728818220,2728818078,0.0071498635,0.020643031,-0.037477307,0.5030049,0.0,0.0,0.0,-1.0
2728862245,2728862080,0.004984498,0.01916943,-0.036446225,0.50425875,0.0,0.0,0.0,-1.0
2728902251,2728902078,0.0079690125,0.018877877,-0.03576101,0.5018656,0.0,0.0,0.0,-1.0
2728946259,2728946102,0.013960883,0.018615242,-0.036336493,0.50215083,0.0,0.0,0.0,-1.0
2728987085,2728986878,0.0059584375,0.014195053,-0.034108896,0.5041163,0.0,0.0,0.0,-1.0
2729031037,2729030889,0.008624694,0.015455542,-0.03930762,0.5039837,0.0,0.0,0.0,-1.0
2729071013,2729070878,0.015370681,0.015227296,-0.035549108,0.5022832,0.0,0.0,0.0,-1.0
2729115021,2729114885,0.013802506,0.015346445,-0.035652652,0.5018198,0.0,0.0,0.0,-1.0
2729155025,2729154882,0.0098397145,0.015435368,-0.03839273,0.5036243,0.0,0.0,0.0,-1.0
2729195826,2729195679,0.01596528,0.01565392,-0.035573952,0.5046587,0.0,0.0,0.0,-1.0
2729239824,2729239678,0.014200369,0.016156994,-0.03928099,0.50363135,0.0,0.0,0.0,-1.0
2729283815,2729283679,0.011489034,0.017496288,-0.035394855,0.5035828,0.0,0.0,0.0,-1.0
2729323816,2729323678,0.008581754,0.015615917,-0.03797751,0.5055886,0.0,0.0,0.0,-1.0
2729367883,2729367685,0.015561036,0.016845353,-0.038409013,0.5043159,0.0,0.0,0.0,-1.0
2729407817,2729407678,0.016603764,0.01750287,-0.03988095,0.5064118,0.0,0.0,0.0,-1.0
2729447818,2729447678,0.016619515,0.017141717,-0.038973358,0.50319546,0.0,0.0,0.0,-1.0
2729492635,2729492478,0.010509792,0.017433029,-0.0399466,0.50578606,0.0,0.0,0.0,-1.0
2729532641,2729532481,0.013992362,0.016543709,-0.04093477,0.50635135,0.0,0.0,0.0,-1.0
2729576778,2729576488,0.01671294,0.018410997,-0.040951956,0.5038479,0.0,0.0,0.0,-1.0
2729616639,2729616486,0.013306683,0.019044599,-0.04200269,0.5049192,0.0,0.0,0.0,-1.0
2729660663,2729660485,0.013060581,0.019211765,-0.039225556,0.5060762,0.0,0.0,0.0,-1.0
2729700639,2729700487,0.0124865575,0.018908432,-0.040783912,0.5060765,0.0,0.0,0.0,-1.0
2729745477,2729745278,0.018110799,0.019590735,-0.043474734,0.5055559,0.0,0.0,0.0,-1.0
2729785466,2729785279,0.017827395,0.019913955,-0.041933477,0.5056081,0.0,0.0,0.0,-1.0
2729829420,2729829278,0.013955474,0.021104421,-0.041763384,0.5053263,0.0,0.0,0.0,-1.0
2729869411,2729869278,0.014533089,0.01670869,-0.043471377,0.5074866,0.0,0.0,0.0,-1.0
2729909471,2729909278,0.01995598,0.018776383,-0.04145214,0.50313044,0.0,0.0,0.0,-1.0
2729949472,2729949285,0.015061292,0.020818383,-0.04386774,0.502553,0.0,0.0,0.0,-1.0
2729993449,2729993278,0.0121730715,0.019138135,-0.046555307,0.504614,0.0,0.0,0.0,-1.0
2730034279,2730034078,0.009158641,0.01952614,-0.045172565,0.50648564,0.0,0.0,0.0,-1.0
2730074269,2730074078,0.0122498935,0.01982839,-0.047926504,0.50473964,0.0,0.0,0.0,-1.0
2730114256,2730114078,0.0104057705,0.019382255,-0.045966353,0.50542957,0.0,0.0,0.0,-1.0
2730158252,2730158079,0.013155926,0.018203313,-0.044575598,0.50459194,0.0,0.0,0.0,-1.0
2730198270,2730198084,0.017931104,0.018636817,-0.045167442,0.504235,0.0,0.0,0.0,-1.0
2730242295,2730242078,0.015074902,0.016240241,-0.044850286,0.50644934,0.0,0.0,0.0,-1.0
2730282281,2730282078,0.015570459,0.018837482,-0.043206193,0.5028777,0.0,0.0,0.0,-1.0
2730323021,2730322878,0.0092324875,0.016810028,-0.043112896,0.5061586,0.0,0.0,0.0,-1.0
2730367088,2730366879,0.014353023,0.016278556,-0.04739979,0.5042021,0.0,0.0,0.0,-1.0
2730411028,2730410879,0.010777219,0.016340783,-0.044236552,0.50272983,0.0,0.0,0.0,-1.0
2730455020,2730454878,0.018898517,0.014996799,-0.045749195,0.50389487,0.0,0.0,0.0,-1.0
2730495037,2730494878,0.013121303,0.015600672,-0.045723233,0.50344706,0.0,0.0,0.0,-1.0
2730535824,2730535679,0.012293897,0.015823603,-0.04337681,0.50456136,0.0,0.0,0.0,-1.0
2730575819,2730575679,0.010033725,0.01592588,-0.04690017,0.504627,0.0,0.0,0.0,-1.0
2730619846,2730619687,0.014801037,0.017038628,-0.04389952,0.50255716,0.0,0.0,0.0,-1.0
2730659817,2730659678,0.009267053,0.013641911,-0.043560904,0.5045384,0.0,0.0,0.0,-1.0
2730703814,2730703678,0.010070587,0.015887752,-0.045893457,0.50407124,0.0,0.0,0.0,-1.0
2730743827,2730743679,0.008484253,0.015424514,-0.045454912,0.504647,0.0,0.0,0.0,-1.0
2730787890,2730787706,0.015151655,0.016160434,-0.044707384,0.50187635,0.0,0.0,0.0,-1.0
2730828667,2730828479,0.014725696,0.017569035,-0.042522453,0.5028265,0.0,0.0,0.0,-1.0
2730872630,2730872483,0.011294554,0.017155563,-0.045055233,0.5035005,0.0,0.0,0.0,-1.0
2730912628,2730912493,0.0117067695,0.02082979,-0.04695829,0.5015245,0.0,0.0,0.0,-1.0
2730956668,2730956478,0.0174652,0.021289336,-0.043986052,0.4995978,0.0,0.0,0.0,-1.0
2730996664,2730996482,0.007758763,0.021158332,-0.044792064,0.5016868,0.0,0.0,0.0,-1.0
2731040617,2731040478,0.012413548,0.019227179,-0.043079264,0.5012614,0.0,0.0,0.0,-1.0
2731081413,2731081281,0.0155845545,0.019961273,-0.04165248,0.50202405,0.0,0.0,0.0,-1.0
2731121413,2731121278,0.007657457,0.017150674,-0.04394994,0.50200725,0.0,0.0,0.0,-1.0
2731165491,2731165289,0.016691364,0.015575133,-0.04654748,0.5025447,0.0,0.0,0.0,-1.0
2731205467,2731205278,0.018243589,0.015036322,-0.04422404,0.50268584,0.0,0.0,0.0,-1.0
2731249436,2731249283,0.014326435,0.016149852,-0.043418813,0.50125253,0.0,0.0,0.0,-1.0
2731289413,2731289278,0.016359702,0.013945562,-0.04488957,0.5011843,0.0,0.0,0.0,-1.0
2731333489,2731333294,0.012899988,0.013292395,-0.043571036,0.50251514,0.0,0.0,0.0,-1.0
2731374306,2731374085,0.014288378,0.015729211,-0.044600446,0.50031716,0.0,0.0,0.0,-1.0
2731418267,2731418078,0.018154649,0.01384703,-0.04401802,0.4978131,0.0,0.0,0.0,-1.0
2731458259,2731458078,0.014591935,0.015013314,-0.047071993,0.5008075,0.0,0.0,0.0,-1.0
2731502409,2731502078,0.008527161,0.015054475,-0.045253754,0.5014684,0.0,0.0,0.0,-1.0
2731542431,2731542078,0.010429175,0.016971812,-0.043877266,0.500505,0.0,0.0,0.0,-1.0
2731587078,2731586879,0.015588872,0.018698128,-0.046054672,0.49996454,0.0,0.0,0.0,-1.0
2731627079,2731626879,0.014878931,0.017831998,-0.04665829,0.50116664,0.0,0.0,0.0,-1.0
2731671069,2731670878,0.0067677638,0.01682507,-0.04833713,0.5021393,0.0,0.0,0.0,-1.0
2731711050,2731710878,0.0044016116,0.014906906,-0.048447568,0.5020131,0.0,0.0,0.0,-1.0
2731755050,2731754884,0.0081576975,0.016162569,-0.047111675,0.4989962,0.0,0.0,0.0,-1.0
2731799040,2731798900,0.012287392,0.01640923,-0.048077047,0.50010145,0.0,0.0,0.0,-1.0
2731839063,2731838878,0.012134188,0.016482918,-0.04655645,0.50099087,0.0,0.0,0.0,-1.0
2731883815,2731883679,0.009310662,0.017167494,-0.05104175,0.50021476,0.0,0.0,0.0,-1.0
2731923816,2731923678,0.009565355,0.016284995,-0.050711192,0.5019433,0.0,0.0,0.0,-1.0
2731967851,2731967700,0.010915951,0.014390656,-0.047031827,0.5020111,0.0,0.0,0.0,-1.0
2732007828,2732007680,0.014286291,0.017022965,-0.04642325,0.4985613,0.0,0.0,0.0,-1.0
2732051822,2732051685,0.008334197,0.013786282,-0.04863288,0.5023834,0.0,0.0,0.0,-1.0
2732091810,2732091678,0.012986364,0.017499175,-0.04995492,0.4989609,0.0,0.0,0.0,-1.0
2732135865,2732135718,0.010049632,0.015962208,-0.049111202,0.5008367,0.0,0.0,0.0,-1.0
2732176675,2732176523,0.009280518,0.017875137,-0.05147555,0.5009019,0.0,0.0,0.0,-1.0
2732220635,2732220481,0.008526456,0.017017972,-0.047711127,0.5018493,0.0,0.0,0.0,-1.0
2732264655,2732264482,0.009528521,0.015277228,-0.05104678,0.5031066,0.0,0.0,0.0,-1.0
2732304631,2732304482,0.0064043766,0.015353303,-0.04950026,0.5046356,0.0,0.0,0.0,-1.0
2732348714,2732348499,0.0090085035,0.016177977,-0.046012856,0.5029283,0.0,0.0,0.0,-1.0
2732389414,2732389279,0.008314647,0.016139267,-0.046712432,0.50299764,0.0,0.0,0.0,-1.0
2732433423,2732433285,0.009230031,0.01848615,-0.04586172,0.50198585,0.0,0.0,0.0,-1.0
2732473423,2732473285,0.006738942,0.015321178,-0.046497054,0.5051707,0.0,0.0,0.0,-1.0
2732517458,2732517278,0.012060933,0.017555347,-0.04672919,0.50191325,0.0,0.0,0.0,-1.0
2732557421,2732557279,0.009751314,0.016461857,-0.045864336,0.50460666,0.0,0.0,0.0,-1.0
2732601417,2732601278,0.012242584,0.017668406,-0.042285338,0.5017926,0.0,0.0,0.0,-1.0
2732641411,2732641278,0.009124885,0.014905639,-0.04274384,0.50438035,0.0,0.0,0.0,-1.0
2732682264,2732682078,0.010045144,0.015237741,-0.040901773,0.50270474,0.0,0.0,0.0,-1.0
2732726291,2732726078,0.0088428985,0.015969118,-0.041693844,0.50214577,0.0,0.0,0.0,-1.0
2732766285,2732766078,0.0055872058,0.014410156,-0.044020254,0.5052275,0.0,0.0,0.0,-1.0
2732810227,2732810080,0.009886543,0.016359542,-0.039885085,0.5022215,0.0,0.0,0.0,-1.0
2732850219,2732850078,0.007687056,0.015415621,-0.03899264,0.5029194,0.0,0.0,0.0,-1.0
2732894261,2732894086,0.0048448835,0.014419308,-0.03748163,0.5032921,0.0,0.0,0.0,-1.0
2732934279,2732934078,0.004431436,0.012940935,-0.03974034,0.5054845,0.0,0.0,0.0,-1.0
2732975065,2732974878,0.0035907184,0.012933033,-0.039239608,0.5056378,0.0,0.0,0.0,-1.0
2733015029,2733014879,0.011239147,0.0148107745,-0.03983422,0.5013651,0.0,0.0,0.0,-1.0
2733059016,2733058885,0.013892311,0.014798223,-0.03689022,0.503067,0.0,0.0,0.0,-1.0
2733099027,2733098878,0.005747459,0.01665046,-0.03617744,0.5021321,0.0,0.0,0.0,-1.0
2733143014,2733142878,0.005799178,0.017895281,-0.039366,0.5025762,0.0,0.0,0.0,-1.0
2733183051,2733182885,0.012279096,0.018024214,-0.037206113,0.5041164,0.0,0.0,0.0,-1.0
2733227823,2733227681,0.010630508,0.01640017,-0.03624202,0.50470006,0.0,0.0,0.0,-1.0
2733267821,2733267678,0.0069208997,0.016768776,-0.03795245,0.5044303,0.0,0.0,0.0,-1.0
2733311845,2733311678,0.013807548,0.01573162,-0.039387845,0.5040544,0.0,0.0,0.0,-1.0
2733351858,2733351680,0.014418538,0.01523629,-0.036612406,0.50389016,0.0,0.0,0.0,-1.0
2733395825,2733395678,0.008498823,0.015190702,-0.035564993,0.50350255,0.0,0.0,0.0,-1.0
2733435821,2733435679,0.010153427,0.014880846,-0.036954556,0.5040065,0.0,0.0,0.0,-1.0
2733476621,2733476483,0.01417974,0.018363232,-0.03767616,0.50332445,0.0,0.0,0.0,-1.0
2733516615,2733516482,0.015787283,0.016630523,-0.03517617,0.5031996,0.0,0.0,0.0,-1.0
2733560661,2733560482,0.0130172,0.016230704,-0.03635934,0.50353277,0.0,0.0,0.0,-1.0
2733600621,2733600482,0.016828187,0.015930848,-0.035136934,0.50323194,0.0,0.0,0.0,-1.0
2733644645,2733644504,0.013378267,0.016354801,-0.036587205,0.5025514,0.0,0.0,0.0,-1.0
2733684619,2733684482,0.010971642,0.01459245,-0.03613771,0.5026542,0.0,0.0,0.0,-1.0
2733724616,2733724478,0.0146345105,0.015242269,-0.038720496,0.5030898,0.0,0.0,0.0,-1.0
2733765432,2733765281,0.013539542,0.017475454,-0.036016885,0.50059706,0.0,0.0,0.0,-1.0
2733809597,2733809334,0.008463043,0.01661554,-0.036050405,0.5020861,0.0,0.0,0.0,-1.0
2733849432,2733849285,0.010932734,0.014506936,-0.035374112,0.5020106,0.0,0.0,0.0,-1.0
2733893411,2733893278,0.014169591,0.014679824,-0.03679802,0.50136065,0.0,0.0,0.0,-1.0
2733933440,2733933296,0.013089914,0.014571407,-0.03509783,0.50208133,0.0,0.0,0.0,-1.0
2733977422,2733977279,0.009035042,0.013586874,-0.036058243,0.50265837,0.0,0.0,0.0,-1.0
2734017444,2734017287,0.0081381835,0.013638323,-0.034834474,0.5016558,0.0,0.0,0.0,-1.0
2734058312,2734058113,0.008785732,0.012924688,-0.034634754,0.50230205,0.0,0.0,0.0,-1.0
2734102245,2734102081,0.010366802,0.013018031,-0.03435878,0.5011122,0.0,0.0,0.0,-1.0
2734142300,2734142114,0.0069166897,0.013487434,-0.033077292,0.50207347,0.0,0.0,0.0,-1.0
2734186279,2734186081,0.0026637884,0.012130853,-0.035489284,0.50261414,0.0,0.0,0.0,-1.0
2734226306,2734226113,0.008649539,0.010212919,-0.036727123,0.50324947,0.0,0.0,0.0,-1.0
2734270233,2734270081,0.0063578645,0.0117654,-0.03221915,0.50248444,0.0,0.0,0.0,-1.0
2734311059,2734310878,0.004874381,0.010297328,-0.0359388,0.5061362,0.0,0.0,0.0,-1.0
2734355123,2734354878,0.006394976,0.010790858,-0.03237777,0.5050023,0.0,0.0,0.0,-1.0
2734399018,2734398878,0.009326801,0.010999181,-0.034144897,0.5052562,0.0,0.0,0.0,-1.0
2734443075,2734442878,0.007554542,0.012290983,-0.034193106,0.5052819,0.0,0.0,0.0,-1.0
2734487076,2734486885,0.0061697885,0.012658088,-0.03446799,0.5028563,0.0,0.0,0.0,-1.0
2734527821,2734527685,0.008755913,0.009725169,-0.033169046,0.49221,0.0,0.0,0.0,-1.0
2734571825,2734571683,0.005936645,0.011559174,-0.032440916,0.48146665,0.0,0.0,0.0,-1.0
2734611866,2734611678,0.0042148572,0.009614297,-0.033011697,0.47148463,0.0,0.0,0.0,-1.0
2734655813,2734655678,0.015157518,0.009540007,-0.034234785,0.46416676,0.0,0.0,0.0,-1.0
2734695807,2734695678,0.01075635,0.010135147,-0.034440912,0.4626882,0.0,0.0,0.0,-1.0
2734739853,2734739696,0.0036891,0.010367616,-0.032357864,0.4581341,0.0,0.0,0.0,-1.0
2734779845,2734779678,0.0051760585,0.01061639,-0.032089755,0.45655653,0.0,0.0,0.0,-1.0
2734823817,2734823678,0.005962717,0.0122407805,-0.03319971,0.45448688,0.0,0.0,0.0,-1.0
2734864629,2734864493,0.003120129,0.012557488,-0.033576574,0.45645994,0.0,0.0,0.0,-1.0
2734908663,2734908518,0.008302169,0.1363511,-0.02951473,0.43072683,0.0,0.0,0.0,1.0
2734948630,2734948492,0.006829122,0.11469357,-0.030373264,0.43857336,0.0,0.0,0.0,1.0
2734992631,2734992480,0.008786919,0.062344044,-0.033771385,0.45064607,0.0,0.0,0.0,1.0
2735036658,2735036478,0.0021913562,0.03953161,-0.03043162,0.4661182,0.0,0.0,0.0,1.0
2735077410,2735077279,0.0061585717,0.0200057,-0.03310067,0.4797658,0.0,0.0,0.0,1.0
2735121417,2735121278,0.1275884,-0.069850355,0.27664748,0.49298525,0.0,0.0,0.0,1.0
2735161421,2735161278,0.12818989,-0.09120036,0.24244297,0.489587,0.0,0.0,0.0,1.0
2735205421,2735205285,0.10820009,-0.09377689,0.1796782,0.48509622,0.0,0.0,0.0,1.0
2735245421,2735245279,0.066438206,-0.061007183,0.13409337,0.48278266,0.0,0.0,0.0,1.0
2735289417,2735289278,0.033349596,-0.028040573,0.107646495,0.47926486,0.0,0.0,0.0,1.0
2735329422,2735329284,0.0028675785,-0.0052814446,0.09053794,0.4801135,0.0,0.0,0.0,1.0
2735374242,2735374104,-0.021583308,0.016724702,0.07279009,0.47906977,0.0,0.0,0.0,1.0
2735414216,2735414078,-0.02893187,0.019568339,0.05984994,0.47994384,0.0,0.0,0.0,1.0
2735454220,2735454078,-0.028425355,0.020583263,0.047615923,0.47823325,0.0,0.0,0.0,1.0
2735498220,2735498078,-0.024717271,0.021486275,0.038085487,0.47774413,0.0,0.0,0.0,1.0
2735538239,2735538079,-0.028561357,0.024926314,0.02593751,0.48020497,0.0,0.0,0.0,1.0
2735582246,2735582079,-0.014876217,0.023955567,0.022256782,0.4776413,0.0,0.0,0.0,1.0
2735623027,2735622879,-0.004003579,0.022712177,0.015830077,0.47875148,0.0,0.0,0.0,1.0
2735667116,2735666878,-0.0043649077,0.026234347,0.01083088,0.47830042,0.0,0.0,0.0,1.0
2735707122,2735706878,0.004190978,0.027701616,0.008209182,0.47892118,0.0,0.0,0.0,1.0
2735751022,2735750885,0.008179357,0.029046798,0.0024576788,0.4805351,0.0,0.0,0.0,1.0
2735791035,2735790886,0.0053744325,0.030856801,0.001464136,0.48025292,0.0,0.0,0.0,1.0
2735839020,2735838881,0.0110866595,0.03245082,-0.013261489,0.483456,0.0,0.0,0.0,1.0
2735879852,2735879678,0.015906107,0.03420667,-0.037258327,0.48422584,0.0,0.0,0.0,1.0
2735919834,2735919690,0.020161122,0.030048445,-0.053289603,0.48693672,0.0,0.0,0.0,1.0
2735963900,2735963678,0.023980277,0.029011438,-0.06757165,0.48690653,0.0,0.0,0.0,1.0
2736003866,2736003678,0.03513077,0.027596012,-0.07908967,0.4853898,0.0,0.0,0.0,1.0
2736047842,2736047685,0.04178356,0.02543457,-0.08368296,0.48611,0.0,0.0,0.0,1.0
2736087823,2736087683,0.04160089,0.02476553,-0.0915895,0.48444587,0.0,0.0,0.0,1.0
2736131895,2736131689,0.04359652,0.022175608,-0.09775895,0.4822267,0.0,0.0,0.0,1.0
2736172718,2736172479,0.03733057,0.01747469,-0.10559953,0.4841196,0.0,0.0,0.0,1.0
2736216833,2736216480,0.04216736,0.0092100585,-0.106079616,0.4828528,0.0,0.0,0.0,1.0
2736260642,2736260501,0.04214636,0.0010920055,-0.10868186,0.48277637,0.0,0.0,0.0,1.0
2736304639,2736304500,0.041244987,-0.0032238967,-0.108863264,0.48332074,0.0,0.0,0.0,1.0
2736348637,2736348501,0.046922598,-0.00070539233,-0.10876006,0.47878557,0.0,0.0,0.0,1.0
2736396614,2736396479,0.044724878,0.00014992198,-0.11017544,0.47911546,0.0,0.0,0.0,1.0
2736437437,2736437285,0.035333235,0.0026859823,-0.10704958,0.48449662,0.0,0.0,0.0,1.0
2736477433,2736477298,0.041672878,0.0012270813,-0.114248075,0.4819757,0.0,0.0,0.0,1.0
2736521469,2736521287,0.042193163,0.0084507,-0.10894764,0.47704822,0.0,0.0,0.0,1.0
2736561438,2736561290,0.044145808,0.008150107,-0.111567065,0.47987846,0.0,0.0,0.0,1.0
2736605450,2736605300,0.03712618,0.0032075776,-0.10241817,0.4807154,0.0,0.0,0.0,1.0
2736645593,2736645299,0.04064583,0.0038213744,-0.10311934,0.48304555,0.0,0.0,0.0,1.0
2736686276,2736686085,0.039374955,0.0039133597,-0.09354085,0.4835965,0.0,0.0,0.0,1.0
2736726258,2736726110,0.037750065,0.0040234537,-0.09561173,0.48612982,0.0,0.0,0.0,1.0
2736770299,2736770078,0.031183736,0.000971136,-0.09135103,0.4920346,0.0,0.0,0.0,1.0
2736814251,2736814078,0.024882697,0.0007267831,-0.08522567,0.49758926,0.0,0.0,0.0,1.0
2736854267,2736854079,0.027776925,-2.1522283e-05,-0.07911448,0.4959183,0.0,0.0,0.0,1.0
2736894236,2736894093,0.024721242,0.009325707,-0.073466584,0.49458677,0.0,0.0,0.0,1.0
2736938318,2736938078,0.02200497,0.015522909,-0.07078558,0.4955898,0.0,0.0,0.0,1.0
2736979108,2736978878,0.022325145,0.015273055,-0.06295906,0.49520215,0.0,0.0,0.0,1.0
2737019069,2737018880,0.029890252,0.013843432,-0.060937546,0.49336576,0.0,0.0,0.0,1.0
2737063074,2737062879,0.028646028,0.011464706,-0.053496208,0.49201494,0.0,0.0,0.0,1.0
2737103056,2737102878,0.032934733,0.007421271,-0.054861184,0.49398476,0.0,0.0,0.0,1.0
2737143045,2737142912,0.023509778,0.0021085944,-0.053748257,0.49647257,0.0,0.0,0.0,1.0
2737191008,2737190879,0.018419966,-0.0009581151,-0.04979398,0.49760982,0.0,0.0,0.0,1.0
2737231824,2737231679,0.012242492,-0.0074877944,-0.046470493,0.49979317,0.0,0.0,0.0,1.0
2737271843,2737271696,0.018601075,-0.0077003925,-0.044890538,0.49772,0.0,0.0,0.0,1.0
2737315858,2737315678,0.018937416,-0.011098544,-0.04227837,0.49804425,0.0,0.0,0.0,1.0
2737359814,2737359679,0.0174256,-0.01637726,-0.041009706,0.5000374,0.0,0.0,0.0,1.0
2737399806,2737399679,0.013562441,-0.015493506,-0.04133785,0.4980742,0.0,0.0,0.0,1.0
2737439916,2737439679,0.02121301,-0.022686034,-0.03976707,0.50022113,0.0,0.0,0.0,1.0
2737483854,2737483678,0.013986036,-0.024282498,-0.03721269,0.50201964,0.0,0.0,0.0,1.0
2737524673,2737524479,0.015945598,-0.025193876,-0.039790012,0.50128937,0.0,0.0,0.0,1.0
2737564655,2737564482,0.015158493,-0.028532647,-0.037866544,0.5034755,0.0,0.0,0.0,1.0
2737608615,2737608478,0.016554378,-0.026472215,-0.035343166,0.5005643,0.0,0.0,0.0,1.0
2737652659,2737652483,0.018046455,-0.025459947,-0.036006477,0.50034684,0.0,0.0,0.0,1.0
2737696619,2737696482,0.013516074,-0.025282588,-0.035988923,0.4977941,0.0,0.0,0.0,1.0
2737736625,2737736485,0.007805231,-0.027389128,-0.0368719,0.500348,0.0,0.0,0.0,1.0
2737781477,2737781284,0.018541558,-0.025185669,-0.037190497,0.49531952,0.0,0.0,0.0,1.0
2737821448,2737821278,0.01912054,-0.031342484,-0.03593758,0.49311537,0.0,0.0,0.0,1.0
2737865461,2737865320,0.008905157,-0.031029172,-0.037505735,0.49198353,0.0,0.0,0.0,1.0
2737905433,2737905296,0.0026922168,-0.03429874,-0.03885272,0.49271762,0.0,0.0,0.0,1.0
2737953453,2737953279,0.01666757,-0.035474278,-0.03726454,0.48941365,0.0,0.0,0.0,1.0
2737993453,2737993278,0.009549632,-0.032552056,-0.033970173,0.48719677,0.0,0.0,0.0,1.0
2738034307,2738034113,0.0036213212,-0.032648936,-0.034441087,0.49077576,0.0,0.0,0.0,1.0
2738078214,2738078081,0.012131871,-0.033371326,-0.040213402,0.49152046,0.0,0.0,0.0,1.0
2738118246,2738118095,0.010592556,-0.03160972,-0.0424304,0.49051118,0.0,0.0,0.0,1.0
2738158291,2738158079,0.012611996,-0.030181404,-0.03840175,0.48853302,0.0,0.0,0.0,1.0
2738198310,2738198078,0.005468484,-0.03409867,-0.03970968,0.4895005,0.0,0.0,0.0,1.0
2738238291,2738238100,0.007453195,-0.03710474,-0.036964368,0.49321142,0.0,0.0,0.0,1.0
2738278271,2738278085,0.016918262,-0.034639318,-0.03541992,0.48954862,0.0,0.0,0.0,1.0
2738319049,2738318887,0.011267771,-0.039760135,-0.0356702,0.49079436,0.0,0.0,0.0,1.0
2738363075,2738362878,0.019036895,-0.041187268,-0.03930191,0.49154767,0.0,0.0,0.0,1.0
2738407250,2738406892,0.021870371,-0.039229773,-0.039858405,0.49017,0.0,0.0,0.0,1.0
2738447245,2738446878,0.019005924,-0.04055366,-0.038171854,0.48941922,0.0,0.0,0.0,1.0
2738491060,2738490883,0.019240998,-0.037447233,-0.039756157,0.4894885,0.0,0.0,0.0,1.0
2738531079,2738530878,0.010868525,-0.03673377,-0.04050179,0.49190557,0.0,0.0,0.0,1.0
2738575862,2738575722,0.017482085,-0.034359306,-0.037174672,0.48781055,0.0,0.0,0.0,1.0
2738615873,2738615685,0.00956342,-0.03435379,-0.042028185,0.49425155,0.0,0.0,0.0,1.0
2738663822,2738663680,0.010177586,-0.033242777,-0.03879047,0.49044997,0.0,0.0,0.0,1.0
2738703864,2738703720,0.0072033023,-0.035816126,-0.041705217,0.49153596,0.0,0.0,0.0,1.0
2738747828,2738747680,0.014354398,-0.035412636,-0.035568397,0.48807913,0.0,0.0,0.0,1.0
2738787815,2738787678,0.0077689695,-0.033231784,-0.036803216,0.49213406,0.0,0.0,0.0,1.0
2738827813,2738827678,0.012787608,-0.03135532,-0.03861725,0.4906964,0.0,0.0,0.0,1.0
2738872624,2738872488,0.009918088,-0.031089466,-0.0349714,0.48719406,0.0,0.0,0.0,1.0
2738912648,2738912499,0.013601244,-0.030603038,-0.033035096,0.48483372,0.0,0.0,0.0,1.0
2738956644,2738956478,0.017929351,-0.033319555,-0.035638336,0.48820338,0.0,0.0,0.0,1.0
2738996631,2738996485,0.014841677,-0.03245094,-0.03630509,0.4883956,0.0,0.0,0.0,1.0
2739040617,2739040482,0.023041353,-0.031750083,-0.034517884,0.48762086,0.0,0.0,0.0,1.0
2739080661,2739080513,0.021919679,-0.03380932,-0.037054893,0.4924211,0.0,0.0,0.0,1.0
2739121449,2739121298,0.025235293,-0.032934472,-0.037770353,0.49332222,0.0,0.0,0.0,1.0
2739161466,2739161326,0.011212131,-0.03419788,-0.037887458,0.49499783,0.0,0.0,0.0,1.0
2739209419,2739209283,0.019739632,-0.038765,-0.04315517,0.49593073,0.0,0.0,0.0,1.0
2739249444,2739249299,0.020821089,-0.042687662,-0.04188463,0.49553865,0.0,0.0,0.0,1.0
2739293420,2739293284,0.018310595,-0.045459107,-0.041294552,0.49415007,0.0,0.0,0.0,1.0
2739338245,2739338079,0.012409897,-0.044720836,-0.044064116,0.49508435,0.0,0.0,0.0,1.0
2739378294,2739378115,0.021852976,-0.043911293,-0.041258793,0.49110022,0.0,0.0,0.0,1.0
2739422285,2739422078,0.017391367,-0.04341949,-0.043831,0.49051744,0.0,0.0,0.0,1.0
2739466235,2739466096,0.018386599,-0.046617206,-0.04232293,0.48864505,0.0,0.0,0.0,1.0
2739510267,2739510085,0.031350512,-0.049759828,-0.038402658,0.48840204,0.0,0.0,0.0,1.0
2739550284,2739550079,0.02377282,-0.047316577,-0.043155365,0.4889386,0.0,0.0,0.0,1.0
2739594222,2739594078,0.039254602,-0.045906477,-0.04153128,0.48756975,0.0,0.0,0.0,1.0
2739635020,2739634879,0.028531594,-0.041348085,-0.042016078,0.48978963,0.0,0.0,0.0,1.0
2739679069,2739678888,0.034172587,-0.040209934,-0.043039467,0.4879942,0.0,0.0,0.0,1.0
2739723021,2739722879,0.02118223,-0.040801313,-0.044457033,0.49315664,0.0,0.0,0.0,1.0
2739763030,2739762878,0.030436156,-0.0407617,-0.04249394,0.4888611,0.0,0.0,0.0,1.0
2739807144,2739806942,0.02535543,-0.041304808,-0.046875373,0.49327642,0.0,0.0,0.0,1.0
2739847139,2739846879,0.022015482,-0.04670444,-0.045500517,0.49306577,0.0,0.0,0.0,1.0
2739887829,2739887695,0.021518352,-0.04712028,-0.053151317,0.4955792,0.0,0.0,0.0,1.0
2739927862,2739927678,0.021190245,-0.043486755,-0.04758384,0.49505863,0.0,0.0,0.0,1.0
2739971824,2739971685,0.021623654,-0.045718342,-0.049023364,0.49863267,0.0,0.0,0.0,1.0
2740015840,2740015719,0.022579368,-0.040272392,-0.048119925,0.4932757,0.0,0.0,0.0,1.0
2740063812,2740063680,0.018681664,-0.044209447,-0.05119319,0.49006456,0.0,0.0,0.0,1.0
