timestamp,voltage_v,voltage_filtered_v,current_a,current_filtered_a,average_current_a,discharged_mah,remaining,scale,temperature,cell_count,capacity,cycle_count,run_time_to_empty,average_time_to_empty,serial_number,connected,system_source,priority,is_powering_off,warning
2708892287,25.023909,25.007545,0.062,0.06315941,0.0,45.682068,1.0,1.0,0.0,6,0,0,0,0,0,1,1,0,0,0
2709400336,24.983515,24.996147,0.062,0.064755626,0.0,45.691322,1.0,1.0,0.0,6,0,0,0,0,0,1,1,0,0,0
2709905979,23.488947,24.861393,0.062,0.06417135,0.0,45.700306,1.0,1.0,0.0,6,0,0,0,0,0,1,1,0,0,0
2710412026,24.4382,24.649351,0.062,0.06405641,0.0,45.709286,1.0,1.0,0.0,6,0,0,0,0,0,1,1,0,0,0
2712915544,24.357412,24.378757,0.062,0.06385989,0.0,45.75358,1.0,1.0,0.0,6,0,0,0,0,0,1,1,0,0,0
2713420396,24.337215,24.36001,0.062,0.06508765,0.0,45.76281,1.0,1.0,0.0,6,0,0,0,0,0,1,1,0,0,0
2713913992,24.317019,24.344553,0.0744,0.066325314,0.0,45.772022,1.0,1.0,0.0,6,0,0,0,0,0,1,1,0,0,0
2714419560,24.317019,24.326046,0.062,0.064943895,0.0,45.78102,1.0,1.0,0.0,6,0,0,0,0,0,1,1,0,0,0
2714925325,24.23623,24.313412,0.0744,0.06345773,0.0,45.789757,1.0,1.0,0.0,6,0,0,0,0,0,1,1,0,0,0
2715418821,24.256428,24.31016,0.062,0.064363845,0.0,45.798706,1.0,1.0,0.0,6,0,0,0,0,0,1,1,0,0,0
2715924605,24.276625,24.297718,0.0744,0.06504838,0.0,45.807922,1.0,1.0,0.0,6,0,0,0,0,0,1,1,0,0,0
2716430125,24.276625,24.284628,0.0744,0.06549942,0.0,45.81714,1.0,1.0,0.0,6,0,0,0,0,0,1,1,0,0,0
2716923717,24.256428,24.27207,0.0744,0.06447226,0.0,45.82576,1.0,1.0,0.0,6,0,0,0,0,0,1,1,0,0,0
2717428366,24.216034,24.257948,0.062,0.06354719,0.0,45.834606,1.0,1.0,0.0,6,0,0,0,0,0,1,1,0,0,0
2717933923,24.23623,24.247522,0.062,0.06401621,0.0,45.843643,1.0,1.0,0.0,6,0,0,0,0,0,1,1,0,0,0
2718439492,24.256428,24.238817,0.062,0.06356809,0.0,45.852554,1.0,1.0,0.0,6,0,0,0,0,0,1,1,0,0,0
2718933379,24.195837,24.233416,0.099199995,0.06451581,0.0,45.861477,1.0,1.0,0.0,6,0,0,0,0,0,1,1,0,0,0
2719438810,24.195837,24.231092,0.062,0.06309707,0.0,45.87026,1.0,1.0,0.0,6,0,0,0,0,0,1,1,0,0,0
2719944546,24.216034,24.223759,0.0744,0.06270811,0.0,45.879044,1.0,1.0,0.0,6,0,0,0,0,0,1,1,0,0,0
2720437914,24.195837,24.218296,0.049599998,0.06202013,0.0,45.887505,1.0,1.0,0.0,6,0,0,0,0,0,1,1,0,0,0
2720943598,24.195837,24.214016,0.062,0.06303577,0.0,45.89643,1.0,1.0,0.0,6,0,0,0,0,0,1,1,0,0,0
2721448249,24.195837,24.207075,0.062,0.063542925,0.0,45.90533,1.0,1.0,0.0,6,0,0,0,0,0,1,1,0,0,0
2721942001,24.195837,24.20317,0.062,0.064113274,0.0,45.914204,1.0,1.0,0.0,6,0,0,0,0,0,1,1,0,0,0
2722447613,24.256428,24.19776,0.062,0.064113125,0.0,45.923275,1.0,1.0,0.0,6,0,0,0,0,0,1,1,0,0,0
2722953335,24.195837,24.194036,0.049599998,0.06366936,0.0,45.932198,1.0,1.0,0.0,6,0,0,0,0,0,1,1,0,0,0
2723446914,24.155443,24.189207,0.062,0.062928766,0.0,45.940735,1.0,1.0,0.0,6,0,0,0,0,0,1,1,0,0,0
2723952390,24.17564,24.184565,0.062,0.063482195,0.0,45.949738,1.0,1.0,0.0,6,0,0,0,0,0,1,1,0,0,0
2724457971,24.155443,24.178152,0.062,0.06323935,0.0,45.958656,1.0,1.0,0.0,6,0,0,0,0,0,1,1,0,0,0
2724951548,24.155443,24.172157,0.0744,0.06368706,0.0,45.9674,1.0,1.0,0.0,6,0,0,0,0,0,1,1,0,0,0
2725456375,24.17564,24.167501,0.062,0.063552946,0.0,45.976254,1.0,1.0,0.0,6,0,0,0,0,0,1,1,0,0,0
2725961959,24.155443,24.163101,0.0744,0.06460701,0.0,45.9855,1.0,1.0,0.0,6,0,0,0,0,0,1,1,0,0,0
2726455793,24.17564,24.159344,0.062,0.06301009,0.0,45.99395,1.0,1.0,0.0,6,0,0,0,0,0,1,1,0,0,0
2726961356,24.17564,24.158123,0.049599998,0.063315645,0.0,46.002853,1.0,1.0,0.0,6,0,0,0,0,0,1,1,0,0,0
2727466778,24.155443,24.158476,0.062,0.064067446,0.0,46.01189,1.0,1.0,0.0,6,0,0,0,0,0,1,1,0,0,0
2727960297,24.155443,24.156536,0.0744,0.06293295,0.0,46.0203,1.0,1.0,0.0,6,0,0,0,0,0,1,1,0,0,0
2728466004,24.155443,24.15007,0.049599998,0.063458346,0.0,46.029255,1.0,1.0,0.0,6,0,0,0,0,0,1,1,0,0,0
2728971578,24.155443,24.142021,0.0744,0.06296399,0.0,46.038082,1.0,1.0,0.0,6,0,0,0,0,0,1,1,0,0,0
2729465031,24.11505,24.142088,0.062,0.063316725,0.0,46.04674,1.0,1.0,0.0,6,0,0,0,0,0,1,1,0,0,0
2729970027,24.155443,24.13768,0.099199995,0.0641613,0.0,46.055813,1.0,1.0,0.0,6,0,0,0,0,0,1,1,0,0,0
2730475616,24.155443,24.13087,0.0744,0.0640337,0.0,46.064774,1.0,1.0,0.0,6,0,0,0,0,0,1,1,0,0,0
2730969111,24.135246,24.128565,0.062,0.06423921,0.0,46.07359,1.0,1.0,0.0,6,0,0,0,0,0,1,1,0,0,0
2731474695,24.11505,24.126165,0.062,0.0648587,0.0,46.08275,1.0,1.0,0.0,6,0,0,0,0,0,1,1,0,0,0
2731980340,24.11505,24.125044,0.062,0.064546995,0.0,46.091827,1.0,1.0,0.0,6,0,0,0,0,0,1,1,0,0,0
2732474119,24.074656,24.120953,0.062,0.06376412,0.0,46.100445,1.0,1.0,0.0,6,0,0,0,0,0,1,1,0,0,0
2732979808,24.074656,24.11999,0.049599998,0.06357285,0.0,46.10932,1.0,1.0,0.0,6,0,0,0,0,0,1,1,0,0,0
2733485228,24.094852,24.115755,0.0744,0.06440259,0.0,46.118484,1.0,1.0,0.0,6,0,0,0,0,0,1,1,0,0,0
2733977989,24.155443,24.112797,0.0744,0.06335335,0.0,46.12705,1.0,1.0,0.0,6,0,0,0,0,0,1,1,0,0,0
2734483598,24.11505,24.110275,0.049599998,0.06233956,0.0,46.1357,1.0,1.0,0.0,6,0,0,0,0,0,1,1,0,0,0
2734989220,24.216034,24.142609,0.0744,0.06316179,0.0,46.144543,1.0,1.0,0.0,6,0,0,0,0,0,1,1,0,0,0
2735482936,24.17564,24.131105,0.062,0.06318873,0.0,46.153164,1.0,1.0,0.0,6,0,0,0,0,0,1,1,0,0,0
2735988304,24.11505,24.135025,0.062,0.06259195,0.0,46.161983,1.0,1.0,0.0,6,0,0,0,0,0,1,1,0,0,0
2736493880,24.17564,24.13016,0.062,0.061335854,0.0,46.170467,1.0,1.0,0.0,6,0,0,0,0,0,1,1,0,0,0
2736987802,24.135246,24.12407,0.062,0.06312327,0.0,46.179256,1.0,1.0,0.0,6,0,0,0,0,0,1,1,0,0,0
2737492456,24.094852,24.118404,0.062,0.06428856,0.0,46.188404,1.0,1.0,0.0,6,0,0,0,0,0,1,1,0,0,0
2737997997,24.155443,24.118593,0.049599998,0.062568694,0.0,46.196995,1.0,1.0,0.0,6,0,0,0,0,0,1,1,0,0,0
2738503578,24.074656,24.119844,0.062,0.062375464,0.0,46.205837,1.0,1.0,0.0,6,0,0,0,0,0,1,1,0,0,0
2738997366,24.11505,24.118301,0.099199995,0.06192879,0.0,46.21414,1.0,1.0,0.0,6,0,0,0,0,0,1,1,0,0,0
2739502914,24.11505,24.11777,0.062,0.06316373,0.0,46.223183,1.0,1.0,0.0,6,0,0,0,0,0,1,1,0,0,0
2740008564,24.11505,24.113544,0.0744,0.06428108,0.0,46.232323,1.0,1.0,0.0,6,0,0,0,0,0,1,1,0,0,0
2740502011,24.11505,24.111036,0.062,0.06405289,0.0,46.241116,1.0,1.0,0.0,6,0,0,0,0,0,1,1,0,0,0
2741007605,24.054459,24.107124,0.062,0.064072534,0.0,46.250195,1.0,1.0,0.0,6,0,0,0,0,0,1,1,0,0,0
2741513358,24.17564,24.10592,0.062,0.06389653,0.0,46.259163,1.0,1.0,0.0,6,0,0,0,0,0,1,1,0,0,0
2742017921,24.094852,24.106562,0.049599998,0.06361292,0.0,46.268013,1.0,1.0,0.0,6,0,0,0,0,0,1,1,0,0,0
2742511777,24.155443,24.106108,0.062,0.06344076,0.0,46.276684,1.0,1.0,0.0,6,0,0,0,0,0,1,1,0,0,0
2743017639,24.11505,24.10589,0.062,0.06270997,0.0,46.285347,1.0,1.0,0.0,6,0,0,0,0,0,1,1,0,0,0
2743522987,24.074656,24.106031,0.062,0.06262438,0.0,46.294125,1.0,1.0,0.0,6,0,0,0,0,0,1,1,0,0,0
2744016428,24.094852,24.104147,0.062,0.06260301,0.0,46.302654,1.0,1.0,0.0,6,0,0,0,0,0,1,1,0,0,0
2744522010,24.11505,24.10742,0.0744,0.06276473,0.0,46.311455,1.0,1.0,0.0,6,0,0,0,0,0,1,1,0,0,0
2745027588,24.11505,24.108469,0.0744,0.062428374,0.0,46.320206,1.0,1.0,0.0,6,0,0,0,0,0,1,1,0,0,0
2745520334,24.094852,24.10849,0.062,0.061442636,0.0,46.328403,1.0,1.0,0.0,6,0,0,0,0,0,1,1,0,0,0
2746026133,24.074656,24.107716,0.062,0.06350948,0.0,46.337494,1.0,1.0,0.0,6,0,0,0,0,0,1,1,0,0,0
2746531779,24.11505,24.109549,0.062,0.06303978,0.0,46.34637,1.0,1.0,0.0,6,0,0,0,0,0,1,1,0,0,0
2747025195,24.094852,24.110182,0.0744,0.06437176,0.0,46.35529,1.0,1.0,0.0,6,0,0,0,0,0,1,1,0,0,0
2747530748,24.135246,24.112823,0.062,0.06402544,0.0,46.364193,1.0,1.0,0.0,6,0,0,0,0,0,1,1,0,0,0
2748036294,24.11505,24.113863,0.049599998,0.06452459,0.0,46.37336,1.0,1.0,0.0,6,0,0,0,0,0,1,1,0,0,0
2748529978,24.11505,24.114763,0.0744,0.06422851,0.0,46.382107,1.0,1.0,0.0,6,0,0,0,0,0,1,1,0,0,0
2749035597,24.135246,24.112827,0.062,0.064016014,0.0,46.391018,1.0,1.0,0.0,6,0,0,0,0,0,1,1,0,0,0
2749541330,24.054459,24.100807,0.062,0.06329663,0.0,46.399845,1.0,1.0,0.0,6,0,0,0,0,0,1,1,0,0,0
2750034025,24.074656,24.092669,0.062,0.064491384,0.0,46.40882,1.0,1.0,0.0,6,0,0,0,0,0,1,1,0,0,0
2750539498,24.054459,24.084318,0.062,0.063680746,0.0,46.41769,1.0,1.0,0.0,6,0,0,0,0,0,1,1,0,0,0
2751045349,24.094852,24.07884,0.062,0.06364343,0.0,46.426567,1.0,1.0,0.0,6,0,0,0,0,0,1,1,0,0,0
2751538808,24.074656,24.07376,0.062,0.06422293,0.0,46.43544,1.0,1.0,0.0,6,0,0,0,0,0,1,1,0,0,0
2752044374,24.054459,24.0702,0.049599998,0.06268372,0.0,46.4441,1.0,1.0,0.0,6,0,0,0,0,0,1,1,0,0,0
2752549942,24.094852,24.062838,0.049599998,0.063960485,0.0,46.45323,1.0,1.0,0.0,6,0,0,0,0,0,1,1,0,0,0
2753043729,24.074656,24.059902,0.062,0.06467248,0.0,46.46219,1.0,1.0,0.0,6,0,0,0,0,0,1,1,0,0,0
2753549035,24.014065,24.04844,0.062,0.06398371,0.0,46.471146,1.0,1.0,0.0,6,0,0,0,0,0,1,1,0,0,0
2754053895,24.034262,24.039494,0.062,0.06316048,0.0,46.479958,1.0,1.0,0.0,6,0,0,0,0,0,1,1,0,0,0
2754547561,23.993868,24.036404,0.062,0.06364512,0.0,46.488697,1.0,1.0,0.0,6,0,0,0,0,0,1,1,0,0,0
2755053339,24.074656,24.034578,0.062,0.06331232,0.0,46.497414,1.0,1.0,0.0,6,0,0,0,0,0,1,1,0,0,0
2755558974,24.034262,24.033144,0.062,0.06256456,0.0,46.506115,1.0,1.0,0.0,6,0,0,0,0,0,1,1,0,0,0
2756052542,24.034262,24.028494,0.062,0.062034093,0.0,46.514572,1.0,1.0,0.0,6,0,0,0,0,0,1,1,0,0,0
2756558179,24.034262,24.024946,0.062,0.06273297,0.0,46.52345,1.0,1.0,0.0,6,0,0,0,0,0,1,1,0,0,0
2757063588,24.014065,24.02179,0.062,0.0627392,0.0,46.532223,1.0,1.0,0.0,6,0,0,0,0,0,1,1,0,0,0
2757556400,24.014065,24.014505,0.062,0.06302974,0.0,46.5409,1.0,1.0,0.0,6,0,0,0,0,0,1,1,0,0,0
2758061894,24.014065,24.014652,0.062,0.06434629,0.0,46.550056,1.0,1.0,0.0,6,0,0,0,0,0,1,1,0,0,0
2758567627,23.993868,24.014181,0.062,0.062911645,0.0,46.558712,1.0,1.0,0.0,6,0,0,0,0,0,1,1,0,0,0
2759061199,24.034262,24.013689,0.062,0.06284018,0.0,46.56734,1.0,1.0,0.0,6,0,0,0,0,0,1,1,0,0,0
2759566966,24.014065,24.011742,0.062,0.06403875,0.0,46.576496,1.0,1.0,0.0,6,0,0,0,0,0,1,1,0,0,0
2760072346,23.953474,24.003304,0.0744,0.061385058,0.0,46.584778,1.0,1.0,0.0,6,0,0,0,0,0,1,1,0,0,0
2760565933,24.014065,23.999075,0.062,0.06223654,0.0,46.593437,1.0,1.0,0.0,6,0,0,0,0,0,1,1,0,0,0
2761071537,23.953474,23.999172,0.062,0.06393025,0.0,46.602596,1.0,1.0,0.0,6,0,0,0,0,0,1,1,0,0,0
2761576558,23.973671,23.99763,0.062,0.06315167,0.0,46.61138,1.0,1.0,0.0,6,0,0,0,0,0,1,1,0,0,0
2762070001,23.953474,23.992111,0.0744,0.06445268,0.0,46.620293,1.0,1.0,0.0,6,0,0,0,0,0,1,1,0,0,0
2762575572,23.52934,23.908043,0.062,0.06507508,0.0,46.62944,1.0,1.0,0.0,6,0,0,0,0,0,1,1,0,0,0
2763081686,23.85249,23.848906,0.062,0.06436818,0.0,46.638416,1.0,1.0,0.0,6,0,0,0,0,0,1,1,0,0,0
2763587296,23.791899,23.86176,0.062,0.062642515,0.0,46.647087,1.0,1.0,0.0,6,0,0,0,0,0,1,1,0,0,0
2764080250,23.91308,23.877756,0.049599998,0.06376779,0.0,46.65601,1.0,1.0,0.0,6,0,0,0,0,0,1,1,0,0,0
2764586005,23.953474,23.896416,0.062,0.06362748,0.0,46.66491,1.0,1.0,0.0,6,0,0,0,0,0,1,1,0,0,0
2765091532,23.953474,23.913734,0.049599998,0.063809134,0.0,46.67389,1.0,1.0,0.0,6,0,0,0,0,0,1,1,0,0,0
2765596521,24.034262,23.944038,0.062,0.061881218,0.0,46.682327,1.0,1.0,0.0,6,0,0,0,0,0,1,1,0,0,0
2766089919,24.014065,23.97208,0.062,0.06253344,0.0,46.69097,1.0,1.0,0.0,6,0,0,0,0,0,1,1,0,0,0
2766595821,24.054459,23.988497,0.0744,0.06380572,0.0,46.700043,1.0,1.0,0.0,6,0,0,0,0,0,1,1,0,0,0
2767101106,23.993868,23.996641,0.062,0.063124046,0.0,46.708817,1.0,1.0,0.0,6,0,0,0,0,0,1,1,0,0,0
2767594747,23.993868,24.0013,0.0744,0.062283922,0.0,46.71722,1.0,1.0,0.0,6,0,0,0,0,0,1,1,0,0,0
2768100313,23.993868,23.999685,0.062,0.06463201,0.0,46.726505,1.0,1.0,0.0,6,0,0,0,0,0,1,1,0,0,0
2768605889,23.993868,23.99665,0.0744,0.06444293,0.0,46.73563,1.0,1.0,0.0,6,0,0,0,0,0,1,1,0,0,0
2769099491,23.973671,23.9941,0.0744,0.063323945,0.0,46.744175,1.0,1.0,0.0,6,0,0,0,0,0,1,1,0,0,0
2769604404,23.953474,23.993076,0.062,0.06310613,0.0,46.75308,1.0,1.0,0.0,6,0,0,0,0,0,1,1,0,0,0
2770110150,24.014065,23.986053,0.0868,0.06369968,0.0,46.76204,1.0,1.0,0.0,6,0,0,0,0,0,1,1,0,0,0
2770603588,23.953474,23.978413,0.062,0.06325857,0.0,46.770657,1.0,1.0,0.0,6,0,0,0,0,0,1,1,0,0,0
2771109192,23.953474,23.975485,0.062,0.064015664,0.0,46.77978,1.0,1.0,0.0,6,0,0,0,0,0,1,1,0,0,0
2771614726,23.953474,23.971731,0.062,0.062922575,0.0,46.788532,1.0,1.0,0.0,6,0,0,0,0,0,1,1,0,0,0
2772108305,23.973671,23.971855,0.0744,0.061928038,0.0,46.796944,1.0,1.0,0.0,6,0,0,0,0,0,1,1,0,0,0
2772613886,23.933277,23.967346,0.062,0.06298688,0.0,46.80593,1.0,1.0,0.0,6,0,0,0,0,0,1,1,0,0,0
2773119608,24.014065,23.975317,0.062,0.06315747,0.0,46.81489,1.0,1.0,0.0,6,0,0,0,0,0,1,1,0,0,0
2773612422,23.973671,23.977362,0.0744,0.0649787,0.0,46.823803,1.0,1.0,0.0,6,0,0,0,0,0,1,1,0,0,0
2774117925,23.993868,23.97462,0.049599998,0.063047215,0.0,46.832462,1.0,1.0,0.0,6,0,0,0,0,0,1,1,0,0,0
2774623568,23.953474,23.96728,0.062,0.06159954,0.0,46.840958,1.0,1.0,0.0,6,0,0,0,0,0,1,1,0,0,0
2775117392,23.953474,23.965134,0.049599998,0.06166379,0.0,46.849453,1.0,1.0,0.0,6,0,0,0,0,0,1,1,0,0,0
2775622943,23.993868,23.970148,0.062,0.063937806,0.0,46.858616,1.0,1.0,0.0,6,0,0,0,0,0,1,1,0,0,0
2776128423,23.953474,23.96114,0.062,0.06359636,0.0,46.86756,1.0,1.0,0.0,6,0,0,0,0,0,1,1,0,0,0
2776622159,23.892883,23.950788,0.062,0.06307171,0.0,46.876194,1.0,1.0,0.0,6,0,0,0,0,0,1,1,0,0,0
2777127587,23.91308,23.937735,0.062,0.0625874,0.0,46.884945,1.0,1.0,0.0,6,0,0,0,0,0,1,1,0,0,0
2777632588,23.933277,23.93742,0.062,0.06257861,0.0,46.893753,1.0,1.0,0.0,6,0,0,0,0,0,1,1,0,0,0
2778126251,23.91308,23.931036,0.0744,0.06391666,0.0,46.902603,1.0,1.0,0.0,6,0,0,0,0,0,1,1,0,0,0
2778631586,23.91308,23.92839,0.0744,0.06521514,0.0,46.911884,1.0,1.0,0.0,6,0,0,0,0,0,1,1,0,0,0
2779137378,23.91308,23.925104,0.062,0.06392804,0.0,46.92068,1.0,1.0,0.0,6,0,0,0,0,0,1,1,0,0,0
2779630809,23.832293,23.90372,0.0744,0.06436916,0.0,46.929596,1.0,1.0,0.0,6,0,0,0,0,0,1,1,0,0,0
2780136399,23.872686,23.8932,0.062,0.06395436,0.0,46.938545,1.0,1.0,0.0,6,0,0,0,0,0,1,1,0,0,0
2780642008,23.892883,23.888315,0.062,0.064556085,0.0,46.947693,1.0,1.0,0.0,6,0,0,0,0,0,1,1,0,0,0
2781134969,23.872686,23.88595,0.049599998,0.06499817,0.0,46.95672,1.0,1.0,0.0,6,0,0,0,0,0,1,1,0,0,0
2781640333,23.91308,23.884398,0.0744,0.063721694,0.0,46.96542,1.0,1.0,0.0,6,0,0,0,0,0,1,1,0,0,0
2782145976,23.85249,23.8791,0.062,0.063587695,0.0,46.974426,1.0,1.0,0.0,6,0,0,0,0,0,1,1,0,0,0
2782639592,23.872686,23.877815,0.0744,0.064517826,0.0,46.983387,1.0,1.0,0.0,6,0,0,0,0,0,1,1,0,0,0
2783145317,23.872686,23.873924,0.0744,0.06388236,0.0,46.992252,1.0,1.0,0.0,6,0,0,0,0,0,1,1,0,0,0
2783650826,23.892883,23.87489,0.0744,0.06367461,0.0,47.001163,1.0,1.0,0.0,6,0,0,0,0,0,1,1,0,0,0
2784144584,23.892883,23.879198,0.049599998,0.06212943,0.0,47.009586,1.0,1.0,0.0,6,0,0,0,0,0,1,1,0,0,0
2784650028,23.85249,23.88037,0.062,0.06121708,0.0,47.018158,1.0,1.0,0.0,6,0,0,0,0,0,1,1,0,0,0
2785154797,23.91308,23.87864,0.0744,0.06326289,0.0,47.027218,1.0,1.0,0.0,6,0,0,0,0,0,1,1,0,0,0
2785648271,23.85249,23.875832,0.062,0.0621424,0.0,47.035545,1.0,1.0,0.0,6,0,0,0,0,0,1,1,0,0,0
2786154001,23.872686,23.874937,0.062,0.06312626,0.0,47.0445,1.0,1.0,0.0,6,0,0,0,0,0,1,1,0,0,0
2786659718,23.832293,23.865738,0.062,0.0635019,0.0,47.05346,1.0,1.0,0.0,6,0,0,0,0,0,1,1,0,0,0
2787153355,23.832293,23.86035,0.062,0.06388034,0.0,47.062206,1.0,1.0,0.0,6,0,0,0,0,0,1,1,0,0,0
2787658948,23.791899,23.846157,0.0744,0.06474675,0.0,47.071465,1.0,1.0,0.0,6,0,0,0,0,0,1,1,0,0,0
2788164319,23.791899,23.83076,0.062,0.06406554,0.0,47.080383,1.0,1.0,0.0,6,0,0,0,0,0,1,1,0,0,0
2788657978,23.791899,23.819784,0.062,0.06340262,0.0,47.08896,1.0,1.0,0.0,6,0,0,0,0,0,1,1,0,0,0
2789163030,23.771704,23.812891,0.062,0.06311996,0.0,47.09778,1.0,1.0,0.0,6,0,0,0,0,0,1,1,0,0,0
2789668386,23.711113,23.795752,0.062,0.063025594,0.0,47.106606,1.0,1.0,0.0,6,0,0,0,0,0,1,1,0,0,0
2790162199,23.791899,23.786613,0.0744,0.063148625,0.0,47.115314,1.0,1.0,0.0,6,0,0,0,0,0,1,1,0,0,0
2790667815,23.73131,23.781471,0.0744,0.06325359,0.0,47.12422,1.0,1.0,0.0,6,0,0,0,0,0,1,1,0,0,0
2791173139,23.751507,23.774923,0.0744,0.063895114,0.0,47.133213,1.0,1.0,0.0,6,0,0,0,0,0,1,1,0,0,0
2791666794,23.771704,23.768799,0.0744,0.062353455,0.0,47.14158,1.0,1.0,0.0,6,0,0,0,0,0,1,1,0,0,0
2792172677,23.791899,23.773886,0.062,0.0617185,0.0,47.15017,1.0,1.0,0.0,6,0,0,0,0,0,1,1,0,0,0
2792677977,23.771704,23.781868,0.062,0.060838036,0.0,47.15862,1.0,1.0,0.0,6,0,0,0,0,0,1,1,0,0,0
2793170751,23.812096,23.784637,0.062,0.062296644,0.0,47.167305,1.0,1.0,0.0,6,0,0,0,0,0,1,1,0,0,0
2793676589,23.771704,23.785095,0.062,0.06248544,0.0,47.17614,1.0,1.0,0.0,6,0,0,0,0,0,1,1,0,0,0
2794182028,23.751507,23.783474,0.062,0.06340778,0.0,47.185165,1.0,1.0,0.0,6,0,0,0,0,0,1,1,0,0,0
2794675598,23.791899,23.782131,0.049599998,0.063653715,0.0,47.193916,1.0,1.0,0.0,6,0,0,0,0,0,1,1,0,0,0
2795181224,23.751507,23.776163,0.0744,0.064244784,0.0,47.20295,1.0,1.0,0.0,6,0,0,0,0,0,1,1,0,0,0
2795686913,23.751507,23.770782,0.062,0.06370599,0.0,47.211906,1.0,1.0,0.0,6,0,0,0,0,0,1,1,0,0,0
2796180408,23.812096,23.774258,0.062,0.06536233,0.0,47.221016,1.0,1.0,0.0,6,0,0,0,0,0,1,1,0,0,0
2796685943,23.791899,23.773575,0.062,0.0637926,0.0,47.229755,1.0,1.0,0.0,6,0,0,0,0,0,1,1,0,0,0
2797191546,23.791899,23.773523,0.049599998,0.06347005,0.0,47.238655,1.0,1.0,0.0,6,0,0,0,0,0,1,1,0,0,0
2797684525,23.751507,23.770319,0.062,0.0639232,0.0,47.247433,1.0,1.0,0.0,6,0,0,0,0,0,1,1,0,0,0
2798189953,23.812096,23.763178,0.062,0.06261174,0.0,47.256138,1.0,1.0,0.0,6,0,0,0,0,0,1,1,0,0,0
2798695509,23.73131,23.760326,0.062,0.06380238,0.0,47.265244,1.0,1.0,0.0,6,0,0,0,0,0,1,1,0,0,0
2799189152,23.771704,23.760468,0.062,0.06260076,0.0,47.273693,1.0,1.0,0.0,6,0,0,0,0,0,1,1,0,0,0
2799694782,23.791899,23.756416,0.062,0.064558186,0.0,47.283016,1.0,1.0,0.0,6,0,0,0,0,0,1,1,0,0,0
2800200417,23.771704,23.756435,0.062,0.06363424,0.0,47.291832,1.0,1.0,0.0,6,0,0,0,0,0,1,1,0,0,0
2800694016,23.832293,23.778774,0.062,0.06472104,0.0,47.300777,1.0,1.0,0.0,6,0,0,0,0,0,1,1,0,0,0
2801198749,23.791899,23.78108,0.062,0.063024916,0.0,47.309467,1.0,1.0,0.0,6,0,0,0,0,0,1,1,0,0,0
2801704419,23.791899,23.772068,0.049599998,0.06385323,0.0,47.318546,1.0,1.0,0.0,6,0,0,0,0,0,1,1,0,0,0
2802198006,23.791899,23.775583,0.062,0.06425725,0.0,47.32743,1.0,1.0,0.0,6,0,0,0,0,0,1,1,0,0,0
2802703570,23.73131,23.777954,0.049599998,0.06337451,0.0,47.336266,1.0,1.0,0.0,6,0,0,0,0,0,1,1,0,0,0
2803209114,23.791899,23.780022,0.0744,0.06318717,0.0,47.34509,1.0,1.0,0.0,6,0,0,0,0,0,1,1,0,0,0
2803702876,23.771704,23.78034,0.062,0.06279733,0.0,47.353714,1.0,1.0,0.0,6,0,0,0,0,0,1,1,0,0,0
2804208262,23.771704,23.770544,0.062,0.0630663,0.0,47.36258,1.0,1.0,0.0,6,0,0,0,0,0,1,1,0,0,0
2804714006,23.771704,23.769999,0.062,0.06263067,0.0,47.37129,1.0,1.0,0.0,6,0,0,0,0,0,1,1,0,0,0
2805207764,23.771704,23.777224,0.062,0.062465694,0.0,47.379837,1.0,1.0,0.0,6,0,0,0,0,0,1,1,0,0,0
2805712359,23.771704,23.772888,0.062,0.06365533,0.0,47.38885,1.0,1.0,0.0,6,0,0,0,0,0,1,1,0,0,0
2806217897,23.711113,23.770227,0.0372,0.06421581,0.0,47.397926,1.0,1.0,0.0,6,0,0,0,0,0,1,1,0,0,0
2806723621,23.832293,23.779211,0.0744,0.063551456,0.0,47.406837,1.0,1.0,0.0,6,0,0,0,0,0,1,1,0,0,0
2807217382,23.812096,23.78414,0.062,0.064581655,0.0,47.41587,1.0,1.0,0.0,6,0,0,0,0,0,1,1,0,0,0
2807722966,23.812096,23.786043,0.062,0.06473815,0.0,47.424988,1.0,1.0,0.0,6,0,0,0,0,0,1,1,0,0,0
2808228325,23.771704,23.78256,0.0744,0.06337964,0.0,47.433758,1.0,1.0,0.0,6,0,0,0,0,0,1,1,0,0,0
2808721938,23.690916,23.77309,0.062,0.06486804,0.0,47.44281,1.0,1.0,0.0,6,0,0,0,0,0,1,1,0,0,0
2809227799,23.791899,23.76162,0.062,0.06457741,0.0,47.45181,1.0,1.0,0.0,6,0,0,0,0,0,1,1,0,0,0
2809732383,23.711113,23.752726,0.062,0.06418925,0.0,47.46074,1.0,1.0,0.0,6,0,0,0,0,0,1,1,0,0,0
2810226032,23.771704,23.745409,0.062,0.06329999,0.0,47.469288,1.0,1.0,0.0,6,0,0,0,0,0,1,1,0,0,0
2810731576,23.751507,23.740625,0.099199995,0.06340513,0.0,47.478096,1.0,1.0,0.0,6,0,0,0,0,0,1,1,0,0,0
2811237366,23.751507,23.742136,0.062,0.06253864,0.0,47.486847,1.0,1.0,0.0,6,0,0,0,0,0,1,1,0,0,0
2811730983,23.751507,23.745668,0.099199995,0.063578084,0.0,47.495537,1.0,1.0,0.0,6,0,0,0,0,0,1,1,0,0,0
2812236587,23.771704,23.751028,0.062,0.06375977,0.0,47.504505,1.0,1.0,0.0,6,0,0,0,0,0,1,1,0,0,0
2812742021,23.67072,23.74669,0.062,0.064137176,0.0,47.513493,1.0,1.0,0.0,6,0,0,0,0,0,1,1,0,0,0
2813235627,23.771704,23.740461,0.049599998,0.06407511,0.0,47.522232,1.0,1.0,0.0,6,0,0,0,0,0,1,1,0,0,0
2813740378,23.751507,23.737648,0.062,0.06386658,0.0,47.531086,1.0,1.0,0.0,6,0,0,0,0,0,1,1,0,0,0
2814246138,23.67072,23.733507,0.062,0.06262734,0.0,47.53975,1.0,1.0,0.0,6,0,0,0,0,0,1,1,0,0,0
2814739534,23.751507,23.7326,0.062,0.06375732,0.0,47.548584,1.0,1.0,0.0,6,0,0,0,0,0,1,1,0,0,0
2815245223,23.73131,23.730295,0.062,0.062370833,0.0,47.55725,1.0,1.0,0.0,6,0,0,0,0,0,1,1,0,0,0
2815750769,23.751507,23.727205,0.049599998,0.06244735,0.0,47.566,1.0,1.0,0.0,6,0,0,0,0,0,1,1,0,0,0
2816244334,23.771704,23.72735,0.062,0.06138424,0.0,47.57436,1.0,1.0,0.0,6,0,0,0,0,0,1,1,0,0,0
2816750018,23.791899,23.73338,0.062,0.062284715,0.0,47.583183,1.0,1.0,0.0,6,0,0,0,0,0,1,1,0,0,0
2817255582,23.812096,23.759079,0.062,0.06165961,0.0,47.59176,1.0,1.0,0.0,6,0,0,0,0,0,1,1,0,0,0
2817748373,23.832293,23.77691,0.0744,0.062471513,0.0,47.600407,1.0,1.0,0.0,6,0,0,0,0,0,1,1,0,0,0
2818253928,23.832293,23.794065,0.0744,0.06340119,0.0,47.60945,1.0,1.0,0.0,6,0,0,0,0,0,1,1,0,0,0
2818759611,23.812096,23.805016,0.062,0.06497891,0.0,47.618732,1.0,1.0,0.0,6,0,0,0,0,0,1,1,0,0,0
2819253341,23.832293,23.80615,0.0744,0.06482846,0.0,47.627605,1.0,1.0,0.0,6,0,0,0,0,0,1,1,0,0,0
2819758735,23.791899,23.806227,0.0744,0.06336641,0.0,47.636303,1.0,1.0,0.0,6,0,0,0,0,0,1,1,0,0,0
2820264531,23.791899,23.804081,0.062,0.063929014,0.0,47.64534,1.0,1.0,0.0,6,0,0,0,0,0,1,1,0,0,0
2820757958,23.791899,23.79475,0.062,0.06399203,0.0,47.65412,1.0,1.0,0.0,6,0,0,0,0,0,1,1,0,0,0
2821263489,23.771704,23.791006,0.049599998,0.06304821,0.0,47.662827,1.0,1.0,0.0,6,0,0,0,0,0,1,1,0,0,0
2821769196,23.751507,23.789177,0.062,0.06351844,0.0,47.67182,1.0,1.0,0.0,6,0,0,0,0,0,1,1,0,0,0
2822261899,23.690916,23.789236,0.062,0.06369717,0.0,47.680508,1.0,1.0,0.0,6,0,0,0,0,0,1,1,0,0,0
2822767785,23.812096,23.790308,0.062,0.062339492,0.0,47.689167,1.0,1.0,0.0,6,0,0,0,0,0,1,1,0,0,0
2823273180,23.771704,23.788765,0.062,0.06169116,0.0,47.697773,1.0,1.0,0.0,6,0,0,0,0,0,1,1,0,0,0
2823766928,23.832293,23.795343,0.062,0.06315413,0.0,47.7066,1.0,1.0,0.0,6,0,0,0,0,0,1,1,0,0,0
2824272346,23.791899,23.802576,0.049599998,0.06301,0.0,47.715458,1.0,1.0,0.0,6,0,0,0,0,0,1,1,0,0,0
2824778024,23.832293,23.808104,0.062,0.06326451,0.0,47.724426,1.0,1.0,0.0,6,0,0,0,0,0,1,1,0,0,0
2825271622,23.791899,23.808125,0.062,0.063313656,0.0,47.73308,1.0,1.0,0.0,6,0,0,0,0,0,1,1,0,0,0
2825777347,23.85249,23.811714,0.062,0.06339151,0.0,47.741943,1.0,1.0,0.0,6,0,0,0,0,0,1,1,0,0,0
2826282990,23.791899,23.81447,0.062,0.06318759,0.0,47.75072,1.0,1.0,0.0,6,0,0,0,0,0,1,1,0,0,0
2826775488,23.832293,23.816946,0.062,0.06350185,0.0,47.759457,1.0,1.0,0.0,6,0,0,0,0,0,1,1,0,0,0
2827281230,23.85249,23.825052,0.062,0.06278268,0.0,47.7682,1.0,1.0,0.0,6,0,0,0,0,0,1,1,0,0,0
2827786727,23.791899,23.822573,0.062,0.06184249,0.0,47.776783,1.0,1.0,0.0,6,0,0,0,0,0,1,1,0,0,0
2828280526,23.812096,23.817526,0.049599998,0.06142368,0.0,47.78517,1.0,1.0,0.0,6,0,0,0,0,0,1,1,0,0,0
2828786013,23.367765,23.794523,0.062,0.062101673,0.0,47.793957,1.0,1.0,0.0,6,0,0,0,0,0,1,1,0,0,0
2829291548,23.771704,23.717491,0.062,0.061880887,0.0,47.802624,1.0,1.0,0.0,6,0,0,0,0,0,1,1,0,0,0
2829785189,23.690916,23.732128,0.062,0.062368017,0.0,47.81113,1.0,1.0,0.0,6,0,0,0,0,0,1,1,0,0,0
2830290867,23.690916,23.73482,0.062,0.06316899,0.0,47.820168,1.0,1.0,0.0,6,0,0,0,0,0,1,1,0,0,0
2830796397,23.67072,23.723988,0.0744,0.06307763,0.0,47.828964,1.0,1.0,0.0,6,0,0,0,0,0,1,1,0,0,0
2831289210,23.67072,23.715189,0.062,0.06333421,0.0,47.8376,1.0,1.0,0.0,6,0,0,0,0,0,1,1,0,0,0
2831794710,23.711113,23.717548,0.049599998,0.06318684,0.0,47.846436,1.0,1.0,0.0,6,0,0,0,0,0,1,1,0,0,0
2832300403,23.73131,23.712412,0.062,0.06268379,0.0,47.855053,1.0,1.0,0.0,6,0,0,0,0,0,1,1,0,0,0
2832805892,23.711113,23.708069,0.0372,0.061641824,0.0,47.863663,1.0,1.0,0.0,6,0,0,0,0,0,1,1,0,0,0
2833299618,23.67072,23.697088,0.0744,0.063474126,0.0,47.87253,1.0,1.0,0.0,6,0,0,0,0,0,1,1,0,0,0
2833805327,23.610128,23.690405,0.049599998,0.062613524,0.0,47.88135,1.0,1.0,0.0,6,0,0,0,0,0,1,1,0,0,0
2834310748,23.711113,23.69403,0.062,0.061704848,0.0,47.8899,1.0,1.0,0.0,6,0,0,0,0,0,1,1,0,0,0
2834817450,23.791899,23.709902,0.062,0.061771467,0.0,47.89858,1.0,1.0,0.0,6,0,0,0,0,0,1,1,0,0,0
2835321451,23.771704,23.727104,0.062,0.06478518,0.0,47.907917,1.0,1.0,0.0,6,0,0,0,0,0,1,1,0,0,0
2835814964,23.771704,23.744627,0.062,0.06234096,0.0,47.916286,1.0,1.0,0.0,6,0,0,0,0,0,1,1,0,0,0
2836320643,23.771704,23.756414,0.062,0.062777124,0.0,47.925167,1.0,1.0,0.0,6,0,0,0,0,0,1,1,0,0,0
2836825963,23.791899,23.77391,0.062,0.06267456,0.0,47.93395,1.0,1.0,0.0,6,0,0,0,0,0,1,1,0,0,0
2837319772,23.73131,23.772383,0.062,0.06254715,0.0,47.94246,1.0,1.0,0.0,6,0,0,0,0,0,1,1,0,0,0
2837825067,23.73131,23.771093,0.062,0.063653834,0.0,47.951485,1.0,1.0,0.0,6,0,0,0,0,0,1,1,0,0,0
2838331070,23.711113,23.767544,0.062,0.06287749,0.0,47.960293,1.0,1.0,0.0,6,0,0,0,0,0,1,1,0,0,0
2838824521,23.791899,23.773937,0.062,0.061176207,0.0,47.968494,1.0,1.0,0.0,6,0,0,0,0,0,1,1,0,0,0
2839329997,23.791899,23.775019,0.062,0.061988875,0.0,47.97728,1.0,1.0,0.0,6,0,0,0,0,0,1,1,0,0,0
2839835736,23.791899,23.775366,0.062,0.06216456,0.0,47.986023,1.0,1.0,0.0,6,0,0,0,0,0,1,1,0,0,0
2840328337,23.771704,23.772867,0.0744,0.06283277,0.0,47.994633,1.0,1.0,0.0,6,0,0,0,0,0,1,1,0,0,0
2840834007,23.771704,23.771559,0.062,0.06282951,0.0,48.003468,1.0,1.0,0.0,6,0,0,0,0,0,1,1,0,0,0
2841339759,23.832293,23.770746,0.062,0.061757315,0.0,48.012096,1.0,1.0,0.0,6,0,0,0,0,0,1,1,0,0,0
2841833226,23.771704,23.775587,0.062,0.062049463,0.0,48.02063,1.0,1.0,0.0,6,0,0,0,0,0,1,1,0,0,0
2842338808,23.771704,23.773434,0.062,0.06259036,0.0,48.029537,1.0,1.0,0.0,6,0,0,0,0,0,1,1,0,0,0
2842844520,23.771704,23.76767,0.062,0.060841177,0.0,48.03792,1.0,1.0,0.0,6,0,0,0,0,0,1,1,0,0,0
2843337964,23.771704,23.764936,0.0744,0.062248543,0.0,48.046623,1.0,1.0,0.0,6,0,0,0,0,0,1,1,0,0,0
2843843485,23.751507,23.762705,0.062,0.062790856,0.0,48.05553,1.0,1.0,0.0,6,0,0,0,0,0,1,1,0,0,0
2844349188,23.791899,23.761934,0.062,0.0616726,0.0,48.06398,1.0,1.0,0.0,6,0,0,0,0,0,1,1,0,0,0
2844841989,23.751507,23.761467,0.062,0.061507955,0.0,48.072342,1.0,1.0,0.0,6,0,0,0,0,0,1,1,0,0,0
2845347800,23.67072,23.755177,0.0744,0.06229065,0.0,48.081135,1.0,1.0,0.0,6,0,0,0,0,0,1,1,0,0,0
2845853190,23.771704,23.7598,0.062,0.062195804,0.0,48.08987,1.0,1.0,0.0,6,0,0,0,0,0,1,1,0,0,0
2846346784,23.771704,23.759485,0.062,0.06086336,0.0,48.09812,1.0,1.0,0.0,6,0,0,0,0,0,1,1,0,0,0
2846852327,23.73131,23.771101,0.099199995,0.06340971,0.0,48.107197,1.0,1.0,0.0,6,0,0,0,0,0,1,1,0,0,0
2847357966,23.832293,23.780333,0.062,0.06254842,0.0,48.115913,1.0,1.0,0.0,6,0,0,0,0,0,1,1,0,0,0
2847851587,23.791899,23.78355,0.049599998,0.062136415,0.0,48.124382,1.0,1.0,0.0,6,0,0,0,0,0,1,1,0,0,0
2848357406,23.832293,23.785248,0.062,0.06181903,0.0,48.133125,1.0,1.0,0.0,6,0,0,0,0,0,1,1,0,0,0
2848862734,23.812096,23.788898,0.049599998,0.06123557,0.0,48.141693,1.0,1.0,0.0,6,0,0,0,0,0,1,1,0,0,0
2849355818,23.832293,23.78645,0.062,0.06180596,0.0,48.150227,1.0,1.0,0.0,6,0,0,0,0,0,1,1,0,0,0
2849861178,23.771704,23.78782,0.062,0.062231224,0.0,48.159,1.0,1.0,0.0,6,0,0,0,0,0,1,1,0,0,0
2850366782,23.812096,23.794605,0.062,0.063058116,0.0,48.167877,1.0,1.0,0.0,6,0,0,0,0,0,1,1,0,0,0
2850860284,23.812096,23.798223,0.062,0.063866936,0.0,48.17671,1.0,1.0,0.0,6,0,0,0,0,0,1,1,0,0,0
2851366185,23.791899,23.799562,0.062,0.06430275,0.0,48.185787,1.0,1.0,0.0,6,0,0,0,0,0,1,1,0,0,0
2851871792,23.832293,23.799896,0.062,0.064218484,0.0,48.194736,1.0,1.0,0.0,6,0,0,0,0,0,1,1,0,0,0
2852365335,23.791899,23.799488,0.062,0.06413067,0.0,48.203476,1.0,1.0,0.0,6,0,0,0,0,0,1,1,0,0,0
2852870940,23.711113,23.798006,0.0744,0.061960086,0.0,48.21192,1.0,1.0,0.0,6,0,0,0,0,0,1,1,0,0,0
2853376350,23.791899,23.791945,0.062,0.062178977,0.0,48.220627,1.0,1.0,0.0,6,0,0,0,0,0,1,1,0,0,0
2853869919,23.812096,23.790974,0.0744,0.062755935,0.0,48.229336,1.0,1.0,0.0,6,0,0,0,0,0,1,1,0,0,0
2854375641,23.832293,23.771196,0.062,0.062279116,0.0,48.238083,1.0,1.0,0.0,6,0,0,0,0,0,1,1,0,0,0
2854880472,23.812096,23.768032,0.062,0.062026463,0.0,48.24673,1.0,1.0,0.0,6,0,0,0,0,0,1,1,0,0,0
2855374164,23.711113,23.763317,0.062,0.06266778,0.0,48.255356,1.0,1.0,0.0,6,0,0,0,0,0,1,1,0,0,0
2855879554,23.73131,23.738728,0.0744,0.06079547,0.0,48.26368,1.0,1.0,0.0,6,0,0,0,0,0,1,1,0,0,0
2856385097,23.751507,23.732706,0.062,0.061414033,0.0,48.272377,1.0,1.0,0.0,6,0,0,0,0,0,1,1,0,0,0
2856878774,23.751507,23.736254,0.062,0.06044114,0.0,48.28058,1.0,1.0,0.0,6,0,0,0,0,0,1,1,0,0,0
2857384401,23.812096,23.744701,0.062,0.062241737,0.0,48.289536,1.0,1.0,0.0,6,0,0,0,0,0,1,1,0,0,0
2857889985,23.751507,23.748037,0.062,0.062196277,0.0,48.29825,1.0,1.0,0.0,6,0,0,0,0,0,1,1,0,0,0
2858383546,23.73131,23.743029,0.0744,0.06310306,0.0,48.306953,1.0,1.0,0.0,6,0,0,0,0,0,1,1,0,0,0
2858889190,23.751507,23.73914,0.062,0.06268187,0.0,48.31574,1.0,1.0,0.0,6,0,0,0,0,0,1,1,0,0,0
2859394121,23.791899,23.749702,0.062,0.06279761,0.0,48.3246,1.0,1.0,0.0,6,0,0,0,0,0,1,1,0,0,0
2859887840,23.812096,23.764755,0.0744,0.0604583,0.0,48.332645,1.0,1.0,0.0,6,0,0,0,0,0,1,1,0,0,0
2860393182,23.771704,23.766602,0.0744,0.06218653,0.0,48.341515,1.0,1.0,0.0,6,0,0,0,0,0,1,1,0,0,0
2860898823,23.791899,23.766785,0.0744,0.0630849,0.0,48.350388,1.0,1.0,0.0,6,0,0,0,0,0,1,1,0,0,0
2861392568,23.832293,23.778276,0.049599998,0.06252611,0.0,48.35896,1.0,1.0,0.0,6,0,0,0,0,0,1,1,0,0,0
2861897987,23.85249,23.797047,0.062,0.060803153,0.0,48.367413,1.0,1.0,0.0,6,0,0,0,0,0,1,1,0,0,0
2862403527,23.872686,23.825117,0.062,0.06097484,0.0,48.37599,1.0,1.0,0.0,6,0,0,0,0,0,1,1,0,0,0
2862897366,23.85249,23.838057,0.062,0.061962906,0.0,48.38463,1.0,1.0,0.0,6,0,0,0,0,0,1,1,0,0,0
2863403128,23.892883,23.862291,0.049599998,0.061297625,0.0,48.393204,1.0,1.0,0.0,6,0,0,0,0,0,1,1,0,0,0
2863908246,23.91308,23.882742,0.049599998,0.061962973,0.0,48.40207,1.0,1.0,0.0,6,0,0,0,0,0,1,1,0,0,0
2864402271,23.872686,23.891088,0.062,0.06279815,0.0,48.410694,1.0,1.0,0.0,6,0,0,0,0,0,1,1,0,0,0
2864906693,23.892883,23.88706,0.062,0.06249999,0.0,48.419495,1.0,1.0,0.0,6,0,0,0,0,0,1,1,0,0,0
2865412579,23.85249,23.88506,0.062,0.062379684,0.0,48.4282,1.0,1.0,0.0,6,0,0,0,0,0,1,1,0,0,0
2865918003,23.791899,23.875526,0.062,0.062194847,0.0,48.436855,1.0,1.0,0.0,6,0,0,0,0,0,1,1,0,0,0
2866411575,23.812096,23.870085,0.0744,0.06076273,0.0,48.444977,1.0,1.0,0.0,6,0,0,0,0,0,1,1,0,0,0
2866917168,23.751507,23.84101,0.0744,0.061503477,0.0,48.45365,1.0,1.0,0.0,6,0,0,0,0,0,1,1,0,0,0
2867422950,23.711113,23.804808,0.062,0.06163147,0.0,48.46223,1.0,1.0,0.0,6,0,0,0,0,0,1,1,0,0,0
2867916528,23.690916,23.782461,0.062,0.063037485,0.0,48.47098,1.0,1.0,0.0,6,0,0,0,0,0,1,1,0,0,0
2868421950,23.73131,23.767103,0.062,0.061989706,0.0,48.4796,1.0,1.0,0.0,6,0,0,0,0,0,1,1,0,0,0
2868927819,23.711113,23.754955,0.062,0.06413887,0.0,48.488808,1.0,1.0,0.0,6,0,0,0,0,0,1,1,0,0,0
2869421139,23.751507,23.746254,0.062,0.062266536,0.0,48.497128,1.0,1.0,0.0,6,0,0,0,0,0,1,1,0,0,0
2869926698,23.812096,23.753626,0.062,0.061405476,0.0,48.5057,1.0,1.0,0.0,6,0,0,0,0,0,1,1,0,0,0
2870432326,23.771704,23.767086,0.062,0.06187049,0.0,48.514362,1.0,1.0,0.0,6,0,0,0,0,0,1,1,0,0,0
2870925161,23.73131,23.768518,0.062,0.061742384,0.0,48.52276,1.0,1.0,0.0,6,0,0,0,0,0,1,1,0,0,0
2871430743,23.751507,23.765886,0.062,0.06091567,0.0,48.531296,1.0,1.0,0.0,6,0,0,0,0,0,1,1,0,0,0
2871936308,23.711113,23.757467,0.062,0.06112752,0.0,48.539917,1.0,1.0,0.0,6,0,0,0,0,0,1,1,0,0,0
2872429920,23.751507,23.753103,0.062,0.06192755,0.0,48.548492,1.0,1.0,0.0,6,0,0,0,0,0,1,1,0,0,0
2872935756,23.711113,23.751396,0.062,0.061136078,0.0,48.557037,1.0,1.0,0.0,6,0,0,0,0,0,1,1,0,0,0
2873441025,23.73131,23.736158,0.062,0.06251458,0.0,48.565945,1.0,1.0,0.0,6,0,0,0,0,0,1,1,0,0,0
2873934823,23.791899,23.73964,0.062,0.062415637,0.0,48.574444,1.0,1.0,0.0,6,0,0,0,0,0,1,1,0,0,0
2874440311,23.67072,23.730103,0.049599998,0.061932705,0.0,48.58307,1.0,1.0,0.0,6,0,0,0,0,0,1,1,0,0,0
2874945908,23.711113,23.721512,0.062,0.0628698,0.0,48.591965,1.0,1.0,0.0,6,0,0,0,0,0,1,1,0,0,0
2875439599,23.67072,23.714132,0.062,0.06190157,0.0,48.60038,1.0,1.0,0.0,6,0,0,0,0,0,1,1,0,0,0
2875945190,23.711113,23.699226,0.0744,0.06228033,0.0,48.60911,1.0,1.0,0.0,6,0,0,0,0,0,1,1,0,0,0
2876450802,23.67072,23.690779,0.062,0.06273596,0.0,48.617924,1.0,1.0,0.0,6,0,0,0,0,0,1,1,0,0,0
2876955722,23.650522,23.67695,0.062,0.06205538,0.0,48.626625,1.0,1.0,0.0,6,0,0,0,0,0,1,1,0,0,0
2877449326,23.630325,23.668612,0.062,0.06196754,0.0,48.63513,1.0,1.0,0.0,6,0,0,0,0,0,1,1,0,0,0
2877954715,23.509144,23.651575,0.062,0.060633767,0.0,48.643456,1.0,1.0,0.0,6,0,0,0,0,0,1,1,0,0,0
2878460527,23.610128,23.63402,0.062,0.060690112,0.0,48.65197,1.0,1.0,0.0,6,0,0,0,0,0,1,1,0,0,0
2878954238,23.549538,23.618757,0.062,0.06157671,0.0,48.660473,1.0,1.0,0.0,6,0,0,0,0,0,1,1,0,0,0
2879459543,23.610128,23.603262,0.062,0.061642405,0.0,48.669186,1.0,1.0,0.0,6,0,0,0,0,0,1,1,0,0,0
2879965321,23.589931,23.600746,0.062,0.061157774,0.0,48.67776,1.0,1.0,0.0,6,0,0,0,0,0,1,1,0,0,0
2880458826,23.73131,23.62142,0.062,0.061777297,0.0,48.686302,1.0,1.0,0.0,6,0,0,0,0,0,1,1,0,0,0
2880964564,23.690916,23.64487,0.049599998,0.061967425,0.0,48.695,1.0,1.0,0.0,6,0,0,0,0,0,1,1,0,0,0
2881469993,23.650522,23.65227,0.062,0.06243938,0.0,48.703785,1.0,1.0,0.0,6,0,0,0,0,0,1,1,0,0,0
2881963729,23.630325,23.654848,0.062,0.061183795,0.0,48.712116,1.0,1.0,0.0,6,0,0,0,0,0,1,1,0,0,0
2882468380,23.589931,23.642681,0.0744,0.061631948,0.0,48.720802,1.0,1.0,0.0,6,0,0,0,0,0,1,1,0,0,0
2882974014,23.630325,23.624739,0.062,0.062863156,0.0,48.729794,1.0,1.0,0.0,6,0,0,0,0,0,1,1,0,0,0
2883467753,23.630325,23.61787,0.062,0.06206296,0.0,48.73821,1.0,1.0,0.0,6,0,0,0,0,0,1,1,0,0,0
2883973308,23.569735,23.609888,0.062,0.06183562,0.0,48.746826,1.0,1.0,0.0,6,0,0,0,0,0,1,1,0,0,0
2884478771,23.589931,23.599272,0.062,0.063050784,0.0,48.755764,1.0,1.0,0.0,6,0,0,0,0,0,1,1,0,0,0
2884972833,23.549538,23.583609,0.062,0.06184552,0.0,48.76411,1.0,1.0,0.0,6,0,0,0,0,0,1,1,0,0,0
2885477920,23.509144,23.572742,0.049599998,0.060829807,0.0,48.772552,1.0,1.0,0.0,6,0,0,0,0,0,1,1,0,0,0
2885983564,23.52934,23.556816,0.062,0.061735917,0.0,48.781292,1.0,1.0,0.0,6,0,0,0,0,0,1,1,0,0,0
2886477330,23.448553,23.530048,0.062,0.060684353,0.0,48.789547,1.0,1.0,0.0,6,0,0,0,0,0,1,1,0,0,0
2886982807,23.509144,23.48744,0.062,0.061575107,0.0,48.798336,1.0,1.0,0.0,6,0,0,0,0,0,1,1,0,0,0
2887488979,23.448553,23.472553,0.062,0.061710916,0.0,48.807022,1.0,1.0,0.0,6,0,0,0,0,0,1,1,0,0,0
2887982192,23.387962,23.456394,0.049599998,0.06092696,0.0,48.81535,1.0,1.0,0.0,6,0,0,0,0,0,1,1,0,0,0
2888487586,23.367765,23.43108,0.062,0.06099041,0.0,48.823883,1.0,1.0,0.0,6,0,0,0,0,0,1,1,0,0,0
2888992526,23.387962,23.41877,0.062,0.061685223,0.0,48.832664,1.0,1.0,0.0,6,0,0,0,0,0,1,1,0,0,0
2889498007,23.448553,23.407421,0.049599998,0.061425414,0.0,48.841206,1.0,1.0,0.0,6,0,0,0,0,0,1,1,0,0,0
2890003834,23.448553,23.409939,0.0744,0.062192183,0.0,48.849957,1.0,1.0,0.0,6,0,0,0,0,0,1,1,0,0,0
2890497187,23.448553,23.418274,0.062,0.061461292,0.0,48.85827,1.0,1.0,0.0,6,0,0,0,0,0,1,1,0,0,0
2891003028,23.46875,23.426893,0.062,0.06112854,0.0,48.866764,1.0,1.0,0.0,6,0,0,0,0,0,1,1,0,0,0
2891508282,23.448553,23.428324,0.0744,0.060586296,0.0,48.875168,1.0,1.0,0.0,6,0,0,0,0,0,1,1,0,0,0
2892013981,23.428356,23.42548,0.0744,0.062242437,0.0,48.884132,1.0,1.0,0.0,6,0,0,0,0,0,1,1,0,0,0
2892507561,23.428356,23.428694,0.062,0.061942816,0.0,48.8926,1.0,1.0,0.0,6,0,0,0,0,0,1,1,0,0,0
2893013396,23.428356,23.429634,0.0744,0.06198094,0.0,48.90131,1.0,1.0,0.0,6,0,0,0,0,0,1,1,0,0,0
2893518787,23.509144,23.441593,0.062,0.06316583,0.0,48.91036,1.0,1.0,0.0,6,0,0,0,0,0,1,1,0,0,0
2894012580,23.448553,23.447777,0.062,0.06249788,0.0,48.918823,1.0,1.0,0.0,6,0,0,0,0,0,1,1,0,0,0
2896528467,23.448553,23.50045,0.049599998,0.060066685,0.0,48.96115,1.0,1.0,0.0,6,0,0,0,0,0,1,1,0,0,0
2897021195,23.46875,23.490047,0.062,0.05954439,0.0,48.96931,1.0,1.0,0.0,6,0,0,0,0,0,1,1,0,0,0
2897526793,23.448553,23.478575,0.062,0.060241833,0.0,48.977795,1.0,1.0,0.0,6,0,0,0,0,0,1,1,0,0,0
2898032535,23.509144,23.474169,0.0744,0.06046881,0.0,48.9863,1.0,1.0,0.0,6,0,0,0,0,0,1,1,0,0,0
2898525983,23.46875,23.471853,0.062,0.06059467,0.0,48.994717,1.0,1.0,0.0,6,0,0,0,0,0,1,1,0,0,0
2899031521,23.488947,23.47697,0.062,0.060873006,0.0,49.003345,1.0,1.0,0.0,6,0,0,0,0,0,1,1,0,0,0
2899537448,23.46875,23.475306,0.049599998,0.06035052,0.0,49.011806,1.0,1.0,0.0,6,0,0,0,0,0,1,1,0,0,0
2900030817,23.46875,23.471354,0.062,0.060403854,0.0,49.020046,1.0,1.0,0.0,6,0,0,0,0,0,1,1,0,0,0
2900536337,23.448553,23.470816,0.062,0.060372513,0.0,49.028492,1.0,1.0,0.0,6,0,0,0,0,0,1,1,0,0,0
2901042153,23.46875,23.460814,0.049599998,0.060286716,0.0,49.037,1.0,1.0,0.0,6,0,0,0,0,0,1,1,0,0,0
2901535525,23.448553,23.45246,0.062,0.059767276,0.0,49.04521,1.0,1.0,0.0,6,0,0,0,0,0,1,1,0,0,0
2902041236,23.46875,23.446962,0.0744,0.06105931,0.0,49.053844,1.0,1.0,0.0,6,0,0,0,0,0,1,1,0,0,0
2902546806,23.428356,23.442373,0.062,0.06086416,0.0,49.062313,1.0,1.0,0.0,6,0,0,0,0,0,1,1,0,0,0
2903040349,23.488947,23.440361,0.062,0.06124208,0.0,49.07074,1.0,1.0,0.0,6,0,0,0,0,0,1,1,0,0,0
2903546428,23.428356,23.439972,0.0744,0.061305847,0.0,49.07932,1.0,1.0,0.0,6,0,0,0,0,0,1,1,0,0,0
2904051513,23.40816,23.442434,0.049599998,0.06075784,0.0,49.087807,1.0,1.0,0.0,6,0,0,0,0,0,1,1,0,0,0
2904545128,23.46875,23.441204,0.049599998,0.060342025,0.0,49.09602,1.0,1.0,0.0,6,0,0,0,0,0,1,1,0,0,0
2905050131,23.448553,23.451235,0.062,0.059975985,0.0,49.104416,1.0,1.0,0.0,6,0,0,0,0,0,1,1,0,0,0
2905555716,23.46875,23.457428,0.062,0.05970394,0.0,49.1128,1.0,1.0,0.0,6,0,0,0,0,0,1,1,0,0,0
2906049412,23.488947,23.463291,0.062,0.060575146,0.0,49.121197,1.0,1.0,0.0,6,0,0,0,0,0,1,1,0,0,0
2906555087,23.509144,23.468943,0.062,0.061389044,0.0,49.129917,1.0,1.0,0.0,6,0,0,0,0,0,1,1,0,0,0
2907060376,23.488947,23.477026,0.062,0.060713742,0.0,49.138416,1.0,1.0,0.0,6,0,0,0,0,0,1,1,0,0,0
2907554021,23.509144,23.48974,0.049599998,0.05948672,0.0,49.146465,1.0,1.0,0.0,6,0,0,0,0,0,1,1,0,0,0
2908059575,23.52934,23.498041,0.0744,0.060395516,0.0,49.155052,1.0,1.0,0.0,6,0,0,0,0,0,1,1,0,0,0
2908565312,23.509144,23.501066,0.062,0.06072087,0.0,49.163727,1.0,1.0,0.0,6,0,0,0,0,0,1,1,0,0,0
2909058756,23.509144,23.501318,0.062,0.060456164,0.0,49.172,1.0,1.0,0.0,6,0,0,0,0,0,1,1,0,0,0
2909564556,23.509144,23.490864,0.049599998,0.059303626,0.0,49.180256,1.0,1.0,0.0,6,0,0,0,0,0,1,1,0,0,0
2910069912,23.488947,23.489637,0.0744,0.060620405,0.0,49.188877,1.0,1.0,0.0,6,0,0,0,0,0,1,1,0,0,0
2910563714,23.448553,23.480295,0.062,0.060521107,0.0,49.19718,1.0,1.0,0.0,6,0,0,0,0,0,1,1,0,0,0
2911069338,23.46875,23.47823,0.062,0.061196364,0.0,49.205853,1.0,1.0,0.0,6,0,0,0,0,0,1,1,0,0,0
2911574742,23.448553,23.473452,0.062,0.06203899,0.0,49.214638,1.0,1.0,0.0,6,0,0,0,0,0,1,1,0,0,0
2912068532,23.428356,23.454987,0.062,0.06148118,0.0,49.22297,1.0,1.0,0.0,6,0,0,0,0,0,1,1,0,0,0
2912574498,23.387962,23.45417,0.049599998,0.061281838,0.0,49.231632,1.0,1.0,0.0,6,0,0,0,0,0,1,1,0,0,0
2913079511,23.347569,23.427807,0.062,0.059418473,0.0,49.23976,1.0,1.0,0.0,6,0,0,0,0,0,1,1,0,0,0
2913572516,23.307175,23.39902,0.062,0.061193027,0.0,49.24832,1.0,1.0,0.0,6,0,0,0,0,0,1,1,0,0,0
2914077942,23.367765,23.37615,0.062,0.060393434,0.0,49.256645,0.9894616,1.0009737,0.0,6,0,0,0,0,0,1,1,0,0,0
2914583644,23.448553,23.38075,0.062,0.060815033,0.0,49.265274,0.991594,1.0007765,0.0,6,0,0,0,0,0,1,1,0,0,0
2915077374,23.488947,23.411654,0.062,0.06127882,0.0,49.273705,1.0,1.0,0.0,6,0,0,0,0,0,1,1,0,0,0
2915582770,23.46875,23.441374,0.062,0.060238957,0.0,49.282036,1.0,1.0,0.0,6,0,0,0,0,0,1,1,0,0,0
2916088377,23.46875,23.458698,0.062,0.05777322,0.0,49.289978,1.0,1.0,0.0,6,0,0,0,0,0,1,1,0,0,0
2916581932,23.387962,23.472864,0.062,0.05926536,0.0,49.29818,1.0,1.0,0.0,6,0,0,0,0,0,1,1,0,0,0
2917087787,23.509144,23.472929,0.049599998,0.05941738,0.0,49.306564,1.0,1.0,0.0,6,0,0,0,0,0,1,1,0,0,0
2917593221,23.488947,23.480139,0.062,0.06127152,0.0,49.3153,1.0,1.0,0.0,6,0,0,0,0,0,1,1,0,0,0
2918086688,23.52934,23.478807,0.062,0.062874004,0.0,49.32396,1.0,1.0,0.0,6,0,0,0,0,0,1,1,0,0,0
2918592550,23.428356,23.480991,0.062,0.061788723,0.0,49.332504,1.0,1.0,0.0,6,0,0,0,0,0,1,1,0,0,0
2919097896,23.448553,23.47183,0.062,0.05995387,0.0,49.340694,1.0,1.0,0.0,6,0,0,0,0,0,1,1,0,0,0
2919591604,23.46875,23.468716,0.062,0.059800208,0.0,49.3489,1.0,1.0,0.0,6,0,0,0,0,0,1,1,0,0,0
2920097369,23.428356,23.46286,0.062,0.059744257,0.0,49.357292,1.0,1.0,0.0,6,0,0,0,0,0,1,1,0,0,0
2920602739,23.448553,23.45509,0.0744,0.06242588,0.0,49.36631,1.0,1.0,0.0,6,0,0,0,0,0,1,1,0,0,0
2921096281,23.428356,23.442505,0.062,0.061698105,0.0,49.374653,1.0,1.0,0.0,6,0,0,0,0,0,1,1,0,0,0
2921601919,23.367765,23.429846,0.049599998,0.06135537,0.0,49.38324,1.0,1.0,0.0,6,0,0,0,0,0,1,1,0,0,0
2922107782,23.367765,23.423277,0.049599998,0.060798414,0.0,49.391727,1.0,1.0,0.0,6,0,0,0,0,0,1,1,0,0,0
2922600509,23.387962,23.409733,0.062,0.059977025,0.0,49.399956,1.0,1.0,0.0,6,0,0,0,0,0,1,1,0,0,0
2923106705,23.347569,23.384407,0.062,0.05898638,0.0,49.40814,0.9932715,1.0006214,0.0,6,0,0,0,0,0,1,1,0,0,0
2923612532,23.367765,23.366528,0.049599998,0.059553165,0.0,49.41655,0.98499936,1.0013865,0.0,6,0,0,0,0,0,1,1,0,0,0
2924118014,23.286978,23.353643,0.062,0.061980296,0.0,49.4255,0.9790551,1.0019372,0.0,6,0,0,0,0,0,1,1,0,0,0
2924610662,23.347569,23.34604,0.062,0.059955813,0.0,49.433514,0.9755179,1.002265,0.0,6,0,0,0,0,0,1,1,0,0,0
2925116422,23.347569,23.342857,0.062,0.05737111,0.0,49.44132,0.97402257,1.0024037,0.0,6,0,0,0,0,0,1,1,0,0,0
2925621977,23.367765,23.342001,0.062,0.05929522,0.0,49.449947,0.97364205,1.002439,0.0,6,0,0,0,0,0,1,1,0,0,0
2926115616,23.367765,23.357122,0.062,0.059883792,0.0,49.45824,0.9806487,1.0017895,0.0,6,0,0,0,0,0,1,1,0,0,0
2926621226,23.428356,23.369596,0.0744,0.060970552,0.0,49.466858,0.9864318,1.001254,0.0,6,0,0,0,0,0,1,1,0,0,0
2927126795,23.367765,23.374493,0.062,0.060944468,0.0,49.475407,0.98869866,1.0010443,0.0,6,0,0,0,0,0,1,1,0,0,0
2927620389,23.40816,23.381823,0.0744,0.05992707,0.0,49.483536,0.9920842,1.0007312,0.0,6,0,0,0,0,0,1,1,0,0,0
2928125946,23.40816,23.389006,0.049599998,0.058465403,0.0,49.491615,0.99539727,1.0004251,0.0,6,0,0,0,0,0,1,1,0,0,0
2928631601,23.40816,23.393473,0.062,0.057926755,0.0,49.499683,0.997461,1.0002345,0.0,6,0,0,0,0,0,1,1,0,0,0
2929125371,23.327372,23.38734,0.062,0.058586277,0.0,49.507725,0.9946267,1.0004963,0.0,6,0,0,0,0,0,1,1,0,0,0
2929630693,23.387962,23.375914,0.0744,0.057087757,0.0,49.51556,0.9893243,1.0009865,0.0,6,0,0,0,0,0,1,1,0,0,0
2930136428,23.387962,23.377686,0.062,0.05821701,0.0,49.523808,0.9901549,1.0009097,0.0,6,0,0,0,0,0,1,1,0,0,0
2930629916,23.367765,23.374931,0.0372,0.05632301,0.0,49.53145,0.98886365,1.001029,0.0,6,0,0,0,0,0,1,1,0,0,0
2931135747,23.387962,23.371767,0.049599998,0.057434916,0.0,49.539646,0.9874074,1.0011637,0.0,6,0,0,0,0,0,1,1,0,0,0
2931641154,23.307175,23.365221,0.049599998,0.057920374,0.0,49.547855,0.9843814,1.0014437,0.0,6,0,0,0,0,0,1,1,0,0,0
2932134927,23.307175,23.362509,0.062,0.059589125,0.0,49.556194,0.98313874,1.0015589,0.0,6,0,0,0,0,0,1,1,0,0,0
2932640419,23.347569,23.3623,0.099199995,0.060722407,0.0,49.56482,0.98305196,1.0015669,0.0,6,0,0,0,0,0,1,1,0,0,0
2933146007,23.387962,23.363344,0.062,0.060408186,0.0,49.57339,0.9835326,1.0015224,0.0,6,0,0,0,0,0,1,1,0,0,0
2933639837,23.307175,23.355072,0.049599998,0.060236223,0.0,49.581734,0.9797017,1.0018772,0.0,6,0,0,0,0,0,1,1,0,0,0
2934145194,23.26678,23.330435,0.062,0.060631935,0.0,49.590225,0.9682986,1.0029349,0.0,6,0,0,0,0,0,1,1,0,0,0
2934651376,23.26678,23.311787,0.0744,0.061280966,0.0,49.59894,0.9596707,1.0037366,0.0,6,0,0,0,0,0,1,1,0,0,0
2935144367,23.26678,23.294361,0.0744,0.06016433,0.0,49.607025,0.95159405,1.0044883,0.0,6,0,0,0,0,0,1,1,0,0,0
2935649920,23.226387,23.282644,0.062,0.060563844,0.0,49.61556,0.94617337,1.0049934,0.0,6,0,0,0,0,0,1,1,0,0,0
2936155784,23.307175,23.277857,0.062,0.059168924,0.0,49.623695,0.9439456,1.0052011,0.0,6,0,0,0,0,0,1,1,0,0,0
2936649129,23.307175,23.29124,0.0744,0.05974687,0.0,49.631897,0.9501464,1.0046232,0.0,6,0,0,0,0,0,1,1,0,0,0
2937154806,23.347569,23.30352,0.049599998,0.060842104,0.0,49.64056,0.9558398,1.004093,0.0,6,0,0,0,0,0,1,1,0,0,0
2937660408,23.347569,23.308475,0.049599998,0.05857619,0.0,49.64865,0.9581153,1.0038813,0.0,6,0,0,0,0,0,1,1,0,0,0
2938153395,23.327372,23.319754,0.0744,0.060946036,0.0,49.657166,0.9633567,1.003394,0.0,6,0,0,0,0,0,1,1,0,0,0
2938660065,23.307175,23.3326,0.062,0.059206776,0.0,49.66543,0.9692895,1.0028429,0.0,6,0,0,0,0,0,1,1,0,0,0
2939164422,23.307175,23.331749,0.049599998,0.060531996,0.0,49.674053,0.96890706,1.0028784,0.0,6,0,0,0,0,0,1,1,0,0,0
2939658158,23.327372,23.337393,0.049599998,0.060755044,0.0,49.682377,0.9715211,1.0026357,0.0,6,0,0,0,0,0,1,1,0,0,0
2940164375,23.347569,23.333921,0.062,0.060747474,0.0,49.69092,0.9699132,1.002785,0.0,6,0,0,0,0,0,1,1,0,0,0
2940669173,23.367765,23.335682,0.062,0.059715305,0.0,49.699287,0.97072,1.0027101,0.0,6,0,0,0,0,0,1,1,0,0,0
2941162754,23.347569,23.343258,0.049599998,0.060133286,0.0,49.707615,0.9742314,1.0023843,0.0,6,0,0,0,0,0,1,1,0,0,0
2941668563,23.347569,23.342005,0.062,0.058949348,0.0,49.7157,0.9736411,1.0024391,0.0,6,0,0,0,0,0,1,1,0,0,0
2942174031,23.367765,23.344893,0.062,0.058590118,0.0,49.723934,0.9749753,1.0023153,0.0,6,0,0,0,0,0,1,1,0,0,0
2942667621,23.347569,23.346119,0.062,0.059586074,0.0,49.73223,0.9755513,1.0022619,0.0,6,0,0,0,0,0,1,1,0,0,0
2943173334,23.387962,23.35373,0.062,0.058860444,0.0,49.740326,0.97906846,1.001936,0.0,6,0,0,0,0,0,1,1,0,0,0
2943678695,23.347569,23.35976,0.049599998,0.059334196,0.0,49.748684,0.98186463,1.0016769,0.0,6,0,0,0,0,0,1,1,0,0,0
2944172326,23.347569,23.361685,0.062,0.059467155,0.0,49.756855,0.9827563,1.0015943,0.0,6,0,0,0,0,0,1,1,0,0,0
2944677912,23.307175,23.3625,0.062,0.059241444,0.0,49.765194,0.98313206,1.0015595,0.0,6,0,0,0,0,0,1,1,0,0,0
2945183605,23.367765,23.347504,0.062,0.05806821,0.0,49.77324,0.9761798,1.0022036,0.0,6,0,0,0,0,0,1,1,0,0,0
2945677321,23.387962,23.340736,0.062,0.058444597,0.0,49.781193,0.9730498,1.0024939,0.0,6,0,0,0,0,0,1,1,0,0,0
2946182799,23.347569,23.348001,0.062,0.05991311,0.0,49.78973,0.9764258,1.0021808,0.0,6,0,0,0,0,0,1,1,0,0,0
2946688550,23.226387,23.360268,0.062,0.06028094,0.0,49.798153,0.9821078,1.0016543,0.0,6,0,0,0,0,0,1,1,0,0,0
2947181997,23.367765,23.368414,0.062,0.060498893,0.0,49.80651,0.98588055,1.0013051,0.0,6,0,0,0,0,0,1,1,0,0,0
2947687726,23.367765,23.375376,0.049599998,0.05979922,0.0,49.814873,0.9890973,1.0010074,0.0,6,0,0,0,0,0,1,1,0,0,0
2948193210,23.307175,23.375196,0.062,0.06128102,0.0,49.82354,0.9890277,1.0010139,0.0,6,0,0,0,0,0,1,1,0,0,0
2948686740,23.347569,23.373451,0.062,0.06079217,0.0,49.831787,0.98821515,1.0010891,0.0,6,0,0,0,0,0,1,1,0,0,0
2949192596,23.40816,23.385208,0.062,0.059615947,0.0,49.84008,0.99364823,1.0005866,0.0,6,0,0,0,0,0,1,1,0,0,0
2949697926,23.428356,23.404762,0.062,0.059450425,0.0,49.848366,1.0,1.0,0.0,6,0,0,0,0,0,1,1,0,0,0
2950191538,23.428356,23.402145,0.062,0.0592937,0.0,49.85644,1.0,1.0,0.0,6,0,0,0,0,0,1,1,0,0,0
2950697319,23.347569,23.398727,0.062,0.05947255,0.0,49.86477,0.99990624,1.0000087,0.0,6,0,0,0,0,0,1,1,0,0,0
2951202759,23.387962,23.38428,0.062,0.060708262,0.0,49.873432,0.99322766,1.0006255,0.0,6,0,0,0,0,0,1,1,0,0,0
2951696326,23.347569,23.37833,0.062,0.060569655,0.0,49.88171,0.99047154,1.0008802,0.0,6,0,0,0,0,0,1,1,0,0,0
2952202028,23.307175,23.36246,0.062,0.059713382,0.0,49.89004,0.98311776,1.0015608,0.0,6,0,0,0,0,0,1,1,0,0,0
2952707626,23.347569,23.3556,0.062,0.060088012,0.0,49.898502,0.9799449,1.0018547,0.0,6,0,0,0,0,0,1,1,0,0,0
2953201186,23.367765,23.351282,0.062,0.05911158,0.0,49.906548,0.9779374,1.0020406,0.0,6,0,0,0,0,0,1,1,0,0,0
2953706786,23.387962,23.347925,0.062,0.059177585,0.0,49.914886,0.9763848,1.0021846,0.0,6,0,0,0,0,0,1,1,0,0,0
2954212655,23.347569,23.345858,0.0744,0.058248013,0.0,49.922974,0.97541875,1.0022742,0.0,6,0,0,0,0,0,1,1,0,0,0
2954706001,23.286978,23.336687,0.062,0.058712825,0.0,49.931084,0.97117776,1.0026675,0.0,6,0,0,0,0,0,1,1,0,0,0
2955211740,23.307175,23.32609,0.0744,0.058892176,0.0,49.9393,0.966273,1.0031229,0.0,6,0,0,0,0,0,1,1,0,0,0
2955717266,23.347569,23.32702,0.049599998,0.059006527,0.0,49.94766,0.9667041,1.003083,0.0,6,0,0,0,0,0,1,1,0,0,0
2956210964,23.347569,23.319534,0.062,0.058445647,0.0,49.955666,0.96323365,1.0034053,0.0,6,0,0,0,0,0,1,1,0,0,0
2956716324,23.307175,23.322416,0.062,0.05868701,0.0,49.963947,0.9645707,1.0032811,0.0,6,0,0,0,0,0,1,1,0,0,0
2957222189,23.307175,23.316742,0.049599998,0.05936879,0.0,49.972286,0.96194905,1.0035248,0.0,6,0,0,0,0,0,1,1,0,0,0
2957715738,23.26678,23.304663,0.062,0.059575573,0.0,49.9805,0.9563586,1.0040448,0.0,6,0,0,0,0,0,1,1,0,0,0
2958221198,23.26678,23.29211,0.062,0.058976553,0.0,49.988625,0.95054215,1.0045863,0.0,6,0,0,0,0,0,1,1,0,0,0
2958726736,23.46875,23.319298,0.062,0.058438197,0.0,49.996742,0.96312493,1.0034155,0.0,6,0,0,0,0,0,1,1,0,0,0
2959220547,23.307175,23.32983,0.024799999,0.05749288,0.0,50.004528,0.9679925,1.0029633,0.0,6,0,0,0,0,0,1,1,0,0,0
2959725971,23.26678,23.323698,0.049599998,0.059113067,0.0,50.01303,0.9651677,1.0032257,0.0,6,0,0,0,0,0,1,1,0,0,0
2960231743,23.387962,23.315327,0.062,0.05915937,0.0,50.021355,0.96129197,1.0035858,0.0,6,0,0,0,0,0,1,1,0,0,0
2960737829,23.246584,23.285717,0.049599998,0.059993327,0.0,50.02986,0.94759053,1.0048614,0.0,6,0,0,0,0,0,1,1,0,0,0
2961231125,23.286978,23.269629,0.062,0.06076801,0.0,50.03826,0.940149,1.0055554,0.0,6,0,0,0,0,0,1,1,0,0,0
2961736364,23.307175,23.28102,0.062,0.05964328,0.0,50.046535,0.94541234,1.0050644,0.0,6,0,0,0,0,0,1,1,0,0,0
2962242249,23.327372,23.298576,0.062,0.0586817,0.0,50.054703,0.9535329,1.0043077,0.0,6,0,0,0,0,0,1,1,0,0,0
2962747760,23.307175,23.29859,0.062,0.06008939,0.0,50.063194,0.953551,1.0043061,0.0,6,0,0,0,0,0,1,1,0,0,0
2963241070,23.226387,23.298334,0.062,0.059815478,0.0,50.07131,0.95343083,1.0043173,0.0,6,0,0,0,0,0,1,1,0,0,0
2963746734,23.286978,23.288311,0.062,0.058607936,0.0,50.079407,0.94877976,1.0047505,0.0,6,0,0,0,0,0,1,1,0,0,0
2964252344,23.226387,23.26867,0.049599998,0.05922646,0.0,50.087772,0.9396922,1.0055981,0.0,6,0,0,0,0,0,1,1,0,0,0
2964758316,23.246584,23.261814,0.062,0.059335586,0.0,50.096146,0.9365193,1.0058943,0.0,6,0,0,0,0,0,1,1,0,0,0
2965251619,23.20619,23.25086,0.062,0.060580514,0.0,50.104523,0.9314582,1.0063672,0.0,6,0,0,0,0,0,1,1,0,0,0
2965757385,23.226387,23.242704,0.049599998,0.060762353,0.0,50.113075,0.9276845,1.0067202,0.0,6,0,0,0,0,0,1,1,0,0,0
2966263027,23.246584,23.238825,0.062,0.06177651,0.0,50.121822,0.92589635,1.0068874,0.0,6,0,0,0,0,0,1,1,0,0,0
2966756398,23.20619,23.229216,0.062,0.06037385,0.0,50.129894,0.921436,1.007305,0.0,6,0,0,0,0,0,1,1,0,0,0
2967262201,23.1456,23.212711,0.062,0.059937086,0.0,50.138294,0.91379136,1.0080216,0.0,6,0,0,0,0,0,1,1,0,0,0
2967768065,23.20619,23.199839,0.062,0.05988466,0.0,50.14667,0.90783185,1.0085808,0.0,6,0,0,0,0,0,1,1,0,0,0
2968261094,23.064814,23.190742,0.062,0.059609834,0.0,50.154827,0.90361756,1.0089767,0.0,6,0,0,0,0,0,1,1,0,0,0
2968766747,23.165796,23.179586,0.062,0.05953741,0.0,50.16325,0.89845246,1.0094624,0.0,6,0,0,0,0,0,1,1,0,0,0
2969272328,23.185993,23.178072,0.062,0.05847047,0.0,50.171368,0.8977429,1.0095291,0.0,6,0,0,0,0,0,1,1,0,0,0
2969765990,23.125402,23.164127,0.049599998,0.05851414,0.0,50.17939,0.8912875,1.0101367,0.0,6,0,0,0,0,0,1,1,0,0,0
2970271617,23.105206,23.14904,0.062,0.05998067,0.0,50.187965,0.88431424,1.0107939,0.0,6,0,0,0,0,0,1,1,0,0,0
2970777208,23.064814,23.136618,0.0744,0.059151083,0.0,50.19618,0.87855595,1.0113373,0.0,6,0,0,0,0,0,1,1,0,0,0
2971270724,23.1456,23.139908,0.062,0.05880116,0.0,50.20422,0.88007706,1.0111938,0.0,6,0,0,0,0,0,1,1,0,0,0
2971776411,23.165796,23.142801,0.062,0.05899104,0.0,50.212505,0.88141793,1.0110672,0.0,6,0,0,0,0,0,1,1,0,0,0
2972282038,23.1456,23.14703,0.049599998,0.059220865,0.0,50.22091,0.88337773,1.0108823,0.0,6,0,0,0,0,0,1,1,0,0,0
2972775600,23.08501,23.148127,0.062,0.060854666,0.0,50.2294,0.88389844,1.0108331,0.0,6,0,0,0,0,0,1,1,0,0,0
2973281148,23.165796,23.15623,0.062,0.060442615,0.0,50.237762,0.8876483,1.0104796,0.0,6,0,0,0,0,0,1,1,0,0,0
2973786766,23.20619,23.1673,0.062,0.062789544,0.0,50.24675,0.89279145,1.0099951,0.0,6,0,0,0,0,0,1,1,0,0,0
2974280348,23.125402,23.16831,0.049599998,0.06176051,0.0,50.25512,0.8932511,1.0099518,0.0,6,0,0,0,0,0,1,1,0,0,0
2974786010,23.185993,23.163647,0.099199995,0.06187789,0.0,50.263706,0.89109296,1.0101551,0.0,6,0,0,0,0,0,1,1,0,0,0
2975291640,23.1456,23.17204,0.062,0.061154243,0.0,50.272205,0.8949725,1.0097897,0.0,6,0,0,0,0,0,1,1,0,0,0
2975785214,23.165796,23.174322,0.062,0.060564857,0.0,50.280502,0.89602345,1.0096909,0.0,6,0,0,0,0,0,1,1,0,0,0
2976290771,23.20619,23.17166,0.062,0.06043066,0.0,50.288963,0.8947894,1.009807,0.0,6,0,0,0,0,0,1,1,0,0,0
2976796578,23.185993,23.17794,0.049599998,0.059974737,0.0,50.297432,0.8976943,1.0095336,0.0,6,0,0,0,0,0,1,1,0,0,0
2977289898,23.1456,23.184128,0.062,0.062248085,0.0,50.306175,0.90057725,1.0092624,0.0,6,0,0,0,0,0,1,1,0,0,0
2977795606,23.185993,23.187843,0.062,0.060963828,0.0,50.314686,0.9022872,1.0091017,0.0,6,0,0,0,0,0,1,1,0,0,0
2978301156,23.105206,23.17874,0.062,0.06056346,0.0,50.323143,0.8980691,1.0094984,0.0,6,0,0,0,0,0,1,1,0,0,0
2978794699,23.105206,23.162367,0.062,0.060439344,0.0,50.33143,0.8904883,1.010212,0.0,6,0,0,0,0,0,1,1,0,0,0
2979300344,23.105206,23.14979,0.049599998,0.06075203,0.0,50.34001,0.88466805,1.0107605,0.0,6,0,0,0,0,0,1,1,0,0,0
2979806018,23.1456,23.153412,0.062,0.05926946,0.0,50.348137,0.8863322,1.0106037,0.0,6,0,0,0,0,0,1,1,0,0,0
2980311733,23.165796,23.15388,0.049599998,0.060099762,0.0,50.35667,0.8865554,1.0105827,0.0,6,0,0,0,0,0,1,1,0,0,0
2980805119,23.1456,23.144812,0.062,0.06020924,0.0,50.364918,0.8823592,1.0109783,0.0,6,0,0,0,0,0,1,1,0,0,0
2981310726,23.1456,23.136625,0.062,0.060121078,0.0,50.373302,0.8785674,1.0113362,0.0,6,0,0,0,0,0,1,1,0,0,0
2981816378,23.1456,23.127312,0.0744,0.05916934,0.0,50.381477,0.87424916,1.011744,0.0,6,0,0,0,0,0,1,1,0,0,0
2982310121,23.105206,23.123646,0.062,0.05852618,0.0,50.389393,0.87254494,1.0119052,0.0,6,0,0,0,0,0,1,1,0,0,0
2982815622,23.1456,23.12832,0.049599998,0.059038788,0.0,50.397762,0.87471455,1.0117002,0.0,6,0,0,0,0,0,1,1,0,0,0
2983321358,23.105206,23.132225,0.062,0.059271924,0.0,50.40618,0.8765237,1.0115292,0.0,6,0,0,0,0,0,1,1,0,0,0
2983814960,23.1456,23.119995,0.062,0.05973861,0.0,50.414433,0.8708655,1.012064,0.0,6,0,0,0,0,0,1,1,0,0,0
2984320366,23.044617,23.113092,0.062,0.058675494,0.0,50.422592,0.8676612,1.012367,0.0,6,0,0,0,0,0,1,1,0,0,0
2984825980,23.064814,23.105238,0.049599998,0.05820245,0.0,50.43076,0.864021,1.0127114,0.0,6,0,0,0,0,0,1,1,0,0,0
2985320365,23.08501,23.101326,0.062,0.05900352,0.0,50.43887,0.8622157,1.0128824,0.0,6,0,0,0,0,0,1,1,0,0,0
2985826312,23.064814,23.096996,0.062,0.059371028,0.0,50.44721,0.8602149,1.0130719,0.0,6,0,0,0,0,0,1,1,0,0,0
2986331545,23.02442,23.092968,0.062,0.057981003,0.0,50.45524,0.858339,1.0132496,0.0,6,0,0,0,0,0,1,1,0,0,0
2986825179,23.044617,23.086182,0.049599998,0.058239967,0.0,50.46325,0.8551995,1.0135473,0.0,6,0,0,0,0,0,1,1,0,0,0
2987330777,23.044617,23.081415,0.062,0.058978125,0.0,50.47166,0.85299844,1.013756,0.0,6,0,0,0,0,0,1,1,0,0,0
2987836302,23.064814,23.080599,0.062,0.0574801,0.0,50.479633,0.8526074,1.0137931,0.0,6,0,0,0,0,0,1,1,0,0,0
2988329921,23.064814,23.076256,0.062,0.058323476,0.0,50.48768,0.8506047,1.0139831,0.0,6,0,0,0,0,0,1,1,0,0,0
2988835541,23.044617,23.07141,0.062,0.058651228,0.0,50.495876,0.8483636,1.0141959,0.0,6,0,0,0,0,0,1,1,0,0,0
2989341221,23.064814,23.061329,0.062,0.060131736,0.0,50.504494,0.8437087,1.0146381,0.0,6,0,0,0,0,0,1,1,0,0,0
2989834830,23.064814,23.053654,0.062,0.05992944,0.0,50.512695,0.8401534,1.014976,0.0,6,0,0,0,0,0,1,1,0,0,0
2990340536,23.064814,23.048376,0.049599998,0.060356613,0.0,50.52122,0.8377139,1.0152081,0.0,6,0,0,0,0,0,1,1,0,0,0
2990846164,23.044617,23.038044,0.062,0.059078272,0.0,50.529392,0.8329198,1.0156643,0.0,6,0,0,0,0,0,1,1,0,0,0
2991339734,23.004223,23.033085,0.0744,0.059240576,0.0,50.53759,0.83062524,1.0158828,0.0,6,0,0,0,0,0,1,1,0,0,0
2991845360,23.064814,23.034098,0.062,0.058519952,0.0,50.545624,0.83108777,1.0158389,0.0,6,0,0,0,0,0,1,1,0,0,0
2992350917,23.08501,23.041515,0.062,0.05847476,0.0,50.553757,0.83452195,1.0155119,0.0,6,0,0,0,0,0,1,1,0,0,0
2992844395,23.064814,23.053585,0.062,0.058523327,0.0,50.56176,0.8401095,1.0149802,0.0,6,0,0,0,0,0,1,1,0,0,0
2993349904,23.064814,23.061253,0.062,0.061804067,0.0,50.570717,0.8436877,1.0146401,0.0,6,0,0,0,0,0,1,1,0,0,0
2993855621,23.105206,23.074032,0.049599998,0.06117697,0.0,50.579258,0.8495986,1.0140787,0.0,6,0,0,0,0,0,1,1,0,0,0
2994349370,23.105206,23.079996,0.062,0.060632326,0.0,50.587555,0.85235566,1.0138171,0.0,6,0,0,0,0,0,1,1,0,0,0
2994854783,23.105206,23.075354,0.049599998,0.060167406,0.0,50.595974,0.8502013,1.0140215,0.0,6,0,0,0,0,0,1,1,0,0,0
2995360538,23.064814,23.074364,0.062,0.059141073,0.0,50.604095,0.84973496,1.0140657,0.0,6,0,0,0,0,0,1,1,0,0,0
2995853949,23.105206,23.074732,0.049599998,0.05941901,0.0,50.61236,0.84990853,1.0140493,0.0,6,0,0,0,0,0,1,1,0,0,0
2996359753,23.105206,23.075037,0.049599998,0.058166463,0.0,50.62045,0.8500392,1.0140368,0.0,6,0,0,0,0,0,1,1,0,0,0
2996865317,23.08501,23.074625,0.0868,0.058098916,0.0,50.62857,0.8498475,1.014055,0.0,6,0,0,0,0,0,1,1,0,0,0
2997358704,23.064814,23.06777,0.012399999,0.05701115,0.0,50.636234,0.84666413,1.0143572,0.0,6,0,0,0,0,0,1,1,0,0,0
2997864377,23.08501,23.061031,0.062,0.05879985,0.0,50.64464,0.8435599,1.0146523,0.0,6,0,0,0,0,0,1,1,0,0,0
2998370003,23.08501,23.06781,0.049599998,0.059376344,0.0,50.65302,0.84670323,1.0143535,0.0,6,0,0,0,0,0,1,1,0,0,0
2998864388,23.105206,23.076303,0.062,0.057564896,0.0,50.66066,0.85062,1.0139817,0.0,6,0,0,0,0,0,1,1,0,0,0
2999370012,23.105206,23.084444,0.012399999,0.05744414,0.0,50.668797,0.85438794,1.0136242,0.0,6,0,0,0,0,0,1,1,0,0,0
2999875668,23.125402,23.088383,0.049599998,0.059273884,0.0,50.677296,0.8562266,1.0134499,0.0,6,0,0,0,0,0,1,1,0,0,0
3000369117,23.08501,23.090858,0.049599998,0.058364198,0.0,50.685253,0.85736436,1.013342,0.0,6,0,0,0,0,0,1,1,0,0,0
3000874976,23.105206,23.09284,0.049599998,0.05856351,0.0,50.693546,0.8582837,1.0132549,0.0,6,0,0,0,0,0,1,1,0,0,0
3001380548,23.105206,23.096096,0.062,0.059735637,0.0,50.702084,0.859801,1.0131111,0.0,6,0,0,0,0,0,1,1,0,0,0
3001873924,23.1456,23.10078,0.062,0.059216958,0.0,50.71017,0.86196584,1.0129061,0.0,6,0,0,0,0,0,1,1,0,0,0
3002379553,23.105206,23.100979,0.062,0.059266236,0.0,50.718536,0.86205834,1.0128973,0.0,6,0,0,0,0,0,1,1,0,0,0
3002885117,23.125402,23.100891,0.062,0.05945578,0.0,50.7269,0.8620183,1.0129011,0.0,6,0,0,0,0,0,1,1,0,0,0
3003378643,23.044617,23.096682,0.062,0.060763493,0.0,50.73535,0.8600814,1.0130845,0.0,6,0,0,0,0,0,1,1,0,0,0
3003884522,23.064814,23.093962,0.062,0.059948802,0.0,50.743656,0.8588149,1.0132046,0.0,6,0,0,0,0,0,1,1,0,0,0
3004390222,23.1456,23.093008,0.049599998,0.059194703,0.0,50.751877,0.8583676,1.013247,0.0,6,0,0,0,0,0,1,1,0,0,0
3004883718,23.105206,23.094324,0.049599998,0.059053857,0.0,50.760006,0.8589751,1.0131894,0.0,6,0,0,0,0,0,1,1,0,0,0
3005389227,23.1456,23.093176,0.049599998,0.057096478,0.0,50.767845,0.85842675,1.0132414,0.0,6,0,0,0,0,0,1,1,0,0,0
3005894772,23.02442,23.085812,0.049599998,0.058020856,0.0,50.776043,0.85502595,1.0135638,0.0,6,0,0,0,0,0,1,1,0,0,0
3006388418,23.064814,23.077011,0.049599998,0.05869816,0.0,50.78418,0.8509576,1.0139498,0.0,6,0,0,0,0,0,1,1,0,0,0
3006893969,23.08501,23.0761,0.062,0.058186904,0.0,50.792263,0.8505303,1.0139903,0.0,6,0,0,0,0,0,1,1,0,0,0
3007399720,23.064814,23.070166,0.062,0.059810966,0.0,50.800804,0.84779805,1.0142496,0.0,6,0,0,0,0,0,1,1,0,0,0
3007893354,23.064814,23.067678,0.062,0.05960777,0.0,50.808933,0.8466441,1.0143592,0.0,6,0,0,0,0,0,1,1,0,0,0
3008398682,23.125402,23.073149,0.062,0.05910215,0.0,50.81717,0.8491723,1.0141191,0.0,6,0,0,0,0,0,1,1,0,0,0
3008905206,23.064814,23.074427,0.062,0.058753166,0.0,50.82544,0.8497607,1.0140632,0.0,6,0,0,0,0,0,1,1,0,0,0
3009399077,23.08501,23.075275,0.062,0.05873296,0.0,50.833454,0.8501536,1.014026,0.0,6,0,0,0,0,0,1,1,0,0,0
3009904299,23.064814,23.079042,0.062,0.059370972,0.0,50.84186,0.85190266,1.01386,0.0,6,0,0,0,0,0,1,1,0,0,0
3010409920,23.02442,23.074028,0.062,0.059830856,0.0,50.85031,0.8495862,1.0140798,0.0,6,0,0,0,0,0,1,1,0,0,0
3010903596,23.064814,23.07423,0.062,0.059082504,0.0,50.858265,0.849672,1.0140717,0.0,6,0,0,0,0,0,1,1,0,0,0
