timestamp,noutputs,output[0],output[1],output[2],output[3],output[4],output[5],output[6],output[7],output[8],output[9],output[10],output[11],output[12],output[13],output[14],output[15]
2508752007,8,1440.0,1447.0,1454.0,1456.0,1454.0,1446.0,1439.0,1436.0,0.0,0.0,0.0,0.0,0.0,0.0,0.0,0.0
2508879913,8,1455.0,1461.0,1470.0,1472.0,1471.0,1462.0,1456.0,1451.0,0.0,0.0,0.0,0.0,0.0,0.0,0.0,0.0
2508923891,8,1461.0,1467.0,1476.0,1477.0,1476.0,1467.0,1461.0,1456.0,0.0,0.0,0.0,0.0,0.0,0.0,0.0,0.0
2508963896,8,1466.0,1472.0,1480.0,1483.0,1480.0,1472.0,1466.0,1462.0,0.0,0.0,0.0,0.0,0.0,0.0,0.0,0.0
2509007909,8,1470.0,1483.0,1486.0,1492.0,1482.0,1477.0,1465.0,1468.0,0.0,0.0,0.0,0.0,0.0,0.0,0.0,0.0
2509047932,8,1477.0,1482.0,1490.0,1491.0,1489.0,1482.0,1477.0,1473.0,0.0,0.0,0.0,0.0,0.0,0.0,0.0,0.0
2509091899,8,1482.0,1488.0,1495.0,1498.0,1496.0,1490.0,1484.0,1480.0,0.0,0.0,0.0,0.0,0.0,0.0,0.0,0.0
2509131910,8,1500.0,1483.0,1514.0,1491.0,1511.0,1479.0,1497.0,1471.0,0.0,0.0,0.0,0.0,0.0,0.0,0.0,0.0
2509171893,8,1485.0,1519.0,1492.0,1518.0,1483.0,1507.0,1476.0,1508.0,0.0,0.0,0.0,0.0,0.0,0.0,0.0,0.0
2509217516,8,1490.0,1509.0,1511.0,1524.0,1511.0,1509.0,1490.0,1495.0,0.0,0.0,0.0,0.0,0.0,0.0,0.0,0.0
2509257542,8,1522.0,1498.0,1536.0,1503.0,1529.0,1489.0,1515.0,1484.0,0.0,0.0,0.0,0.0,0.0,0.0,0.0,0.0
2509301543,8,1504.0,1517.0,1524.0,1531.0,1523.0,1517.0,1503.0,1503.0,0.0,0.0,0.0,0.0,0.0,0.0,0.0,0.0
2509341667,8,1505.0,1524.0,1530.0,1542.0,1530.0,1523.0,1504.0,1506.0,0.0,0.0,0.0,0.0,0.0,0.0,0.0,0.0
2509385513,8,1523.0,1530.0,1532.0,1534.0,1527.0,1524.0,1518.0,1521.0,0.0,0.0,0.0,0.0,0.0,0.0,0.0,0.0
2509425669,8,1529.0,1533.0,1540.0,1538.0,1536.0,1527.0,1525.0,1522.0,0.0,0.0,0.0,0.0,0.0,0.0,0.0,0.0
2509469502,8,1526.0,1536.0,1543.0,1550.0,1545.0,1539.0,1528.0,1526.0,0.0,0.0,0.0,0.0,0.0,0.0,0.0,0.0
2509509552,8,1535.0,1544.0,1547.0,1552.0,1547.0,1543.0,1534.0,1534.0,0.0,0.0,0.0,0.0,0.0,0.0,0.0,0.0
2509553519,8,1544.0,1548.0,1558.0,1556.0,1556.0,1545.0,1542.0,1536.0,0.0,0.0,0.0,0.0,0.0,0.0,0.0,0.0
2509593546,8,1543.0,1551.0,1564.0,1566.0,1565.0,1552.0,1544.0,1537.0,0.0,0.0,0.0,0.0,0.0,0.0,0.0,0.0
2509637489,8,1554.0,1557.0,1569.0,1567.0,1568.0,1555.0,1552.0,1545.0,0.0,0.0,0.0,0.0,0.0,0.0,0.0,0.0
2509677536,8,1566.0,1566.0,1567.0,1564.0,1562.0,1560.0,1561.0,1562.0,0.0,0.0,0.0,0.0,0.0,0.0,0.0,0.0
2509721516,8,1581.0,1577.0,1549.0,1545.0,1535.0,1557.0,1566.0,1589.0,0.0,0.0,0.0,0.0,0.0,0.0,0.0,0.0
2509765500,8,1601.0,1589.0,1517.0,1513.0,1493.0,1555.0,1576.0,1631.0,0.0,0.0,0.0,0.0,0.0,0.0,0.0,0.0
2509809507,8,1626.0,1603.0,1508.0,1494.0,1472.0,1553.0,1591.0,1662.0,0.0,0.0,0.0,0.0,0.0,0.0,0.0,0.0
2509853539,8,1600.0,1579.0,1499.0,1489.0,1473.0,1542.0,1574.0,1632.0,0.0,0.0,0.0,0.0,0.0,0.0,0.0,0.0
2509893626,8,1568.0,1559.0,1502.0,1498.0,1482.0,1531.0,1548.0,1592.0,0.0,0.0,0.0,0.0,0.0,0.0,0.0,0.0
2509937535,8,1551.0,1537.0,1505.0,1493.0,1488.0,1514.0,1534.0,1558.0,0.0,0.0,0.0,0.0,0.0,0.0,0.0,0.0
2509977530,8,1554.0,1507.0,1483.0,1453.0,1478.0,1499.0,1548.0,1552.0,0.0,0.0,0.0,0.0,0.0,0.0,0.0,0.0
2510021518,8,1518.0,1477.0,1477.0,1453.0,1484.0,1487.0,1525.0,1512.0,0.0,0.0,0.0,0.0,0.0,0.0,0.0,0.0
2510061504,8,1486.0,1462.0,1479.0,1467.0,1492.0,1480.0,1498.0,1476.0,0.0,0.0,0.0,0.0,0.0,0.0,0.0,0.0
2510105616,8,1475.0,1446.0,1483.0,1464.0,1500.0,1470.0,1492.0,1452.0,0.0,0.0,0.0,0.0,0.0,0.0,0.0,0.0
2510145626,8,1470.0,1433.0,1485.0,1458.0,1506.0,1462.0,1491.0,1436.0,0.0,0.0,0.0,0.0,0.0,0.0,0.0,0.0
2510189493,8,1481.0,1448.0,1493.0,1453.0,1487.0,1440.0,1475.0,1435.0,0.0,0.0,0.0,0.0,0.0,0.0,0.0,0.0
2510229511,8,1484.0,1443.0,1482.0,1439.0,1479.0,1438.0,1481.0,1441.0,0.0,0.0,0.0,0.0,0.0,0.0,0.0,0.0
2510273534,8,1480.0,1449.0,1498.0,1450.0,1482.0,1427.0,1464.0,1426.0,0.0,0.0,0.0,0.0,0.0,0.0,0.0,0.0
2510313529,8,1474.0,1446.0,1502.0,1454.0,1485.0,1422.0,1458.0,1414.0,0.0,0.0,0.0,0.0,0.0,0.0,0.0,0.0
2510357509,8,1471.0,1438.0,1499.0,1453.0,1491.0,1427.0,1463.0,1412.0,0.0,0.0,0.0,0.0,0.0,0.0,0.0,0.0
2510397518,8,1472.0,1443.0,1502.0,1454.0,1488.0,1424.0,1458.0,1412.0,0.0,0.0,0.0,0.0,0.0,0.0,0.0,0.0
2510441525,8,1470.0,1448.0,1507.0,1461.0,1489.0,1422.0,1451.0,1408.0,0.0,0.0,0.0,0.0,0.0,0.0,0.0,0.0
2510481538,8,1464.0,1450.0,1512.0,1471.0,1494.0,1423.0,1445.0,1402.0,0.0,0.0,0.0,0.0,0.0,0.0,0.0,0.0
2510525522,8,1463.0,1449.0,1504.0,1466.0,1487.0,1425.0,1446.0,1408.0,0.0,0.0,0.0,0.0,0.0,0.0,0.0,0.0
2510565518,8,1466.0,1455.0,1510.0,1470.0,1486.0,1422.0,1442.0,1407.0,0.0,0.0,0.0,0.0,0.0,0.0,0.0,0.0
2510609530,8,1466.0,1458.0,1519.0,1478.0,1494.0,1422.0,1440.0,1402.0,0.0,0.0,0.0,0.0,0.0,0.0,0.0,0.0
2510649599,8,1467.0,1449.0,1510.0,1467.0,1492.0,1423.0,1448.0,1406.0,0.0,0.0,0.0,0.0,0.0,0.0,0.0,0.0
2510693510,8,1469.0,1448.0,1505.0,1461.0,1488.0,1423.0,1452.0,1411.0,0.0,0.0,0.0,0.0,0.0,0.0,0.0,0.0
2510733534,8,1468.0,1456.0,1508.0,1466.0,1483.0,1419.0,1443.0,1409.0,0.0,0.0,0.0,0.0,0.0,0.0,0.0,0.0
2510777537,8,1472.0,1458.0,1513.0,1467.0,1484.0,1417.0,1443.0,1409.0,0.0,0.0,0.0,0.0,0.0,0.0,0.0,0.0
2510817608,8,1474.0,1461.0,1513.0,1467.0,1483.0,1419.0,1444.0,1413.0,0.0,0.0,0.0,0.0,0.0,0.0,0.0,0.0
2510861492,8,1469.0,1458.0,1511.0,1467.0,1482.0,1418.0,1441.0,1409.0,0.0,0.0,0.0,0.0,0.0,0.0,0.0,0.0
2510901621,8,1479.0,1466.0,1517.0,1465.0,1478.0,1411.0,1440.0,1412.0,0.0,0.0,0.0,0.0,0.0,0.0,0.0,0.0
2510945627,8,1477.0,1466.0,1516.0,1469.0,1481.0,1416.0,1441.0,1413.0,0.0,0.0,0.0,0.0,0.0,0.0,0.0,0.0
2510985619,8,1478.0,1466.0,1515.0,1467.0,1479.0,1415.0,1442.0,1415.0,0.0,0.0,0.0,0.0,0.0,0.0,0.0,0.0
2511029520,8,1482.0,1471.0,1517.0,1466.0,1476.0,1412.0,1441.0,1417.0,0.0,0.0,0.0,0.0,0.0,0.0,0.0,0.0
2511069504,8,1479.0,1471.0,1516.0,1471.0,1479.0,1417.0,1441.0,1417.0,0.0,0.0,0.0,0.0,0.0,0.0,0.0,0.0
2511113619,8,1477.0,1469.0,1517.0,1472.0,1481.0,1418.0,1441.0,1415.0,0.0,0.0,0.0,0.0,0.0,0.0,0.0,0.0
2511153632,8,1475.0,1469.0,1514.0,1474.0,1481.0,1422.0,1441.0,1417.0,0.0,0.0,0.0,0.0,0.0,0.0,0.0,0.0
2511197510,8,1474.0,1471.0,1516.0,1474.0,1478.0,1418.0,1436.0,1415.0,0.0,0.0,0.0,0.0,0.0,0.0,0.0,0.0
2511237508,8,1469.0,1470.0,1515.0,1478.0,1480.0,1421.0,1434.0,1414.0,0.0,0.0,0.0,0.0,0.0,0.0,0.0,0.0
2511281533,8,1471.0,1469.0,1515.0,1477.0,1483.0,1423.0,1438.0,1414.0,0.0,0.0,0.0,0.0,0.0,0.0,0.0,0.0
2511321614,8,1468.0,1474.0,1517.0,1484.0,1483.0,1425.0,1433.0,1414.0,0.0,0.0,0.0,0.0,0.0,0.0,0.0,0.0
2511365727,8,1463.0,1467.0,1508.0,1481.0,1482.0,1431.0,1437.0,1417.0,0.0,0.0,0.0,0.0,0.0,0.0,0.0,0.0
2511405507,8,1465.0,1465.0,1506.0,1481.0,1488.0,1439.0,1446.0,1423.0,0.0,0.0,0.0,0.0,0.0,0.0,0.0,0.0
2511449530,8,1467.0,1461.0,1499.0,1476.0,1489.0,1447.0,1457.0,1431.0,0.0,0.0,0.0,0.0,0.0,0.0,0.0,0.0
2511489640,8,1470.0,1461.0,1504.0,1479.0,1495.0,1448.0,1460.0,1430.0,0.0,0.0,0.0,0.0,0.0,0.0,0.0,0.0
2511533501,8,1480.0,1463.0,1512.0,1478.0,1501.0,1447.0,1468.0,1432.0,0.0,0.0,0.0,0.0,0.0,0.0,0.0,0.0
2511573509,8,1483.0,1471.0,1517.0,1481.0,1498.0,1444.0,1464.0,1433.0,0.0,0.0,0.0,0.0,0.0,0.0,0.0,0.0
2511613505,8,1486.0,1471.0,1527.0,1481.0,1501.0,1434.0,1460.0,1423.0,0.0,0.0,0.0,0.0,0.0,0.0,0.0,0.0
2511657541,8,1486.0,1468.0,1533.0,1480.0,1503.0,1426.0,1457.0,1414.0,0.0,0.0,0.0,0.0,0.0,0.0,0.0,0.0
2511697533,8,1486.0,1468.0,1536.0,1476.0,1498.0,1414.0,1448.0,1406.0,0.0,0.0,0.0,0.0,0.0,0.0,0.0,0.0
2511741512,8,1488.0,1468.0,1537.0,1473.0,1495.0,1409.0,1446.0,1404.0,0.0,0.0,0.0,0.0,0.0,0.0,0.0,0.0
2511781510,8,1487.0,1462.0,1535.0,1466.0,1494.0,1404.0,1446.0,1399.0,0.0,0.0,0.0,0.0,0.0,0.0,0.0,0.0
2511825625,8,1483.0,1455.0,1529.0,1464.0,1496.0,1408.0,1450.0,1399.0,0.0,0.0,0.0,0.0,0.0,0.0,0.0,0.0
2511865546,8,1480.0,1453.0,1527.0,1464.0,1496.0,1409.0,1449.0,1398.0,0.0,0.0,0.0,0.0,0.0,0.0,0.0,0.0
2511909514,8,1478.0,1454.0,1524.0,1464.0,1493.0,1410.0,1447.0,1400.0,0.0,0.0,0.0,0.0,0.0,0.0,0.0,0.0
2511949754,8,1477.0,1451.0,1522.0,1464.0,1495.0,1413.0,1450.0,1400.0,0.0,0.0,0.0,0.0,0.0,0.0,0.0,0.0
2511993542,8,1472.0,1450.0,1520.0,1467.0,1495.0,1415.0,1447.0,1399.0,0.0,0.0,0.0,0.0,0.0,0.0,0.0,0.0
2512033532,8,1473.0,1449.0,1514.0,1460.0,1489.0,1413.0,1448.0,1401.0,0.0,0.0,0.0,0.0,0.0,0.0,0.0,0.0
2512077504,8,1474.0,1454.0,1520.0,1468.0,1494.0,1418.0,1448.0,1403.0,0.0,0.0,0.0,0.0,0.0,0.0,0.0,0.0
2512117510,8,1471.0,1451.0,1513.0,1463.0,1487.0,1415.0,1445.0,1403.0,0.0,0.0,0.0,0.0,0.0,0.0,0.0,0.0
2512161633,8,1470.0,1451.0,1514.0,1465.0,1490.0,1417.0,1446.0,1402.0,0.0,0.0,0.0,0.0,0.0,0.0,0.0,0.0
2512201510,8,1471.0,1450.0,1514.0,1464.0,1491.0,1418.0,1448.0,1404.0,0.0,0.0,0.0,0.0,0.0,0.0,0.0,0.0
2512241496,8,1471.0,1451.0,1514.0,1466.0,1493.0,1420.0,1449.0,1404.0,0.0,0.0,0.0,0.0,0.0,0.0,0.0,0.0
2512285619,8,1471.0,1449.0,1510.0,1462.0,1490.0,1421.0,1451.0,1407.0,0.0,0.0,0.0,0.0,0.0,0.0,0.0,0.0
2512329551,8,1469.0,1448.0,1509.0,1463.0,1489.0,1420.0,1449.0,1406.0,0.0,0.0,0.0,0.0,0.0,0.0,0.0,0.0
2512369513,8,1471.0,1450.0,1512.0,1463.0,1490.0,1418.0,1448.0,1405.0,0.0,0.0,0.0,0.0,0.0,0.0,0.0,0.0
2512413626,8,1475.0,1454.0,1519.0,1466.0,1492.0,1415.0,1448.0,1403.0,0.0,0.0,0.0,0.0,0.0,0.0,0.0,0.0
2512453499,8,1472.0,1452.0,1522.0,1471.0,1498.0,1418.0,1448.0,1400.0,0.0,0.0,0.0,0.0,0.0,0.0,0.0,0.0
2512497509,8,1475.0,1454.0,1523.0,1469.0,1496.0,1415.0,1447.0,1400.0,0.0,0.0,0.0,0.0,0.0,0.0,0.0,0.0
2512537506,8,1478.0,1458.0,1523.0,1469.0,1493.0,1415.0,1447.0,1404.0,0.0,0.0,0.0,0.0,0.0,0.0,0.0,0.0
2512581513,8,1473.0,1454.0,1515.0,1463.0,1486.0,1413.0,1444.0,1404.0,0.0,0.0,0.0,0.0,0.0,0.0,0.0,0.0
2512621536,8,1479.0,1459.0,1522.0,1466.0,1489.0,1413.0,1447.0,1406.0,0.0,0.0,0.0,0.0,0.0,0.0,0.0,0.0
2512663095,8,1479.0,1457.0,1521.0,1467.0,1492.0,1416.0,1450.0,1406.0,0.0,0.0,0.0,0.0,0.0,0.0,0.0,0.0
2512707147,8,1477.0,1455.0,1520.0,1466.0,1492.0,1416.0,1449.0,1405.0,0.0,0.0,0.0,0.0,0.0,0.0,0.0,0.0
2512747148,8,1476.0,1457.0,1520.0,1467.0,1490.0,1415.0,1447.0,1405.0,0.0,0.0,0.0,0.0,0.0,0.0,0.0,0.0
2512791127,8,1479.0,1459.0,1527.0,1471.0,1496.0,1415.0,1447.0,1403.0,0.0,0.0,0.0,0.0,0.0,0.0,0.0,0.0
2512831094,8,1479.0,1462.0,1530.0,1474.0,1496.0,1413.0,1445.0,1401.0,0.0,0.0,0.0,0.0,0.0,0.0,0.0,0.0
2512875151,8,1477.0,1459.0,1525.0,1471.0,1495.0,1416.0,1446.0,1403.0,0.0,0.0,0.0,0.0,0.0,0.0,0.0,0.0
2512915144,8,1475.0,1450.0,1522.0,1465.0,1495.0,1413.0,1448.0,1399.0,0.0,0.0,0.0,0.0,0.0,0.0,0.0,0.0
2512959115,8,1475.0,1454.0,1528.0,1470.0,1498.0,1412.0,1446.0,1396.0,0.0,0.0,0.0,0.0,0.0,0.0,0.0,0.0
2512999097,8,1476.0,1455.0,1527.0,1467.0,1493.0,1408.0,1443.0,1395.0,0.0,0.0,0.0,0.0,0.0,0.0,0.0,0.0
2513043134,8,1477.0,1458.0,1530.0,1468.0,1492.0,1405.0,1440.0,1395.0,0.0,0.0,0.0,0.0,0.0,0.0,0.0,0.0
2513083104,8,1477.0,1462.0,1534.0,1474.0,1494.0,1405.0,1437.0,1393.0,0.0,0.0,0.0,0.0,0.0,0.0,0.0,0.0
2513127134,8,1473.0,1463.0,1536.0,1478.0,1495.0,1405.0,1432.0,1390.0,0.0,0.0,0.0,0.0,0.0,0.0,0.0,0.0
2513167137,8,1476.0,1460.0,1535.0,1474.0,1496.0,1405.0,1437.0,1391.0,0.0,0.0,0.0,0.0,0.0,0.0,0.0,0.0
2513211102,8,1471.0,1459.0,1534.0,1478.0,1497.0,1407.0,1434.0,1389.0,0.0,0.0,0.0,0.0,0.0,0.0,0.0,0.0
2513251095,8,1465.0,1456.0,1531.0,1479.0,1498.0,1409.0,1432.0,1385.0,0.0,0.0,0.0,0.0,0.0,0.0,0.0,0.0
2513295228,8,1468.0,1463.0,1540.0,1487.0,1502.0,1409.0,1430.0,1386.0,0.0,0.0,0.0,0.0,0.0,0.0,0.0,0.0
2513335099,8,1463.0,1458.0,1536.0,1484.0,1499.0,1406.0,1426.0,1380.0,0.0,0.0,0.0,0.0,0.0,0.0,0.0,0.0
2513379117,8,1456.0,1451.0,1530.0,1481.0,1498.0,1405.0,1423.0,1376.0,0.0,0.0,0.0,0.0,0.0,0.0,0.0,0.0
2513419088,8,1457.0,1452.0,1537.0,1486.0,1504.0,1405.0,1423.0,1372.0,0.0,0.0,0.0,0.0,0.0,0.0,0.0,0.0
2513463130,8,1458.0,1453.0,1539.0,1487.0,1506.0,1406.0,1424.0,1372.0,0.0,0.0,0.0,0.0,0.0,0.0,0.0,0.0
2513503245,8,1457.0,1451.0,1534.0,1482.0,1501.0,1404.0,1424.0,1373.0,0.0,0.0,0.0,0.0,0.0,0.0,0.0,0.0
2513547117,8,1453.0,1453.0,1535.0,1487.0,1501.0,1404.0,1418.0,1370.0,0.0,0.0,0.0,0.0,0.0,0.0,0.0,0.0
2513587106,8,1452.0,1448.0,1533.0,1485.0,1505.0,1409.0,1424.0,1371.0,0.0,0.0,0.0,0.0,0.0,0.0,0.0,0.0
2513631219,8,1452.0,1446.0,1531.0,1483.0,1504.0,1407.0,1425.0,1370.0,0.0,0.0,0.0,0.0,0.0,0.0,0.0,0.0
2513671129,8,1449.0,1444.0,1527.0,1481.0,1502.0,1408.0,1424.0,1371.0,0.0,0.0,0.0,0.0,0.0,0.0,0.0,0.0
2513715115,8,1447.0,1446.0,1532.0,1488.0,1505.0,1409.0,1420.0,1368.0,0.0,0.0,0.0,0.0,0.0,0.0,0.0,0.0
2513755116,8,1449.0,1445.0,1529.0,1484.0,1505.0,1411.0,1425.0,1371.0,0.0,0.0,0.0,0.0,0.0,0.0,0.0,0.0
2513799218,8,1452.0,1445.0,1529.0,1481.0,1503.0,1409.0,1426.0,1373.0,0.0,0.0,0.0,0.0,0.0,0.0,0.0,0.0
2513839233,8,1454.0,1449.0,1530.0,1483.0,1502.0,1408.0,1425.0,1375.0,0.0,0.0,0.0,0.0,0.0,0.0,0.0,0.0
2513883115,8,1450.0,1445.0,1524.0,1482.0,1502.0,1414.0,1428.0,1377.0,0.0,0.0,0.0,0.0,0.0,0.0,0.0,0.0
2513923114,8,1452.0,1444.0,1523.0,1479.0,1501.0,1413.0,1430.0,1379.0,0.0,0.0,0.0,0.0,0.0,0.0,0.0,0.0
2513967221,8,1452.0,1437.0,1517.0,1469.0,1498.0,1410.0,1434.0,1378.0,0.0,0.0,0.0,0.0,0.0,0.0,0.0,0.0
2514007124,8,1454.0,1444.0,1525.0,1481.0,1506.0,1417.0,1435.0,1380.0,0.0,0.0,0.0,0.0,0.0,0.0,0.0,0.0
2514051091,8,1458.0,1449.0,1528.0,1482.0,1505.0,1417.0,1436.0,1384.0,0.0,0.0,0.0,0.0,0.0,0.0,0.0,0.0
2514091120,8,1464.0,1454.0,1523.0,1475.0,1495.0,1414.0,1436.0,1393.0,0.0,0.0,0.0,0.0,0.0,0.0,0.0,0.0
2514135231,8,1467.0,1457.0,1528.0,1478.0,1496.0,1412.0,1435.0,1391.0,0.0,0.0,0.0,0.0,0.0,0.0,0.0,0.0
2514175221,8,1467.0,1459.0,1525.0,1476.0,1492.0,1412.0,1434.0,1395.0,0.0,0.0,0.0,0.0,0.0,0.0,0.0,0.0
2514219099,8,1467.0,1463.0,1526.0,1481.0,1493.0,1416.0,1434.0,1398.0,0.0,0.0,0.0,0.0,0.0,0.0,0.0,0.0
2514259094,8,1463.0,1460.0,1518.0,1477.0,1488.0,1417.0,1433.0,1399.0,0.0,0.0,0.0,0.0,0.0,0.0,0.0,0.0
2514303240,8,1467.0,1463.0,1525.0,1483.0,1495.0,1421.0,1437.0,1401.0,0.0,0.0,0.0,0.0,0.0,0.0,0.0,0.0
2514343134,8,1463.0,1457.0,1517.0,1477.0,1491.0,1420.0,1437.0,1400.0,0.0,0.0,0.0,0.0,0.0,0.0,0.0,0.0
2514383215,8,1463.0,1457.0,1522.0,1481.0,1497.0,1423.0,1438.0,1398.0,0.0,0.0,0.0,0.0,0.0,0.0,0.0,0.0
2514423136,8,1470.0,1455.0,1524.0,1473.0,1496.0,1415.0,1442.0,1397.0,0.0,0.0,0.0,0.0,0.0,0.0,0.0,0.0
2514467098,8,1465.0,1459.0,1527.0,1481.0,1495.0,1414.0,1433.0,1393.0,0.0,0.0,0.0,0.0,0.0,0.0,0.0,0.0
2514507112,8,1469.0,1461.0,1535.0,1484.0,1502.0,1414.0,1435.0,1390.0,0.0,0.0,0.0,0.0,0.0,0.0,0.0,0.0
2514551140,8,1466.0,1459.0,1533.0,1483.0,1499.0,1411.0,1431.0,1387.0,0.0,0.0,0.0,0.0,0.0,0.0,0.0,0.0
2514591130,8,1461.0,1455.0,1535.0,1487.0,1505.0,1413.0,1431.0,1382.0,0.0,0.0,0.0,0.0,0.0,0.0,0.0,0.0
2514635111,8,1460.0,1456.0,1535.0,1488.0,1506.0,1415.0,1431.0,1383.0,0.0,0.0,0.0,0.0,0.0,0.0,0.0,0.0
2514675098,8,1460.0,1452.0,1536.0,1488.0,1512.0,1418.0,1436.0,1381.0,0.0,0.0,0.0,0.0,0.0,0.0,0.0,0.0
2514719206,8,1461.0,1448.0,1532.0,1481.0,1508.0,1413.0,1436.0,1379.0,0.0,0.0,0.0,0.0,0.0,0.0,0.0,0.0
2514759145,8,1465.0,1457.0,1538.0,1487.0,1509.0,1414.0,1435.0,1384.0,0.0,0.0,0.0,0.0,0.0,0.0,0.0,0.0
2514803101,8,1467.0,1449.0,1534.0,1478.0,1507.0,1412.0,1440.0,1383.0,0.0,0.0,0.0,0.0,0.0,0.0,0.0,0.0
2514843095,8,1463.0,1451.0,1531.0,1480.0,1504.0,1413.0,1437.0,1384.0,0.0,0.0,0.0,0.0,0.0,0.0,0.0,0.0
2514887152,8,1463.0,1455.0,1531.0,1485.0,1505.0,1418.0,1437.0,1388.0,0.0,0.0,0.0,0.0,0.0,0.0,0.0,0.0
2514927104,8,1463.0,1451.0,1526.0,1479.0,1503.0,1419.0,1441.0,1391.0,0.0,0.0,0.0,0.0,0.0,0.0,0.0,0.0
2514971097,8,1466.0,1446.0,1521.0,1471.0,1501.0,1418.0,1446.0,1393.0,0.0,0.0,0.0,0.0,0.0,0.0,0.0,0.0
2515011115,8,1469.0,1457.0,1531.0,1486.0,1509.0,1427.0,1447.0,1398.0,0.0,0.0,0.0,0.0,0.0,0.0,0.0,0.0
2515055102,8,1474.0,1459.0,1532.0,1484.0,1508.0,1426.0,1450.0,1401.0,0.0,0.0,0.0,0.0,0.0,0.0,0.0,0.0
2515095110,8,1470.0,1455.0,1531.0,1486.0,1513.0,1429.0,1452.0,1399.0,0.0,0.0,0.0,0.0,0.0,0.0,0.0,0.0
2515139145,8,1472.0,1457.0,1532.0,1485.0,1512.0,1429.0,1453.0,1401.0,0.0,0.0,0.0,0.0,0.0,0.0,0.0,0.0
2515179139,8,1474.0,1454.0,1533.0,1484.0,1516.0,1430.0,1457.0,1401.0,0.0,0.0,0.0,0.0,0.0,0.0,0.0,0.0
2515223109,8,1475.0,1455.0,1535.0,1486.0,1517.0,1430.0,1457.0,1400.0,0.0,0.0,0.0,0.0,0.0,0.0,0.0,0.0
2515263094,8,1476.0,1457.0,1538.0,1490.0,1521.0,1434.0,1459.0,1402.0,0.0,0.0,0.0,0.0,0.0,0.0,0.0,0.0
2515307139,8,1481.0,1460.0,1538.0,1487.0,1520.0,1435.0,1463.0,1408.0,0.0,0.0,0.0,0.0,0.0,0.0,0.0,0.0
2515347138,8,1477.0,1463.0,1538.0,1495.0,1523.0,1441.0,1462.0,1409.0,0.0,0.0,0.0,0.0,0.0,0.0,0.0,0.0
2515391111,8,1477.0,1457.0,1533.0,1489.0,1522.0,1442.0,1466.0,1410.0,0.0,0.0,0.0,0.0,0.0,0.0,0.0,0.0
2515431092,8,1475.0,1461.0,1538.0,1497.0,1526.0,1444.0,1463.0,1408.0,0.0,0.0,0.0,0.0,0.0,0.0,0.0,0.0
2515475104,8,1468.0,1466.0,1536.0,1503.0,1521.0,1444.0,1453.0,1406.0,0.0,0.0,0.0,0.0,0.0,0.0,0.0,0.0
2515515246,8,1462.0,1465.0,1533.0,1507.0,1520.0,1448.0,1449.0,1406.0,0.0,0.0,0.0,0.0,0.0,0.0,0.0,0.0
2515559121,8,1461.0,1471.0,1541.0,1517.0,1525.0,1449.0,1446.0,1404.0,0.0,0.0,0.0,0.0,0.0,0.0,0.0,0.0
2515599112,8,1460.0,1470.0,1533.0,1510.0,1516.0,1446.0,1443.0,1407.0,0.0,0.0,0.0,0.0,0.0,0.0,0.0,0.0
2515643136,8,1459.0,1468.0,1532.0,1509.0,1517.0,1446.0,1443.0,1405.0,0.0,0.0,0.0,0.0,0.0,0.0,0.0,0.0
2515683232,8,1459.0,1466.0,1528.0,1506.0,1515.0,1448.0,1446.0,1408.0,0.0,0.0,0.0,0.0,0.0,0.0,0.0,0.0
2515727127,8,1464.0,1464.0,1526.0,1498.0,1513.0,1445.0,1451.0,1410.0,0.0,0.0,0.0,0.0,0.0,0.0,0.0,0.0
2515767116,8,1466.0,1464.0,1530.0,1500.0,1516.0,1445.0,1452.0,1410.0,0.0,0.0,0.0,0.0,0.0,0.0,0.0,0.0
2515811133,8,1469.0,1465.0,1529.0,1497.0,1515.0,1445.0,1455.0,1412.0,0.0,0.0,0.0,0.0,0.0,0.0,0.0,0.0
2515851127,8,1474.0,1465.0,1535.0,1496.0,1518.0,1440.0,1456.0,1409.0,0.0,0.0,0.0,0.0,0.0,0.0,0.0,0.0
2515895127,8,1476.0,1463.0,1538.0,1496.0,1522.0,1441.0,1460.0,1408.0,0.0,0.0,0.0,0.0,0.0,0.0,0.0,0.0
2515935114,8,1481.0,1464.0,1536.0,1492.0,1520.0,1441.0,1464.0,1414.0,0.0,0.0,0.0,0.0,0.0,0.0,0.0,0.0
2515979129,8,1481.0,1467.0,1535.0,1490.0,1515.0,1439.0,1462.0,1415.0,0.0,0.0,0.0,0.0,0.0,0.0,0.0,0.0
2516019134,8,1483.0,1469.0,1534.0,1490.0,1514.0,1439.0,1463.0,1418.0,0.0,0.0,0.0,0.0,0.0,0.0,0.0,0.0
2516063097,8,1485.0,1467.0,1537.0,1493.0,1521.0,1445.0,1469.0,1419.0,0.0,0.0,0.0,0.0,0.0,0.0,0.0,0.0
2516104854,8,1486.0,1472.0,1536.0,1494.0,1517.0,1445.0,1467.0,1423.0,0.0,0.0,0.0,0.0,0.0,0.0,0.0,0.0
2516144823,8,1490.0,1475.0,1537.0,1494.0,1516.0,1446.0,1469.0,1427.0,0.0,0.0,0.0,0.0,0.0,0.0,0.0,0.0
2516188817,8,1485.0,1483.0,1540.0,1507.0,1519.0,1452.0,1463.0,1428.0,0.0,0.0,0.0,0.0,0.0,0.0,0.0,0.0
2516228731,8,1486.0,1482.0,1538.0,1503.0,1516.0,1451.0,1464.0,1429.0,0.0,0.0,0.0,0.0,0.0,0.0,0.0,0.0
2516272815,8,1478.0,1482.0,1535.0,1508.0,1514.0,1452.0,1456.0,1426.0,0.0,0.0,0.0,0.0,0.0,0.0,0.0,0.0
2516312734,8,1471.0,1488.0,1541.0,1520.0,1516.0,1453.0,1447.0,1421.0,0.0,0.0,0.0,0.0,0.0,0.0,0.0,0.0
2516356826,8,1475.0,1493.0,1540.0,1514.0,1506.0,1445.0,1441.0,1423.0,0.0,0.0,0.0,0.0,0.0,0.0,0.0,0.0
2516396849,8,1467.0,1490.0,1536.0,1518.0,1506.0,1447.0,1436.0,1419.0,0.0,0.0,0.0,0.0,0.0,0.0,0.0,0.0
2516440862,8,1465.0,1492.0,1542.0,1524.0,1510.0,1446.0,1432.0,1414.0,0.0,0.0,0.0,0.0,0.0,0.0,0.0,0.0
2516480724,8,1464.0,1490.0,1538.0,1516.0,1502.0,1439.0,1429.0,1412.0,0.0,0.0,0.0,0.0,0.0,0.0,0.0,0.0
2516524853,8,1456.0,1484.0,1532.0,1516.0,1502.0,1441.0,1426.0,1409.0,0.0,0.0,0.0,0.0,0.0,0.0,0.0,0.0
2516564829,8,1452.0,1472.0,1525.0,1507.0,1501.0,1438.0,1428.0,1404.0,0.0,0.0,0.0,0.0,0.0,0.0,0.0,0.0
2516608734,8,1456.0,1479.0,1531.0,1511.0,1502.0,1438.0,1427.0,1406.0,0.0,0.0,0.0,0.0,0.0,0.0,0.0,0.0
2516648730,8,1454.0,1472.0,1527.0,1508.0,1504.0,1439.0,1430.0,1403.0,0.0,0.0,0.0,0.0,0.0,0.0,0.0,0.0
2516692867,8,1448.0,1458.0,1517.0,1497.0,1502.0,1437.0,1432.0,1398.0,0.0,0.0,0.0,0.0,0.0,0.0,0.0,0.0
2516732856,8,1454.0,1466.0,1527.0,1501.0,1504.0,1433.0,1431.0,1398.0,0.0,0.0,0.0,0.0,0.0,0.0,0.0,0.0
2516776733,8,1455.0,1463.0,1525.0,1496.0,1500.0,1428.0,1430.0,1396.0,0.0,0.0,0.0,0.0,0.0,0.0,0.0,0.0
2516816725,8,1457.0,1461.0,1526.0,1491.0,1500.0,1425.0,1432.0,1395.0,0.0,0.0,0.0,0.0,0.0,0.0,0.0,0.0
2516856708,8,1462.0,1469.0,1535.0,1497.0,1503.0,1424.0,1431.0,1395.0,0.0,0.0,0.0,0.0,0.0,0.0,0.0,0.0
2516900877,8,1461.0,1462.0,1531.0,1490.0,1500.0,1418.0,1430.0,1390.0,0.0,0.0,0.0,0.0,0.0,0.0,0.0,0.0
2516944837,8,1462.0,1461.0,1533.0,1489.0,1502.0,1418.0,1431.0,1389.0,0.0,0.0,0.0,0.0,0.0,0.0,0.0,0.0
2516984737,8,1459.0,1454.0,1534.0,1488.0,1507.0,1416.0,1432.0,1382.0,0.0,0.0,0.0,0.0,0.0,0.0,0.0,0.0
2517028878,8,1464.0,1455.0,1536.0,1485.0,1506.0,1412.0,1434.0,1383.0,0.0,0.0,0.0,0.0,0.0,0.0,0.0,0.0
2517068863,8,1469.0,1459.0,1541.0,1484.0,1504.0,1407.0,1432.0,1382.0,0.0,0.0,0.0,0.0,0.0,0.0,0.0,0.0
2517112827,8,1472.0,1463.0,1543.0,1485.0,1504.0,1407.0,1432.0,1384.0,0.0,0.0,0.0,0.0,0.0,0.0,0.0,0.0
2517152731,8,1473.0,1467.0,1544.0,1486.0,1500.0,1405.0,1429.0,1386.0,0.0,0.0,0.0,0.0,0.0,0.0,0.0,0.0
2517196856,8,1474.0,1470.0,1540.0,1483.0,1493.0,1403.0,1427.0,1390.0,0.0,0.0,0.0,0.0,0.0,0.0,0.0,0.0
2517236865,8,1469.0,1464.0,1531.0,1478.0,1489.0,1405.0,1427.0,1391.0,0.0,0.0,0.0,0.0,0.0,0.0,0.0,0.0
2517280838,8,1465.0,1464.0,1533.0,1485.0,1494.0,1409.0,1425.0,1388.0,0.0,0.0,0.0,0.0,0.0,0.0,0.0,0.0
2517320832,8,1466.0,1465.0,1530.0,1479.0,1486.0,1402.0,1422.0,1388.0,0.0,0.0,0.0,0.0,0.0,0.0,0.0,0.0
2517360707,8,1472.0,1465.0,1538.0,1478.0,1490.0,1398.0,1424.0,1385.0,0.0,0.0,0.0,0.0,0.0,0.0,0.0,0.0
2517404871,8,1472.0,1466.0,1540.0,1479.0,1491.0,1396.0,1422.0,1383.0,0.0,0.0,0.0,0.0,0.0,0.0,0.0,0.0
2517448739,8,1468.0,1456.0,1532.0,1469.0,1485.0,1391.0,1422.0,1378.0,0.0,0.0,0.0,0.0,0.0,0.0,0.0,0.0
2517488824,8,1474.0,1464.0,1544.0,1477.0,1492.0,1390.0,1421.0,1377.0,0.0,0.0,0.0,0.0,0.0,0.0,0.0,0.0
2517528723,8,1469.0,1461.0,1535.0,1474.0,1488.0,1395.0,1423.0,1382.0,0.0,0.0,0.0,0.0,0.0,0.0,0.0,0.0
2517572871,8,1475.0,1454.0,1528.0,1465.0,1491.0,1402.0,1438.0,1390.0,0.0,0.0,0.0,0.0,0.0,0.0,0.0,0.0
2517616732,8,1479.0,1460.0,1532.0,1476.0,1501.0,1417.0,1448.0,1402.0,0.0,0.0,0.0,0.0,0.0,0.0,0.0,0.0
2517656734,8,1478.0,1446.0,1521.0,1462.0,1501.0,1417.0,1457.0,1401.0,0.0,0.0,0.0,0.0,0.0,0.0,0.0,0.0
2517696718,8,1484.0,1453.0,1528.0,1467.0,1504.0,1418.0,1460.0,1404.0,0.0,0.0,0.0,0.0,0.0,0.0,0.0,0.0
2517740905,8,1480.0,1450.0,1531.0,1470.0,1508.0,1417.0,1457.0,1398.0,0.0,0.0,0.0,0.0,0.0,0.0,0.0,0.0
2517784831,8,1488.0,1462.0,1544.0,1482.0,1516.0,1422.0,1460.0,1402.0,0.0,0.0,0.0,0.0,0.0,0.0,0.0,0.0
2517824828,8,1490.0,1468.0,1545.0,1483.0,1511.0,1420.0,1456.0,1405.0,0.0,0.0,0.0,0.0,0.0,0.0,0.0,0.0
2517868855,8,1491.0,1470.0,1548.0,1485.0,1511.0,1419.0,1455.0,1405.0,0.0,0.0,0.0,0.0,0.0,0.0,0.0,0.0
2517908881,8,1493.0,1466.0,1548.0,1480.0,1512.0,1415.0,1456.0,1401.0,0.0,0.0,0.0,0.0,0.0,0.0,0.0,0.0
2517952839,8,1497.0,1468.0,1546.0,1477.0,1509.0,1416.0,1461.0,1407.0,0.0,0.0,0.0,0.0,0.0,0.0,0.0,0.0
2517992835,8,1495.0,1469.0,1546.0,1478.0,1508.0,1415.0,1457.0,1406.0,0.0,0.0,0.0,0.0,0.0,0.0,0.0,0.0
2518032730,8,1500.0,1474.0,1553.0,1480.0,1509.0,1411.0,1456.0,1405.0,0.0,0.0,0.0,0.0,0.0,0.0,0.0,0.0
2518076881,8,1501.0,1474.0,1549.0,1477.0,1505.0,1413.0,1458.0,1410.0,0.0,0.0,0.0,0.0,0.0,0.0,0.0,0.0
2518120823,8,1496.0,1467.0,1544.0,1471.0,1503.0,1409.0,1455.0,1404.0,0.0,0.0,0.0,0.0,0.0,0.0,0.0,0.0
2518160734,8,1498.0,1470.0,1546.0,1472.0,1501.0,1407.0,1453.0,1404.0,0.0,0.0,0.0,0.0,0.0,0.0,0.0,0.0
2518200720,8,1497.0,1463.0,1544.0,1468.0,1504.0,1407.0,1458.0,1402.0,0.0,0.0,0.0,0.0,0.0,0.0,0.0,0.0
2518244861,8,1497.0,1464.0,1548.0,1474.0,1511.0,1411.0,1460.0,1402.0,0.0,0.0,0.0,0.0,0.0,0.0,0.0,0.0
2518284703,8,1494.0,1463.0,1544.0,1472.0,1506.0,1410.0,1457.0,1401.0,0.0,0.0,0.0,0.0,0.0,0.0,0.0,0.0
2518324696,8,1494.0,1464.0,1545.0,1473.0,1506.0,1409.0,1455.0,1400.0,0.0,0.0,0.0,0.0,0.0,0.0,0.0,0.0
2518364715,8,1492.0,1459.0,1540.0,1469.0,1506.0,1412.0,1459.0,1402.0,0.0,0.0,0.0,0.0,0.0,0.0,0.0,0.0
2518408718,8,1488.0,1458.0,1542.0,1474.0,1510.0,1413.0,1456.0,1397.0,0.0,0.0,0.0,0.0,0.0,0.0,0.0,0.0
2518448734,8,1491.0,1456.0,1539.0,1466.0,1506.0,1409.0,1458.0,1398.0,0.0,0.0,0.0,0.0,0.0,0.0,0.0,0.0
2518492701,8,1486.0,1459.0,1542.0,1476.0,1511.0,1415.0,1455.0,1397.0,0.0,0.0,0.0,0.0,0.0,0.0,0.0,0.0
2518532712,8,1485.0,1455.0,1537.0,1469.0,1505.0,1409.0,1453.0,1395.0,0.0,0.0,0.0,0.0,0.0,0.0,0.0,0.0
2518572708,8,1490.0,1463.0,1544.0,1475.0,1506.0,1411.0,1453.0,1399.0,0.0,0.0,0.0,0.0,0.0,0.0,0.0,0.0
2518612702,8,1491.0,1463.0,1545.0,1476.0,1509.0,1411.0,1454.0,1398.0,0.0,0.0,0.0,0.0,0.0,0.0,0.0,0.0
2518656721,8,1488.0,1460.0,1540.0,1471.0,1503.0,1407.0,1450.0,1397.0,0.0,0.0,0.0,0.0,0.0,0.0,0.0,0.0
2518696803,8,1488.0,1459.0,1539.0,1471.0,1505.0,1410.0,1453.0,1398.0,0.0,0.0,0.0,0.0,0.0,0.0,0.0,0.0
2518740717,8,1485.0,1459.0,1536.0,1472.0,1503.0,1412.0,1451.0,1399.0,0.0,0.0,0.0,0.0,0.0,0.0,0.0,0.0
2518780716,8,1485.0,1461.0,1538.0,1475.0,1505.0,1414.0,1451.0,1399.0,0.0,0.0,0.0,0.0,0.0,0.0,0.0,0.0
2518824801,8,1483.0,1461.0,1541.0,1477.0,1506.0,1411.0,1448.0,1395.0,0.0,0.0,0.0,0.0,0.0,0.0,0.0,0.0
2518864731,8,1482.0,1460.0,1537.0,1474.0,1502.0,1411.0,1448.0,1397.0,0.0,0.0,0.0,0.0,0.0,0.0,0.0,0.0
2518908704,8,1483.0,1461.0,1539.0,1475.0,1503.0,1411.0,1448.0,1397.0,0.0,0.0,0.0,0.0,0.0,0.0,0.0,0.0
2518948713,8,1483.0,1460.0,1534.0,1472.0,1499.0,1411.0,1448.0,1399.0,0.0,0.0,0.0,0.0,0.0,0.0,0.0,0.0
2518992725,8,1480.0,1463.0,1536.0,1477.0,1500.0,1412.0,1445.0,1398.0,0.0,0.0,0.0,0.0,0.0,0.0,0.0,0.0
2519032817,8,1484.0,1461.0,1536.0,1473.0,1501.0,1412.0,1449.0,1400.0,0.0,0.0,0.0,0.0,0.0,0.0,0.0,0.0
2519076705,8,1484.0,1461.0,1540.0,1478.0,1507.0,1414.0,1451.0,1398.0,0.0,0.0,0.0,0.0,0.0,0.0,0.0,0.0
2519116701,8,1485.0,1460.0,1537.0,1472.0,1502.0,1410.0,1449.0,1398.0,0.0,0.0,0.0,0.0,0.0,0.0,0.0,0.0
2519160844,8,1484.0,1459.0,1538.0,1472.0,1504.0,1410.0,1450.0,1396.0,0.0,0.0,0.0,0.0,0.0,0.0,0.0,0.0
2519200729,8,1482.0,1458.0,1532.0,1469.0,1498.0,1410.0,1449.0,1399.0,0.0,0.0,0.0,0.0,0.0,0.0,0.0,0.0
2519244708,8,1485.0,1459.0,1534.0,1468.0,1497.0,1407.0,1449.0,1398.0,0.0,0.0,0.0,0.0,0.0,0.0,0.0,0.0
2519284710,8,1488.0,1461.0,1537.0,1470.0,1500.0,1410.0,1452.0,1401.0,0.0,0.0,0.0,0.0,0.0,0.0,0.0,0.0
2519328726,8,1485.0,1456.0,1529.0,1465.0,1498.0,1411.0,1453.0,1402.0,0.0,0.0,0.0,0.0,0.0,0.0,0.0,0.0
2519368745,8,1487.0,1457.0,1533.0,1466.0,1501.0,1411.0,1455.0,1401.0,0.0,0.0,0.0,0.0,0.0,0.0,0.0,0.0
2519412709,8,1484.0,1455.0,1530.0,1465.0,1498.0,1410.0,1452.0,1400.0,0.0,0.0,0.0,0.0,0.0,0.0,0.0,0.0
2519452696,8,1486.0,1459.0,1531.0,1466.0,1496.0,1409.0,1450.0,1402.0,0.0,0.0,0.0,0.0,0.0,0.0,0.0,0.0
2519496747,8,1483.0,1456.0,1529.0,1464.0,1495.0,1407.0,1449.0,1399.0,0.0,0.0,0.0,0.0,0.0,0.0,0.0,0.0
2519536756,8,1487.0,1460.0,1537.0,1469.0,1500.0,1407.0,1450.0,1398.0,0.0,0.0,0.0,0.0,0.0,0.0,0.0,0.0
2519578448,8,1488.0,1455.0,1535.0,1466.0,1502.0,1409.0,1455.0,1399.0,0.0,0.0,0.0,0.0,0.0,0.0,0.0,0.0
2519622458,8,1484.0,1451.0,1528.0,1460.0,1498.0,1409.0,1455.0,1399.0,0.0,0.0,0.0,0.0,0.0,0.0,0.0,0.0
2519662465,8,1489.0,1455.0,1532.0,1461.0,1499.0,1408.0,1456.0,1401.0,0.0,0.0,0.0,0.0,0.0,0.0,0.0,0.0
2519706526,8,1487.0,1459.0,1535.0,1467.0,1499.0,1409.0,1452.0,1400.0,0.0,0.0,0.0,0.0,0.0,0.0,0.0,0.0
2519746490,8,1490.0,1458.0,1533.0,1463.0,1496.0,1405.0,1452.0,1401.0,0.0,0.0,0.0,0.0,0.0,0.0,0.0,0.0
2519790333,8,1490.0,1459.0,1535.0,1464.0,1497.0,1405.0,1452.0,1400.0,0.0,0.0,0.0,0.0,0.0,0.0,0.0,0.0
2519830313,8,1486.0,1454.0,1529.0,1461.0,1496.0,1408.0,1453.0,1401.0,0.0,0.0,0.0,0.0,0.0,0.0,0.0,0.0
2519874403,8,1484.0,1454.0,1529.0,1466.0,1501.0,1414.0,1456.0,1401.0,0.0,0.0,0.0,0.0,0.0,0.0,0.0,0.0
2519914398,8,1490.0,1456.0,1530.0,1463.0,1499.0,1412.0,1459.0,1406.0,0.0,0.0,0.0,0.0,0.0,0.0,0.0,0.0
2519958335,8,1488.0,1453.0,1528.0,1462.0,1501.0,1414.0,1460.0,1405.0,0.0,0.0,0.0,0.0,0.0,0.0,0.0,0.0
2519998390,8,1485.0,1454.0,1527.0,1465.0,1501.0,1417.0,1458.0,1405.0,0.0,0.0,0.0,0.0,0.0,0.0,0.0,0.0
2520042513,8,1482.0,1453.0,1525.0,1464.0,1498.0,1416.0,1456.0,1404.0,0.0,0.0,0.0,0.0,0.0,0.0,0.0,0.0
2520082472,8,1485.0,1459.0,1532.0,1470.0,1501.0,1415.0,1454.0,1404.0,0.0,0.0,0.0,0.0,0.0,0.0,0.0,0.0
2520126433,8,1483.0,1458.0,1535.0,1473.0,1504.0,1414.0,1451.0,1399.0,0.0,0.0,0.0,0.0,0.0,0.0,0.0,0.0
2520166409,8,1480.0,1455.0,1534.0,1473.0,1505.0,1413.0,1451.0,1396.0,0.0,0.0,0.0,0.0,0.0,0.0,0.0,0.0
2520210421,8,1477.0,1451.0,1539.0,1477.0,1513.0,1414.0,1450.0,1388.0,0.0,0.0,0.0,0.0,0.0,0.0,0.0,0.0
2520250339,8,1477.0,1454.0,1540.0,1477.0,1509.0,1410.0,1446.0,1387.0,0.0,0.0,0.0,0.0,0.0,0.0,0.0,0.0
2520294406,8,1479.0,1453.0,1540.0,1474.0,1509.0,1409.0,1448.0,1388.0,0.0,0.0,0.0,0.0,0.0,0.0,0.0,0.0
2520334409,8,1487.0,1456.0,1541.0,1468.0,1505.0,1405.0,1451.0,1392.0,0.0,0.0,0.0,0.0,0.0,0.0,0.0,0.0
2520378446,8,1489.0,1457.0,1546.0,1470.0,1507.0,1403.0,1451.0,1390.0,0.0,0.0,0.0,0.0,0.0,0.0,0.0,0.0
2520418418,8,1492.0,1455.0,1544.0,1465.0,1507.0,1403.0,1455.0,1392.0,0.0,0.0,0.0,0.0,0.0,0.0,0.0,0.0
2520462444,8,1490.0,1452.0,1540.0,1463.0,1506.0,1403.0,1456.0,1392.0,0.0,0.0,0.0,0.0,0.0,0.0,0.0,0.0
2520502492,8,1494.0,1449.0,1539.0,1457.0,1505.0,1402.0,1460.0,1394.0,0.0,0.0,0.0,0.0,0.0,0.0,0.0,0.0
2520546498,8,1491.0,1455.0,1542.0,1466.0,1508.0,1407.0,1458.0,1395.0,0.0,0.0,0.0,0.0,0.0,0.0,0.0,0.0
2520586464,8,1494.0,1450.0,1540.0,1460.0,1508.0,1405.0,1462.0,1395.0,0.0,0.0,0.0,0.0,0.0,0.0,0.0,0.0
2520630328,8,1494.0,1452.0,1541.0,1463.0,1509.0,1407.0,1462.0,1396.0,0.0,0.0,0.0,0.0,0.0,0.0,0.0,0.0
2520670338,8,1498.0,1457.0,1545.0,1466.0,1510.0,1408.0,1463.0,1399.0,0.0,0.0,0.0,0.0,0.0,0.0,0.0,0.0
2520714494,8,1491.0,1455.0,1543.0,1471.0,1514.0,1415.0,1463.0,1398.0,0.0,0.0,0.0,0.0,0.0,0.0,0.0,0.0
2520754326,8,1489.0,1455.0,1537.0,1470.0,1510.0,1418.0,1463.0,1403.0,0.0,0.0,0.0,0.0,0.0,0.0,0.0,0.0
2520798465,8,1502.0,1478.0,1561.0,1498.0,1530.0,1435.0,1471.0,1415.0,0.0,0.0,0.0,0.0,0.0,0.0,0.0,0.0
2520838441,8,1517.0,1489.0,1564.0,1504.0,1538.0,1452.0,1491.0,1437.0,0.0,0.0,0.0,0.0,0.0,0.0,0.0,0.0
2520882515,8,1534.0,1505.0,1572.0,1513.0,1545.0,1467.0,1507.0,1459.0,0.0,0.0,0.0,0.0,0.0,0.0,0.0,0.0
2520922518,8,1542.0,1515.0,1578.0,1520.0,1549.0,1475.0,1514.0,1470.0,0.0,0.0,0.0,0.0,0.0,0.0,0.0,0.0
2520966523,8,1545.0,1526.0,1584.0,1531.0,1553.0,1483.0,1515.0,1478.0,0.0,0.0,0.0,0.0,0.0,0.0,0.0,0.0
2521006445,8,1546.0,1536.0,1593.0,1551.0,1566.0,1498.0,1519.0,1484.0,0.0,0.0,0.0,0.0,0.0,0.0,0.0,0.0
2521050329,8,1552.0,1535.0,1599.0,1552.0,1576.0,1502.0,1528.0,1485.0,0.0,0.0,0.0,0.0,0.0,0.0,0.0,0.0
2521090315,8,1554.0,1539.0,1604.0,1558.0,1579.0,1505.0,1529.0,1487.0,0.0,0.0,0.0,0.0,0.0,0.0,0.0,0.0
2521134458,8,1553.0,1539.0,1604.0,1560.0,1583.0,1510.0,1533.0,1489.0,0.0,0.0,0.0,0.0,0.0,0.0,0.0,0.0
2521174420,8,1546.0,1533.0,1599.0,1559.0,1582.0,1510.0,1529.0,1484.0,0.0,0.0,0.0,0.0,0.0,0.0,0.0,0.0
2521218336,8,1540.0,1528.0,1594.0,1548.0,1569.0,1493.0,1515.0,1472.0,0.0,0.0,0.0,0.0,0.0,0.0,0.0,0.0
2521258308,8,1527.0,1514.0,1577.0,1535.0,1557.0,1485.0,1506.0,1464.0,0.0,0.0,0.0,0.0,0.0,0.0,0.0,0.0
2521302535,8,1516.0,1502.0,1566.0,1523.0,1547.0,1475.0,1497.0,1454.0,0.0,0.0,0.0,0.0,0.0,0.0,0.0,0.0
2521342507,8,1509.0,1498.0,1558.0,1517.0,1536.0,1466.0,1486.0,1447.0,0.0,0.0,0.0,0.0,0.0,0.0,0.0,0.0
2521386579,8,1496.0,1493.0,1549.0,1515.0,1528.0,1463.0,1475.0,1441.0,0.0,0.0,0.0,0.0,0.0,0.0,0.0,0.0
2521426435,8,1493.0,1487.0,1545.0,1509.0,1525.0,1457.0,1472.0,1435.0,0.0,0.0,0.0,0.0,0.0,0.0,0.0,0.0
2521470449,8,1487.0,1485.0,1540.0,1509.0,1521.0,1459.0,1469.0,1435.0,0.0,0.0,0.0,0.0,0.0,0.0,0.0,0.0
2521510459,8,1486.0,1482.0,1537.0,1507.0,1520.0,1458.0,1469.0,1434.0,0.0,0.0,0.0,0.0,0.0,0.0,0.0,0.0
2521554338,8,1477.0,1478.0,1532.0,1507.0,1519.0,1459.0,1464.0,1430.0,0.0,0.0,0.0,0.0,0.0,0.0,0.0,0.0
2521594323,8,1478.0,1478.0,1530.0,1505.0,1516.0,1459.0,1465.0,1432.0,0.0,0.0,0.0,0.0,0.0,0.0,0.0,0.0
2521638442,8,1474.0,1472.0,1521.0,1497.0,1509.0,1455.0,1462.0,1431.0,0.0,0.0,0.0,0.0,0.0,0.0,0.0,0.0
2521678437,8,1471.0,1477.0,1525.0,1505.0,1512.0,1458.0,1458.0,1429.0,0.0,0.0,0.0,0.0,0.0,0.0,0.0,0.0
2521722533,8,1471.0,1473.0,1523.0,1500.0,1509.0,1454.0,1457.0,1427.0,0.0,0.0,0.0,0.0,0.0,0.0,0.0,0.0
2521762473,8,1466.0,1470.0,1521.0,1500.0,1509.0,1453.0,1455.0,1423.0,0.0,0.0,0.0,0.0,0.0,0.0,0.0,0.0
2521806493,8,1471.0,1473.0,1524.0,1497.0,1505.0,1447.0,1453.0,1422.0,0.0,0.0,0.0,0.0,0.0,0.0,0.0,0.0
2521846446,8,1470.0,1471.0,1524.0,1496.0,1505.0,1443.0,1450.0,1418.0,0.0,0.0,0.0,0.0,0.0,0.0,0.0,0.0
2521890446,8,1471.0,1472.0,1527.0,1497.0,1507.0,1443.0,1450.0,1417.0,0.0,0.0,0.0,0.0,0.0,0.0,0.0,0.0
2521930317,8,1478.0,1471.0,1532.0,1493.0,1509.0,1438.0,1455.0,1416.0,0.0,0.0,0.0,0.0,0.0,0.0,0.0,0.0
2521974463,8,1476.0,1469.0,1530.0,1491.0,1507.0,1436.0,1452.0,1414.0,0.0,0.0,0.0,0.0,0.0,0.0,0.0,0.0
2522014577,8,1480.0,1464.0,1528.0,1481.0,1505.0,1430.0,1456.0,1412.0,0.0,0.0,0.0,0.0,0.0,0.0,0.0,0.0
2522058335,8,1482.0,1465.0,1535.0,1484.0,1510.0,1429.0,1457.0,1409.0,0.0,0.0,0.0,0.0,0.0,0.0,0.0,0.0
2522098321,8,1485.0,1463.0,1539.0,1482.0,1512.0,1425.0,1458.0,1406.0,0.0,0.0,0.0,0.0,0.0,0.0,0.0,0.0
2522142532,8,1487.0,1458.0,1538.0,1474.0,1510.0,1418.0,1459.0,1402.0,0.0,0.0,0.0,0.0,0.0,0.0,0.0,0.0
2522182484,8,1494.0,1456.0,1540.0,1468.0,1510.0,1414.0,1464.0,1402.0,0.0,0.0,0.0,0.0,0.0,0.0,0.0,0.0
2522226451,8,1495.0,1456.0,1542.0,1467.0,1511.0,1412.0,1464.0,1401.0,0.0,0.0,0.0,0.0,0.0,0.0,0.0,0.0
2522266421,8,1498.0,1458.0,1544.0,1465.0,1508.0,1407.0,1462.0,1400.0,0.0,0.0,0.0,0.0,0.0,0.0,0.0,0.0
2522310461,8,1500.0,1462.0,1549.0,1469.0,1510.0,1406.0,1461.0,1399.0,0.0,0.0,0.0,0.0,0.0,0.0,0.0,0.0
2522350447,8,1497.0,1463.0,1547.0,1469.0,1506.0,1406.0,1456.0,1399.0,0.0,0.0,0.0,0.0,0.0,0.0,0.0,0.0
2522390352,8,1499.0,1463.0,1543.0,1465.0,1502.0,1404.0,1457.0,1402.0,0.0,0.0,0.0,0.0,0.0,0.0,0.0,0.0
2522434301,8,1495.0,1466.0,1545.0,1474.0,1506.0,1410.0,1456.0,1402.0,0.0,0.0,0.0,0.0,0.0,0.0,0.0,0.0
2522474295,8,1487.0,1463.0,1536.0,1474.0,1503.0,1416.0,1454.0,1405.0,0.0,0.0,0.0,0.0,0.0,0.0,0.0,0.0
2522518404,8,1486.0,1459.0,1533.0,1474.0,1506.0,1421.0,1459.0,1407.0,0.0,0.0,0.0,0.0,0.0,0.0,0.0,0.0
2522558449,8,1486.0,1461.0,1532.0,1475.0,1505.0,1422.0,1458.0,1409.0,0.0,0.0,0.0,0.0,0.0,0.0,0.0,0.0
2522602428,8,1481.0,1460.0,1531.0,1476.0,1504.0,1422.0,1454.0,1406.0,0.0,0.0,0.0,0.0,0.0,0.0,0.0,0.0
2522642420,8,1479.0,1461.0,1531.0,1479.0,1504.0,1424.0,1452.0,1406.0,0.0,0.0,0.0,0.0,0.0,0.0,0.0,0.0
2522682420,8,1482.0,1466.0,1534.0,1483.0,1506.0,1426.0,1454.0,1409.0,0.0,0.0,0.0,0.0,0.0,0.0,0.0,0.0
2522726477,8,1476.0,1465.0,1532.0,1486.0,1506.0,1428.0,1450.0,1407.0,0.0,0.0,0.0,0.0,0.0,0.0,0.0,0.0
2522770312,8,1476.0,1468.0,1532.0,1489.0,1505.0,1431.0,1450.0,1411.0,0.0,0.0,0.0,0.0,0.0,0.0,0.0,0.0
2522810399,8,1480.0,1470.0,1531.0,1485.0,1502.0,1429.0,1451.0,1413.0,0.0,0.0,0.0,0.0,0.0,0.0,0.0,0.0
2522854304,8,1476.0,1469.0,1529.0,1486.0,1502.0,1430.0,1449.0,1412.0,0.0,0.0,0.0,0.0,0.0,0.0,0.0,0.0
2522894432,8,1476.0,1469.0,1528.0,1488.0,1503.0,1433.0,1450.0,1414.0,0.0,0.0,0.0,0.0,0.0,0.0,0.0,0.0
2522934298,8,1477.0,1474.0,1532.0,1491.0,1501.0,1429.0,1445.0,1412.0,0.0,0.0,0.0,0.0,0.0,0.0,0.0,0.0
2522974288,8,1483.0,1473.0,1530.0,1484.0,1498.0,1428.0,1451.0,1417.0,0.0,0.0,0.0,0.0,0.0,0.0,0.0,0.0
2523015131,8,1483.0,1474.0,1528.0,1485.0,1498.0,1432.0,1453.0,1421.0,0.0,0.0,0.0,0.0,0.0,0.0,0.0,0.0
2523059115,8,1484.0,1472.0,1526.0,1481.0,1497.0,1430.0,1454.0,1421.0,0.0,0.0,0.0,0.0,0.0,0.0,0.0,0.0
2523099934,8,1488.0,1476.0,1534.0,1486.0,1503.0,1433.0,1458.0,1423.0,0.0,0.0,0.0,0.0,0.0,0.0,0.0,0.0
2523144067,8,1486.0,1471.0,1531.0,1484.0,1504.0,1432.0,1459.0,1420.0,0.0,0.0,0.0,0.0,0.0,0.0,0.0,0.0
2523183918,8,1487.0,1471.0,1532.0,1483.0,1505.0,1433.0,1460.0,1420.0,0.0,0.0,0.0,0.0,0.0,0.0,0.0,0.0
2523228021,8,1487.0,1470.0,1535.0,1483.0,1507.0,1430.0,1459.0,1416.0,0.0,0.0,0.0,0.0,0.0,0.0,0.0,0.0
2523268055,8,1496.0,1473.0,1537.0,1480.0,1505.0,1427.0,1463.0,1421.0,0.0,0.0,0.0,0.0,0.0,0.0,0.0,0.0
2523311968,8,1496.0,1468.0,1533.0,1470.0,1500.0,1422.0,1464.0,1419.0,0.0,0.0,0.0,0.0,0.0,0.0,0.0,0.0
2523352050,8,1495.0,1466.0,1533.0,1472.0,1503.0,1424.0,1466.0,1419.0,0.0,0.0,0.0,0.0,0.0,0.0,0.0,0.0
2523396055,8,1502.0,1465.0,1534.0,1462.0,1498.0,1414.0,1466.0,1417.0,0.0,0.0,0.0,0.0,0.0,0.0,0.0,0.0
2523435933,8,1503.0,1460.0,1531.0,1455.0,1496.0,1411.0,1468.0,1416.0,0.0,0.0,0.0,0.0,0.0,0.0,0.0,0.0
2523480067,8,1501.0,1458.0,1533.0,1462.0,1505.0,1420.0,1474.0,1417.0,0.0,0.0,0.0,0.0,0.0,0.0,0.0,0.0
2523520070,8,1509.0,1462.0,1533.0,1457.0,1502.0,1418.0,1478.0,1423.0,0.0,0.0,0.0,0.0,0.0,0.0,0.0,0.0
2523564028,8,1508.0,1459.0,1527.0,1452.0,1499.0,1420.0,1481.0,1426.0,0.0,0.0,0.0,0.0,0.0,0.0,0.0,0.0
2523604078,8,1509.0,1465.0,1528.0,1457.0,1497.0,1422.0,1479.0,1430.0,0.0,0.0,0.0,0.0,0.0,0.0,0.0,0.0
2523647932,8,1516.0,1469.0,1525.0,1453.0,1492.0,1422.0,1482.0,1439.0,0.0,0.0,0.0,0.0,0.0,0.0,0.0,0.0
2523687936,8,1517.0,1475.0,1527.0,1457.0,1492.0,1425.0,1481.0,1442.0,0.0,0.0,0.0,0.0,0.0,0.0,0.0,0.0
2523732025,8,1517.0,1481.0,1524.0,1458.0,1484.0,1423.0,1476.0,1447.0,0.0,0.0,0.0,0.0,0.0,0.0,0.0,0.0
2523772051,8,1519.0,1483.0,1523.0,1457.0,1482.0,1425.0,1478.0,1451.0,0.0,0.0,0.0,0.0,0.0,0.0,0.0,0.0
2523815934,8,1515.0,1477.0,1518.0,1456.0,1485.0,1431.0,1483.0,1452.0,0.0,0.0,0.0,0.0,0.0,0.0,0.0,0.0
2523855939,8,1512.0,1475.0,1517.0,1457.0,1488.0,1434.0,1483.0,1451.0,0.0,0.0,0.0,0.0,0.0,0.0,0.0,0.0
2523900056,8,1518.0,1476.0,1522.0,1459.0,1494.0,1437.0,1490.0,1454.0,0.0,0.0,0.0,0.0,0.0,0.0,0.0,0.0
2523940064,8,1522.0,1483.0,1527.0,1466.0,1499.0,1443.0,1494.0,1460.0,0.0,0.0,0.0,0.0,0.0,0.0,0.0,0.0
2523983934,8,1527.0,1481.0,1520.0,1457.0,1493.0,1442.0,1500.0,1467.0,0.0,0.0,0.0,0.0,0.0,0.0,0.0,0.0
2524023998,8,1531.0,1481.0,1521.0,1458.0,1497.0,1447.0,1507.0,1471.0,0.0,0.0,0.0,0.0,0.0,0.0,0.0,0.0
2524068028,8,1534.0,1478.0,1519.0,1454.0,1500.0,1451.0,1515.0,1475.0,0.0,0.0,0.0,0.0,0.0,0.0,0.0,0.0
2524108123,8,1536.0,1478.0,1522.0,1457.0,1507.0,1457.0,1521.0,1478.0,0.0,0.0,0.0,0.0,0.0,0.0,0.0,0.0
2524151995,8,1542.0,1487.0,1530.0,1461.0,1506.0,1452.0,1517.0,1478.0,0.0,0.0,0.0,0.0,0.0,0.0,0.0,0.0
2524196018,8,1536.0,1495.0,1533.0,1475.0,1507.0,1457.0,1509.0,1478.0,0.0,0.0,0.0,0.0,0.0,0.0,0.0,0.0
2524239904,8,1538.0,1503.0,1536.0,1481.0,1508.0,1462.0,1510.0,1484.0,0.0,0.0,0.0,0.0,0.0,0.0,0.0,0.0
2524283930,8,1535.0,1507.0,1543.0,1491.0,1512.0,1464.0,1505.0,1480.0,0.0,0.0,0.0,0.0,0.0,0.0,0.0,0.0
2524323922,8,1534.0,1512.0,1549.0,1497.0,1513.0,1461.0,1498.0,1476.0,0.0,0.0,0.0,0.0,0.0,0.0,0.0,0.0
2524367922,8,1535.0,1520.0,1554.0,1503.0,1512.0,1460.0,1493.0,1477.0,0.0,0.0,0.0,0.0,0.0,0.0,0.0,0.0
2524407897,8,1529.0,1518.0,1550.0,1504.0,1509.0,1461.0,1488.0,1475.0,0.0,0.0,0.0,0.0,0.0,0.0,0.0,0.0
2524452009,8,1524.0,1518.0,1547.0,1508.0,1510.0,1464.0,1486.0,1475.0,0.0,0.0,0.0,0.0,0.0,0.0,0.0,0.0
2524491930,8,1518.0,1513.0,1536.0,1502.0,1504.0,1467.0,1486.0,1477.0,0.0,0.0,0.0,0.0,0.0,0.0,0.0,0.0
2524536130,8,1512.0,1508.0,1532.0,1504.0,1505.0,1470.0,1485.0,1474.0,0.0,0.0,0.0,0.0,0.0,0.0,0.0,0.0
2524575912,8,1508.0,1506.0,1535.0,1507.0,1508.0,1469.0,1481.0,1468.0,0.0,0.0,0.0,0.0,0.0,0.0,0.0,0.0
2524619914,8,1504.0,1501.0,1533.0,1504.0,1507.0,1465.0,1478.0,1463.0,0.0,0.0,0.0,0.0,0.0,0.0,0.0,0.0
2524659911,8,1505.0,1502.0,1534.0,1503.0,1507.0,1463.0,1478.0,1463.0,0.0,0.0,0.0,0.0,0.0,0.0,0.0,0.0
2524703908,8,1506.0,1500.0,1533.0,1500.0,1507.0,1463.0,1480.0,1462.0,0.0,0.0,0.0,0.0,0.0,0.0,0.0,0.0
2524743900,8,1508.0,1496.0,1529.0,1494.0,1505.0,1462.0,1483.0,1464.0,0.0,0.0,0.0,0.0,0.0,0.0,0.0,0.0
2524788021,8,1508.0,1496.0,1528.0,1494.0,1504.0,1463.0,1484.0,1466.0,0.0,0.0,0.0,0.0,0.0,0.0,0.0,0.0
2524828108,8,1511.0,1498.0,1530.0,1494.0,1505.0,1462.0,1485.0,1467.0,0.0,0.0,0.0,0.0,0.0,0.0,0.0,0.0
2524871912,8,1506.0,1492.0,1527.0,1492.0,1506.0,1462.0,1485.0,1463.0,0.0,0.0,0.0,0.0,0.0,0.0,0.0,0.0
2524911894,8,1504.0,1494.0,1532.0,1499.0,1511.0,1465.0,1484.0,1460.0,0.0,0.0,0.0,0.0,0.0,0.0,0.0,0.0
2524955938,8,1503.0,1492.0,1529.0,1497.0,1510.0,1465.0,1484.0,1461.0,0.0,0.0,0.0,0.0,0.0,0.0,0.0,0.0
2524995927,8,1504.0,1495.0,1532.0,1500.0,1511.0,1466.0,1483.0,1460.0,0.0,0.0,0.0,0.0,0.0,0.0,0.0,0.0
2525040022,8,1504.0,1489.0,1528.0,1495.0,1513.0,1468.0,1490.0,1462.0,0.0,0.0,0.0,0.0,0.0,0.0,0.0,0.0
2525079895,8,1512.0,1495.0,1529.0,1494.0,1510.0,1467.0,1492.0,1468.0,0.0,0.0,0.0,0.0,0.0,0.0,0.0,0.0
2525124016,8,1517.0,1500.0,1529.0,1490.0,1503.0,1464.0,1491.0,1474.0,0.0,0.0,0.0,0.0,0.0,0.0,0.0,0.0
2525164073,8,1515.0,1499.0,1525.0,1489.0,1501.0,1465.0,1491.0,1475.0,0.0,0.0,0.0,0.0,0.0,0.0,0.0,0.0
2525207927,8,1521.0,1501.0,1526.0,1486.0,1500.0,1465.0,1495.0,1479.0,0.0,0.0,0.0,0.0,0.0,0.0,0.0,0.0
2525247899,8,1524.0,1506.0,1533.0,1490.0,1501.0,1461.0,1492.0,1477.0,0.0,0.0,0.0,0.0,0.0,0.0,0.0,0.0
2525291928,8,1519.0,1505.0,1534.0,1493.0,1502.0,1460.0,1487.0,1472.0,0.0,0.0,0.0,0.0,0.0,0.0,0.0,0.0
2525332079,8,1518.0,1508.0,1535.0,1496.0,1501.0,1461.0,1484.0,1473.0,0.0,0.0,0.0,0.0,0.0,0.0,0.0,0.0
2525375912,8,1521.0,1511.0,1541.0,1495.0,1499.0,1451.0,1479.0,1466.0,0.0,0.0,0.0,0.0,0.0,0.0,0.0,0.0
2525415897,8,1523.0,1521.0,1549.0,1500.0,1494.0,1444.0,1469.0,1465.0,0.0,0.0,0.0,0.0,0.0,0.0,0.0,0.0
2525460058,8,1524.0,1518.0,1546.0,1494.0,1489.0,1439.0,1468.0,1463.0,0.0,0.0,0.0,0.0,0.0,0.0,0.0,0.0
2525500086,8,1522.0,1516.0,1540.0,1489.0,1483.0,1435.0,1465.0,1463.0,0.0,0.0,0.0,0.0,0.0,0.0,0.0,0.0
2525543906,8,1519.0,1515.0,1535.0,1487.0,1479.0,1436.0,1463.0,1464.0,0.0,0.0,0.0,0.0,0.0,0.0,0.0,0.0
2525583915,8,1514.0,1508.0,1530.0,1485.0,1482.0,1441.0,1467.0,1464.0,0.0,0.0,0.0,0.0,0.0,0.0,0.0,0.0
2525624025,8,1511.0,1500.0,1523.0,1479.0,1482.0,1443.0,1471.0,1463.0,0.0,0.0,0.0,0.0,0.0,0.0,0.0,0.0
2525668074,8,1505.0,1498.0,1523.0,1486.0,1487.0,1447.0,1468.0,1460.0,0.0,0.0,0.0,0.0,0.0,0.0,0.0,0.0
2525708075,8,1506.0,1493.0,1522.0,1480.0,1488.0,1444.0,1472.0,1457.0,0.0,0.0,0.0,0.0,0.0,0.0,0.0,0.0
2525751901,8,1502.0,1491.0,1520.0,1480.0,1487.0,1444.0,1469.0,1454.0,0.0,0.0,0.0,0.0,0.0,0.0,0.0,0.0
2525791936,8,1509.0,1488.0,1521.0,1474.0,1488.0,1442.0,1476.0,1457.0,0.0,0.0,0.0,0.0,0.0,0.0,0.0,0.0
2525835921,8,1512.0,1492.0,1522.0,1474.0,1487.0,1442.0,1477.0,1459.0,0.0,0.0,0.0,0.0,0.0,0.0,0.0,0.0
2525875930,8,1517.0,1492.0,1522.0,1468.0,1484.0,1439.0,1480.0,1462.0,0.0,0.0,0.0,0.0,0.0,0.0,0.0,0.0
2525919891,8,1519.0,1488.0,1523.0,1466.0,1488.0,1439.0,1484.0,1460.0,0.0,0.0,0.0,0.0,0.0,0.0,0.0,0.0
2525960027,8,1517.0,1482.0,1518.0,1462.0,1488.0,1439.0,1486.0,1460.0,0.0,0.0,0.0,0.0,0.0,0.0,0.0,0.0
2526000021,8,1513.0,1483.0,1520.0,1468.0,1492.0,1444.0,1485.0,1459.0,0.0,0.0,0.0,0.0,0.0,0.0,0.0,0.0
2526040062,8,1509.0,1481.0,1519.0,1471.0,1495.0,1447.0,1485.0,1457.0,0.0,0.0,0.0,0.0,0.0,0.0,0.0,0.0
2526083928,8,1507.0,1485.0,1520.0,1475.0,1493.0,1447.0,1480.0,1457.0,0.0,0.0,0.0,0.0,0.0,0.0,0.0,0.0
2526123935,8,1506.0,1489.0,1523.0,1479.0,1492.0,1446.0,1476.0,1456.0,0.0,0.0,0.0,0.0,0.0,0.0,0.0,0.0
2526168051,8,1504.0,1492.0,1519.0,1480.0,1487.0,1446.0,1471.0,1458.0,0.0,0.0,0.0,0.0,0.0,0.0,0.0,0.0
2526208052,8,1504.0,1490.0,1513.0,1474.0,1481.0,1445.0,1472.0,1461.0,0.0,0.0,0.0,0.0,0.0,0.0,0.0,0.0
2526251936,8,1508.0,1491.0,1512.0,1469.0,1477.0,1442.0,1473.0,1464.0,0.0,0.0,0.0,0.0,0.0,0.0,0.0,0.0
2526291925,8,1513.0,1493.0,1516.0,1469.0,1479.0,1441.0,1476.0,1465.0,0.0,0.0,0.0,0.0,0.0,0.0,0.0,0.0
2526336116,8,1515.0,1493.0,1516.0,1467.0,1478.0,1440.0,1477.0,1466.0,0.0,0.0,0.0,0.0,0.0,0.0,0.0,0.0
2526376055,8,1517.0,1499.0,1522.0,1471.0,1478.0,1436.0,1473.0,1464.0,0.0,0.0,0.0,0.0,0.0,0.0,0.0,0.0
2526419936,8,1517.0,1498.0,1523.0,1471.0,1480.0,1436.0,1473.0,1463.0,0.0,0.0,0.0,0.0,0.0,0.0,0.0,0.0
2526459935,8,1515.0,1497.0,1524.0,1471.0,1480.0,1434.0,1471.0,1459.0,0.0,0.0,0.0,0.0,0.0,0.0,0.0,0.0
2526504887,8,1516.0,1493.0,1526.0,1468.0,1482.0,1429.0,1471.0,1454.0,0.0,0.0,0.0,0.0,0.0,0.0,0.0,0.0
2526545638,8,1515.0,1491.0,1528.0,1469.0,1485.0,1430.0,1472.0,1451.0,0.0,0.0,0.0,0.0,0.0,0.0,0.0,0.0
2526585635,8,1516.0,1481.0,1526.0,1459.0,1484.0,1422.0,1475.0,1445.0,0.0,0.0,0.0,0.0,0.0,0.0,0.0,0.0
2526629506,8,1515.0,1477.0,1522.0,1455.0,1484.0,1423.0,1477.0,1445.0,0.0,0.0,0.0,0.0,0.0,0.0,0.0,0.0
2526669503,8,1515.0,1476.0,1524.0,1455.0,1484.0,1421.0,1475.0,1442.0,0.0,0.0,0.0,0.0,0.0,0.0,0.0,0.0
2526713527,8,1512.0,1476.0,1520.0,1455.0,1482.0,1423.0,1474.0,1444.0,0.0,0.0,0.0,0.0,0.0,0.0,0.0,0.0
2526753511,8,1512.0,1478.0,1519.0,1455.0,1479.0,1422.0,1472.0,1445.0,0.0,0.0,0.0,0.0,0.0,0.0,0.0,0.0
2526797512,8,1507.0,1479.0,1516.0,1459.0,1478.0,1425.0,1469.0,1445.0,0.0,0.0,0.0,0.0,0.0,0.0,0.0,0.0
2526837508,8,1506.0,1479.0,1518.0,1461.0,1480.0,1425.0,1467.0,1443.0,0.0,0.0,0.0,0.0,0.0,0.0,0.0,0.0
2526881493,8,1506.0,1483.0,1524.0,1464.0,1480.0,1420.0,1461.0,1438.0,0.0,0.0,0.0,0.0,0.0,0.0,0.0,0.0
2526921535,8,1506.0,1481.0,1521.0,1461.0,1476.0,1419.0,1461.0,1440.0,0.0,0.0,0.0,0.0,0.0,0.0,0.0,0.0
2526965493,8,1507.0,1482.0,1522.0,1462.0,1480.0,1422.0,1465.0,1441.0,0.0,0.0,0.0,0.0,0.0,0.0,0.0,0.0
2527005492,8,1506.0,1476.0,1516.0,1455.0,1477.0,1421.0,1467.0,1441.0,0.0,0.0,0.0,0.0,0.0,0.0,0.0,0.0
2527049512,8,1510.0,1475.0,1514.0,1451.0,1475.0,1420.0,1471.0,1444.0,0.0,0.0,0.0,0.0,0.0,0.0,0.0,0.0
2527089526,8,1514.0,1475.0,1517.0,1449.0,1477.0,1418.0,1473.0,1444.0,0.0,0.0,0.0,0.0,0.0,0.0,0.0,0.0
2527133511,8,1516.0,1476.0,1519.0,1449.0,1478.0,1417.0,1475.0,1444.0,0.0,0.0,0.0,0.0,0.0,0.0,0.0,0.0
2527173504,8,1519.0,1473.0,1516.0,1442.0,1476.0,1416.0,1480.0,1447.0,0.0,0.0,0.0,0.0,0.0,0.0,0.0,0.0
2527217616,8,1521.0,1469.0,1517.0,1441.0,1481.0,1419.0,1486.0,1447.0,0.0,0.0,0.0,0.0,0.0,0.0,0.0,0.0
2527257522,8,1523.0,1462.0,1517.0,1438.0,1489.0,1422.0,1494.0,1446.0,0.0,0.0,0.0,0.0,0.0,0.0,0.0,0.0
2527301499,8,1533.0,1464.0,1527.0,1434.0,1490.0,1413.0,1496.0,1443.0,0.0,0.0,0.0,0.0,0.0,0.0,0.0,0.0
2527341515,8,1543.0,1476.0,1540.0,1435.0,1485.0,1398.0,1488.0,1439.0,0.0,0.0,0.0,0.0,0.0,0.0,0.0,0.0
2527381511,8,1548.0,1475.0,1545.0,1432.0,1487.0,1393.0,1490.0,1436.0,0.0,0.0,0.0,0.0,0.0,0.0,0.0,0.0
2527421636,8,1545.0,1476.0,1546.0,1434.0,1485.0,1390.0,1483.0,1432.0,0.0,0.0,0.0,0.0,0.0,0.0,0.0,0.0
2527465666,8,1548.0,1481.0,1546.0,1433.0,1479.0,1387.0,1481.0,1436.0,0.0,0.0,0.0,0.0,0.0,0.0,0.0,0.0
2527505683,8,1542.0,1478.0,1540.0,1435.0,1481.0,1394.0,1483.0,1437.0,0.0,0.0,0.0,0.0,0.0,0.0,0.0,0.0
2527549505,8,1533.0,1470.0,1532.0,1439.0,1489.0,1410.0,1490.0,1441.0,0.0,0.0,0.0,0.0,0.0,0.0,0.0,0.0
2527589650,8,1532.0,1470.0,1524.0,1437.0,1485.0,1415.0,1493.0,1448.0,0.0,0.0,0.0,0.0,0.0,0.0,0.0,0.0
2527633530,8,1528.0,1469.0,1523.0,1441.0,1490.0,1422.0,1495.0,1449.0,0.0,0.0,0.0,0.0,0.0,0.0,0.0,0.0
2527673681,8,1528.0,1466.0,1520.0,1442.0,1494.0,1429.0,1502.0,1453.0,0.0,0.0,0.0,0.0,0.0,0.0,0.0,0.0
2527717513,8,1531.0,1470.0,1520.0,1445.0,1495.0,1435.0,1506.0,1460.0,0.0,0.0,0.0,0.0,0.0,0.0,0.0,0.0
2527757631,8,1529.0,1480.0,1530.0,1458.0,1498.0,1435.0,1497.0,1457.0,0.0,0.0,0.0,0.0,0.0,0.0,0.0,0.0
2527801667,8,1534.0,1487.0,1531.0,1461.0,1498.0,1440.0,1501.0,1466.0,0.0,0.0,0.0,0.0,0.0,0.0,0.0,0.0
2527841667,8,1536.0,1492.0,1530.0,1465.0,1498.0,1447.0,1504.0,1473.0,0.0,0.0,0.0,0.0,0.0,0.0,0.0,0.0
2527885499,8,1534.0,1493.0,1528.0,1472.0,1505.0,1459.0,1510.0,1480.0,0.0,0.0,0.0,0.0,0.0,0.0,0.0,0.0
2527925625,8,1540.0,1496.0,1528.0,1468.0,1501.0,1458.0,1513.0,1485.0,0.0,0.0,0.0,0.0,0.0,0.0,0.0,0.0
2527969530,8,1542.0,1504.0,1537.0,1481.0,1509.0,1466.0,1515.0,1489.0,0.0,0.0,0.0,0.0,0.0,0.0,0.0,0.0
2528009661,8,1545.0,1511.0,1546.0,1490.0,1516.0,1468.0,1514.0,1489.0,0.0,0.0,0.0,0.0,0.0,0.0,0.0,0.0
2528053492,8,1543.0,1518.0,1556.0,1504.0,1522.0,1471.0,1510.0,1486.0,0.0,0.0,0.0,0.0,0.0,0.0,0.0,0.0
2528093619,8,1542.0,1531.0,1570.0,1519.0,1526.0,1469.0,1499.0,1481.0,0.0,0.0,0.0,0.0,0.0,0.0,0.0,0.0
2528137637,8,1546.0,1542.0,1589.0,1531.0,1531.0,1460.0,1488.0,1471.0,0.0,0.0,0.0,0.0,0.0,0.0,0.0,0.0
2528177658,8,1545.0,1544.0,1589.0,1533.0,1530.0,1460.0,1485.0,1470.0,0.0,0.0,0.0,0.0,0.0,0.0,0.0,0.0
2528221508,8,1541.0,1537.0,1583.0,1531.0,1533.0,1466.0,1491.0,1472.0,0.0,0.0,0.0,0.0,0.0,0.0,0.0,0.0
2528261602,8,1536.0,1526.0,1573.0,1526.0,1535.0,1473.0,1498.0,1473.0,0.0,0.0,0.0,0.0,0.0,0.0,0.0,0.0
2528301651,8,1533.0,1517.0,1562.0,1517.0,1533.0,1475.0,1503.0,1475.0,0.0,0.0,0.0,0.0,0.0,0.0,0.0,0.0
2528341635,8,1541.0,1525.0,1565.0,1517.0,1530.0,1476.0,1506.0,1483.0,0.0,0.0,0.0,0.0,0.0,0.0,0.0,0.0
2528381529,8,1535.0,1529.0,1566.0,1525.0,1531.0,1478.0,1500.0,1482.0,0.0,0.0,0.0,0.0,0.0,0.0,0.0,0.0
2528425535,8,1534.0,1525.0,1565.0,1523.0,1531.0,1477.0,1500.0,1478.0,0.0,0.0,0.0,0.0,0.0,0.0,0.0,0.0
2528465495,8,1535.0,1525.0,1562.0,1521.0,1528.0,1477.0,1501.0,1482.0,0.0,0.0,0.0,0.0,0.0,0.0,0.0,0.0
2528509638,8,1533.0,1523.0,1564.0,1522.0,1531.0,1477.0,1500.0,1478.0,0.0,0.0,0.0,0.0,0.0,0.0,0.0,0.0
2528549792,8,1529.0,1519.0,1561.0,1522.0,1533.0,1479.0,1500.0,1476.0,0.0,0.0,0.0,0.0,0.0,0.0,0.0,0.0
2528593669,8,1532.0,1517.0,1560.0,1518.0,1532.0,1479.0,1505.0,1479.0,0.0,0.0,0.0,0.0,0.0,0.0,0.0,0.0
2528633493,8,1535.0,1520.0,1563.0,1517.0,1530.0,1473.0,1502.0,1477.0,0.0,0.0,0.0,0.0,0.0,0.0,0.0,0.0
2528677654,8,1537.0,1516.0,1559.0,1508.0,1526.0,1468.0,1504.0,1477.0,0.0,0.0,0.0,0.0,0.0,0.0,0.0,0.0
2528717634,8,1545.0,1517.0,1561.0,1500.0,1521.0,1461.0,1505.0,1478.0,0.0,0.0,0.0,0.0,0.0,0.0,0.0,0.0
2528761533,8,1544.0,1517.0,1562.0,1501.0,1521.0,1460.0,1503.0,1476.0,0.0,0.0,0.0,0.0,0.0,0.0,0.0,0.0
2528801501,8,1548.0,1520.0,1560.0,1495.0,1513.0,1452.0,1500.0,1477.0,0.0,0.0,0.0,0.0,0.0,0.0,0.0,0.0
2528845648,8,1548.0,1518.0,1560.0,1493.0,1512.0,1451.0,1500.0,1476.0,0.0,0.0,0.0,0.0,0.0,0.0,0.0,0.0
2528889529,8,1545.0,1519.0,1561.0,1496.0,1513.0,1450.0,1496.0,1473.0,0.0,0.0,0.0,0.0,0.0,0.0,0.0,0.0
2528933641,8,1538.0,1519.0,1555.0,1496.0,1507.0,1450.0,1490.0,1472.0,0.0,0.0,0.0,0.0,0.0,0.0,0.0,0.0
2528973638,8,1534.0,1513.0,1556.0,1498.0,1512.0,1451.0,1489.0,1466.0,0.0,0.0,0.0,0.0,0.0,0.0,0.0,0.0
2529013658,8,1530.0,1511.0,1553.0,1498.0,1511.0,1452.0,1488.0,1465.0,0.0,0.0,0.0,0.0,0.0,0.0,0.0,0.0
2529053527,8,1521.0,1503.0,1543.0,1498.0,1514.0,1462.0,1492.0,1467.0,0.0,0.0,0.0,0.0,0.0,0.0,0.0,0.0
2529097538,8,1515.0,1505.0,1544.0,1505.0,1515.0,1463.0,1485.0,1463.0,0.0,0.0,0.0,0.0,0.0,0.0,0.0,0.0
2529137506,8,1516.0,1517.0,1552.0,1512.0,1508.0,1456.0,1473.0,1461.0,0.0,0.0,0.0,0.0,0.0,0.0,0.0,0.0
2529181660,8,1506.0,1513.0,1547.0,1515.0,1508.0,1458.0,1467.0,1457.0,0.0,0.0,0.0,0.0,0.0,0.0,0.0,0.0
2529221630,8,1504.0,1510.0,1552.0,1518.0,1516.0,1459.0,1468.0,1451.0,0.0,0.0,0.0,0.0,0.0,0.0,0.0,0.0
2529265537,8,1502.0,1504.0,1553.0,1521.0,1526.0,1465.0,1475.0,1449.0,0.0,0.0,0.0,0.0,0.0,0.0,0.0,0.0
2529305510,8,1494.0,1488.0,1541.0,1515.0,1531.0,1475.0,1485.0,1449.0,0.0,0.0,0.0,0.0,0.0,0.0,0.0,0.0
2529349683,8,1501.0,1486.0,1542.0,1508.0,1532.0,1472.0,1491.0,1450.0,0.0,0.0,0.0,0.0,0.0,0.0,0.0,0.0
2529389628,8,1505.0,1488.0,1542.0,1506.0,1529.0,1471.0,1493.0,1454.0,0.0,0.0,0.0,0.0,0.0,0.0,0.0,0.0
2529433533,8,1507.0,1487.0,1539.0,1502.0,1529.0,1472.0,1497.0,1457.0,0.0,0.0,0.0,0.0,0.0,0.0,0.0,0.0
2529473498,8,1510.0,1491.0,1545.0,1504.0,1529.0,1468.0,1494.0,1455.0,0.0,0.0,0.0,0.0,0.0,0.0,0.0,0.0
2529517659,8,1512.0,1499.0,1549.0,1510.0,1528.0,1468.0,1490.0,1457.0,0.0,0.0,0.0,0.0,0.0,0.0,0.0,0.0
2529557644,8,1508.0,1500.0,1549.0,1512.0,1525.0,1467.0,1485.0,1455.0,0.0,0.0,0.0,0.0,0.0,0.0,0.0,0.0
2529601625,8,1505.0,1498.0,1546.0,1513.0,1526.0,1469.0,1484.0,1454.0,0.0,0.0,0.0,0.0,0.0,0.0,0.0,0.0
2529641538,8,1512.0,1506.0,1553.0,1512.0,1521.0,1460.0,1480.0,1454.0,0.0,0.0,0.0,0.0,0.0,0.0,0.0,0.0
2529685662,8,1508.0,1502.0,1557.0,1513.0,1524.0,1455.0,1475.0,1444.0,0.0,0.0,0.0,0.0,0.0,0.0,0.0,0.0
2529725627,8,1511.0,1490.0,1553.0,1505.0,1532.0,1461.0,1489.0,1446.0,0.0,0.0,0.0,0.0,0.0,0.0,0.0,0.0
2529769538,8,1509.0,1484.0,1548.0,1500.0,1531.0,1460.0,1492.0,1445.0,0.0,0.0,0.0,0.0,0.0,0.0,0.0,0.0
2529809525,8,1512.0,1480.0,1546.0,1493.0,1531.0,1458.0,1497.0,1445.0,0.0,0.0,0.0,0.0,0.0,0.0,0.0,0.0
2529853649,8,1511.0,1484.0,1544.0,1496.0,1528.0,1461.0,1494.0,1449.0,0.0,0.0,0.0,0.0,0.0,0.0,0.0,0.0
2529893543,8,1513.0,1485.0,1541.0,1495.0,1527.0,1466.0,1499.0,1456.0,0.0,0.0,0.0,0.0,0.0,0.0,0.0,0.0
2529934441,8,1517.0,1497.0,1550.0,1503.0,1527.0,1464.0,1494.0,1457.0,0.0,0.0,0.0,0.0,0.0,0.0,0.0,0.0
2529975165,8,1528.0,1518.0,1570.0,1510.0,1517.0,1443.0,1475.0,1451.0,0.0,0.0,0.0,0.0,0.0,0.0,0.0,0.0
2530015238,8,1528.0,1516.0,1570.0,1509.0,1518.0,1443.0,1476.0,1450.0,0.0,0.0,0.0,0.0,0.0,0.0,0.0,0.0
2530059255,8,1530.0,1512.0,1570.0,1501.0,1515.0,1435.0,1476.0,1445.0,0.0,0.0,0.0,0.0,0.0,0.0,0.0,0.0
2530099241,8,1540.0,1512.0,1581.0,1495.0,1516.0,1420.0,1475.0,1436.0,0.0,0.0,0.0,0.0,0.0,0.0,0.0,0.0
2530139148,8,1540.0,1501.0,1573.0,1480.0,1510.0,1412.0,1477.0,1433.0,0.0,0.0,0.0,0.0,0.0,0.0,0.0,0.0
2530183267,8,1541.0,1492.0,1558.0,1462.0,1499.0,1408.0,1482.0,1438.0,0.0,0.0,0.0,0.0,0.0,0.0,0.0,0.0
2530223249,8,1542.0,1483.0,1551.0,1447.0,1492.0,1399.0,1482.0,1434.0,0.0,0.0,0.0,0.0,0.0,0.0,0.0,0.0
2530267136,8,1547.0,1488.0,1557.0,1444.0,1485.0,1385.0,1474.0,1429.0,0.0,0.0,0.0,0.0,0.0,0.0,0.0,0.0
2530307247,8,1546.0,1487.0,1554.0,1438.0,1476.0,1376.0,1468.0,1425.0,0.0,0.0,0.0,0.0,0.0,0.0,0.0,0.0
2530351274,8,1540.0,1481.0,1541.0,1431.0,1469.0,1380.0,1468.0,1430.0,0.0,0.0,0.0,0.0,0.0,0.0,0.0,0.0
2530391268,8,1532.0,1472.0,1527.0,1419.0,1458.0,1374.0,1463.0,1427.0,0.0,0.0,0.0,0.0,0.0,0.0,0.0,0.0
2530435214,8,1532.0,1476.0,1523.0,1422.0,1455.0,1380.0,1464.0,1435.0,0.0,0.0,0.0,0.0,0.0,0.0,0.0,0.0
2530475261,8,1532.0,1467.0,1507.0,1402.0,1440.0,1372.0,1465.0,1437.0,0.0,0.0,0.0,0.0,0.0,0.0,0.0,0.0
2530519175,8,1522.0,1462.0,1496.0,1399.0,1433.0,1374.0,1460.0,1436.0,0.0,0.0,0.0,0.0,0.0,0.0,0.0,0.0
2530559262,8,1522.0,1464.0,1487.0,1389.0,1416.0,1364.0,1451.0,1438.0,0.0,0.0,0.0,0.0,0.0,0.0,0.0,0.0
2530603243,8,1528.0,1473.0,1499.0,1391.0,1412.0,1350.0,1441.0,1432.0,0.0,0.0,0.0,0.0,0.0,0.0,0.0,0.0
2530643242,8,1536.0,1472.0,1501.0,1378.0,1403.0,1333.0,1438.0,1428.0,0.0,0.0,0.0,0.0,0.0,0.0,0.0,0.0
2530687295,8,1526.0,1463.0,1497.0,1382.0,1412.0,1342.0,1440.0,1423.0,0.0,0.0,0.0,0.0,0.0,0.0,0.0,0.0
2530727280,8,1515.0,1451.0,1488.0,1380.0,1414.0,1346.0,1440.0,1418.0,0.0,0.0,0.0,0.0,0.0,0.0,0.0,0.0
2530771229,8,1511.0,1449.0,1486.0,1377.0,1408.0,1340.0,1433.0,1412.0,0.0,0.0,0.0,0.0,0.0,0.0,0.0,0.0
2530811252,8,1500.0,1444.0,1481.0,1383.0,1414.0,1349.0,1433.0,1410.0,0.0,0.0,0.0,0.0,0.0,0.0,0.0,0.0
2530855137,8,1497.0,1442.0,1487.0,1393.0,1427.0,1358.0,1438.0,1408.0,0.0,0.0,0.0,0.0,0.0,0.0,0.0,0.0
2530895256,8,1501.0,1439.0,1491.0,1391.0,1433.0,1357.0,1443.0,1405.0,0.0,0.0,0.0,0.0,0.0,0.0,0.0,0.0
2530939246,8,1500.0,1439.0,1481.0,1386.0,1426.0,1361.0,1446.0,1414.0,0.0,0.0,0.0,0.0,0.0,0.0,0.0,0.0
2530979242,8,1497.0,1434.0,1456.0,1371.0,1408.0,1366.0,1448.0,1429.0,0.0,0.0,0.0,0.0,0.0,0.0,0.0,0.0
2531023139,8,1433.0,1390.0,1400.0,1311.0,1322.0,1279.0,1355.0,1358.0,0.0,0.0,0.0,0.0,0.0,0.0,0.0,0.0
2531063224,8,1441.0,1412.0,1426.0,1340.0,1340.0,1291.0,1355.0,1362.0,0.0,0.0,0.0,0.0,0.0,0.0,0.0,0.0
2531103118,8,1440.0,1417.0,1441.0,1359.0,1358.0,1300.0,1357.0,1358.0,0.0,0.0,0.0,0.0,0.0,0.0,0.0,0.0
2531143127,8,1444.0,1407.0,1449.0,1361.0,1379.0,1309.0,1375.0,1355.0,0.0,0.0,0.0,0.0,0.0,0.0,0.0,0.0
2531187124,8,1443.0,1409.0,1460.0,1382.0,1404.0,1330.0,1387.0,1357.0,0.0,0.0,0.0,0.0,0.0,0.0,0.0,0.0
2531227139,8,1442.0,1418.0,1476.0,1405.0,1424.0,1345.0,1390.0,1358.0,0.0,0.0,0.0,0.0,0.0,0.0,0.0,0.0
2531271108,8,1453.0,1420.0,1485.0,1410.0,1438.0,1354.0,1406.0,1364.0,0.0,0.0,0.0,0.0,0.0,0.0,0.0,0.0
2531315262,8,1460.0,1430.0,1493.0,1417.0,1442.0,1358.0,1409.0,1370.0,0.0,0.0,0.0,0.0,0.0,0.0,0.0,0.0
2531359151,8,1462.0,1442.0,1500.0,1425.0,1438.0,1354.0,1400.0,1371.0,0.0,0.0,0.0,0.0,0.0,0.0,0.0,0.0
2531399139,8,1465.0,1453.0,1502.0,1433.0,1437.0,1361.0,1400.0,1381.0,0.0,0.0,0.0,0.0,0.0,0.0,0.0,0.0
2531443249,8,1467.0,1460.0,1505.0,1439.0,1436.0,1362.0,1398.0,1384.0,0.0,0.0,0.0,0.0,0.0,0.0,0.0,0.0
2531483265,8,1465.0,1461.0,1503.0,1440.0,1435.0,1365.0,1397.0,1386.0,0.0,0.0,0.0,0.0,0.0,0.0,0.0,0.0
2531527236,8,1461.0,1457.0,1496.0,1436.0,1432.0,1366.0,1397.0,1387.0,0.0,0.0,0.0,0.0,0.0,0.0,0.0,0.0
2531567130,8,1462.0,1467.0,1502.0,1448.0,1436.0,1373.0,1396.0,1392.0,0.0,0.0,0.0,0.0,0.0,0.0,0.0,0.0
2531611242,8,1457.0,1449.0,1489.0,1434.0,1436.0,1374.0,1404.0,1389.0,0.0,0.0,0.0,0.0,0.0,0.0,0.0,0.0
2531651250,8,1457.0,1445.0,1486.0,1437.0,1445.0,1388.0,1416.0,1396.0,0.0,0.0,0.0,0.0,0.0,0.0,0.0,0.0
2531695233,8,1464.0,1449.0,1490.0,1434.0,1443.0,1383.0,1417.0,1397.0,0.0,0.0,0.0,0.0,0.0,0.0,0.0,0.0
2531739257,8,1469.0,1456.0,1493.0,1436.0,1441.0,1383.0,1418.0,1403.0,0.0,0.0,0.0,0.0,0.0,0.0,0.0,0.0
2531779272,8,1468.0,1452.0,1493.0,1444.0,1457.0,1400.0,1432.0,1409.0,0.0,0.0,0.0,0.0,0.0,0.0,0.0,0.0
2531823142,8,1463.0,1447.0,1478.0,1435.0,1446.0,1401.0,1431.0,1414.0,0.0,0.0,0.0,0.0,0.0,0.0,0.0,0.0
2531863228,8,1466.0,1466.0,1482.0,1447.0,1438.0,1404.0,1422.0,1424.0,0.0,0.0,0.0,0.0,0.0,0.0,0.0,0.0
2531903238,8,1475.0,1481.0,1504.0,1463.0,1449.0,1404.0,1420.0,1422.0,0.0,0.0,0.0,0.0,0.0,0.0,0.0,0.0
2531947252,8,1478.0,1478.0,1504.0,1462.0,1455.0,1410.0,1430.0,1426.0,0.0,0.0,0.0,0.0,0.0,0.0,0.0,0.0
2531987291,8,1477.0,1485.0,1507.0,1471.0,1457.0,1415.0,1427.0,1428.0,0.0,0.0,0.0,0.0,0.0,0.0,0.0,0.0
2532031239,8,1488.0,1498.0,1518.0,1471.0,1449.0,1400.0,1418.0,1428.0,0.0,0.0,0.0,0.0,0.0,0.0,0.0,0.0
2532071139,8,1487.0,1487.0,1505.0,1464.0,1454.0,1415.0,1436.0,1438.0,0.0,0.0,0.0,0.0,0.0,0.0,0.0,0.0
2532115242,8,1486.0,1485.0,1495.0,1464.0,1456.0,1429.0,1446.0,1451.0,0.0,0.0,0.0,0.0,0.0,0.0,0.0,0.0
2532155238,8,1487.0,1487.0,1505.0,1471.0,1463.0,1429.0,1445.0,1445.0,0.0,0.0,0.0,0.0,0.0,0.0,0.0,0.0
2532199195,8,1489.0,1482.0,1508.0,1473.0,1476.0,1436.0,1456.0,1445.0,0.0,0.0,0.0,0.0,0.0,0.0,0.0,0.0
2532243231,8,1494.0,1482.0,1505.0,1467.0,1474.0,1439.0,1464.0,1453.0,0.0,0.0,0.0,0.0,0.0,0.0,0.0,0.0
2532283229,8,1502.0,1493.0,1515.0,1477.0,1480.0,1443.0,1466.0,1458.0,0.0,0.0,0.0,0.0,0.0,0.0,0.0,0.0
2532327209,8,1519.0,1503.0,1516.0,1466.0,1467.0,1434.0,1470.0,1471.0,0.0,0.0,0.0,0.0,0.0,0.0,0.0,0.0
2532367138,8,1532.0,1515.0,1524.0,1468.0,1466.0,1433.0,1474.0,1480.0,0.0,0.0,0.0,0.0,0.0,0.0,0.0,0.0
2532411169,8,1537.0,1518.0,1528.0,1469.0,1466.0,1431.0,1475.0,1480.0,0.0,0.0,0.0,0.0,0.0,0.0,0.0,0.0
2532451239,8,1538.0,1519.0,1529.0,1469.0,1469.0,1434.0,1478.0,1483.0,0.0,0.0,0.0,0.0,0.0,0.0,0.0,0.0
2532495213,8,1546.0,1528.0,1535.0,1471.0,1466.0,1430.0,1477.0,1487.0,0.0,0.0,0.0,0.0,0.0,0.0,0.0,0.0
2532535214,8,1543.0,1521.0,1528.0,1466.0,1465.0,1432.0,1480.0,1487.0,0.0,0.0,0.0,0.0,0.0,0.0,0.0,0.0
2532575138,8,1537.0,1518.0,1525.0,1471.0,1470.0,1440.0,1482.0,1487.0,0.0,0.0,0.0,0.0,0.0,0.0,0.0,0.0
2532619253,8,1538.0,1516.0,1526.0,1469.0,1471.0,1438.0,1483.0,1485.0,0.0,0.0,0.0,0.0,0.0,0.0,0.0,0.0
2532659255,8,1537.0,1520.0,1531.0,1475.0,1473.0,1438.0,1479.0,1483.0,0.0,0.0,0.0,0.0,0.0,0.0,0.0,0.0
2532703236,8,1540.0,1522.0,1530.0,1470.0,1466.0,1432.0,1477.0,1484.0,0.0,0.0,0.0,0.0,0.0,0.0,0.0,0.0
2532743243,8,1539.0,1523.0,1533.0,1474.0,1470.0,1434.0,1476.0,1483.0,0.0,0.0,0.0,0.0,0.0,0.0,0.0,0.0
2532787258,8,1522.0,1506.0,1531.0,1480.0,1485.0,1441.0,1476.0,1467.0,0.0,0.0,0.0,0.0,0.0,0.0,0.0,0.0
2532827247,8,1521.0,1512.0,1536.0,1486.0,1484.0,1439.0,1469.0,1465.0,0.0,0.0,0.0,0.0,0.0,0.0,0.0,0.0
2532871232,8,1518.0,1512.0,1537.0,1487.0,1483.0,1435.0,1464.0,1460.0,0.0,0.0,0.0,0.0,0.0,0.0,0.0,0.0
2532915271,8,1511.0,1504.0,1535.0,1490.0,1490.0,1441.0,1466.0,1456.0,0.0,0.0,0.0,0.0,0.0,0.0,0.0,0.0
2532955299,8,1512.0,1502.0,1531.0,1486.0,1490.0,1445.0,1472.0,1460.0,0.0,0.0,0.0,0.0,0.0,0.0,0.0,0.0
2532999267,8,1518.0,1504.0,1532.0,1485.0,1492.0,1447.0,1478.0,1465.0,0.0,0.0,0.0,0.0,0.0,0.0,0.0,0.0
2533039258,8,1519.0,1503.0,1529.0,1483.0,1491.0,1451.0,1482.0,1470.0,0.0,0.0,0.0,0.0,0.0,0.0,0.0,0.0
2533083165,8,1523.0,1502.0,1528.0,1480.0,1492.0,1451.0,1487.0,1473.0,0.0,0.0,0.0,0.0,0.0,0.0,0.0,0.0
2533123297,8,1529.0,1509.0,1535.0,1483.0,1493.0,1450.0,1487.0,1475.0,0.0,0.0,0.0,0.0,0.0,0.0,0.0,0.0
2533167144,8,1534.0,1515.0,1545.0,1486.0,1493.0,1441.0,1482.0,1470.0,0.0,0.0,0.0,0.0,0.0,0.0,0.0,0.0
2533207247,8,1538.0,1512.0,1547.0,1482.0,1496.0,1439.0,1487.0,1469.0,0.0,0.0,0.0,0.0,0.0,0.0,0.0,0.0
2533251135,8,1542.0,1513.0,1551.0,1481.0,1496.0,1436.0,1487.0,1468.0,0.0,0.0,0.0,0.0,0.0,0.0,0.0,0.0
2533291260,8,1539.0,1510.0,1552.0,1484.0,1502.0,1440.0,1490.0,1466.0,0.0,0.0,0.0,0.0,0.0,0.0,0.0,0.0
2533335260,8,1533.0,1505.0,1550.0,1486.0,1507.0,1444.0,1490.0,1462.0,0.0,0.0,0.0,0.0,0.0,0.0,0.0,0.0
2533375241,8,1534.0,1508.0,1553.0,1492.0,1512.0,1450.0,1493.0,1465.0,0.0,0.0,0.0,0.0,0.0,0.0,0.0,0.0
2533419931,8,1526.0,1506.0,1549.0,1496.0,1513.0,1454.0,1490.0,1464.0,0.0,0.0,0.0,0.0,0.0,0.0,0.0,0.0
2533459887,8,1527.0,1513.0,1552.0,1500.0,1509.0,1452.0,1484.0,1465.0,0.0,0.0,0.0,0.0,0.0,0.0,0.0,0.0
2533504717,8,1538.0,1523.0,1560.0,1498.0,1502.0,1442.0,1480.0,1467.0,0.0,0.0,0.0,0.0,0.0,0.0,0.0,0.0
2533544721,8,1539.0,1519.0,1561.0,1492.0,1500.0,1434.0,1479.0,1461.0,0.0,0.0,0.0,0.0,0.0,0.0,0.0,0.0
2533588824,8,1544.0,1521.0,1565.0,1489.0,1499.0,1428.0,1478.0,1459.0,0.0,0.0,0.0,0.0,0.0,0.0,0.0,0.0
2533628730,8,1537.0,1503.0,1547.0,1477.0,1500.0,1436.0,1489.0,1462.0,0.0,0.0,0.0,0.0,0.0,0.0,0.0,0.0
