timestamp,vel_pos_innov[0],vel_pos_innov[1],vel_pos_innov[2],vel_pos_innov[3],vel_pos_innov[4],vel_pos_innov[5],mag_innov[0],mag_innov[1],mag_innov[2],heading_innov,airspeed_innov,beta_innov,flow_innov[0],flow_innov[1],hagl_innov,vel_pos_innov_var[0],vel_pos_innov_var[1],vel_pos_innov_var[2],vel_pos_innov_var[3],vel_pos_innov_var[4],vel_pos_innov_var[5],mag_innov_var[0],mag_innov_var[1],mag_innov_var[2],heading_innov_var,airspeed_innov_var,beta_innov_var,flow_innov_var[0],flow_innov_var[1],hagl_innov_var,output_tracking_error[0],output_tracking_error[1],output_tracking_error[2],drag_innov[0],drag_innov[1],drag_innov_var[0],drag_innov_var[1],aux_vel_innov[0],aux_vel_innov[1]
2508752551,0.045968603,0.053917464,0.0110993795,-0.038374186,-0.046011806,0.06214142,0.0,0.0,0.0,-0.02382496,0.0,0.0,0.0,0.0,0.0,0.2635066,0.2635042,0.57160807,0.58292145,0.582919,4.0558953,0.0,0.0,0.0,0.09016831,0.0,0.0,0.0,0.0,0.0,0.00027909855,0.0071799913,0.02361518,0.0,0.0,0.0,0.0,0.0,0.0
2508952539,-0.00046483427,0.061169222,-0.09212061,-0.040676832,-0.029084563,0.13775635,0.0,0.0,0.0,-0.016454011,0.0,0.0,0.0,0.0,0.0,0.26388693,0.26388445,0.5715818,0.5866675,0.58666486,4.055851,0.0,0.0,0.0,0.090168275,0.0,0.0,0.0,0.0,0.0,9.648258e-05,0.0051905513,0.014218462,0.0,0.0,0.0,0.0,0.0,0.0
2509152496,0.02993766,-0.012662858,0.039120954,-0.052821636,-0.035367846,0.015602112,0.0,0.0,0.0,-0.03170716,0.0,0.0,0.0,0.0,0.0,0.26346564,0.26346332,0.57156384,0.584391,0.5843887,4.0560102,0.0,0.0,0.0,0.09016853,0.0,0.0,0.0,0.0,0.0,0.00012246512,0.0057216897,0.01939588,0.0,0.0,0.0,0.0,0.0,0.0
2509358163,0.055594068,3.878027e-06,-0.0056257993,-0.053068638,-0.041368842,-0.23600006,0.0,0.0,0.0,0.021928273,0.0,0.0,0.0,0.0,0.0,0.263483,0.2634806,0.57157946,0.5859632,0.5859608,4.0559154,0.0,0.0,0.0,0.09016874,0.0,0.0,0.0,0.0,0.0,6.9118905e-05,0.005431929,0.018687984,0.0,0.0,0.0,0.0,0.0,0.0
2509558227,-0.03538503,-0.02282137,-0.025128454,-0.04483676,-0.047029972,0.055488586,0.0,0.0,0.0,0.007815931,0.0,0.0,0.0,0.0,0.0,0.26351035,0.26350838,0.5715986,0.5876075,0.5876052,4.055825,0.0,0.0,0.0,0.0901689,0.0,0.0,0.0,0.0,0.0,7.534772e-05,0.0033135228,0.010736209,0.0,0.0,0.0,0.0,0.0,0.0
2509766146,0.08339357,0.036715254,-0.013875086,-0.03907585,-0.049423695,-0.4235382,0.0,0.0,0.0,-0.018720124,0.0,0.0,0.0,0.0,0.0,0.26352194,0.26351976,0.5716136,0.5891752,0.58917284,4.0560174,0.0,0.0,0.0,0.09016906,0.0,0.0,0.0,0.0,0.0,0.00017520458,0.009956607,0.033117067,0.0,0.0,0.0,0.0,0.0,0.0
2509970171,0.09855051,0.05509909,0.060692422,-0.036542177,-0.046378016,-0.1400299,0.0,0.0,0.0,-0.0075711124,0.0,0.0,0.0,0.0,0.0,0.26351786,0.26351577,0.57156885,0.5937915,0.5937891,4.055896,0.0,0.0,0.0,0.09016914,0.0,0.0,0.0,0.0,0.0,0.00027402592,0.011181291,0.036638297,0.0,0.0,0.0,0.0,0.0,0.0
2510174012,-0.22146136,-0.014224637,0.0018453002,-0.046087265,-0.05534506,0.22384644,0.0,0.0,0.0,0.009254307,0.0,0.0,0.0,0.0,0.0,0.26395682,0.2639711,0.5715861,0.5954243,0.5954226,4.055837,0.0,0.0,0.0,0.09016915,0.0,0.0,0.0,0.0,0.0,0.0003567872,0.011654302,0.022815896,0.0,0.0,0.0,0.0,0.0,0.0
2510374154,-0.22146136,-0.014224637,0.0018453002,-0.046087265,-0.05534506,0.70575714,0.0,0.0,0.0,-0.022782333,0.0,0.0,0.0,0.0,0.0,0.26395682,0.2639711,0.5715861,0.5954243,0.5954226,4.0560074,0.0,0.0,0.0,0.09016892,0.0,0.0,0.0,0.0,0.0,0.00030502983,0.01791899,0.05400869,0.0,0.0,0.0,0.0,0.0,0.0
2510578137,0.04583627,0.11601187,0.20172864,-0.103338,0.04293835,0.13300323,0.0,0.0,0.0,-0.0031923298,0.0,0.0,0.0,0.0,0.0,0.2642229,0.2642311,0.5715764,0.58588487,0.58588547,4.05589,0.0,0.0,0.0,0.090169154,0.0,0.0,0.0,0.0,0.0,0.00032878367,0.014992853,0.036219977,0.0,0.0,0.0,0.0,0.0,0.0
2510781993,-0.08913614,0.11635298,0.022993803,-0.111055136,0.077540874,0.16674042,0.0,0.0,0.0,0.01542999,0.0,0.0,0.0,0.0,0.0,0.26406294,0.2640669,0.57156193,0.58263266,0.58263326,4.05532,0.0,0.0,0.0,0.09016939,0.0,0.0,0.0,0.0,0.0,0.00049668737,0.018530712,0.03924726,0.0,0.0,0.0,0.0,0.0,0.0
2510982180,0.16385321,-0.0008908734,0.0453586,-0.09994483,0.09524071,-0.4385376,0.0,0.0,0.0,-0.023088487,0.0,0.0,0.0,0.0,0.0,0.26398727,0.26400247,0.5715802,0.5811837,0.58118373,4.0557413,0.0,0.0,0.0,0.09016937,0.0,0.0,0.0,0.0,0.0,0.00030131039,0.010352774,0.027004404,0.0,0.0,0.0,0.0,0.0,0.0
2511182460,0.066054255,0.13100508,0.008110046,-0.10284662,0.117207825,0.497406,0.0,0.0,0.0,0.026405204,0.0,0.0,0.0,0.0,0.0,0.26399142,0.26402423,0.5715589,0.5800664,0.5800661,4.0559316,0.0,0.0,0.0,0.09016942,0.0,0.0,0.0,0.0,0.0,0.0003790951,0.016259065,0.038330156,0.0,0.0,0.0,0.0,0.0,0.0
2511382259,0.014025092,-0.0616,-0.09993291,-0.10779095,0.1171056,-0.015510559,0.0,0.0,0.0,0.024681896,0.0,0.0,0.0,0.0,0.0,0.26391885,0.26396236,0.57157904,0.57852864,0.5785292,4.0558248,0.0,0.0,0.0,0.09016934,0.0,0.0,0.0,0.0,0.0,0.00024461062,0.008873288,0.029188648,0.0,0.0,0.0,0.0,0.0,0.0
2511586247,0.051115572,0.20312741,-0.031945348,-0.09142947,0.13175273,0.12475586,0.0,0.0,0.0,0.016240953,0.0,0.0,0.0,0.0,0.0,0.26382813,0.26387507,0.5715706,0.5766268,0.57662886,4.0555267,0.0,0.0,0.0,0.09016898,0.0,0.0,0.0,0.0,0.0,0.0004238408,0.016843928,0.040217705,0.0,0.0,0.0,0.0,0.0,0.0
2511789983,0.24623144,-0.06414652,-0.13536376,-0.061468124,0.12259209,-0.011581421,0.0,0.0,0.0,0.023745218,0.0,0.0,0.0,0.0,0.0,0.2637314,0.2637739,0.571589,0.57654417,0.5765485,4.0554147,0.0,0.0,0.0,0.09016909,0.0,0.0,0.0,0.0,0.0,0.0003919659,0.013088409,0.02919294,0.0,0.0,0.0,0.0,0.0,0.0
2511990181,0.1913684,0.04588577,0.011045277,-0.04202223,0.13318574,0.0738678,0.0,0.0,0.0,-0.006696971,0.0,0.0,0.0,0.0,0.0,0.2636526,0.26368535,0.5716077,0.5764641,0.5764708,4.055833,0.0,0.0,0.0,0.09016871,0.0,0.0,0.0,0.0,0.0,0.0005073046,0.016561033,0.03540771,0.0,0.0,0.0,0.0,0.0,0.0
2512190015,0.20197529,0.17432782,0.1096918,-0.0050029755,0.1349945,-0.110839844,0.0,0.0,0.0,-0.021431668,0.0,0.0,0.0,0.0,0.0,0.26354665,0.26357165,0.57162863,0.5763823,0.5763906,4.0560136,0.0,0.0,0.0,0.0901687,0.0,0.0,0.0,0.0,0.0,0.0006559353,0.023996102,0.05504947,0.0,0.0,0.0,0.0,0.0,0.0
2512394099,0.050429314,0.12087825,0.043445706,-0.0073697567,0.14039814,0.4403,0.0,0.0,0.0,0.0030880813,0.0,0.0,0.0,0.0,0.0,0.26342744,0.26344064,0.5715716,0.5777288,0.5777377,4.0554333,0.0,0.0,0.0,0.090168945,0.0,0.0,0.0,0.0,0.0,0.0006227212,0.020029033,0.05324869,0.0,0.0,0.0,0.0,0.0,0.0
2512598012,0.018929452,0.1497175,0.14421657,-0.07850218,0.19552934,0.82899475,0.0,0.0,0.0,-0.012746682,0.0,0.0,0.0,0.0,0.0,0.26332065,0.26332685,0.5715909,0.57479,0.5747984,4.0553346,0.0,0.0,0.0,0.09016932,0.0,0.0,0.0,0.0,0.0,0.0005963682,0.020485733,0.054290522,0.0,0.0,0.0,0.0,0.0,0.0
2512799773,0.20936859,-0.0014732033,-0.15550314,-0.081177235,0.20600903,-0.15402985,0.0,0.0,0.0,-0.049142692,0.0,0.0,0.0,0.0,0.0,0.26324043,0.26324183,0.571609,0.5718128,0.5718196,4.055576,0.0,0.0,0.0,0.090169296,0.0,0.0,0.0,0.0,0.0,0.0007157686,0.013646103,0.036670577,0.0,0.0,0.0,0.0,0.0,0.0
2513003719,0.09621829,-0.14105165,0.033443063,-0.051091433,0.18382037,-0.15653992,0.0,0.0,0.0,0.013606995,0.0,0.0,0.0,0.0,0.0,0.26315758,0.2631609,0.57162285,0.5715626,0.5715676,4.055615,0.0,0.0,0.0,0.09016918,0.0,0.0,0.0,0.0,0.0,0.00021176504,0.0088140955,0.031167865,0.0,0.0,0.0,0.0,0.0,0.0
2513207608,0.20437384,-0.1098345,-0.045821838,-0.022556782,0.16306555,-0.1903534,0.0,0.0,0.0,-0.03213071,0.0,0.0,0.0,0.0,0.0,0.26314077,0.26314992,0.57164395,0.57287484,0.5728778,4.055502,0.0,0.0,0.0,0.09016922,0.0,0.0,0.0,0.0,0.0,0.00039727316,0.008649815,0.01715361,0.0,0.0,0.0,0.0,0.0,0.0
2513411618,0.11168821,-0.09672567,-0.00799153,-0.0050866604,0.15315068,0.99366,0.0,0.0,0.0,-0.019794615,0.0,0.0,0.0,0.0,0.0,0.26313287,0.2631512,0.5716671,0.57422024,0.5742213,4.055667,0.0,0.0,0.0,0.09016893,0.0,0.0,0.0,0.0,0.0,0.00035811964,0.008077748,0.017904988,0.0,0.0,0.0,0.0,0.0,0.0
2513611611,0.0642553,-0.1451808,-0.08105993,0.00089645386,0.14088118,-0.12696075,0.0,0.0,0.0,0.05218008,0.0,0.0,0.0,0.0,0.0,0.2632126,0.26323858,0.57164395,0.5759439,0.57594395,4.055598,0.0,0.0,0.0,0.09016901,0.0,0.0,0.0,0.0,0.0,0.0002771863,0.0079402225,0.014495775,0.0,0.0,0.0,0.0,0.0,0.0
2513815706,0.096720755,-0.09280999,-0.18748862,0.015895844,0.12112975,0.08620453,0.0,0.0,0.0,0.017012645,0.0,0.0,0.0,0.0,0.0,0.2632452,0.2632699,0.5716671,0.57731515,0.5773152,4.055493,0.0,0.0,0.0,0.090168945,0.0,0.0,0.0,0.0,0.0,0.0002559923,0.0071530906,0.015527641,0.0,0.0,0.0,0.0,0.0,0.0
2514015728,0.16165349,-0.21541257,-0.03727101,0.03967595,0.1027751,-0.22923279,0.0,0.0,0.0,0.0036482476,0.0,0.0,0.0,0.0,0.0,0.26321423,0.2632387,0.5716152,0.577276,0.5772767,4.0554514,0.0,0.0,0.0,0.09016913,0.0,0.0,0.0,0.0,0.0,0.00042339653,0.014209749,0.02776389,0.0,0.0,0.0,0.0,0.0,0.0
2514219616,0.106452316,-0.16428737,-0.06184386,0.05271268,0.07906115,0.2611618,0.0,0.0,0.0,0.004427567,0.0,0.0,0.0,0.0,0.0,0.26322624,0.26324493,0.5716396,0.5772445,0.57724607,4.055369,0.0,0.0,0.0,0.09016888,0.0,0.0,0.0,0.0,0.0,0.0004727606,0.014551424,0.030251164,0.0,0.0,0.0,0.0,0.0,0.0
2514419611,0.13190264,-0.14163324,0.00406212,0.057133675,0.047747016,-0.4566574,0.0,0.0,0.0,-0.028997011,0.0,0.0,0.0,0.0,0.0,0.26329032,0.26330394,0.57162225,0.5761268,0.5761292,4.0552945,0.0,0.0,0.0,0.09016874,0.0,0.0,0.0,0.0,0.0,0.00063775986,0.0151837915,0.03391811,0.0,0.0,0.0,0.0,0.0,0.0
2514623617,0.15160814,-0.16115628,-0.0072560795,0.07232952,0.018019319,0.22415924,0.0,0.0,0.0,0.037780344,0.0,0.0,0.0,0.0,0.0,0.26329553,0.26330814,0.5716461,0.5731813,0.5731845,4.0552864,0.0,0.0,0.0,0.09016864,0.0,0.0,0.0,0.0,0.0,0.00057151477,0.016708989,0.037948444,0.0,0.0,0.0,0.0,0.0,0.0
2514827565,0.16305149,-0.2187961,0.005349554,0.084494114,-0.022967339,0.045074463,0.0,0.0,0.0,0.050227307,0.0,0.0,0.0,0.0,0.0,0.26338962,0.2634039,0.5716982,0.57199913,0.5720034,4.0554795,0.0,0.0,0.0,0.09016861,0.0,0.0,0.0,0.0,0.0,0.0006374639,0.020790026,0.046580307,0.0,0.0,0.0,0.0,0.0,0.0
2515031832,0.07125205,-0.20495415,-0.042750206,0.08366728,-0.045363426,0.14324188,0.0,0.0,0.0,0.005211666,0.0,0.0,0.0,0.0,0.0,0.2632741,0.26328725,0.57165647,0.56831115,0.56831604,4.055659,0.0,0.0,0.0,0.09016853,0.0,0.0,0.0,0.0,0.0,0.000657457,0.019463347,0.04611735,0.0,0.0,0.0,0.0,0.0,0.0
2515231714,0.07970168,-0.106319144,0.015347473,0.07446408,-0.06059432,0.24502563,0.0,0.0,0.0,0.025495958,0.0,0.0,0.0,0.0,0.0,0.26326165,0.26327223,0.5716771,0.5653909,0.5653963,4.055616,0.0,0.0,0.0,0.09016828,0.0,0.0,0.0,0.0,0.0,0.0005576922,0.01563864,0.041450515,0.0,0.0,0.0,0.0,0.0,0.0
2515431624,0.14487018,-0.17110342,-0.10634084,0.067696095,-0.07435489,-0.36476898,0.0,0.0,0.0,-0.026401542,0.0,0.0,0.0,0.0,0.0,0.26335007,0.2633557,0.57165575,0.5628014,0.56280714,4.0555277,0.0,0.0,0.0,0.09016817,0.0,0.0,0.0,0.0,0.0,0.00061198004,0.017917573,0.044566385,0.0,0.0,0.0,0.0,0.0,0.0
2515635617,0.09044701,-0.21101607,-0.03339901,0.06554437,-0.07362735,-0.34375,0.0,0.0,0.0,0.055701725,0.0,0.0,0.0,0.0,0.0,0.2633523,0.26335555,0.571677,0.5598155,0.55982125,4.055449,0.0,0.0,0.0,0.09016775,0.0,0.0,0.0,0.0,0.0,0.0006307168,0.018019117,0.043040674,0.0,0.0,0.0,0.0,0.0,0.0
2515835804,0.08639777,-0.1540299,-0.00092568994,0.047626972,-0.07123399,0.6598587,0.0,0.0,0.0,-0.010392647,0.0,0.0,0.0,0.0,0.0,0.26351613,0.2635126,0.5716851,0.55471224,0.55471724,4.0554338,0.0,0.0,0.0,0.090167604,0.0,0.0,0.0,0.0,0.0,0.0006033275,0.016079625,0.03889305,0.0,0.0,0.0,0.0,0.0,0.0
2516039734,0.052729487,-0.11673497,-0.10819159,0.041942596,-0.07378399,-0.0061950684,0.0,0.0,0.0,-0.010203872,0.0,0.0,0.0,0.0,0.0,0.2633802,0.26337084,0.5716468,0.5509226,0.5509259,4.0556445,0.0,0.0,0.0,0.090167694,0.0,0.0,0.0,0.0,0.0,0.0004995384,0.0120553225,0.030494208,0.0,0.0,0.0,0.0,0.0,0.0
2516241493,0.08731697,-0.19727136,-0.085656926,0.05165243,-0.08472383,-0.4031067,0.0,0.0,0.0,-0.0051745214,0.0,0.0,0.0,0.0,0.0,0.26331222,0.26330155,0.5717096,0.54898226,0.5489839,4.055559,0.0,0.0,0.0,0.09016765,0.0,0.0,0.0,0.0,0.0,0.0005874807,0.014050383,0.035931386,0.0,0.0,0.0,0.0,0.0,0.0
2516445366,0.14228414,-0.15787351,0.057845604,0.05166769,-0.09808183,-0.17568207,0.0,0.0,0.0,0.016736723,0.0,0.0,0.0,0.0,0.0,0.2634189,0.2634076,0.57171154,0.54802454,0.54802406,4.0557275,0.0,0.0,0.0,0.09016755,0.0,0.0,0.0,0.0,0.0,0.0006088602,0.012489819,0.02993904,0.0,0.0,0.0,0.0,0.0,0.0
2516649364,0.08276683,-0.10866745,-0.03452421,0.041742563,-0.102283835,-0.6220627,0.0,0.0,0.0,0.028105862,0.0,0.0,0.0,0.0,0.0,0.26342174,0.26340988,0.5716968,0.54608953,0.5460872,4.055638,0.0,0.0,0.0,0.09016753,0.0,0.0,0.0,0.0,0.0,0.0005623897,0.010559902,0.030068127,0.0,0.0,0.0,0.0,0.0,0.0
2516849335,0.039570823,-0.1462433,-0.031403303,0.032068014,-0.1147939,-0.46974945,0.0,0.0,0.0,0.013400089,0.0,0.0,0.0,0.0,0.0,0.26360744,0.2635963,0.57169807,0.5452555,0.545251,4.0555534,0.0,0.0,0.0,0.090167485,0.0,0.0,0.0,0.0,0.0,0.0005519291,0.014147112,0.042344447,0.0,0.0,0.0,0.0,0.0,0.0
2517053208,0.09209875,-0.11729239,-0.006137803,0.020027399,-0.10707772,0.75660706,0.0,0.0,0.0,0.012002964,0.0,0.0,0.0,0.0,0.0,0.26347438,0.2634667,0.5716534,0.54435915,0.5443538,4.0555353,0.0,0.0,0.0,0.09016734,0.0,0.0,0.0,0.0,0.0,0.0005412864,0.008704545,0.029184217,0.0,0.0,0.0,0.0,0.0,0.0
2517257184,0.0862851,-0.14418773,-0.07972111,0.0034930706,-0.11214733,0.011558533,0.0,0.0,0.0,0.054928478,0.0,0.0,0.0,0.0,0.0,0.2634969,0.26349154,0.5716739,0.5456663,0.5456599,4.055467,0.0,0.0,0.0,0.09016694,0.0,0.0,0.0,0.0,0.0,0.000742494,0.012884777,0.042100877,0.0,0.0,0.0,0.0,0.0,0.0
2517457347,0.107816026,-0.16173902,-0.0039706826,-0.014312744,-0.10715675,-0.32575226,0.0,0.0,0.0,0.011260428,0.0,0.0,0.0,0.0,0.0,0.26350197,0.26349717,0.5716912,0.54422456,0.5442179,4.055656,0.0,0.0,0.0,0.09016713,0.0,0.0,0.0,0.0,0.0,0.00060259807,0.011994665,0.037586216,0.0,0.0,0.0,0.0,0.0,0.0
2517657372,0.17415398,-0.10253787,0.022289053,-0.024738312,-0.10336518,-0.80957794,0.0,0.0,0.0,0.023466356,0.0,0.0,0.0,0.0,0.0,0.26347345,0.26346743,0.5716791,0.54244435,0.5424379,4.0556283,0.0,0.0,0.0,0.09016736,0.0,0.0,0.0,0.0,0.0,0.00066814455,0.016278671,0.056192644,0.0,0.0,0.0,0.0,0.0,0.0
2517861369,0.07876943,-0.1470321,0.01925508,-0.02906537,-0.0889945,-0.2184906,0.0,0.0,0.0,0.0021296144,0.0,0.0,0.0,0.0,0.0,0.26371664,0.26370725,0.57167,0.5438123,0.5438059,4.0555496,0.0,0.0,0.0,0.090167314,0.0,0.0,0.0,0.0,0.0,0.0005465627,0.010687104,0.035309386,0.0,0.0,0.0,0.0,0.0,0.0
2518065370,0.13030803,-0.15060285,-0.07345535,-0.030723572,-0.078318834,-0.55407715,0.0,0.0,0.0,-0.002570223,0.0,0.0,0.0,0.0,0.0,0.2634632,0.2634539,0.5716728,0.54259527,0.5425894,4.0555353,0.0,0.0,0.0,0.09016726,0.0,0.0,0.0,0.0,0.0,0.0005722786,0.009548399,0.029115431,0.0,0.0,0.0,0.0,0.0,0.0
2518269377,0.121851146,-0.107179165,0.008916795,-0.029847145,-0.060055852,-0.38443756,0.0,0.0,0.0,0.031511944,0.0,0.0,0.0,0.0,0.0,0.2633539,0.26334825,0.5716333,0.54188985,0.54188436,4.0554743,0.0,0.0,0.0,0.090167485,0.0,0.0,0.0,0.0,0.0,0.0005389131,0.0043261526,0.014345676,0.0,0.0,0.0,0.0,0.0,0.0
2518469352,0.10693091,-0.11014114,0.078549735,-0.025734186,-0.03657925,-0.37218475,0.0,0.0,0.0,0.03253505,0.0,0.0,0.0,0.0,0.0,0.26350197,0.26349962,0.571641,0.54263467,0.5426293,4.0554743,0.0,0.0,0.0,0.09016752,0.0,0.0,0.0,0.0,0.0,0.00042945356,0.0057552075,0.02210899,0.0,0.0,0.0,0.0,0.0,0.0
2518669307,0.12569715,-0.16861403,0.020159453,-0.031370163,-0.017555356,-0.04840088,0.0,0.0,0.0,-0.062426504,0.0,0.0,0.0,0.0,0.0,0.263571,0.26357177,0.57169276,0.54157335,0.54156834,4.055676,0.0,0.0,0.0,0.09016755,0.0,0.0,0.0,0.0,0.0,0.0004564661,0.0016973896,0.0077683297,0.0,0.0,0.0,0.0,0.0,0.0
2518873099,0.09783894,-0.083296895,-0.09481994,-0.029550076,-0.006340742,0.16098022,0.0,0.0,0.0,-0.0057618804,0.0,0.0,0.0,0.0,0.0,0.26361427,0.2636178,0.57166564,0.5404594,0.540455,4.0555973,0.0,0.0,0.0,0.09016796,0.0,0.0,0.0,0.0,0.0,0.0003965649,0.004262414,0.014516187,0.0,0.0,0.0,0.0,0.0,0.0
2519077301,0.062082708,-0.08193159,0.0907782,-0.03947878,0.016712308,0.69016266,0.0,0.0,0.0,-0.0011637658,0.0,0.0,0.0,0.0,0.0,0.26339632,0.26340252,0.5716675,0.53792226,0.5379187,4.0555854,0.0,0.0,0.0,0.09016788,0.0,0.0,0.0,0.0,0.0,0.0003414628,0.0063760905,0.01596902,0.0,0.0,0.0,0.0,0.0,0.0
2519281297,0.12639871,-0.17645812,0.08154854,-0.03720641,0.01536572,0.07260132,0.0,0.0,0.0,-0.03113519,0.0,0.0,0.0,0.0,0.0,0.26345497,0.26346555,0.5717188,0.53688043,0.53687793,4.055782,0.0,0.0,0.0,0.09016788,0.0,0.0,0.0,0.0,0.0,0.0003487019,0.0043062665,0.013221829,0.0,0.0,0.0,0.0,0.0,0.0
2519481188,0.07272654,-0.079989865,0.020759732,-0.042593718,0.025711894,0.035690308,0.0,0.0,0.0,-0.021788057,0.0,0.0,0.0,0.0,0.0,0.26343733,0.26345295,0.57166123,0.5354439,0.5354427,4.0556936,0.0,0.0,0.0,0.09016786,0.0,0.0,0.0,0.0,0.0,0.0004040017,0.00818229,0.025509965,0.0,0.0,0.0,0.0,0.0,0.0
2519683030,-0.0008037165,-0.0029217154,0.038785644,-0.041474342,0.029058456,0.42276,0.0,0.0,0.0,-0.004284788,0.0,0.0,0.0,0.0,0.0,0.26346976,0.26349145,0.57171077,0.5357195,0.5357201,4.0556145,0.0,0.0,0.0,0.09016786,0.0,0.0,0.0,0.0,0.0,0.0004088856,0.013847246,0.039923597,0.0,0.0,0.0,0.0,0.0,0.0
2519883021,0.12544143,-0.05715108,0.109518126,-0.020694733,0.03022343,0.47929382,0.0,0.0,0.0,-0.0076503567,0.0,0.0,0.0,0.0,0.0,0.26350683,0.2635328,0.5716886,0.53464854,0.5346514,4.0558496,0.0,0.0,0.0,0.09016798,0.0,0.0,0.0,0.0,0.0,0.00023301723,0.01121562,0.034046467,0.0,0.0,0.0,0.0,0.0,0.0
2520083044,0.05597209,-0.082857504,0.081282444,-0.008048058,0.023673952,0.51197815,0.0,0.0,0.0,0.0061295964,0.0,0.0,0.0,0.0,0.0,0.2632743,0.26330155,0.57168746,0.5334621,0.5334666,4.055803,0.0,0.0,0.0,0.090167746,0.0,0.0,0.0,0.0,0.0,0.00027623918,0.007759364,0.023296187,0.0,0.0,0.0,0.0,0.0,0.0
2520286976,0.1189442,-0.05796835,0.0545774,0.004597664,0.013204217,-0.014457703,0.0,0.0,0.0,-0.031059206,0.0,0.0,0.0,0.0,0.0,0.2632396,0.2632668,0.57170606,0.53206664,0.5320734,4.055712,0.0,0.0,0.0,0.09016795,0.0,0.0,0.0,0.0,0.0,0.00031740547,0.007747966,0.024353841,0.0,0.0,0.0,0.0,0.0,0.0
2520490970,0.030699842,-0.052705064,-0.0555229,0.015796423,0.011221647,-0.10485077,0.0,0.0,0.0,0.010872625,0.0,0.0,0.0,0.0,0.0,0.2632978,0.26332787,0.57168126,0.53237355,0.5323829,4.0558863,0.0,0.0,0.0,0.090168,0.0,0.0,0.0,0.0,0.0,0.0003335616,0.0064532612,0.018762637,0.0,0.0,0.0,0.0,0.0,0.0
2520694943,0.026675701,-0.076973036,-0.014695743,0.017151117,0.009315133,0.6094513,0.0,0.0,0.0,0.051166598,0.0,0.0,0.0,0.0,0.0,0.26321685,0.26324934,0.5716672,0.5305932,0.5306048,4.056099,0.0,0.0,0.0,0.09016812,0.0,0.0,0.0,0.0,0.0,0.00039950103,0.0069387937,0.021495536,0.0,0.0,0.0,0.0,0.0,0.0
2520894921,0.071972385,-0.013382226,0.06655096,0.019907236,0.021709383,0.09048462,0.0,0.0,0.0,0.014741089,0.0,0.0,0.0,0.0,0.0,0.26338136,0.26341596,0.5716974,0.5315758,0.53159106,4.055975,0.0,0.0,0.0,0.090168215,0.0,0.0,0.0,0.0,0.0,0.00016514836,0.0071331686,0.020237364,0.0,0.0,0.0,0.0,0.0,0.0
2521098947,0.061976194,-0.031972967,-0.029693834,0.029629707,0.033438027,0.006958008,0.0,0.0,0.0,0.03428393,0.0,0.0,0.0,0.0,0.0,0.26315588,0.26318628,0.5716962,0.5290249,0.5290412,4.055866,0.0,0.0,0.0,0.09016807,0.0,0.0,0.0,0.0,0.0,0.0004446845,0.006052811,0.016686816,0.0,0.0,0.0,0.0,0.0,0.0
2521303083,0.041444898,-0.001886785,-0.03298323,0.0243752,0.03633976,-0.04134369,0.0,0.0,0.0,-0.0057304353,0.0,0.0,0.0,0.0,0.0,0.26338652,0.2634085,0.57167006,0.5279726,0.5279906,4.0560822,0.0,0.0,0.0,0.09016818,0.0,0.0,0.0,0.0,0.0,0.00047655395,0.0063852584,0.014679698,0.0,0.0,0.0,0.0,0.0,0.0
2521506959,0.25974822,-0.275013,-0.082983494,0.04133582,0.0101082325,-0.09624481,0.0,0.0,0.0,0.023531012,0.0,0.0,0.0,0.0,0.0,0.2637094,0.26372686,0.57168525,0.5252131,0.52523136,4.055963,0.0,0.0,0.0,0.09016819,0.0,0.0,0.0,0.0,0.0,0.00059144624,0.00714132,0.012377569,0.0,0.0,0.0,0.0,0.0,0.0
2521706992,-0.020392375,-0.06360591,-0.063714385,0.04836631,0.0075974464,0.036361694,0.0,0.0,0.0,-0.00789785,0.0,0.0,0.0,0.0,0.0,0.26389846,0.26391572,0.5717036,0.52382714,0.5238449,4.0561323,0.0,0.0,0.0,0.090168156,0.0,0.0,0.0,0.0,0.0,0.00039258652,0.0011736274,0.0040064314,0.0,0.0,0.0,0.0,0.0,0.0
2521907071,-0.13228291,-0.047567353,-0.10049391,0.028751612,-0.00066405535,-0.32393646,0.0,0.0,0.0,-0.041670676,0.0,0.0,0.0,0.0,0.0,0.26404265,0.2640592,0.5717068,0.52449554,0.524513,4.0560036,0.0,0.0,0.0,0.09016773,0.0,0.0,0.0,0.0,0.0,0.0003854744,0.009229762,0.02046887,0.0,0.0,0.0,0.0,0.0,0.0
2522110906,-0.07170594,-0.014554217,-0.04504156,0.015688896,0.011700988,0.039405823,0.0,0.0,0.0,-0.023127321,0.0,0.0,0.0,0.0,0.0,0.2638028,0.26381698,0.5717063,0.52471715,0.52473295,4.056206,0.0,0.0,0.0,0.09016757,0.0,0.0,0.0,0.0,0.0,0.00019812488,0.0131401885,0.03397851,0.0,0.0,0.0,0.0,0.0,0.0
2522314898,0.006575886,-0.011176288,-0.15110636,0.015908957,0.017339408,0.082458496,0.0,0.0,0.0,-0.028268471,0.0,0.0,0.0,0.0,0.0,0.26377064,0.26378188,0.57172114,0.5234042,0.52341914,4.0560765,0.0,0.0,0.0,0.09016752,0.0,0.0,0.0,0.0,0.0,0.00011090566,0.011504127,0.02984578,0.0,0.0,0.0,0.0,0.0,0.0
2522518808,0.14784953,-0.1609872,0.07219827,0.029263735,0.009503186,-0.0774765,0.0,0.0,0.0,0.034455515,0.0,0.0,0.0,0.0,0.0,0.2638432,0.26384884,0.57172304,0.52275676,0.5227708,4.0560107,0.0,0.0,0.0,0.09016765,0.0,0.0,0.0,0.0,0.0,0.00035867337,0.0049046427,0.019101942,0.0,0.0,0.0,0.0,0.0,0.0
2522718917,0.11115758,-0.09910511,0.14757538,0.044867277,-0.00478065,-0.21526337,0.0,0.0,0.0,0.08375922,0.0,0.0,0.0,0.0,0.0,0.26367626,0.2636758,0.57167953,0.5219855,0.5219976,4.0559072,0.0,0.0,0.0,0.09016789,0.0,0.0,0.0,0.0,0.0,0.0004503958,0.003929589,0.016508231,0.0,0.0,0.0,0.0,0.0,0.0
2522922777,0.06201841,-0.099970914,0.047496557,0.045541048,-0.0037146807,-0.36865997,0.0,0.0,0.0,0.001579918,0.0,0.0,0.0,0.0,0.0,0.26363552,0.26362976,0.5716995,0.5206313,0.52064115,4.0560913,0.0,0.0,0.0,0.09016797,0.0,0.0,0.0,0.0,0.0,0.00036117694,0.003594519,0.014319943,0.0,0.0,0.0,0.0,0.0,0.0
2523124524,0.122170985,-0.08971634,0.17293239,0.052047968,0.00037580729,0.24398804,0.0,0.0,0.0,-6.9934875e-05,0.0,0.0,0.0,0.0,0.0,0.26357904,0.26356813,0.57171863,0.52061725,0.52062464,4.0559783,0.0,0.0,0.0,0.09016824,0.0,0.0,0.0,0.0,0.0,0.00034022072,0.0026380608,0.008117562,0.0,0.0,0.0,0.0,0.0,0.0
2523328540,0.013658449,-0.170547,0.15332198,0.052035093,-0.013875902,0.15678406,0.0,0.0,0.0,0.006320361,0.0,0.0,0.0,0.0,0.0,0.26350802,0.26349223,0.5717359,0.5205976,0.5206024,4.0559826,0.0,0.0,0.0,0.090168215,0.0,0.0,0.0,0.0,0.0,0.00033434015,0.0023388893,0.005171483,0.0,0.0,0.0,0.0,0.0,0.0
2523532706,0.11321008,-0.14637658,0.24602365,0.04905057,-0.020517945,-0.25684357,0.0,0.0,0.0,-0.0029394105,0.0,0.0,0.0,0.0,0.0,0.26346132,0.26344413,0.5717572,0.5179262,0.5179287,4.05614,0.0,0.0,0.0,0.09016811,0.0,0.0,0.0,0.0,0.0,0.00046480985,0.0033554179,0.0079836575,0.0,0.0,0.0,0.0,0.0,0.0
2523732639,-0.014340028,-0.013805568,0.08718705,0.026898861,-0.014871597,0.091560364,0.0,0.0,0.0,0.03988448,0.0,0.0,0.0,0.0,0.0,0.26342425,0.26340938,0.5716964,0.5178563,0.51785666,4.0560255,0.0,0.0,0.0,0.09016819,0.0,0.0,0.0,0.0,0.0,0.00022209527,0.0060343575,0.016611364,0.0,0.0,0.0,0.0,0.0,0.0
2523932627,-0.057951212,0.0343711,0.0021002293,0.026727438,0.0032058358,0.345253,0.0,0.0,0.0,0.010062795,0.0,0.0,0.0,0.0,0.0,0.2633607,0.2633507,0.5717124,0.51778924,0.51778775,4.0561905,0.0,0.0,0.0,0.09016814,0.0,0.0,0.0,0.0,0.0,0.00017411348,0.0092088925,0.024529532,0.0,0.0,0.0,0.0,0.0,0.0
2524136570,0.038393825,-0.05119481,0.144791,0.023642778,-0.0010029674,0.4195938,0.0,0.0,0.0,-0.0074552856,0.0,0.0,0.0,0.0,0.0,0.2632863,0.26328537,0.57172674,0.5177234,0.5177206,4.056118,0.0,0.0,0.0,0.09016865,0.0,0.0,0.0,0.0,0.0,0.00020403418,0.009533906,0.028717017,0.0,0.0,0.0,0.0,0.0,0.0
2524340394,0.078962535,-0.12924387,0.25520182,0.020917892,-0.009078264,-0.079566956,0.0,0.0,0.0,-0.0062475055,0.0,0.0,0.0,0.0,0.0,0.26313066,0.26314378,0.5717112,0.5173186,0.5173154,4.056282,0.0,0.0,0.0,0.090168975,0.0,0.0,0.0,0.0,0.0,0.00030158993,0.0029393618,0.0076950076,0.0,0.0,0.0,0.0,0.0,0.0
2524544377,-0.04468602,-0.12163108,0.095478654,0.024412632,-0.017193675,-0.22753906,0.0,0.0,0.0,0.0031676143,0.0,0.0,0.0,0.0,0.0,0.26311105,0.2631375,0.57175696,0.5189761,0.51897395,4.0561523,0.0,0.0,0.0,0.09016903,0.0,0.0,0.0,0.0,0.0,0.00025282142,0.004630956,0.008672947,0.0,0.0,0.0,0.0,0.0,0.0
2524744577,-0.10875589,0.03554912,0.09321976,0.01390934,-0.007751763,-0.13458252,0.0,0.0,0.0,0.05383595,0.0,0.0,0.0,0.0,0.0,0.26308456,0.26311374,0.5717707,0.518916,0.5189163,4.0563354,0.0,0.0,0.0,0.09016913,0.0,0.0,0.0,0.0,0.0,0.00023801794,0.0096343765,0.020310368,0.0,0.0,0.0,0.0,0.0,0.0
2524944415,-0.16123188,0.002449438,0.17865038,-0.0029628277,-0.0032392144,-0.25637817,0.0,0.0,0.0,-0.06269311,0.0,0.0,0.0,0.0,0.0,0.26313555,0.2631505,0.57170546,0.52023053,0.5202335,4.056202,0.0,0.0,0.0,0.09016896,0.0,0.0,0.0,0.0,0.0,0.0003212427,0.011332623,0.02044355,0.0,0.0,0.0,0.0,0.0,0.0
2525148556,-0.110213846,-0.037806332,-0.05886972,-0.032365084,-0.0017647147,0.35849762,0.0,0.0,0.0,-0.014362156,0.0,0.0,0.0,0.0,0.0,0.26306683,0.26307,0.5716863,0.5212415,0.521246,4.0560822,0.0,0.0,0.0,0.09016931,0.0,0.0,0.0,0.0,0.0,0.0002770481,0.011374663,0.026326247,0.0,0.0,0.0,0.0,0.0,0.0
2525352586,-0.03230509,-0.10040635,0.07377195,-0.039442062,-0.009881914,0.5595474,0.0,0.0,0.0,0.015077114,0.0,0.0,0.0,0.0,0.0,0.26306543,0.26306424,0.5716986,0.5212823,0.521287,4.056278,0.0,0.0,0.0,0.09016912,0.0,0.0,0.0,0.0,0.0,0.0002000038,0.010164526,0.030860364,0.0,0.0,0.0,0.0,0.0,0.0
2525556549,-0.05887095,-0.040164903,0.068274975,-0.049922466,-0.012428045,0.5674896,0.0,0.0,0.0,-0.006755501,0.0,0.0,0.0,0.0,0.0,0.2630891,0.26309684,0.57173884,0.52164835,0.52165216,4.0561523,0.0,0.0,0.0,0.09016878,0.0,0.0,0.0,0.0,0.0,0.0002577737,0.013936371,0.045881484,0.0,0.0,0.0,0.0,0.0,0.0
2525756586,-0.033604532,-0.028637916,-0.05315292,-0.05663395,-0.00915736,0.44771576,0.0,0.0,0.0,-0.0003981553,0.0,0.0,0.0,0.0,0.0,0.2630434,0.2630657,0.5717217,0.52129954,0.5213025,4.056291,0.0,0.0,0.0,0.090168975,0.0,0.0,0.0,0.0,0.0,0.0003647288,0.011077925,0.03839415,0.0,0.0,0.0,0.0,0.0,0.0
2525960488,-0.018369019,-0.030155178,0.061039567,-0.071495295,-0.004049897,0.5758743,0.0,0.0,0.0,0.009308338,0.0,0.0,0.0,0.0,0.0,0.26332557,0.26336345,0.57170415,0.5226821,0.52268517,4.056205,0.0,0.0,0.0,0.09016878,0.0,0.0,0.0,0.0,0.0,0.00030556924,0.013104751,0.045165837,0.0,0.0,0.0,0.0,0.0,0.0
2526164415,-0.024425775,0.077510476,0.008769989,-0.063976765,0.0041291714,0.3856125,0.0,0.0,0.0,-0.03571652,0.0,0.0,0.0,0.0,0.0,0.26312715,0.26317117,0.57170093,0.52153546,0.5215392,4.0563583,0.0,0.0,0.0,0.09016866,0.0,0.0,0.0,0.0,0.0,0.00014904597,0.01259729,0.04263285,0.0,0.0,0.0,0.0,0.0,0.0
2526364516,-0.12462214,0.07951087,-0.04190445,-0.07155347,0.0160231,0.1938324,0.0,0.0,0.0,-0.020593412,0.0,0.0,0.0,0.0,0.0,0.26311153,0.26315814,0.57171625,0.5215336,0.5215391,4.056223,0.0,0.0,0.0,0.090168774,0.0,0.0,0.0,0.0,0.0,0.00029182114,0.015457016,0.050392564,0.0,0.0,0.0,0.0,0.0,0.0
2526566225,-0.042509407,0.093514085,0.016626954,-0.08137369,0.032724023,0.36225128,0.0,0.0,0.0,0.038541332,0.0,0.0,0.0,0.0,0.0,0.26312062,0.26316848,0.5717302,0.52153486,0.5215428,4.05638,0.0,0.0,0.0,0.09016888,0.0,0.0,0.0,0.0,0.0,0.0002115052,0.0101944255,0.029787716,0.0,0.0,0.0,0.0,0.0,0.0
2526770127,0.043139726,0.028573714,-0.14678025,-0.079067945,0.032389164,0.17900848,0.0,0.0,0.0,0.023777239,0.0,0.0,0.0,0.0,0.0,0.26310807,0.26315126,0.5717457,0.52289677,0.5229074,4.0564356,0.0,0.0,0.0,0.090168394,0.0,0.0,0.0,0.0,0.0,0.00043116207,0.0072289896,0.022904448,0.0,0.0,0.0,0.0,0.0,0.0
2526974006,-0.0117486715,-0.019184247,-0.05749309,-0.0831089,0.030727744,-0.71575165,0.0,0.0,0.0,0.01419979,0.0,0.0,0.0,0.0,0.0,0.26314408,0.26316592,0.5716919,0.5228528,0.5228669,4.0563397,0.0,0.0,0.0,0.09016806,0.0,0.0,0.0,0.0,0.0,0.00016675709,0.008363297,0.02247027,0.0,0.0,0.0,0.0,0.0,0.0
2527174113,0.054220945,0.06431809,0.18231225,-0.06774449,0.04273522,0.22476959,0.0,0.0,0.0,-0.0038550347,0.0,0.0,0.0,0.0,0.0,0.26314467,0.26316035,0.57170606,0.52424943,0.52426416,4.0562115,0.0,0.0,0.0,0.09016809,0.0,0.0,0.0,0.0,0.0,0.000119246586,0.007850057,0.019006565,0.0,0.0,0.0,0.0,0.0,0.0
2527378192,0.054220945,0.06431809,0.18231225,-0.06774449,0.04273522,-0.09788513,0.0,0.0,0.0,0.009689599,0.0,0.0,0.0,0.0,0.0,0.26314467,0.26316035,0.57170606,0.52424943,0.52426416,4.056353,0.0,0.0,0.0,0.09016796,0.0,0.0,0.0,0.0,0.0,0.00011277388,0.0041628596,0.008434014,0.0,0.0,0.0,0.0,0.0,0.0
2527582243,0.05552265,0.10255012,0.015874743,-0.06455088,0.062521994,0.4519806,0.0,0.0,0.0,-0.0055038966,0.0,0.0,0.0,0.0,0.0,0.26313186,0.2631343,0.5717306,0.5242876,0.52430123,4.056013,0.0,0.0,0.0,0.09016781,0.0,0.0,0.0,0.0,0.0,0.0003773135,0.012360224,0.024764558,0.0,0.0,0.0,0.0,0.0,0.0
2527786167,0.019546062,-0.042739213,-0.06482029,-0.062030077,0.057337165,0.22135162,0.0,0.0,0.0,-0.0020675994,0.0,0.0,0.0,0.0,0.0,0.26307613,0.26307252,0.5717116,0.5253566,0.52536756,4.055867,0.0,0.0,0.0,0.090167396,0.0,0.0,0.0,0.0,0.0,0.00017478452,0.0070613497,0.018503346,0.0,0.0,0.0,0.0,0.0,0.0
2527986162,-0.013809022,-0.022992596,0.05352354,-0.06654143,0.0556767,-0.33257294,0.0,0.0,0.0,0.033055138,0.0,0.0,0.0,0.0,0.0,0.26306352,0.26305932,0.57168293,0.5257712,0.52577865,4.0562644,0.0,0.0,0.0,0.09016749,0.0,0.0,0.0,0.0,0.0,8.038876e-05,0.007995312,0.026702292,0.0,0.0,0.0,0.0,0.0,0.0
2528189960,0.0013556443,-0.01036638,0.04126787,-0.052133083,0.044339895,0.07221985,0.0,0.0,0.0,-0.069429785,0.0,0.0,0.0,0.0,0.0,0.26299283,0.2629924,0.5717005,0.5271584,0.5271626,4.055666,0.0,0.0,0.0,0.09016762,0.0,0.0,0.0,0.0,0.0,0.00015210075,0.0046732184,0.017428918,0.0,0.0,0.0,0.0,0.0,0.0
2528394111,0.06882929,0.17530069,0.16845489,-0.038393497,0.049002886,0.08554077,0.0,0.0,0.0,-0.006263595,0.0,0.0,0.0,0.0,0.0,0.26297545,0.26297477,0.5717169,0.52854943,0.5285515,4.056087,0.0,0.0,0.0,0.090167515,0.0,0.0,0.0,0.0,0.0,0.00023577113,0.01142517,0.020189509,0.0,0.0,0.0,0.0,0.0,0.0
2528594209,0.044328786,0.011483684,0.12749028,-0.03226137,0.039495826,0.27871704,0.0,0.0,0.0,-0.026786264,0.0,0.0,0.0,0.0,0.0,0.2630008,0.2629997,0.5717306,0.5272194,0.52722037,4.0562453,0.0,0.0,0.0,0.09016735,0.0,0.0,0.0,0.0,0.0,0.00037126694,0.006947378,0.013273745,0.0,0.0,0.0,0.0,0.0,0.0
2528794085,0.044328786,0.011483684,0.12749028,-0.03226137,0.039495826,0.17337799,0.0,0.0,0.0,0.0066312663,0.0,0.0,0.0,0.0,0.0,0.2630008,0.2629997,0.5717306,0.5272194,0.52722037,4.056404,0.0,0.0,0.0,0.09016761,0.0,0.0,0.0,0.0,0.0,0.0003238592,0.0072624553,0.021129975,0.0,0.0,0.0,0.0,0.0,0.0
2528998092,-0.10838726,0.056293607,-0.028668165,-0.03385043,0.042247236,0.27291107,0.0,0.0,0.0,0.006666098,0.0,0.0,0.0,0.0,0.0,0.2630909,0.2630963,0.5717067,0.52884126,0.5288425,4.0557857,0.0,0.0,0.0,0.090167224,0.0,0.0,0.0,0.0,0.0,0.0002904887,0.010522751,0.026070205,0.0,0.0,0.0,0.0,0.0,0.0
2529202024,0.0877161,-0.015382186,0.1667341,-0.018117428,0.03994584,0.026679993,0.0,0.0,0.0,-0.031766668,0.0,0.0,0.0,0.0,0.0,0.26309255,0.2630972,0.571689,0.52715147,0.5271531,4.0556655,0.0,0.0,0.0,0.090167,0.0,0.0,0.0,0.0,0.0,0.000218864,0.01096994,0.03331123,0.0,0.0,0.0,0.0,0.0,0.0
2529406017,0.10104689,0.067945845,0.17998159,-0.0065181255,0.042099535,0.3106079,0.0,0.0,0.0,0.02849811,0.0,0.0,0.0,0.0,0.0,0.263129,0.26313186,0.5717043,0.52719253,0.5271944,4.055611,0.0,0.0,0.0,0.09016712,0.0,0.0,0.0,0.0,0.0,0.0002571786,0.011361482,0.029401915,0.0,0.0,0.0,0.0,0.0,0.0
2529606282,0.11039513,0.104230136,0.12345457,-0.0014464855,0.051213622,0.07829285,0.0,0.0,0.0,-0.020175375,0.0,0.0,0.0,0.0,0.0,0.26311547,0.26311997,0.5716469,0.52722895,0.5272312,4.0555143,0.0,0.0,0.0,0.090167046,0.0,0.0,0.0,0.0,0.0,0.00037129014,0.01685603,0.046393305,0.0,0.0,0.0,0.0,0.0,0.0
2529806036,0.07745579,0.12613666,-0.10881758,-0.0003900528,0.06443882,0.54148865,0.0,0.0,0.0,0.0061772764,0.0,0.0,0.0,0.0,0.0,0.2632952,0.26330087,0.57168067,0.5282709,0.5282741,4.0554795,0.0,0.0,0.0,0.09016696,0.0,0.0,0.0,0.0,0.0,0.0004493788,0.019295402,0.05709587,0.0,0.0,0.0,0.0,0.0,0.0
2530007556,0.1320799,0.010189999,0.051399946,0.015563726,0.062037826,0.34506226,0.0,0.0,0.0,0.00011153519,0.0,0.0,0.0,0.0,0.0,0.26310563,0.26311055,0.5716809,0.5285326,0.5285363,4.0554013,0.0,0.0,0.0,0.09016691,0.0,0.0,0.0,0.0,0.0,0.00044281015,0.019048233,0.057578944,0.0,0.0,0.0,0.0,0.0,0.0
2530207709,0.083333075,-0.022896793,-0.11664605,0.01271081,0.063705504,0.47758484,0.0,0.0,0.0,0.0075119324,0.0,0.0,0.0,0.0,0.0,0.26311076,0.2631153,0.5717026,0.53002435,0.53002864,4.055648,0.0,0.0,0.0,0.09016717,0.0,0.0,0.0,0.0,0.0,0.00039214635,0.016832856,0.055636317,0.0,0.0,0.0,0.0,0.0,0.0
2530407806,-0.047466278,-0.033751167,-0.10396814,0.0039641857,0.05160296,1.1850891,0.0,0.0,0.0,-0.037522424,0.0,0.0,0.0,0.0,0.0,0.2632219,0.26322436,0.5716429,0.53008926,0.53009313,4.055546,0.0,0.0,0.0,0.09016778,0.0,0.0,0.0,0.0,0.0,0.00026379316,0.016490234,0.062387813,0.0,0.0,0.0,0.0,0.0,0.0
2530611857,-0.028969435,-0.06587997,-0.18002605,-0.0061495304,0.043264747,0.9271927,0.0,0.0,0.0,0.017888479,0.0,0.0,0.0,0.0,0.0,0.26332432,0.26334313,0.57166207,0.53153795,0.5315396,4.055509,0.0,0.0,0.0,0.09016753,0.0,0.0,0.0,0.0,0.0,0.00019113165,0.01714171,0.06522629,0.0,0.0,0.0,0.0,0.0,0.0
2530815727,0.093525186,-0.21679571,-0.28459394,-0.020739794,0.028771877,0.34131622,0.0,0.0,0.0,-0.06666551,0.0,0.0,0.0,0.0,0.0,0.26339808,0.26346684,0.57167006,0.53367734,0.533677,4.0554237,0.0,0.0,0.0,0.090167336,0.0,0.0,0.0,0.0,0.0,0.00069024536,0.016544024,0.047487024,0.0,0.0,0.0,0.0,0.0,0.0
2531015568,0.0033811927,-0.16844589,-0.29016256,-0.033756018,0.009273171,0.05088806,0.0,0.0,0.0,-0.031105945,0.0,0.0,0.0,0.0,0.0,0.26317483,0.26331687,0.57170385,0.5357492,0.53575003,4.055604,0.0,0.0,0.0,0.090167336,0.0,0.0,0.0,0.0,0.0,0.00074524514,0.01584565,0.028990427,0.0,0.0,0.0,0.0,0.0,0.0
2531219722,0.032930672,0.02087468,-0.2232641,-0.025670528,0.0018904209,0.41265106,0.0,0.0,0.0,-0.028712202,0.0,0.0,0.0,0.0,0.0,0.26302284,0.26324204,0.5717277,0.5386038,0.5386114,4.055762,0.0,0.0,0.0,0.09016659,0.0,0.0,0.0,0.0,0.0,0.0003181978,0.011255839,0.02605375,0.0,0.0,0.0,0.0,0.0,0.0
2531419747,-0.12395823,-0.15147978,-0.22416273,-0.025989532,-0.007294655,-0.592041,0.0,0.0,0.0,-0.011640787,0.0,0.0,0.0,0.0,0.0,0.26278514,0.2630057,0.5716745,0.54006577,0.54008514,4.055701,0.0,0.0,0.0,0.09016682,0.0,0.0,0.0,0.0,0.0,0.0004203109,0.025694346,0.07108976,0.0,0.0,0.0,0.0,0.0,0.0
2531623729,-0.07154578,-0.039632887,-0.22323471,-0.029536247,-0.017805934,-0.08682251,0.0,0.0,0.0,0.0131506305,0.0,0.0,0.0,0.0,0.0,0.2626486,0.26281434,0.5716925,0.54011065,0.5401428,4.0555997,0.0,0.0,0.0,0.090166725,0.0,0.0,0.0,0.0,0.0,0.00035674323,0.029589657,0.092588976,0.0,0.0,0.0,0.0,0.0,0.0
2531827757,-0.008968294,0.028952733,-0.18481517,-0.019346714,-0.009408355,-1.3734512,0.0,0.0,0.0,0.054019433,0.0,0.0,0.0,0.0,0.0,0.26265326,0.26272818,0.57169473,0.54014266,0.54018253,4.05576,0.0,0.0,0.0,0.09016667,0.0,0.0,0.0,0.0,0.0,0.00035375662,0.04112522,0.1379611,0.0,0.0,0.0,0.0,0.0,0.0
2532031782,-0.00554128,-0.0074149817,-0.040868282,-0.022865534,-0.0017300844,-0.40155792,0.0,0.0,0.0,-0.073472135,0.0,0.0,0.0,0.0,0.0,0.26259884,0.26262498,0.5716701,0.53984255,0.5398814,4.0557,0.0,0.0,0.0,0.09016673,0.0,0.0,0.0,0.0,0.0,0.0005931864,0.03956192,0.13876937,0.0,0.0,0.0,0.0,0.0,0.0
2532231772,-0.0762527,-0.005665388,-0.24209553,-0.034053564,-0.0018603802,-0.70505524,0.0,0.0,0.0,-0.042240154,0.0,0.0,0.0,0.0,0.0,0.26270407,0.26272118,0.57170904,0.54023904,0.5402723,4.055852,0.0,0.0,0.0,0.09016661,0.0,0.0,0.0,0.0,0.0,0.00076094,0.035741393,0.12387595,0.0,0.0,0.0,0.0,0.0,0.0
2532435591,-0.10734692,0.059344668,-0.12145756,-0.032231092,0.009370565,-0.25868225,0.0,0.0,0.0,-0.008757506,0.0,0.0,0.0,0.0,0.0,0.26276276,0.26279053,0.5716485,0.54026186,0.5402871,4.0557294,0.0,0.0,0.0,0.09016663,0.0,0.0,0.0,0.0,0.0,0.00061975623,0.027936932,0.09782377,0.0,0.0,0.0,0.0,0.0,0.0
2532639718,-0.03576386,0.13993573,-0.114132136,-0.019464016,0.026996613,-0.74237823,0.0,0.0,0.0,-0.0075939596,0.0,0.0,0.0,0.0,0.0,0.26279595,0.2628243,0.57167023,0.5402834,0.54030204,4.055672,0.0,0.0,0.0,0.09016626,0.0,0.0,0.0,0.0,0.0,0.0005291121,0.022199728,0.076394476,0.0,0.0,0.0,0.0,0.0,0.0
2532843852,-0.0829899,0.06859538,0.03528165,-0.026115417,0.05019164,-0.35549164,0.0,0.0,0.0,0.016654741,0.0,0.0,0.0,0.0,0.0,0.26291528,0.26292732,0.5716898,0.54031557,0.5403298,4.0555754,0.0,0.0,0.0,0.09016609,0.0,0.0,0.0,0.0,0.0,0.00052897236,0.01630407,0.056210708,0.0,0.0,0.0,0.0,0.0,0.0
2533043604,-0.032731444,0.027340636,-0.07602715,-0.023299694,0.044751048,-0.050872803,0.0,0.0,0.0,0.018879116,0.0,0.0,0.0,0.0,0.0,0.2630385,0.2630332,0.57170904,0.5403611,0.54037225,4.0557537,0.0,0.0,0.0,0.090166084,0.0,0.0,0.0,0.0,0.0,0.0003229638,0.016088901,0.05542175,0.0,0.0,0.0,0.0,0.0,0.0
2533247704,-0.037622526,0.04830888,0.08842231,-0.03347349,0.049688816,-0.35625458,0.0,0.0,0.0,-0.02625493,0.0,0.0,0.0,0.0,0.0,0.26311457,0.26310116,0.57165134,0.5404133,0.54042166,4.0557,0.0,0.0,0.0,0.090166114,0.0,0.0,0.0,0.0,0.0,0.0002284491,0.014488501,0.052044652,0.0,0.0,0.0,0.0,0.0,0.0
2533448367,-0.031173915,0.086900085,-0.07856068,-0.019357681,0.06438124,-0.8461838,0.0,0.0,0.0,0.022717964,0.0,0.0,0.0,0.0,0.0,0.2630797,0.26306504,0.5716416,0.540126,0.54013175,4.0556054,0.0,0.0,0.0,0.09016587,0.0,0.0,0.0,0.0,0.0,0.00019933988,0.011551816,0.037762776,0.0,0.0,0.0,0.0,0.0,0.0
2533649361,-0.06910552,0.05920309,-0.0061830953,-0.011653662,0.058002412,0.060287476,0.0,0.0,0.0,0.039557524,0.0,0.0,0.0,0.0,0.0,0.26324254,0.26323208,0.5717168,0.5407563,0.5407594,4.055669,0.0,0.0,0.0,0.090165995,0.0,0.0,0.0,0.0,0.0,0.0002630707,0.008443152,0.02477621,0.0,0.0,0.0,0.0,0.0,0.0
2533853439,-0.06380007,0.088100284,0.0052981973,-0.026973724,0.064261615,-0.0008239746,0.0,0.0,0.0,0.009077635,0.0,0.0,0.0,0.0,0.0,0.26325363,0.26324865,0.571705,0.54047376,0.54047483,4.0559173,0.0,0.0,0.0,0.09016606,0.0,0.0,0.0,0.0,0.0,0.00028203413,0.006908211,0.0143615,0.0,0.0,0.0,0.0,0.0,0.0
2534057338,0.0067307204,0.080498606,0.0074158013,-0.022382736,0.054594457,-0.22238159,0.0,0.0,0.0,0.030233074,0.0,0.0,0.0,0.0,0.0,0.2632875,0.26328602,0.57172155,0.53915673,0.53915644,4.0558043,0.0,0.0,0.0,0.090165935,0.0,0.0,0.0,0.0,0.0,0.0003118915,0.009956497,0.02972073,0.0,0.0,0.0,0.0,0.0,0.0
2534257401,-0.025744602,0.05973804,0.023409009,-0.019879818,0.051998436,0.2982483,0.0,0.0,0.0,0.026941823,0.0,0.0,0.0,0.0,0.0,0.2632246,0.26322314,0.5716686,0.5391861,0.53918546,4.055702,0.0,0.0,0.0,0.09016601,0.0,0.0,0.0,0.0,0.0,0.00028071852,0.02146003,0.07133066,0.0,0.0,0.0,0.0,0.0,0.0
2534457396,-0.026233613,0.018310577,0.010587063,-0.024406195,0.046529353,-0.32474518,0.0,0.0,0.0,0.010662913,0.0,0.0,0.0,0.0,0.0,0.2633377,0.26333317,0.57174665,0.5398888,0.5398874,4.0558753,0.0,0.0,0.0,0.090166025,0.0,0.0,0.0,0.0,0.0,0.0004181527,0.014778195,0.052934375,0.0,0.0,0.0,0.0,0.0,0.0
2534657315,-0.054661408,0.10503352,0.07716739,-0.027979374,0.054706335,0.11089325,0.0,0.0,0.0,-0.027838703,0.0,0.0,0.0,0.0,0.0,0.26294476,0.262943,0.57170594,0.53773546,0.53773385,4.0558176,0.0,0.0,0.0,0.090166055,0.0,0.0,0.0,0.0,0.0,0.00041934825,0.0068063755,0.021823522,0.0,0.0,0.0,0.0,0.0,0.0
2534861309,-0.0074382946,0.0047445744,0.025951743,-0.014503479,0.053166926,0.3959427,0.0,0.0,0.0,0.040621012,0.0,0.0,0.0,0.0,0.0,0.26284218,0.26284096,0.57172436,0.53631073,0.5363091,4.0557184,0.0,0.0,0.0,0.09016621,0.0,0.0,0.0,0.0,0.0,0.00018098013,0.0066037565,0.02382047,0.0,0.0,0.0,0.0,0.0,0.0
2535061191,-0.022865027,0.18798724,0.071353376,-0.016390562,0.058701992,0.2741089,0.0,0.0,0.0,0.08580763,0.0,0.0,0.0,0.0,0.0,0.26282015,0.26281774,0.5716696,0.53486955,0.5348681,4.0556846,0.0,0.0,0.0,0.0901659,0.0,0.0,0.0,0.0,0.0,0.0003676033,0.0122203715,0.037273724,0.0,0.0,0.0,0.0,0.0,0.0
2535265343,-0.009261854,-0.071861096,-0.06544608,-0.009199142,0.048414648,0.12536621,0.0,0.0,0.0,0.0064622015,0.0,0.0,0.0,0.0,0.0,0.26282674,0.2628211,0.5716907,0.5348021,0.5348008,4.0556064,0.0,0.0,0.0,0.09016568,0.0,0.0,0.0,0.0,0.0,0.00019714654,0.015155312,0.05287984,0.0,0.0,0.0,0.0,0.0,0.0
2535465359,-0.066067025,0.03632618,-0.0381127,-0.0096411705,0.037698686,0.82649994,0.0,0.0,0.0,0.017407648,0.0,0.0,0.0,0.0,0.0,0.26286486,0.26285356,0.57171285,0.5333676,0.5333663,4.055533,0.0,0.0,0.0,0.09016561,0.0,0.0,0.0,0.0,0.0,0.000115296636,0.018885693,0.066438325,0.0,0.0,0.0,0.0,0.0,0.0
2535665211,0.08437813,-0.037878476,-0.108748615,0.0060646534,0.035916865,0.5903778,0.0,0.0,0.0,0.0066676512,0.0,0.0,0.0,0.0,0.0,0.26300794,0.26299202,0.57169074,0.5336483,0.5336466,4.055725,0.0,0.0,0.0,0.090165615,0.0,0.0,0.0,0.0,0.0,0.00019040983,0.017660148,0.0618101,0.0,0.0,0.0,0.0,0.0,0.0
2535869349,-0.021082804,0.008853048,0.03731668,-0.013236284,0.03797096,0.17108154,0.0,0.0,0.0,0.03383504,0.0,0.0,0.0,0.0,0.0,0.26322427,0.26320416,0.57169724,0.5315028,0.5315,4.055691,0.0,0.0,0.0,0.090165704,0.0,0.0,0.0,0.0,0.0,0.00011371379,0.016751613,0.059188496,0.0,0.0,0.0,0.0,0.0,0.0
2536069225,0.0034446716,-0.035072744,0.056288183,-0.014478445,0.021677732,0.1462555,0.0,0.0,0.0,-0.013569057,0.0,0.0,0.0,0.0,0.0,0.26310167,0.26308385,0.57173216,0.53064924,0.5306456,4.0558686,0.0,0.0,0.0,0.09016532,0.0,0.0,0.0,0.0,0.0,0.00019287462,0.012787925,0.043240607,0.0,0.0,0.0,0.0,0.0,0.0
2536273190,0.04874772,-0.04010716,-0.09634125,-0.02750659,0.008936107,-0.11684418,0.0,0.0,0.0,-0.012504652,0.0,0.0,0.0,0.0,0.0,0.2630348,0.26301086,0.5717213,0.5288708,0.528866,4.055771,0.0,0.0,0.0,0.090165436,0.0,0.0,0.0,0.0,0.0,0.00019360454,0.008283717,0.026328405,0.0,0.0,0.0,0.0,0.0,0.0
2536473350,0.029063046,0.08451736,-0.1162951,-0.0039031506,0.009617388,0.3640442,0.0,0.0,0.0,0.003728211,0.0,0.0,0.0,0.0,0.0,0.26311463,0.2630853,0.5716978,0.5291732,0.5291663,4.0557375,0.0,0.0,0.0,0.09016501,0.0,0.0,0.0,0.0,0.0,0.00022461369,0.005917291,0.020836083,0.0,0.0,0.0,0.0,0.0,0.0
2536673209,0.008391395,-0.06363958,-0.0799948,-0.004136324,-0.009139895,0.16899109,0.0,0.0,0.0,0.0068264976,0.0,0.0,0.0,0.0,0.0,0.26311496,0.26307735,0.57168925,0.52877927,0.5287703,4.0559278,0.0,0.0,0.0,0.09016513,0.0,0.0,0.0,0.0,0.0,0.00020842059,0.005510847,0.012874557,0.0,0.0,0.0,0.0,0.0,0.0
2536878264,-0.07961294,0.004533589,-0.042734563,0.00031661987,-0.0064055324,0.3625946,0.0,0.0,0.0,-0.042726997,0.0,0.0,0.0,0.0,0.0,0.26334488,0.2632954,0.57172537,0.52979326,0.5297799,4.0558257,0.0,0.0,0.0,0.09016527,0.0,0.0,0.0,0.0,0.0,0.00016774719,0.0041318163,0.011275636,0.0,0.0,0.0,0.0,0.0,0.0
2537078910,0.067097545,-0.031837165,-0.15501618,0.005124569,-0.021217465,0.5104065,0.0,0.0,0.0,-0.027835846,0.0,0.0,0.0,0.0,0.0,0.2631489,0.26309946,0.5717265,0.5272934,0.52727747,4.0558453,0.0,0.0,0.0,0.09016538,0.0,0.0,0.0,0.0,0.0,0.00037620863,0.009247573,0.027264548,0.0,0.0,0.0,0.0,0.0,0.0
2537282943,0.08001075,-0.03524369,-0.28720003,0.02848339,-0.021078706,0.13655853,0.0,0.0,0.0,0.06846359,0.0,0.0,0.0,0.0,0.0,0.26323226,0.26320094,0.5717039,0.52769995,0.52768,4.0557566,0.0,0.0,0.0,0.09016545,0.0,0.0,0.0,0.0,0.0,0.00022698563,0.010763684,0.03166656,0.0,0.0,0.0,0.0,0.0,0.0
2537487015,0.023121856,-0.05986178,-0.090272844,0.035237312,-0.01753068,0.21320343,0.0,0.0,0.0,0.016635846,0.0,0.0,0.0,0.0,0.0,0.26321134,0.26319984,0.57172364,0.5262914,0.52626985,4.0556765,0.0,0.0,0.0,0.09016534,0.0,0.0,0.0,0.0,0.0,0.00023989858,0.008656381,0.02152983,0.0,0.0,0.0,0.0,0.0,0.0
2537686944,-0.04918269,0.1622547,-0.15083396,0.009138584,-0.00011050701,-0.61893463,0.0,0.0,0.0,0.0031351894,0.0,0.0,0.0,0.0,0.0,0.26317278,0.2631717,0.57171166,0.525907,0.5258864,4.055909,0.0,0.0,0.0,0.090164945,0.0,0.0,0.0,0.0,0.0,0.00035604113,0.0027932415,0.0045569157,0.0,0.0,0.0,0.0,0.0,0.0
2537887025,0.0067388117,0.13555737,-0.13026065,0.011037588,0.0034400225,-0.23583984,0.0,0.0,0.0,0.09922726,0.0,0.0,0.0,0.0,0.0,0.26338255,0.26338595,0.57174736,0.52692765,0.52690876,4.0558147,0.0,0.0,0.0,0.09016493,0.0,0.0,0.0,0.0,0.0,0.00062208815,0.007079151,0.014660134,0.0,0.0,0.0,0.0,0.0,0.0
2538091012,0.041116163,0.07493988,-0.09482294,0.035351515,0.0003014803,-0.6782074,0.0,0.0,0.0,0.011183366,0.0,0.0,0.0,0.0,0.0,0.26319727,0.26320517,0.57175,0.5271674,0.5271516,4.0560093,0.0,0.0,0.0,0.090165295,0.0,0.0,0.0,0.0,0.0,0.00028382734,0.011139017,0.034824457,0.0,0.0,0.0,0.0,0.0,0.0
2538295015,-0.16317591,-0.0026008338,-0.19339716,0.011451721,0.006688595,0.12137604,0.0,0.0,0.0,-0.01728084,0.0,0.0,0.0,0.0,0.0,0.26321924,0.26322925,0.57177013,0.5272101,0.5271972,4.0559616,0.0,0.0,0.0,0.09016525,0.0,0.0,0.0,0.0,0.0,0.0002498621,0.011469754,0.036486976,0.0,0.0,0.0,0.0,0.0,0.0
2538499009,0.10262591,0.044496365,-0.10246396,0.025520563,-0.0009047985,-0.050613403,0.0,0.0,0.0,0.000435967,0.0,0.0,0.0,0.0,0.0,0.2632756,0.26328474,0.5717144,0.5272573,0.5272476,4.055867,0.0,0.0,0.0,0.0901653,0.0,0.0,0.0,0.0,0.0,5.6978166e-05,0.016893033,0.05791265,0.0,0.0,0.0,0.0,0.0,0.0
2538699021,-0.055332184,-0.032394372,-0.2152425,0.026659727,-0.0020377636,-0.18881989,0.0,0.0,0.0,0.024373718,0.0,0.0,0.0,0.0,0.0,0.26330212,0.26330858,0.5717349,0.52730376,0.527297,4.0560565,0.0,0.0,0.0,0.0901654,0.0,0.0,0.0,0.0,0.0,4.8305363e-05,0.016222244,0.05684832,0.0,0.0,0.0,0.0,0.0,0.0
2538898814,-0.07181354,0.11678784,-0.10031885,0.029673576,0.0037128925,-0.087623596,0.0,0.0,0.0,-0.016397677,0.0,0.0,0.0,0.0,0.0,0.26335087,0.26335678,0.5717539,0.5273508,0.52734673,4.0559516,0.0,0.0,0.0,0.09016526,0.0,0.0,0.0,0.0,0.0,0.00029420608,0.01476826,0.052758656,0.0,0.0,0.0,0.0,0.0,0.0
2539103036,-0.02251634,0.14828518,-0.22946173,0.022116661,0.011657238,-0.47992706,0.0,0.0,0.0,0.022197783,0.0,0.0,0.0,0.0,0.0,0.26343238,0.2634401,0.57177323,0.52740467,0.52740294,4.055912,0.0,0.0,0.0,0.09016523,0.0,0.0,0.0,0.0,0.0,0.00028128232,0.017475834,0.05977483,0.0,0.0,0.0,0.0,0.0,0.0
2539306986,-0.010176897,0.055780023,-0.3329414,0.01235199,0.017336011,-0.25974274,0.0,0.0,0.0,-0.019017722,0.0,0.0,0.0,0.0,0.0,0.26343733,0.26344728,0.57179236,0.5274576,0.5274577,4.056079,0.0,0.0,0.0,0.09016546,0.0,0.0,0.0,0.0,0.0,0.0003121633,0.015141278,0.05304794,0.0,0.0,0.0,0.0,0.0,0.0
2539507028,-0.019062743,0.053477153,-0.28474477,0.017276287,0.014376044,-0.64203644,0.0,0.0,0.0,-0.048844475,0.0,0.0,0.0,0.0,0.0,0.26344624,0.2634554,0.5717345,0.52750605,0.52750766,4.055976,0.0,0.0,0.0,0.09016539,0.0,0.0,0.0,0.0,0.0,0.00013693905,0.01364591,0.04796677,0.0,0.0,0.0,0.0,0.0,0.0
2539710909,-0.05654113,-0.057755195,-0.3874646,0.018349648,0.009749174,-0.03350067,0.0,0.0,0.0,-0.08469156,0.0,0.0,0.0,0.0,0.0,0.26347393,0.26348278,0.57175326,0.52755,0.5275528,4.0559363,0.0,0.0,0.0,0.0901656,0.0,0.0,0.0,0.0,0.0,9.937584e-05,0.014550114,0.046550263,0.0,0.0,0.0,0.0,0.0,0.0
2539910907,0.10625853,-0.13825889,-0.12611172,0.032563448,-0.009769201,-0.74046326,0.0,0.0,0.0,0.010888949,0.0,0.0,0.0,0.0,0.0,0.26368457,0.263696,0.57179034,0.53136945,0.53137344,4.055849,0.0,0.0,0.0,0.09016545,0.0,0.0,0.0,0.0,0.0,0.0003214424,0.012572239,0.035969283,0.0,0.0,0.0,0.0,0.0,0.0
2540114782,0.0012519956,0.01425761,0.07527113,0.031574726,0.0021265745,-0.40457153,0.0,0.0,0.0,0.037856687,0.0,0.0,0.0,0.0,0.0,0.26348606,0.26350194,0.57179344,0.53166366,0.53166795,4.056031,0.0,0.0,0.0,0.09016585,0.0,0.0,0.0,0.0,0.0,0.00021717708,0.0067602764,0.020844817,0.0,0.0,0.0,0.0,0.0,0.0
2540318821,-0.13830125,0.09376339,-0.20481685,0.020168543,0.015350699,-0.474823,0.0,0.0,0.0,-0.026837487,0.0,0.0,0.0,0.0,0.0,0.26347893,0.2634988,0.5717368,0.5317633,0.53176844,4.0559893,0.0,0.0,0.0,0.09016612,0.0,0.0,0.0,0.0,0.0,0.00019253671,0.004927115,0.01682835,0.0,0.0,0.0,0.0,0.0,0.0
2540520610,-0.003430523,-0.08247769,-0.019992411,0.02378726,0.011164427,-0.2122879,0.0,0.0,0.0,-0.033346467,0.0,0.0,0.0,0.0,0.0,0.2635709,0.26359588,0.5717879,0.5321911,0.5321976,4.0559297,0.0,0.0,0.0,0.09016618,0.0,0.0,0.0,0.0,0.0,0.00011674397,0.006731461,0.021791257,0.0,0.0,0.0,0.0,0.0,0.0
2540724612,-0.07918219,0.14258152,-0.065116346,0.019184828,0.031337142,0.43660736,0.0,0.0,0.0,-0.05318397,0.0,0.0,0.0,0.0,0.0,0.2635104,0.2635348,0.57178104,0.5319527,0.5319604,4.0561295,0.0,0.0,0.0,0.09016622,0.0,0.0,0.0,0.0,0.0,0.0002906042,0.0042711706,0.005328743,0.0,0.0,0.0,0.0,0.0,0.0
2540928545,0.0027612373,-0.02503831,-0.015608311,0.023426056,0.03168434,-0.4708786,0.0,0.0,0.0,0.05752595,0.0,0.0,0.0,0.0,0.0,0.26364154,0.2636622,0.57178426,0.5313256,0.5313353,4.056076,0.0,0.0,0.0,0.09016628,0.0,0.0,0.0,0.0,0.0,0.00030104144,0.0008090129,0.001381531,0.0,0.0,0.0,0.0,0.0,0.0
2541128651,-0.03993546,-0.012896506,0.07028568,0.02391696,0.030354738,0.10992432,0.0,0.0,0.0,-0.01448524,0.0,0.0,0.0,0.0,0.0,0.26323104,0.26324382,0.5717388,0.52919835,0.52920854,4.0559826,0.0,0.0,0.0,0.09016615,0.0,0.0,0.0,0.0,0.0,0.00023677402,0.0018084709,0.008217617,0.0,0.0,0.0,0.0,0.0,0.0
2541332588,0.008753464,-0.17692798,-0.21594912,0.024336576,0.014369488,-0.82598114,0.0,0.0,0.0,-0.0063365065,0.0,0.0,0.0,0.0,0.0,0.2632421,0.26325184,0.5717597,0.5291666,0.529177,4.055955,0.0,0.0,0.0,0.09016629,0.0,0.0,0.0,0.0,0.0,0.0003008924,0.0065530306,0.014763522,0.0,0.0,0.0,0.0,0.0,0.0
2541536555,0.044499867,-0.19087987,-0.04499355,0.028651714,0.0018628836,-0.5345154,0.0,0.0,0.0,0.012874184,0.0,0.0,0.0,0.0,0.0,0.26334044,0.26334682,0.5717822,0.5277989,0.52781004,4.0561576,0.0,0.0,0.0,0.0901663,0.0,0.0,0.0,0.0,0.0,0.00040624876,0.011548171,0.029190565,0.0,0.0,0.0,0.0,0.0,0.0
2541736582,0.000682299,0.15966953,0.018474936,0.026839256,0.027117848,0.57644653,0.0,0.0,0.0,0.00048579462,0.0,0.0,0.0,0.0,0.0,0.26330063,0.26330572,0.571773,0.52744526,0.5274564,4.0560613,0.0,0.0,0.0,0.09016642,0.0,0.0,0.0,0.0,0.0,0.00036567115,0.0024609973,0.008011266,0.0,0.0,0.0,0.0,0.0,0.0
2541936573,-0.08635685,0.051101588,0.020871669,0.009775877,0.037104487,-0.24233246,0.0,0.0,0.0,-0.04258147,0.0,0.0,0.0,0.0,0.0,0.2633419,0.26335025,0.57174623,0.5291774,0.5291888,4.05603,0.0,0.0,0.0,0.090166755,0.0,0.0,0.0,0.0,0.0,0.00034503985,0.0028285268,0.0076852418,0.0,0.0,0.0,0.0,0.0,0.0
2542136652,0.07884033,-0.083141305,0.122994274,0.023842573,0.040599108,-0.4778366,0.0,0.0,0.0,-0.018549774,0.0,0.0,0.0,0.0,0.0,0.2633436,0.26335853,0.57176447,0.53055376,0.53056556,4.0559483,0.0,0.0,0.0,0.090166695,0.0,0.0,0.0,0.0,0.0,0.0002433885,0.004358234,0.009924086,0.0,0.0,0.0,0.0,0.0,0.0
2542340615,-0.07186763,0.08130427,0.042124107,0.011586428,0.049013376,0.04685974,0.0,0.0,0.0,0.058630623,0.0,0.0,0.0,0.0,0.0,0.26334405,0.26336235,0.5717845,0.5319473,0.5319599,4.0558763,0.0,0.0,0.0,0.09016657,0.0,0.0,0.0,0.0,0.0,0.00010627311,0.0064885574,0.020365832,0.0,0.0,0.0,0.0,0.0,0.0
2542544567,-0.04513073,0.083314665,0.081535295,0.0058910847,0.063008904,0.18999481,0.0,0.0,0.0,-0.041917365,0.0,0.0,0.0,0.0,0.0,0.26328558,0.2633065,0.57180333,0.53335106,0.5333646,4.0561175,0.0,0.0,0.0,0.0901665,0.0,0.0,0.0,0.0,0.0,0.00030455313,0.004429513,0.010264951,0.0,0.0,0.0,0.0,0.0,0.0
2542748589,-0.022200555,-0.029562518,0.2132972,-0.0040922165,0.07015371,-0.50266266,0.0,0.0,0.0,0.06757204,0.0,0.0,0.0,0.0,0.0,0.2632689,0.2632851,0.57174504,0.534766,0.53478026,4.056032,0.0,0.0,0.0,0.09016672,0.0,0.0,0.0,0.0,0.0,0.00032737793,0.0048388997,0.013126849,0.0,0.0,0.0,0.0,0.0,0.0
2542948419,-0.089256436,0.06493777,0.018303365,-0.010504723,0.08131796,-0.42090607,0.0,0.0,0.0,-0.028508686,0.0,0.0,0.0,0.0,0.0,0.26322955,0.2632414,0.5717621,0.5348081,0.5348227,4.0562077,0.0,0.0,0.0,0.09016676,0.0,0.0,0.0,0.0,0.0,0.00035680208,0.007159532,0.020243267,0.0,0.0,0.0,0.0,0.0,0.0
2543152663,0.017223269,-0.07643534,0.22330597,-0.010783672,0.075348794,0.21016693,0.0,0.0,0.0,-0.0076195076,0.0,0.0,0.0,0.0,0.0,0.26316443,0.26317134,0.5717458,0.5344977,0.5345118,4.0561633,0.0,0.0,0.0,0.0901668,0.0,0.0,0.0,0.0,0.0,5.3138036e-05,0.008769056,0.028004956,0.0,0.0,0.0,0.0,0.0,0.0
2543352557,-0.11540967,0.046732783,0.10960084,-0.02678752,0.08094281,-0.47569275,0.0,0.0,0.0,0.009636369,0.0,0.0,0.0,0.0,0.0,0.2632087,0.26321366,0.5717927,0.53351915,0.53353286,4.0563335,0.0,0.0,0.0,0.09016696,0.0,0.0,0.0,0.0,0.0,0.00021849875,0.009816011,0.029840417,0.0,0.0,0.0,0.0,0.0,0.0
2543556562,-0.1065501,0.013087362,0.13418594,-0.034064054,0.08875638,-0.09970856,0.0,0.0,0.0,-0.012360226,0.0,0.0,0.0,0.0,0.0,0.2631869,0.2631917,0.5718056,0.5335091,0.5335218,4.0564947,0.0,0.0,0.0,0.090166934,0.0,0.0,0.0,0.0,0.0,0.00031053447,0.010023215,0.031638417,0.0,0.0,0.0,0.0,0.0,0.0
2543756707,-0.0028545558,-0.07969737,0.14677975,-0.023785114,0.07060158,-0.021850586,0.0,0.0,0.0,-0.054557603,0.0,0.0,0.0,0.0,0.0,0.2631676,0.26317245,0.5718172,0.53349715,0.53350866,4.0563636,0.0,0.0,0.0,0.09016693,0.0,0.0,0.0,0.0,0.0,0.00015367444,0.009690326,0.0324603,0.0,0.0,0.0,0.0,0.0,0.0
2543961989,-0.23759444,0.2743873,0.20779413,-0.054291725,0.093058705,0.6451416,0.0,0.0,0.0,0.031625945,0.0,0.0,0.0,0.0,0.0,0.26313004,0.26313403,0.57175136,0.53210354,0.5321138,4.056296,0.0,0.0,0.0,0.090166844,0.0,0.0,0.0,0.0,0.0,0.00049458764,0.017578008,0.052631475,0.0,0.0,0.0,0.0,0.0,0.0
2544162224,-0.07007526,-0.021959655,-0.048619866,-0.0729413,0.084913135,0.16269684,0.0,0.0,0.0,-0.0034317747,0.0,0.0,0.0,0.0,0.0,0.2631077,0.2631112,0.5717662,0.5307237,0.53073245,4.0565176,0.0,0.0,0.0,0.09016672,0.0,0.0,0.0,0.0,0.0,0.00027867433,0.009421117,0.032013007,0.0,0.0,0.0,0.0,0.0,0.0
2544361991,0.0005999878,-0.33675513,-0.12671506,-0.06311512,0.05389142,0.033294678,0.0,0.0,0.0,0.0646632,0.0,0.0,0.0,0.0,0.0,0.2630423,0.2630469,0.5717507,0.5303619,0.530369,4.0563827,0.0,0.0,0.0,0.09016646,0.0,0.0,0.0,0.0,0.0,0.0004131265,0.008165145,0.015904201,0.0,0.0,0.0,0.0,0.0,0.0
2544566186,0.08541422,-0.12791726,-0.066805065,-0.042239428,0.033198774,-0.014778137,0.0,0.0,0.0,-0.05460634,0.0,0.0,0.0,0.0,0.0,0.26306096,0.26306507,0.5717623,0.5289735,0.5289792,4.0562606,0.0,0.0,0.0,0.09016641,0.0,0.0,0.0,0.0,0.0,0.0003138949,0.008209534,0.015635435,0.0,0.0,0.0,0.0,0.0,0.0
2544770182,0.058924995,-0.052576542,-0.041046023,-0.03432679,0.03352368,-0.17795563,0.0,0.0,0.0,-0.018724777,0.0,0.0,0.0,0.0,0.0,0.2631089,0.2631115,0.57173115,0.5279068,0.5279112,4.0564694,0.0,0.0,0.0,0.09016657,0.0,0.0,0.0,0.0,0.0,0.0001450739,0.006841784,0.0150498785,0.0,0.0,0.0,0.0,0.0,0.0
2544970178,0.054937765,0.10197709,0.04105389,-0.026131868,0.05212748,-0.11986542,0.0,0.0,0.0,-0.022992954,0.0,0.0,0.0,0.0,0.0,0.2632259,0.26322934,0.5718058,0.5284953,0.52849865,4.0563374,0.0,0.0,0.0,0.090166464,0.0,0.0,0.0,0.0,0.0,0.00014402032,0.007309379,0.021800796,0.0,0.0,0.0,0.0,0.0,0.0
2545174025,0.062173918,0.02686277,0.08250719,-0.009147167,0.04847163,0.14339447,0.0,0.0,0.0,-0.065072484,0.0,0.0,0.0,0.0,0.0,0.2630978,0.26310062,0.57175654,0.5276613,0.5276639,4.0562196,0.0,0.0,0.0,0.09016642,0.0,0.0,0.0,0.0,0.0,0.0003652954,0.009189568,0.028831815,0.0,0.0,0.0,0.0,0.0,0.0
2545374166,0.044332474,-0.042102084,0.14206442,0.00051903725,0.04780692,-0.23503876,0.0,0.0,0.0,-0.026874345,0.0,0.0,0.0,0.0,0.0,0.26310083,0.26310226,0.5717708,0.5276095,0.52761155,4.056167,0.0,0.0,0.0,0.09016659,0.0,0.0,0.0,0.0,0.0,0.00016088996,0.004865441,0.012161362,0.0,0.0,0.0,0.0,0.0,0.0
2545578241,-0.06476824,0.1986317,0.13157308,-0.00073075294,0.08751923,-0.21346283,0.0,0.0,0.0,-0.009728923,0.0,0.0,0.0,0.0,0.0,0.26312655,0.263135,0.57173103,0.5275363,0.5275383,4.056072,0.0,0.0,0.0,0.0901666,0.0,0.0,0.0,0.0,0.0,0.0004997728,0.016815221,0.032389775,0.0,0.0,0.0,0.0,0.0,0.0
2545782179,-0.16991302,0.2091602,0.023601055,-0.043406487,0.11999035,-0.052864075,0.0,0.0,0.0,0.029586647,0.0,0.0,0.0,0.0,0.0,0.26307052,0.2630835,0.57172,0.5244394,0.5244421,4.0555143,0.0,0.0,0.0,0.090166606,0.0,0.0,0.0,0.0,0.0,0.0007411574,0.023168799,0.04359871,0.0,0.0,0.0,0.0,0.0,0.0
2545982189,-0.0369723,0.16956256,0.041759133,-0.033343792,0.12444699,0.016983032,0.0,0.0,0.0,0.001982469,0.0,0.0,0.0,0.0,0.0,0.26305377,0.26306978,0.57174116,0.52442217,0.524426,4.0559654,0.0,0.0,0.0,0.09016643,0.0,0.0,0.0,0.0,0.0,0.0007475693,0.021842416,0.044465315,0.0,0.0,0.0,0.0,0.0,0.0
2546182293,-0.073294014,0.06267309,-0.06500012,-0.04944396,0.12470496,-0.15732574,0.0,0.0,0.0,-0.006678026,0.0,0.0,0.0,0.0,0.0,0.26311246,0.26312956,0.57171786,0.5247418,0.52474725,4.0561733,0.0,0.0,0.0,0.090166524,0.0,0.0,0.0,0.0,0.0,0.00056531315,0.016299993,0.03693914,0.0,0.0,0.0,0.0,0.0,0.0
2546382099,-0.073294014,0.06267309,-0.06500012,-0.04944396,0.12470496,0.24259949,0.0,0.0,0.0,0.11460407,0.0,0.0,0.0,0.0,0.0,0.26311246,0.26312956,0.57171786,0.5247418,0.52474725,4.0560784,0.0,0.0,0.0,0.09016653,0.0,0.0,0.0,0.0,0.0,0.0003358678,0.007012567,0.022668911,0.0,0.0,0.0,0.0,0.0,0.0
2546586250,-0.053109795,0.14271213,0.009542465,-0.058900356,0.121323645,0.1198349,0.0,0.0,0.0,-0.023049083,0.0,0.0,0.0,0.0,0.0,0.26304698,0.26305804,0.5717234,0.5256387,0.5256461,4.0557947,0.0,0.0,0.0,0.09016663,0.0,0.0,0.0,0.0,0.0,0.00046096684,0.014126294,0.035289917,0.0,0.0,0.0,0.0,0.0,0.0
2546790101,-0.07494389,0.25496763,0.16524482,-0.07073569,0.14413899,0.99024963,0.0,0.0,0.0,0.042950574,0.0,0.0,0.0,0.0,0.0,0.26306432,0.26307225,0.5717391,0.5243013,0.5243089,4.0556903,0.0,0.0,0.0,0.09016654,0.0,0.0,0.0,0.0,0.0,0.0007680275,0.022116957,0.049705785,0.0,0.0,0.0,0.0,0.0,0.0
2546994096,-0.2344991,0.11632814,0.062251747,-0.08372259,0.14667797,-0.11722565,0.0,0.0,0.0,-0.01894252,0.0,0.0,0.0,0.0,0.0,0.26309782,0.26310402,0.571757,0.5243152,0.52432257,4.0556517,0.0,0.0,0.0,0.090166464,0.0,0.0,0.0,0.0,0.0,0.0008074473,0.02151611,0.04570784,0.0,0.0,0.0,0.0,0.0,0.0
2547194142,-0.17845348,0.05619608,0.13874799,-0.10693264,0.14914918,0.47003937,0.0,0.0,0.0,-0.020703256,0.0,0.0,0.0,0.0,0.0,0.26310977,0.26311368,0.57177585,0.5256976,0.5257044,4.055838,0.0,0.0,0.0,0.09016642,0.0,0.0,0.0,0.0,0.0,0.0010161358,0.019789346,0.04260509,0.0,0.0,0.0,0.0,0.0,0.0
2547399764,0.0002544634,0.021732435,-0.0030151606,-0.10629201,0.13246238,-0.121170044,0.0,0.0,0.0,-0.052597485,0.0,0.0,0.0,0.0,0.0,0.26321536,0.2632155,0.571747,0.524703,0.52470887,4.0557313,0.0,0.0,0.0,0.09016609,0.0,0.0,0.0,0.0,0.0,0.000551625,0.010293096,0.027044008,0.0,0.0,0.0,0.0,0.0,0.0
2547599741,-0.0161756,-0.06145598,0.05155039,-0.08812523,0.114886284,0.026603699,0.0,0.0,0.0,0.052037936,0.0,0.0,0.0,0.0,0.0,0.26321313,0.2632088,0.57176155,0.5245813,0.52458596,4.0556135,0.0,0.0,0.0,0.09016642,0.0,0.0,0.0,0.0,0.0,0.00030462656,0.005817684,0.015763868,0.0,0.0,0.0,0.0,0.0,0.0
2547799590,-0.103208706,-0.11698747,-0.028298438,-0.09557366,0.0981487,-0.01890564,0.0,0.0,0.0,-0.034595195,0.0,0.0,0.0,0.0,0.0,0.26337397,0.26336774,0.571797,0.52559,0.52559334,4.0563364,0.0,0.0,0.0,0.090166084,0.0,0.0,0.0,0.0,0.0,0.00035051777,0.011272715,0.020756353,0.0,0.0,0.0,0.0,0.0,0.0
2548003524,-0.079699114,-0.038713157,0.0421443,-0.09182978,0.077087104,0.32848358,0.0,0.0,0.0,-0.002651345,0.0,0.0,0.0,0.0,0.0,0.26318315,0.26317614,0.57172,0.52307785,0.52307993,4.055975,0.0,0.0,0.0,0.090165935,0.0,0.0,0.0,0.0,0.0,0.00043351972,0.010687583,0.023347883,0.0,0.0,0.0,0.0,0.0,0.0
2548207799,-0.0372022,-0.029164344,0.14013034,-0.08049917,0.059087634,0.75315857,0.0,0.0,0.0,0.022221584,0.0,0.0,0.0,0.0,0.0,0.26318008,0.26317555,0.5717343,0.52307194,0.52307296,4.055854,0.0,0.0,0.0,0.090166084,0.0,0.0,0.0,0.0,0.0,0.0002849488,0.01160202,0.03053451,0.0,0.0,0.0,0.0,0.0,0.0
2548407745,-0.13486128,-0.047714412,0.079380274,-0.075241566,0.057642758,0.7621002,0.0,0.0,0.0,0.06836546,0.0,0.0,0.0,0.0,0.0,0.2631519,0.26315188,0.57174915,0.5217008,0.52170134,4.055798,0.0,0.0,0.0,0.09016641,0.0,0.0,0.0,0.0,0.0,0.00034883627,0.015704243,0.043283578,0.0,0.0,0.0,0.0,0.0,0.0
2548607780,-0.0036584064,-0.062305257,-0.027206779,-0.06770182,0.041609347,-0.11212158,0.0,0.0,0.0,-0.04356414,0.0,0.0,0.0,0.0,0.0,0.26310292,0.26310796,0.5717627,0.52303267,0.52303356,4.055956,0.0,0.0,0.0,0.09016647,0.0,0.0,0.0,0.0,0.0,0.00027614323,0.012603978,0.03686374,0.0,0.0,0.0,0.0,0.0,0.0
2548807711,-0.061420277,0.04309915,-0.07622057,-0.06188321,0.035585463,0.0034179688,0.0,0.0,0.0,-0.005536303,0.0,0.0,0.0,0.0,0.0,0.26308915,0.26309922,0.57177323,0.5230243,0.5230266,4.0560966,0.0,0.0,0.0,0.0901662,0.0,0.0,0.0,0.0,0.0,0.00021294311,0.008053089,0.028187107,0.0,0.0,0.0,0.0,0.0,0.0
2549011715,-0.1180188,-0.095875084,-0.10949433,-0.05401182,0.025794148,0.06882477,0.0,0.0,0.0,0.01273546,0.0,0.0,0.0,0.0,0.0,0.26307562,0.2630893,0.5717811,0.52437913,0.52438354,4.056217,0.0,0.0,0.0,0.090166174,0.0,0.0,0.0,0.0,0.0,0.00039710852,0.009167617,0.019618131,0.0,0.0,0.0,0.0,0.0,0.0
2549215608,-0.10089879,-0.03690254,0.07366139,-0.06629896,0.014686465,0.62044525,0.0,0.0,0.0,-0.0043988787,0.0,0.0,0.0,0.0,0.0,0.2630803,0.26309556,0.57179075,0.52438676,0.5243937,4.056065,0.0,0.0,0.0,0.09016623,0.0,0.0,0.0,0.0,0.0,0.00046885823,0.00874062,0.021577228,0.0,0.0,0.0,0.0,0.0,0.0
2549419751,-0.06729001,-0.1130058,-0.1037246,-0.06270385,-0.0028717518,-0.19845581,0.0,0.0,0.0,-0.02685221,0.0,0.0,0.0,0.0,0.0,0.26310322,0.26311353,0.5718026,0.5243957,0.5244049,4.056192,0.0,0.0,0.0,0.09016625,0.0,0.0,0.0,0.0,0.0,0.00036396977,0.01127022,0.025568752,0.0,0.0,0.0,0.0,0.0,0.0
