timestamp,timestamp_sample,control[0],control[1],control[2],control[3],control[4],control[5],control[6],control[7]
2508751879,2508751674,-0.0069481735,-0.0153058935,-0.0004360252,0.4951647,0.0,0.0,0.0,-1.0
2508875820,2508875674,-0.0060231583,-0.016495261,-0.0016477116,0.5206916,0.0,0.0,0.0,-1.0
2508919856,2508919674,-0.0065442575,-0.016109493,-0.0014605874,0.52952796,0.0,0.0,0.0,-1.0
2508959860,2508959674,-0.0068347594,-0.015835559,-0.00084587565,0.5377517,0.0,0.0,0.0,-1.0
2509003806,2509003674,-0.009174563,-0.016297497,0.0019789094,0.5465173,0.0,0.0,0.0,-1.0
2509043810,2509043674,-0.006352468,-0.012273639,-0.002461027,0.55527765,0.0,0.0,0.0,-1.0
2509087852,2509087674,-0.0040527117,-0.016849723,0.00189418,0.5626827,0.0,0.0,0.0,-1.0
2509127846,2509127674,-0.0112596685,-0.01033007,-0.019297207,0.5732149,0.0,0.0,0.0,-1.0
2509167863,2509167674,-0.015624458,-0.0034165338,0.02197021,0.5803076,0.0,0.0,0.0,-1.0
2509209468,2509209276,-0.0037232349,-0.036915343,-0.006158787,0.59011793,0.0,0.0,0.0,-1.0
2509249442,2509249274,-0.0014255536,-0.005373796,-0.019274814,0.5979832,0.0,0.0,0.0,-1.0
2509293440,2509293282,-0.0135748,-0.024104888,0.004559513,0.60899675,0.0,0.0,0.0,-1.0
2509333414,2509333274,-0.0135802245,-0.035338104,0.005146622,0.6162725,0.0,0.0,0.0,-1.0
2509377488,2509377300,-0.010793312,-0.008312603,-0.00021745011,0.6266401,0.0,0.0,0.0,-1.0
2509417464,2509417274,-0.011499652,-0.012538198,-0.0010620327,0.6347837,0.0,0.0,0.0,-1.0
2509461466,2509461323,-0.0045671114,-0.02047901,0.0019616163,0.6441939,0.0,0.0,0.0,-1.0
2509501413,2509501274,-0.005466312,-0.015828734,0.0003527143,0.6528563,0.0,0.0,0.0,-1.0
2509545469,2509545282,-0.007266811,-0.015432674,-0.001355166,0.6624896,0.0,0.0,0.0,-1.0
2509585468,2509585274,-0.0076624844,-0.022186086,0.0007421488,0.67098856,0.0,0.0,0.0,-1.0
2509629465,2509629329,-0.007932913,-0.018797388,-0.00373668,0.68029547,0.0,0.0,0.0,-1.0
2509669412,2509669274,-0.00762179,-0.0056744013,-0.0031795958,0.6863283,0.0,0.0,0.0,-1.0
2509713500,2509713323,-0.0016955948,0.034431413,0.0055479165,0.68737596,0.0,0.0,0.0,-1.0
2509765416,2509765274,0.011377135,0.10212224,0.020989364,0.6830465,0.0,0.0,0.0,-1.0
2509809410,2509809274,0.014888962,0.14504293,0.024253894,0.69019216,0.0,0.0,0.0,-1.0
2509853414,2509853281,0.016618008,0.12189269,0.019678311,0.6649572,0.0,0.0,0.0,-1.0
2509893415,2509893280,0.008416652,0.08142167,0.016662534,0.6426532,0.0,0.0,0.0,-1.0
2509937454,2509937309,0.0030023286,0.057589866,0.0048261452,0.6215977,0.0,0.0,0.0,-1.0
2509977441,2509977297,0.025564957,0.07894002,-0.0108042145,0.59945047,0.0,0.0,0.0,-1.0
2510021406,2510021274,0.026464812,0.04212482,-0.015759686,0.5701495,0.0,0.0,0.0,-1.0
2510061409,2510061274,0.016303021,0.001209924,-0.0145694185,0.55067617,0.0,0.0,0.0,-1.0
2510105457,2510105317,0.014900764,-0.016414264,-0.024975682,0.53892523,0.0,0.0,0.0,-1.0
2510145468,2510145309,0.015644135,-0.026254442,-0.033899065,0.5301721,0.0,0.0,0.0,-1.0
2510189410,2510189274,-0.012273906,-0.011066072,-0.03345248,0.52424395,0.0,0.0,0.0,-1.0
2510229419,2510229280,-0.0030433808,0.0034593958,-0.03453736,0.51875037,0.0,0.0,0.0,-1.0
2510273453,2510273313,-0.025262635,-0.01159664,-0.035806622,0.5168874,0.0,0.0,0.0,-1.0
2510313440,2510313295,-0.030899616,-0.022451533,-0.038133923,0.5123593,0.0,0.0,0.0,-1.0
2510357432,2510357287,-0.02188749,-0.027256362,-0.04033078,0.51208156,0.0,0.0,0.0,-1.0
2510397420,2510397273,-0.028097412,-0.026266439,-0.038822122,0.51195616,0.0,0.0,0.0,-1.0
2510441444,2510441303,-0.037217185,-0.03237052,-0.03705172,0.51281774,0.0,0.0,0.0,-1.0
2510481460,2510481273,-0.042291727,-0.0443885,-0.035070486,0.51372683,0.0,0.0,0.0,-1.0
2510525437,2510525285,-0.036504976,-0.036977597,-0.031780005,0.5107198,0.0,0.0,0.0,-1.0
2510565420,2510565280,-0.04570062,-0.037558157,-0.031455837,0.51286584,0.0,0.0,0.0,-1.0
2510609448,2510609314,-0.051882587,-0.047131173,-0.03334061,0.51729465,0.0,0.0,0.0,-1.0
2510649468,2510649273,-0.039702415,-0.03895436,-0.035648365,0.5136447,0.0,0.0,0.0,-1.0
2510693432,2510693299,-0.035380825,-0.031175269,-0.035435192,0.5128471,0.0,0.0,0.0,-1.0
2510733437,2510733274,-0.04581217,-0.032004826,-0.03151666,0.5115802,0.0,0.0,0.0,-1.0
2510777455,2510777291,-0.049543004,-0.0315563,-0.03364981,0.51388764,0.0,0.0,0.0,-1.0
2510817477,2510817274,-0.050028853,-0.028432038,-0.031915076,0.5160838,0.0,0.0,0.0,-1.0
2510861409,2510861274,-0.04958069,-0.0319331,-0.031381458,0.5122908,0.0,0.0,0.0,-1.0
2510901458,2510901286,-0.059224196,-0.023275135,-0.033640705,0.5147958,0.0,0.0,0.0,-1.0
2510941441,2510941280,-0.054389656,-0.025939785,-0.030610181,0.5167388,0.0,0.0,0.0,-1.0
2510985460,2510985274,-0.05570648,-0.024194403,-0.031110898,0.51662886,0.0,0.0,0.0,-1.0
2511025446,2511025274,-0.05774199,-0.025406558,-0.029777288,0.5193808,0.0,0.0,0.0,-1.0
2511069410,2511069274,-0.05824485,-0.02393137,-0.028750103,0.51978153,0.0,0.0,0.0,-1.0
2511109414,2511109274,-0.053705644,-0.028267143,-0.027077686,0.51739377,0.0,0.0,0.0,-1.0
2511153477,2511153274,-0.054725923,-0.028310867,-0.026931273,0.5200005,0.0,0.0,0.0,-1.0
2511193467,2511193274,-0.058847904,-0.032541513,-0.023998052,0.52304024,0.0,0.0,0.0,-1.0
2511237413,2511237274,-0.058446504,-0.033492114,-0.02394413,0.51758426,0.0,0.0,0.0,-1.0
2511277410,2511277274,-0.05879723,-0.038690057,-0.022847775,0.5212756,0.0,0.0,0.0,-1.0
2511321447,2511321274,-0.059701666,-0.03799744,-0.021697521,0.5211251,0.0,0.0,0.0,-1.0
2511361465,2511361274,-0.0531051,-0.043405335,-0.02450322,0.5231181,0.0,0.0,0.0,-1.0
2511401408,2511401275,-0.03729533,-0.035289936,-0.022713061,0.5226864,0.0,0.0,0.0,-1.0
2511441413,2511441274,-0.025173167,-0.024980254,-0.021816064,0.5245419,0.0,0.0,0.0,-1.0
2511485406,2511485274,-0.024336481,-0.035572007,-0.020788677,0.52870196,0.0,0.0,0.0,-1.0
2511525420,2511525277,-0.027557863,-0.027907709,-0.026834626,0.53835005,0.0,0.0,0.0,-1.0
2511569406,2511569274,-0.0390319,-0.02715919,-0.028591156,0.54144156,0.0,0.0,0.0,-1.0
2511613422,2511613286,-0.047017436,-0.032692242,-0.034251973,0.53899795,0.0,0.0,0.0,-1.0
2511657449,2511657274,-0.053249482,-0.03718198,-0.039688572,0.53556204,0.0,0.0,0.0,-1.0
2511697418,2511697274,-0.0635667,-0.037452087,-0.0427479,0.5283923,0.0,0.0,0.0,-1.0
2511741421,2511741274,-0.06741379,-0.034047257,-0.043809056,0.5259219,0.0,0.0,0.0,-1.0
2511781428,2511781274,-0.0660173,-0.033328846,-0.04809489,0.5199045,0.0,0.0,0.0,-1.0
2511825409,2511825274,-0.056609336,-0.034831855,-0.048404343,0.51847,0.0,0.0,0.0,-1.0
2511865410,2511865274,-0.055039432,-0.036561854,-0.047306277,0.5169063,0.0,0.0,0.0,-1.0
2511905419,2511905274,-0.056447655,-0.034975216,-0.045799457,0.51612455,0.0,0.0,0.0,-1.0
2511945434,2511945274,-0.05029528,-0.0384693,-0.045980096,0.51596326,0.0,0.0,0.0,-1.0
2511989442,2511989294,-0.048118394,-0.03498308,-0.044627417,0.51444477,0.0,0.0,0.0,-1.0
2512029435,2512029301,-0.047245633,-0.037358675,-0.04009505,0.5154454,0.0,0.0,0.0,-1.0
2512073410,2512073274,-0.04655172,-0.03430974,-0.040022075,0.5106583,0.0,0.0,0.0,-1.0
2512113421,2512113275,-0.046493363,-0.03801145,-0.040001463,0.5154155,0.0,0.0,0.0,-1.0
2512157427,2512157286,-0.045017168,-0.03772579,-0.0357762,0.51440144,0.0,0.0,0.0,-1.0
2512197447,2512197274,-0.04105779,-0.034314662,-0.03889127,0.51111454,0.0,0.0,0.0,-1.0
2512241414,2512241274,-0.043033995,-0.03802656,-0.038699012,0.51519275,0.0,0.0,0.0,-1.0
2512285461,2512285317,-0.03919294,-0.03292299,-0.038274586,0.5136483,0.0,0.0,0.0,1.0
2512329433,2512329281,-0.03987972,-0.034889273,-0.037217073,0.51177675,0.0,0.0,0.0,1.0
2512369422,2512369284,-0.043258302,-0.034442306,-0.038513564,0.51293445,0.0,0.0,0.0,1.0
2512413468,2512413313,-0.049369384,-0.035840485,-0.040659785,0.51555824,0.0,0.0,0.0,1.0
2512453413,2512453277,-0.04907983,-0.044105265,-0.04131608,0.51780874,0.0,0.0,0.0,1.0
2512497410,2512497274,-0.05196772,-0.040627748,-0.04202549,0.5173678,0.0,0.0,0.0,1.0
2512537414,2512537274,-0.054056305,-0.03564919,-0.040622935,0.5188152,0.0,0.0,0.0,1.0
2512581422,2512581279,-0.049992606,-0.03290165,-0.038446363,0.5117235,0.0,0.0,0.0,1.0
2512621451,2512621274,-0.05472691,-0.0319137,-0.040344052,0.517536,0.0,0.0,0.0,1.0
2512663006,2512662874,-0.051081732,-0.03305716,-0.040762126,0.51908547,0.0,0.0,0.0,1.0
2512707017,2512706874,-0.049828902,-0.033943303,-0.041123606,0.5177069,0.0,0.0,0.0,1.0
2512747020,2512746874,-0.051596183,-0.03415107,-0.039299726,0.5171679,0.0,0.0,0.0,1.0
2512791039,2512790899,-0.055970762,-0.03837772,-0.041960742,0.5208933,0.0,0.0,0.0,1.0
2512831006,2512830874,-0.060599133,-0.040117975,-0.04168914,0.5214637,0.0,0.0,0.0,1.0
2512875021,2512874874,-0.05496969,-0.038983673,-0.040284283,0.51986253,0.0,0.0,0.0,1.0
2512915018,2512914881,-0.049832482,-0.039252542,-0.044427566,0.51486105,0.0,0.0,0.0,1.0
2512959023,2512958885,-0.05547438,-0.043474037,-0.04501411,0.51713353,0.0,0.0,0.0,1.0
2512999009,2512998874,-0.059117682,-0.040129922,-0.044494674,0.51408696,0.0,0.0,0.0,1.0
2513043016,2513042874,-0.06403896,-0.04007132,-0.044439644,0.514492,0.0,0.0,0.0,1.0
2513083011,2513082876,-0.06935919,-0.043753956,-0.043444686,0.5165031,0.0,0.0,0.0,1.0
2513127039,2513126900,-0.07300552,-0.04963838,-0.041506417,0.51567006,0.0,0.0,0.0,1.0
2513167051,2513166916,-0.06888619,-0.046109498,-0.04437245,0.51648635,0.0,0.0,0.0,1.0
2513211017,2513210874,-0.068271264,-0.051795807,-0.04221584,0.515332,0.0,0.0,0.0,1.0
2513251006,2513250874,-0.06622926,-0.057432175,-0.04106362,0.5122434,0.0,0.0,0.0,1.0
2513295053,2513294912,-0.0733657,-0.060799595,-0.040824357,0.5184791,0.0,0.0,0.0,1.0
2513335009,2513334872,-0.0732508,-0.06314361,-0.040399864,0.5116273,0.0,0.0,0.0,1.0
2513379032,2513378885,-0.06879959,-0.06641158,-0.040296696,0.5048779,0.0,0.0,0.0,1.0
2513419003,2513418874,-0.0727345,-0.07267572,-0.042970173,0.5085793,0.0,0.0,0.0,1.0
2513463045,2513462912,-0.0733016,-0.07395029,-0.043522812,0.510134,0.0,0.0,0.0,1.0
2513503053,2513502911,-0.07110627,-0.06913008,-0.042839576,0.5062913,0.0,0.0,0.0,1.0
2513547029,2513546877,-0.07476377,-0.07474724,-0.040248588,0.5052677,0.0,0.0,0.0,1.0
2513587017,2513586874,-0.06654857,-0.07523361,-0.041713424,0.50647295,0.0,0.0,0.0,1.0
2513631056,2513630920,-0.06546643,-0.07436229,-0.042952944,0.5045446,0.0,0.0,0.0,1.0
2513671041,2513670874,-0.063314855,-0.07345062,-0.0412474,0.5021026,0.0,0.0,0.0,1.0
2513715020,2513714874,-0.06711112,-0.08044621,-0.040315215,0.5038343,0.0,0.0,0.0,1.0
2513755024,2513754874,-0.062226627,-0.07643077,-0.041403107,0.505071,0.0,0.0,0.0,1.0
2513799049,2513798883,-0.0627945,-0.07169139,-0.04203187,0.5045541,0.0,0.0,0.0,1.0
2513839055,2513838874,-0.06570402,-0.07021204,-0.041018076,0.5061116,0.0,0.0,0.0,1.0
2513883023,2513882890,-0.05765427,-0.07055798,-0.038581125,0.50511914,0.0,0.0,0.0,1.0
2513923017,2513922874,-0.056097265,-0.06771044,-0.039764073,0.5054666,0.0,0.0,0.0,1.0
2513967058,2513966875,-0.049456157,-0.061931733,-0.04321225,0.49955696,0.0,0.0,0.0,1.0
2514007036,2514006874,-0.05272344,-0.06910737,-0.0412174,0.5095553,0.0,0.0,0.0,1.0
2514051006,2514050874,-0.05586986,-0.06549479,-0.04061845,0.51336426,0.0,0.0,0.0,1.0
2514091012,2514090874,-0.056912646,-0.05079643,-0.037815735,0.51208216,0.0,0.0,0.0,1.0
2514135064,2514134880,-0.062373616,-0.05266217,-0.039550364,0.513801,0.0,0.0,0.0,1.0
2514175056,2514174880,-0.062131383,-0.047602776,-0.03656213,0.5133856,0.0,0.0,0.0,1.0
2514219014,2514218877,-0.062270503,-0.049036577,-0.033467464,0.5171779,0.0,0.0,0.0,1.0
2514259006,2514258874,-0.057571106,-0.04635245,-0.030790042,0.51224697,0.0,0.0,0.0,1.0
2514303059,2514302877,-0.05834183,-0.049601097,-0.032175012,0.52027917,0.0,0.0,0.0,1.0
2514343049,2514342875,-0.052948516,-0.046988655,-0.032168124,0.5140854,0.0,0.0,0.0,1.0
2514383069,2514382874,-0.05295453,-0.053050965,-0.033363976,0.5174178,0.0,0.0,0.0,1.0
2514423006,2514422874,-0.055563,-0.04594771,-0.039991755,0.5156922,0.0,0.0,0.0,1.0
2514467013,2514466877,-0.062246602,-0.053330977,-0.036285304,0.51491636,0.0,0.0,0.0,1.0
2514507009,2514506874,-0.06645651,-0.05729265,-0.0397756,0.5194938,0.0,0.0,0.0,1.0
2514551051,2514550874,-0.067691445,-0.058661453,-0.03938241,0.51559407,0.0,0.0,0.0,1.0
2514591013,2514590874,-0.06634036,-0.06733969,-0.04066725,0.51507664,0.0,0.0,0.0,1.0
2514635023,2514634884,-0.06495416,-0.06811991,-0.03924871,0.5164461,0.0,0.0,0.0,1.0
2514675006,2514674874,-0.060199685,-0.07148715,-0.042746365,0.51803863,0.0,0.0,0.0,1.0
2514719014,2514718874,-0.05919817,-0.06696979,-0.044964053,0.51278144,0.0,0.0,0.0,1.0
2514759015,2514758874,-0.06546566,-0.06621549,-0.042837977,0.51963836,0.0,0.0,0.0,1.0
2514803013,2514802874,-0.0593625,-0.061461326,-0.047090117,0.5154466,0.0,0.0,0.0,1.0
2514843010,2514842874,-0.059563365,-0.061818335,-0.042958744,0.51422775,0.0,0.0,0.0,1.0
2514887022,2514886881,-0.059467964,-0.06272114,-0.039830595,0.5177425,0.0,0.0,0.0,1.0
2514927010,2514926874,-0.05300969,-0.057810944,-0.03991754,0.51619965,0.0,0.0,0.0,1.0
2514971012,2514970874,-0.046826392,-0.051564805,-0.043129712,0.51374245,0.0,0.0,0.0,1.0
2515011026,2515010887,-0.051548325,-0.05791484,-0.038943537,0.52654004,0.0,0.0,0.0,1.0
2515055013,2515054874,-0.05260529,-0.053267628,-0.040397707,0.5286888,0.0,0.0,0.0,1.0
2515095010,2515094874,-0.047561362,-0.058840167,-0.040899973,0.5288995,0.0,0.0,0.0,1.0
2515139044,2515138887,-0.047849786,-0.056216918,-0.04098912,0.5303405,0.0,0.0,0.0,1.0
2515179047,2515178909,-0.045275286,-0.056433983,-0.044144616,0.5320239,0.0,0.0,0.0,1.0
2515223021,2515222880,-0.046502694,-0.05779128,-0.044223193,0.53327036,0.0,0.0,0.0,1.0
2515263006,2515262874,-0.045714688,-0.059999656,-0.043827966,0.5377667,0.0,0.0,0.0,1.0
2515307037,2515306895,-0.044901803,-0.053264778,-0.04404598,0.54083407,0.0,0.0,0.0,1.0
2515347050,2515346899,-0.044474907,-0.059650183,-0.040117968,0.5439275,0.0,0.0,0.0,1.0
2515391019,2515390873,-0.037254494,-0.05641068,-0.04186639,0.5417667,0.0,0.0,0.0,1.0
2515431007,2515430875,-0.0419432,-0.06290199,-0.039793383,0.5449978,0.0,0.0,0.0,1.0
2515475016,2515474880,-0.047325876,-0.06794434,-0.033091325,0.54204875,0.0,0.0,0.0,1.0
2515515057,2515514874,-0.045942932,-0.071954384,-0.028702019,0.5403209,0.0,0.0,0.0,1.0
2515559016,2515558874,-0.052831724,-0.07933314,-0.027316086,0.5455148,0.0,0.0,0.0,1.0
2515599028,2515598875,-0.05147829,-0.07190648,-0.024629226,0.5395831,0.0,0.0,0.0,1.0
2515643048,2515642893,-0.049739562,-0.07299535,-0.02538379,0.5382501,0.0,0.0,0.0,1.0
2515683059,2515682874,-0.04583724,-0.06967414,-0.02503195,0.53759354,0.0,0.0,0.0,1.0
2515727024,2515726873,-0.042288516,-0.0618917,-0.028603619,0.5368321,0.0,0.0,0.0,1.0
2515767032,2515766881,-0.043350466,-0.06354692,-0.030165346,0.53886515,0.0,0.0,0.0,1.0
2515811048,2515810873,-0.042202134,-0.05909576,-0.031102076,0.53978115,0.0,0.0,0.0,1.0
2515851042,2515850874,-0.046759248,-0.059417307,-0.036286615,0.54093665,0.0,0.0,0.0,1.0
2515895023,2515894874,-0.045199968,-0.06019099,-0.039450858,0.5432241,0.0,0.0,0.0,1.0
2515935021,2515934888,-0.042772014,-0.052912958,-0.039478872,0.54489845,0.0,0.0,0.0,1.0
2515979038,2515978874,-0.045408316,-0.04932426,-0.037969142,0.5433424,0.0,0.0,0.0,1.0
2516019049,2516018874,-0.04565899,-0.046094835,-0.037136797,0.5444254,0.0,0.0,0.0,1.0
2516063009,2516062874,-0.04093968,-0.049199782,-0.039171115,0.5499583,0.0,0.0,0.0,1.0
2516104676,2516104494,-0.043379262,-0.045764863,-0.03605372,0.5506639,0.0,0.0,0.0,1.0
2516144658,2516144478,-0.04395355,-0.042238813,-0.035308033,0.5535797,0.0,0.0,0.0,1.0
2516188680,2516188504,-0.048605945,-0.051067937,-0.028749514,0.5584167,0.0,0.0,0.0,1.0
2516228650,2516228478,-0.047724683,-0.046696153,-0.029143564,0.557162,0.0,0.0,0.0,1.0
2516272662,2516272483,-0.04923014,-0.0531732,-0.024193209,0.5529552,0.0,0.0,0.0,1.0
2516312652,2516312474,-0.058499284,-0.06499054,-0.01958382,0.55442387,0.0,0.0,0.0,1.0
2516352623,2516352480,-0.06680586,-0.05472464,-0.018341249,0.5494404,0.0,0.0,0.0,1.0
2516396690,2516396482,-0.064917505,-0.06189523,-0.014933506,0.54638994,0.0,0.0,0.0,1.0
2516440662,2516440483,-0.07035577,-0.06971678,-0.015025733,0.5479033,0.0,0.0,0.0,1.0
2516480643,2516480474,-0.07204289,-0.063854545,-0.015658863,0.5404616,0.0,0.0,0.0,1.0
2516520635,2516520488,-0.06529789,-0.06330956,-0.015184158,0.53377205,0.0,0.0,0.0,1.0
2516564674,2516564476,-0.059223022,-0.06819746,-0.017728694,0.52725846,0.0,0.0,0.0,1.0
2516608656,2516608482,-0.06532955,-0.06809894,-0.016871234,0.5319413,0.0,0.0,0.0,1.0
2516648648,2516648474,-0.059313215,-0.069480054,-0.019325148,0.52921635,0.0,0.0,0.0,1.0
2516692700,2516692483,-0.047959726,-0.0691645,-0.022624474,0.5196123,0.0,0.0,0.0,1.0
2516732687,2516732474,-0.058075644,-0.06923947,-0.024547273,0.52409184,0.0,0.0,0.0,1.0
2516776651,2516776474,-0.058838792,-0.06526487,-0.02663382,0.5205344,0.0,0.0,0.0,1.0
2516816647,2516816474,-0.05847721,-0.06295114,-0.029707568,0.5190966,0.0,0.0,0.0,1.0
2516856630,2516856494,-0.06733016,-0.06432846,-0.030313995,0.5248619,0.0,0.0,0.0,1.0
2516900707,2516900494,-0.06550509,-0.062375247,-0.033407312,0.5176527,0.0,0.0,0.0,1.0
2516944671,2516944482,-0.06510674,-0.06351651,-0.03558023,0.518358,0.0,0.0,0.0,1.0
2516984652,2516984474,-0.063192554,-0.06992391,-0.04004202,0.5159223,0.0,0.0,0.0,1.0
2517028712,2517028487,-0.06559729,-0.06469283,-0.042780243,0.51665807,0.0,0.0,0.0,1.0
2517068698,2517068494,-0.07217692,-0.0619196,-0.044861294,0.5169331,0.0,0.0,0.0,1.0
2517112660,2517112474,-0.07554895,-0.05957802,-0.044192407,0.51975185,0.0,0.0,0.0,1.0
2517152647,2517152474,-0.07966325,-0.057278473,-0.042393535,0.51961756,0.0,0.0,0.0,1.0
2517196690,2517196490,-0.08075794,-0.05029595,-0.039152704,0.5174212,0.0,0.0,0.0,1.0
2517236701,2517236492,-0.07363042,-0.04872708,-0.036989957,0.511875,0.0,0.0,0.0,1.0
2517280673,2517280483,-0.07356046,-0.056642864,-0.035604306,0.51399976,0.0,0.0,0.0,1.0
2517320669,2517320482,-0.077301584,-0.04963021,-0.03566442,0.5086669,0.0,0.0,0.0,1.0
2517360626,2517360484,-0.08157101,-0.050322995,-0.040997915,0.51141804,0.0,0.0,0.0,1.0
2517404702,2517404474,-0.08500506,-0.052122448,-0.041991014,0.5110424,0.0,0.0,0.0,1.0
2517448661,2517448483,-0.07898876,-0.048662674,-0.04415623,0.5009365,0.0,0.0,0.0,1.0
2517488660,2517488474,-0.088581786,-0.053177904,-0.046229627,0.50916016,0.0,0.0,0.0,1.0
2517528641,2517528495,-0.08009756,-0.04987052,-0.042456523,0.50616175,0.0,0.0,0.0,1.0
2517572708,2517572493,-0.064263016,-0.041334394,-0.04581023,0.50953484,0.0,0.0,0.0,1.0
2517616655,2517616474,-0.057117905,-0.043162268,-0.04281374,0.5246607,0.0,0.0,0.0,1.0
2517656656,2517656474,-0.04180592,-0.038026925,-0.047986045,0.5183621,0.0,0.0,0.0,1.0
2517696637,2517696498,-0.04678739,-0.036964152,-0.048764333,0.52539647,0.0,0.0,0.0,1.0
2517740726,2517740482,-0.04777017,-0.045226887,-0.0506415,0.524105,0.0,0.0,0.0,1.0
2517784663,2517784474,-0.056231875,-0.048785727,-0.04984125,0.5375812,0.0,0.0,0.0,1.0
2517824664,2517824482,-0.061473634,-0.04451704,-0.047078736,0.5375163,0.0,0.0,0.0,1.0
2517868692,2517868483,-0.06491797,-0.045112465,-0.04705852,0.5392778,0.0,0.0,0.0,1.0
2517908719,2517908497,-0.06454984,-0.044447977,-0.051211882,0.5368937,0.0,0.0,0.0,1.0
2517952673,2517952474,-0.061437998,-0.03689648,-0.050895132,0.53837067,0.0,0.0,0.0,1.0
2517992669,2517992474,-0.06478627,-0.038406055,-0.049473047,0.53739595,0.0,0.0,0.0,1.0
2518032651,2518032516,-0.072032295,-0.037874747,-0.051322553,0.53983164,0.0,0.0,0.0,1.0
2518076669,2518076483,-0.06873762,-0.032358356,-0.04950522,0.5399453,0.0,0.0,0.0,1.0
2518120663,2518120482,-0.0662951,-0.033479676,-0.051669035,0.53179884,0.0,0.0,0.0,1.0
2518160656,2518160474,-0.07018555,-0.03236139,-0.051266238,0.53214395,0.0,0.0,0.0,1.0
2518200638,2518200503,-0.06409428,-0.032387804,-0.05472709,0.5305534,0.0,0.0,0.0,1.0
2518244670,2518244485,-0.0637305,-0.038847063,-0.0551479,0.53579575,0.0,0.0,0.0,1.0
2518284624,2518284488,-0.06361412,-0.03732932,-0.053182077,0.53161687,0.0,0.0,0.0,1.0
2518324615,2518324474,-0.065577276,-0.038179222,-0.053124543,0.5310968,0.0,0.0,0.0,1.0
2518364637,2518364501,-0.057511546,-0.036211807,-0.05336698,0.5297305,0.0,0.0,0.0,1.0
2518408640,2518408474,-0.058613513,-0.044624813,-0.053111065,0.5296253,0.0,0.0,0.0,1.0
2518448653,2518448474,-0.057701696,-0.037302226,-0.054995496,0.52628773,0.0,0.0,0.0,1.0
2518492620,2518492483,-0.059089426,-0.047155183,-0.051693864,0.53016365,0.0,0.0,0.0,1.0
2518532628,2518532482,-0.058759905,-0.04259992,-0.052479215,0.52329093,0.0,0.0,0.0,1.0
2518572627,2518572486,-0.0646463,-0.041904673,-0.0509584,0.52996916,0.0,0.0,0.0,1.0
2518612624,2518612495,-0.064954735,-0.04303157,-0.05227545,0.5312038,0.0,0.0,0.0,1.0
2518656644,2518656474,-0.064649835,-0.040316775,-0.05121305,0.5250245,0.0,0.0,0.0,1.0
2518696672,2518696496,-0.06097901,-0.04032852,-0.05156664,0.52627623,0.0,0.0,0.0,1.0
2518740639,2518740485,-0.059677362,-0.041150454,-0.048619736,0.52501905,0.0,0.0,0.0,1.0
2518780639,2518780496,-0.060509425,-0.043491803,-0.04805091,0.52771926,0.0,0.0,0.0,1.0
2518824670,2518824483,-0.063898526,-0.047178835,-0.04869002,0.5261102,0.0,0.0,0.0,1.0
2518864650,2518864480,-0.062409412,-0.04368362,-0.047621455,0.52373946,0.0,0.0,0.0,1.0
2518908623,2518908486,-0.06345579,-0.044272833,-0.047777537,0.5254367,0.0,0.0,0.0,1.0
2518948632,2518948474,-0.060997453,-0.03979424,-0.045976866,0.52269036,0.0,0.0,0.0,1.0
2518992647,2518992475,-0.0640184,-0.044560365,-0.044167846,0.5239728,0.0,0.0,0.0,1.0
2519032616,2519032474,-0.061486036,-0.040599983,-0.046712637,0.5253726,0.0,0.0,0.0,1.0
2519076628,2519076486,-0.06149726,-0.04618733,-0.048061606,0.52864265,0.0,0.0,0.0,1.0
2519116623,2519116482,-0.06266351,-0.040930785,-0.048515588,0.5245904,0.0,0.0,0.0,1.0
2519160692,2519160493,-0.061574508,-0.04316403,-0.049763236,0.5245763,0.0,0.0,0.0,1.0
2519200612,2519200474,-0.05898587,-0.038910218,-0.04699455,0.5208061,0.0,0.0,0.0,1.0
2519244631,2519244492,-0.061802976,-0.036868278,-0.048556633,0.5209925,0.0,0.0,0.0,1.0
2519284631,2519284491,-0.061454657,-0.03682731,-0.04855526,0.52587074,0.0,0.0,0.0,1.0
2519328618,2519328482,-0.054550692,-0.0339171,-0.04811461,0.52156705,0.0,0.0,0.0,1.0
2519368617,2519368474,-0.05563011,-0.035505187,-0.050072215,0.5240326,0.0,0.0,0.0,1.0
2519412631,2519412493,-0.055335596,-0.035255786,-0.048860252,0.520524,0.0,0.0,0.0,1.0
2519452614,2519452482,-0.058757428,-0.03355027,-0.046995595,0.52176553,0.0,0.0,0.0,1.0
2519496623,2519496473,-0.058125816,-0.034327332,-0.047759466,0.51785755,0.0,0.0,0.0,1.0
2519536645,2519536500,-0.063400686,-0.03761034,-0.050018355,0.523281,0.0,0.0,0.0,1.0
2519578271,2519578087,-0.0570875,-0.036614396,-0.052104287,0.52335507,0.0,0.0,0.0,1.0
2519622290,2519622073,-0.051965278,-0.033623844,-0.051115192,0.5182541,0.0,0.0,0.0,1.0
2519662288,2519662089,-0.055722844,-0.03142622,-0.05232232,0.5218443,0.0,0.0,0.0,1.0
2519706442,2519706084,-0.059739884,-0.03543064,-0.04971729,0.52335435,0.0,0.0,0.0,1.0
2519746317,2519746087,-0.060752198,-0.030870639,-0.05091006,0.52105075,0.0,0.0,0.0,1.0
2519790249,2519790080,-0.06170975,-0.03179239,-0.051197045,0.5216405,0.0,0.0,0.0,1.0
2519830235,2519830100,-0.054888826,-0.031320985,-0.049929652,0.51904863,0.0,0.0,0.0,1.0
2519874268,2519874074,-0.051150456,-0.036996312,-0.04899309,0.52256507,0.0,0.0,0.0,1.0
2519914266,2519914088,-0.052134868,-0.02998455,-0.05035223,0.52484393,0.0,0.0,0.0,1.0
2519958254,2519958074,-0.048468526,-0.031578854,-0.050586287,0.5241499,0.0,0.0,0.0,1.0
2519998259,2519998112,-0.047969982,-0.034696423,-0.047929384,0.5241029,0.0,0.0,0.0,1.0
2520042418,2520042074,-0.04779905,-0.034228757,-0.046742167,0.5215181,0.0,0.0,0.0,1.0
2520082338,2520082091,-0.05487312,-0.036728635,-0.046558417,0.52592564,0.0,0.0,0.0,1.0
2520126298,2520126080,-0.057963293,-0.043201245,-0.047815204,0.525322,0.0,0.0,0.0,1.0
2520166278,2520166108,-0.05674599,-0.045805283,-0.048501227,0.5231447,0.0,0.0,0.0,1.0
2520210293,2520210074,-0.057156343,-0.05593622,-0.051936626,0.5234928,0.0,0.0,0.0,1.0
2520250231,2520250091,-0.062326092,-0.054664012,-0.05088412,0.52179074,0.0,0.0,0.0,1.0
2520294271,2520294074,-0.06078271,-0.05282717,-0.052473374,0.5216672,0.0,0.0,0.0,1.0
2520334264,2520334115,-0.063877285,-0.042713165,-0.05500976,0.5227221,0.0,0.0,0.0,1.0
2520378261,2520378074,-0.06730446,-0.04442372,-0.05699179,0.5240149,0.0,0.0,0.0,1.0
2520418226,2520418091,-0.063469425,-0.039452937,-0.059042305,0.5244837,0.0,0.0,0.0,1.0
2520462309,2520462074,-0.06019353,-0.03897305,-0.05892628,0.5220873,0.0,0.0,0.0,1.0
2520502323,2520502080,-0.0570008,-0.033537686,-0.06164975,0.5217458,0.0,0.0,0.0,1.0
2520546336,2520546074,-0.05974877,-0.039719094,-0.057607822,0.5261534,0.0,0.0,0.0,1.0
2520586269,2520586092,-0.055544116,-0.0357278,-0.06112551,0.5247398,0.0,0.0,0.0,1.0
2520630247,2520630074,-0.05597172,-0.036879025,-0.06004541,0.5267126,0.0,0.0,0.0,1.0
2520670257,2520670114,-0.059424505,-0.035526484,-0.059513416,0.53136814,0.0,0.0,0.0,1.0
2520714278,2520714074,-0.054018013,-0.043647837,-0.056587394,0.53195804,0.0,0.0,0.0,1.0
2520754244,2520754092,-0.050179202,-0.039999563,-0.052782193,0.5307316,0.0,0.0,0.0,1.0
2520798291,2520798111,-0.060233995,-0.05019276,-0.049420927,0.5609946,0.0,0.0,0.0,1.0
2520838278,2520838132,-0.049954757,-0.03979012,-0.04748924,0.58260894,0.0,0.0,0.0,1.0
2520882319,2520882074,-0.046726733,-0.02944253,-0.04487721,0.60512245,0.0,0.0,0.0,1.0
2520922305,2520922089,-0.046915527,-0.025872868,-0.04218415,0.61810124,0.0,0.0,0.0,1.0
2520966438,2520966137,-0.050582975,-0.0276256,-0.037287112,0.6288464,0.0,0.0,0.0,1.0
2521006291,2521006087,-0.050979275,-0.039226353,-0.032511476,0.6453693,0.0,0.0,0.0,1.0
2521050247,2521050074,-0.047038943,-0.040872216,-0.037951197,0.65260214,0.0,0.0,0.0,1.0
2521090233,2521090088,-0.04889741,-0.043471217,-0.036863096,0.6582651,0.0,0.0,0.0,1.0
2521134293,2521134106,-0.04507903,-0.045415886,-0.036036517,0.6616795,0.0,0.0,0.0,1.0
2521174264,2521174087,-0.04196034,-0.04967349,-0.035447013,0.65556484,0.0,0.0,0.0,1.0
2521218258,2521218074,-0.051401928,-0.047578294,-0.036862858,0.6379635,0.0,0.0,0.0,1.0
2521258229,2521258087,-0.04521813,-0.04561595,-0.03491177,0.6186842,0.0,0.0,0.0,1.0
2521302448,2521302074,-0.043124918,-0.04497145,-0.03586049,0.60083073,0.0,0.0,0.0,1.0
2521342416,2521342087,-0.04689138,-0.04378605,-0.03328184,0.5880995,0.0,0.0,0.0,1.0
2521386449,2521386074,-0.046346895,-0.04777519,-0.028545825,0.575696,0.0,0.0,0.0,1.0
2521426269,2521426091,-0.0463333,-0.047766592,-0.030839145,0.56807137,0.0,0.0,0.0,1.0
2521470286,2521470074,-0.0435227,-0.0488988,-0.02720826,0.5640521,0.0,0.0,0.0,1.0
2521510294,2521510092,-0.041575603,-0.048211616,-0.027450366,0.5620879,0.0,0.0,0.0,1.0
2521554257,2521554074,-0.039285474,-0.05386662,-0.024571795,0.5563617,0.0,0.0,0.0,1.0
2521594238,2521594087,-0.03772339,-0.050047737,-0.024126815,0.55557674,0.0,0.0,0.0,1.0
2521638277,2521638074,-0.034150556,-0.045476716,-0.02344322,0.5471181,0.0,0.0,0.0,1.0
2521678273,2521678087,-0.03897006,-0.052843418,-0.020330755,0.54959106,0.0,0.0,0.0,1.0
2521722327,2521722080,-0.03861707,-0.0506242,-0.02193711,0.54515445,0.0,0.0,0.0,1.0
2521762312,2521762089,-0.03769041,-0.054301433,-0.022149753,0.54185516,0.0,0.0,0.0,1.0
2521806325,2521806073,-0.043693684,-0.049041215,-0.023926727,0.5407967,0.0,0.0,0.0,1.0
2521846282,2521846087,-0.04567488,-0.050587777,-0.025222583,0.5376822,0.0,0.0,0.0,1.0
2521890280,2521890074,-0.047777645,-0.052132424,-0.026408115,0.53893965,0.0,0.0,0.0,1.0
2521930235,2521930089,-0.049941193,-0.0483409,-0.03274868,0.54077244,0.0,0.0,0.0,1.0
2521974292,2521974084,-0.049787678,-0.048714377,-0.03229292,0.53709304,0.0,0.0,0.0,1.0
2522014274,2522014091,-0.047763757,-0.042205513,-0.037700538,0.53327894,0.0,0.0,0.0,1.0
2522058257,2522058080,-0.05166873,-0.046234872,-0.041099906,0.5361603,0.0,0.0,0.0,1.0
2522098242,2522098091,-0.053589795,-0.04616752,-0.04549149,0.5359661,0.0,0.0,0.0,1.0
2522142444,2522142074,-0.053944845,-0.042340793,-0.050535306,0.5310034,0.0,0.0,0.0,1.0
2522182315,2522182087,-0.053451423,-0.036987428,-0.056147687,0.5315567,0.0,0.0,0.0,1.0
2522226284,2522226074,-0.054918535,-0.036970392,-0.05778022,0.53174424,0.0,0.0,0.0,1.0
2522266265,2522266092,-0.059693877,-0.033372402,-0.058613166,0.5305441,0.0,0.0,0.0,1.0
2522310294,2522310074,-0.06467476,-0.035608873,-0.05926364,0.53330207,0.0,0.0,0.0,1.0
2522350280,2522350087,-0.06644725,-0.0361505,-0.056262188,0.53057003,0.0,0.0,0.0,1.0
2522390221,2522390074,-0.06582279,-0.030029107,-0.055534802,0.5287681,0.0,0.0,0.0,1.0
2522434220,2522434078,-0.065332666,-0.03724669,-0.052208535,0.5330275,0.0,0.0,0.0,1.0
2522474213,2522474074,-0.05770759,-0.038234346,-0.046401806,0.52972674,0.0,0.0,0.0,1.0
2522514243,2522514095,-0.05553543,-0.036236696,-0.046092805,0.5279568,0.0,0.0,0.0,1.0
2522558280,2522558127,-0.050601784,-0.038267516,-0.044531,0.53152215,0.0,0.0,0.0,1.0
2522598219,2522598074,-0.05245081,-0.043828767,-0.04289367,0.5303729,0.0,0.0,0.0,1.0
2522642292,2522642084,-0.052439757,-0.04443421,-0.040707577,0.5291099,0.0,0.0,0.0,1.0
2522682288,2522682080,-0.05365304,-0.044139862,-0.03976351,0.53408605,0.0,0.0,0.0,1.0
2522726296,2522726107,-0.053737637,-0.049489662,-0.03709297,0.53205293,0.0,0.0,0.0,1.0
2522770231,2522770078,-0.053669784,-0.04817728,-0.034364372,0.534456,0.0,0.0,0.0,1.0
2522810267,2522810121,-0.054090936,-0.042543434,-0.03459786,0.53438896,0.0,0.0,0.0,1.0
2522850232,2522850093,-0.05080882,-0.04450345,-0.030711101,0.53102064,0.0,0.0,0.0,1.0
2522894269,2522894107,-0.05127066,-0.04560454,-0.032038886,0.5339596,0.0,0.0,0.0,1.0
2522934217,2522934074,-0.059630133,-0.04610449,-0.030889489,0.5344935,0.0,0.0,0.0,1.0
2522974210,2522974073,-0.05553817,-0.036977585,-0.033419266,0.5349497,0.0,0.0,0.0,1.0
2523015042,2523014885,-0.052792694,-0.03577618,-0.03080203,0.53704834,0.0,0.0,0.0,1.0
2523059024,2523058889,-0.051341087,-0.032949775,-0.032953672,0.5352196,0.0,0.0,0.0,1.0
2523099852,2523099679,-0.05350043,-0.035360273,-0.034314547,0.54273766,0.0,0.0,0.0,1.0
2523143861,2523143674,-0.050246894,-0.036618028,-0.036130298,0.5398082,0.0,0.0,0.0,1.0
2523183837,2523183674,-0.049354143,-0.036854398,-0.036674663,0.54030645,0.0,0.0,0.0,1.0
2523227865,2523227684,-0.05186687,-0.03895573,-0.039181735,0.5399911,0.0,0.0,0.0,1.0
2523267899,2523267718,-0.05421333,-0.030518193,-0.04169268,0.542791,0.0,0.0,0.0,1.0
2523311861,2523311674,-0.051399507,-0.02480585,-0.044653587,0.53686845,0.0,0.0,0.0,1.0
2523351866,2523351674,-0.048838016,-0.027425567,-0.045002572,0.5379347,0.0,0.0,0.0,1.0
2523395886,2523395689,-0.053355858,-0.018032806,-0.050609663,0.53368133,0.0,0.0,0.0,1.0
2523435851,2523435678,-0.05035052,-0.014549568,-0.053368494,0.53037536,0.0,0.0,0.0,1.0
2523479859,2523479674,-0.04401808,-0.022377318,-0.0533078,0.53612757,0.0,0.0,0.0,1.0
2523519860,2523519674,-0.044394728,-0.012348947,-0.05469944,0.53883946,0.0,0.0,0.0,1.0
2523563870,2523563682,-0.03845271,-0.007612381,-0.053727783,0.5364674,0.0,0.0,0.0,1.0
2523603907,2523603680,-0.041917715,-0.006820987,-0.049808953,0.53990513,0.0,0.0,0.0,1.0
2523647850,2523647674,-0.040508572,0.0047195368,-0.04827981,0.54222226,0.0,0.0,0.0,1.0
2523687857,2523687677,-0.04345956,0.0045209676,-0.04541085,0.5460568,0.0,0.0,0.0,1.0
2523731869,2523731688,-0.047664683,0.01006987,-0.040008448,0.5444602,0.0,0.0,0.0,1.0
2523771890,2523771674,-0.04678356,0.014074702,-0.038342983,0.5461603,0.0,0.0,0.0,1.0
2523815852,2523815674,-0.03670219,0.01209453,-0.03835926,0.5461272,0.0,0.0,0.0,1.0
2523855861,2523855674,-0.033538245,0.007971831,-0.03838346,0.5461512,0.0,0.0,0.0,1.0
2523899900,2523899674,-0.031691644,0.008234644,-0.04148096,0.5527398,0.0,0.0,0.0,1.0
2523939908,2523939688,-0.032872077,0.0075400234,-0.039631844,0.56226724,0.0,0.0,0.0,1.0
2523983850,2523983674,-0.026732268,0.020164007,-0.04025745,0.5606375,0.0,0.0,0.0,1.0
2524023863,2524023676,-0.022157438,0.021166457,-0.041381467,0.5660701,0.0,0.0,0.0,1.0
2524067893,2524067674,-0.013984673,0.02528164,-0.043521006,0.56876916,0.0,0.0,0.0,1.0
2524108028,2524107674,-0.009678744,0.022747394,-0.04495088,0.57520944,0.0,0.0,0.0,1.0
2524151860,2524151674,-0.021548728,0.02390991,-0.04522526,0.5785835,0.0,0.0,0.0,1.0
2524195879,2524195674,-0.027943095,0.014512947,-0.037638396,0.5820485,0.0,0.0,0.0,1.0
2524239822,2524239674,-0.030145384,0.015337007,-0.033844367,0.5886566,0.0,0.0,0.0,1.0
2524283852,2524283720,-0.036341637,0.005464114,-0.031798523,0.59195876,0.0,0.0,0.0,1.0
2524323840,2524323674,-0.04573458,-0.0004969074,-0.031014122,0.592693,0.0,0.0,0.0,1.0
2524367842,2524367706,-0.053958405,-0.0008726263,-0.027905583,0.59555465,0.0,0.0,0.0,1.0
2524407816,2524407680,-0.053665303,-0.003861519,-0.024540244,0.5910949,0.0,0.0,0.0,1.0
2524451877,2524451730,-0.05173127,-0.00826556,-0.021546312,0.5908161,0.0,0.0,0.0,1.0
2524491852,2524491673,-0.0433949,-0.0047135614,-0.017654689,0.5848678,0.0,0.0,0.0,1.0
2524535863,2524535704,-0.03888263,-0.010405453,-0.016274577,0.58212245,0.0,0.0,0.0,1.0
2524575820,2524575683,-0.041123677,-0.017624315,-0.017291002,0.58035874,0.0,0.0,0.0,1.0
2524619833,2524619674,-0.040953655,-0.019792948,-0.018435018,0.5748318,0.0,0.0,0.0,1.0
2524659832,2524659674,-0.042684503,-0.01889485,-0.01927745,0.57475257,0.0,0.0,0.0,1.0
2524703827,2524703691,-0.040477943,-0.017254733,-0.021002723,0.57393944,0.0,0.0,0.0,1.0
2524743816,2524743674,-0.03601467,-0.012431467,-0.02274819,0.5717575,0.0,0.0,0.0,1.0
2524787855,2524787674,-0.034940764,-0.010878924,-0.021846898,0.5719405,0.0,0.0,0.0,1.0
2524827901,2524827721,-0.036218394,-0.009646531,-0.022937857,0.57418215,0.0,0.0,0.0,1.0
2524871834,2524871694,-0.032495804,-0.0128854085,-0.02393515,0.57007873,0.0,0.0,0.0,1.0
2524911813,2524911674,-0.03511744,-0.020921009,-0.023415657,0.5738712,0.0,0.0,0.0,1.0
2524955857,2524955688,-0.032410674,-0.019168144,-0.022984494,0.5720318,0.0,0.0,0.0,1.0
2524995848,2524995674,-0.034754653,-0.021188071,-0.022786025,0.5739582,0.0,0.0,0.0,1.0
2525039866,2525039711,-0.026358414,-0.018758848,-0.02493124,0.5736107,0.0,0.0,0.0,1.0
2525079813,2525079674,-0.02935756,-0.010437673,-0.024795331,0.5773226,0.0,0.0,0.0,1.0
2525123860,2525123673,-0.03353318,-0.0013959142,-0.02301413,0.57717687,0.0,0.0,0.0,1.0
2525163868,2525163674,-0.030699939,-0.00061543845,-0.021559983,0.57584226,0.0,0.0,0.0,1.0
2525207846,2525207688,-0.030000895,0.0063628224,-0.023233369,0.5785014,0.0,0.0,0.0,1.0
2525247813,2525247674,-0.039526038,0.0044948785,-0.024119485,0.5807913,0.0,0.0,0.0,1.0
2525291846,2525291680,-0.041411623,-0.0014936668,-0.022996385,0.57825714,0.0,0.0,0.0,1.0
2525331874,2525331674,-0.044091232,-0.0027770158,-0.020767502,0.5791541,0.0,0.0,0.0,1.0
2525375831,2525375695,-0.055380158,-0.0031501898,-0.024347693,0.57658666,0.0,0.0,0.0,1.0
2525415816,2525415674,-0.07056235,-0.003049735,-0.02190147,0.57701826,0.0,0.0,0.0,1.0
2525459895,2525459712,-0.071286105,0.0019216824,-0.023389066,0.5717725,0.0,0.0,0.0,1.0
2525499878,2525499683,-0.07061502,0.0059594084,-0.022418391,0.56616074,0.0,0.0,0.0,1.0
2525543828,2525543678,-0.06799138,0.0076780124,-0.0198448,0.5631644,0.0,0.0,0.0,1.0
2525583830,2525583674,-0.058888804,0.0048140865,-0.019729719,0.56131357,0.0,0.0,0.0,1.0
2525623819,2525623674,-0.049380425,0.0057227244,-0.021165505,0.5573426,0.0,0.0,0.0,1.0
2525667824,2525667674,-0.04771531,-0.0034957565,-0.019180167,0.55769485,0.0,0.0,0.0,1.0
2525707814,2525707674,-0.044133794,-0.0017316082,-0.0237206,0.5554356,0.0,0.0,0.0,1.0
2525751816,2525751674,-0.044304565,-0.004787162,-0.022932462,0.5523829,0.0,0.0,0.0,1.0
2525791813,2525791674,-0.040970486,0.0015643653,-0.027602524,0.55400366,0.0,0.0,0.0,1.0
2525835813,2525835674,-0.043284748,0.0044449843,-0.027417688,0.5559551,0.0,0.0,0.0,1.0
2525875806,2525875674,-0.04321168,0.012491236,-0.029352052,0.5558899,0.0,0.0,0.0,1.0
2525919813,2525919674,-0.039582618,0.010891037,-0.033575114,0.5563702,0.0,0.0,0.0,1.0
2525959815,2525959679,-0.033623543,0.012411939,-0.034563225,0.55329067,0.0,0.0,0.0,1.0
2525999866,2525999684,-0.03345448,0.0059330906,-0.032496996,0.5558186,0.0,0.0,0.0,1.0
2526039898,2526039674,-0.030468002,6.4360676e-05,-0.032117262,0.55596006,0.0,0.0,0.0,1.0
2526083850,2526083674,-0.034966297,-0.0015205137,-0.028213838,0.5561594,0.0,0.0,0.0,1.0
2526123850,2526123674,-0.040595364,-0.0038584182,-0.026685094,0.5561997,0.0,0.0,0.0,1.0
2526167872,2526167693,-0.04252545,-0.002464762,-0.02209407,0.5542155,0.0,0.0,0.0,1.0
2526207892,2526207674,-0.038411222,0.0044635213,-0.020833272,0.5509823,0.0,0.0,0.0,1.0
2526251855,2526251674,-0.039656755,0.01136695,-0.021848273,0.55024534,0.0,0.0,0.0,1.0
2526291847,2526291674,-0.041531306,0.013832364,-0.0240682,0.553641,0.0,0.0,0.0,1.0
2526335915,2526335674,-0.041424822,0.01589927,-0.024976226,0.5531806,0.0,0.0,0.0,1.0
2526375899,2526375674,-0.050335694,0.014085999,-0.024759792,0.5548914,0.0,0.0,0.0,1.0
2526419855,2526419674,-0.050440893,0.012992486,-0.026160482,0.5551735,0.0,0.0,0.0,1.0
2526459854,2526459674,-0.052016336,0.01040897,-0.026927274,0.5533042,0.0,0.0,0.0,1.0
2526504674,2526504522,-0.053460155,0.009151685,-0.03149539,0.5508465,0.0,0.0,0.0,1.0
2526545473,2526545297,-0.052184835,0.0054171695,-0.03304904,0.55115694,0.0,0.0,0.0,1.0
2526585467,2526585321,-0.049702484,0.008112903,-0.040476922,0.544294,0.0,0.0,0.0,1.0
2526629418,2526629274,-0.044768456,0.009507323,-0.041141078,0.5417608,0.0,0.0,0.0,1.0
2526669415,2526669273,-0.047073085,0.0079992255,-0.042386815,0.5406224,0.0,0.0,0.0,1.0
2526713446,2526713302,-0.044564664,0.008387102,-0.03958167,0.5396896,0.0,0.0,0.0,1.0
2526753430,2526753278,-0.04623212,0.010518441,-0.03806592,0.5384503,0.0,0.0,0.0,1.0
2526797431,2526797280,-0.045698795,0.006958075,-0.033770543,0.5381269,0.0,0.0,0.0,1.0
2526837415,2526837275,-0.047613498,0.003919523,-0.034019798,0.5382162,0.0,0.0,0.0,1.0
2526881411,2526881275,-0.056627702,-0.00034976692,-0.03467229,0.53755623,0.0,0.0,0.0,1.0
2526921456,2526921274,-0.05488064,0.003694993,-0.03396105,0.5351127,0.0,0.0,0.0,1.0
2526965413,2526965274,-0.052883722,0.0031340169,-0.0348719,0.538644,0.0,0.0,0.0,1.0
2527005406,2527005274,-0.046673115,0.006772944,-0.03582567,0.5338298,0.0,0.0,0.0,1.0
2527049430,2527049287,-0.044405606,0.012943021,-0.03778183,0.53447056,0.0,0.0,0.0,1.0
2527089448,2527089274,-0.045523595,0.014538135,-0.04037857,0.5356063,0.0,0.0,0.0,1.0
2527133433,2527133281,-0.04656715,0.015151203,-0.041788314,0.5372425,0.0,0.0,0.0,1.0
2527173416,2527173280,-0.041647177,0.021628246,-0.04448346,0.5362324,0.0,0.0,0.0,1.0
2527217460,2527217274,-0.036483575,0.020303722,-0.04755216,0.53848815,0.0,0.0,0.0,1.0
2527257443,2527257274,-0.028042194,0.018860223,-0.053201884,0.5403615,0.0,0.0,0.0,1.0
2527301413,2527301274,-0.036937468,0.02336901,-0.060617432,0.54254407,0.0,0.0,0.0,1.0
2527341437,2527341284,-0.058675673,0.02732793,-0.06411843,0.5435209,0.0,0.0,0.0,1.0
2527381416,2527381274,-0.062211886,0.02950728,-0.06952929,0.5434611,0.0,0.0,0.0,1.0
2527421416,2527421274,-0.06726578,0.026015969,-0.0678725,0.54068583,0.0,0.0,0.0,1.0
2527465469,2527465292,-0.07152269,0.03244755,-0.06595054,0.54048425,0.0,0.0,0.0,1.0
2527505449,2527505274,-0.06413223,0.028937431,-0.062874705,0.54055995,0.0,0.0,0.0,1.0
2527549421,2527549275,-0.04574996,0.020260386,-0.059166264,0.54308885,0.0,0.0,0.0,1.0
2527589418,2527589275,-0.03899901,0.025958125,-0.055189177,0.5429232,0.0,0.0,0.0,1.0
2527633449,2527633274,-0.034036465,0.020748254,-0.05308792,0.54581684,0.0,0.0,0.0,1.0
2527673522,2527673274,-0.025334995,0.020491414,-0.05281017,0.54966646,0.0,0.0,0.0,1.0
2527717423,2527717280,-0.022268096,0.022676498,-0.050865132,0.5551165,0.0,0.0,0.0,1.0
2527757414,2527757274,-0.035683617,0.013498288,-0.04653834,0.5599611,0.0,0.0,0.0,1.0
2527801458,2527801274,-0.034284227,0.017972622,-0.043692578,0.5669326,0.0,0.0,0.0,1.0
2527841412,2527841274,-0.032062214,0.02112048,-0.039730504,0.57244426,0.0,0.0,0.0,1.0
2527885416,2527885280,-0.023405503,0.017152868,-0.035918843,0.5805841,0.0,0.0,0.0,1.0
2527925414,2527925274,-0.023650583,0.02543859,-0.036682345,0.5817866,0.0,0.0,0.0,1.0
2527969412,2527969274,-0.027528401,0.01816536,-0.033943687,0.5930638,0.0,0.0,0.0,1.0
2528009413,2528009274,-0.033753723,0.0126055535,-0.034132604,0.60052013,0.0,0.0,0.0,1.0
2528053406,2528053274,-0.04206916,0.0012740272,-0.031665027,0.6069013,0.0,0.0,0.0,1.0
2528093435,2528093291,-0.05984778,-0.010119754,-0.028551895,0.6124842,0.0,0.0,0.0,1.0
2528137413,2528137273,-0.08210226,-0.020508654,-0.03125341,0.6169361,0.0,0.0,0.0,1.0
2528177435,2528177288,-0.08459829,-0.021619065,-0.02960057,0.6165777,0.0,0.0,0.0,1.0
2528221423,2528221291,-0.07309694,-0.022804188,-0.029471751,0.61601,0.0,0.0,0.0,1.0
2528261415,2528261280,-0.05748356,-0.023516864,-0.029955203,0.613264,0.0,0.0,0.0,1.0
2528301507,2528301315,-0.045743562,-0.019017316,-0.030798031,0.60777503,0.0,0.0,0.0,1.0
2528341500,2528341315,-0.048306476,-0.010511493,-0.029460255,0.61390173,0.0,0.0,0.0,1.0
2528381452,2528381274,-0.052691054,-0.017529929,-0.024657946,0.6145607,0.0,0.0,0.0,1.0
2528425457,2528425274,-0.051155675,-0.018978972,-0.026516216,0.6117488,0.0,0.0,0.0,1.0
2528465414,2528465280,-0.049904335,-0.014357744,-0.025306877,0.61130327,0.0,0.0,0.0,1.0
2528509475,2528509274,-0.04951585,-0.019156773,-0.027097818,0.61064845,0.0,0.0,0.0,1.0
2528549711,2528549274,-0.045956925,-0.022765933,-0.026313845,0.6088126,0.0,0.0,0.0,1.0
2528593462,2528593274,-0.042213134,-0.017613202,-0.028343694,0.6092727,0.0,0.0,0.0,1.0
2528633412,2528633274,-0.048539676,-0.015612512,-0.029676398,0.608359,0.0,0.0,0.0,1.0
2528677495,2528677274,-0.046542674,-0.008853668,-0.032773383,0.6037693,0.0,0.0,0.0,1.0
2528717472,2528717295,-0.05002977,0.00038305507,-0.036508724,0.6024661,0.0,0.0,0.0,1.0
2528761452,2528761274,-0.05209659,-0.0012563164,-0.03688427,0.6013385,0.0,0.0,0.0,1.0
2528801421,2528801281,-0.057550438,0.008142764,-0.03702486,0.59765285,0.0,0.0,0.0,1.0
2528845477,2528845274,-0.05753662,0.008221123,-0.037923664,0.5962,0.0,0.0,0.0,1.0
2528889451,2528889274,-0.060579456,0.0039764405,-0.03672737,0.59532475,0.0,0.0,0.0,1.0
2528933486,2528933280,-0.06064844,0.0036452883,-0.032032147,0.58967626,0.0,0.0,0.0,1.0
2528973487,2528973274,-0.058366545,-0.004748762,-0.03388775,0.5882643,0.0,0.0,0.0,1.0
2529013486,2529013274,-0.056700274,-0.0066268826,-0.03246066,0.5858687,0.0,0.0,0.0,1.0
2529053446,2529053274,-0.041861836,-0.010618666,-0.029091598,0.5839873,0.0,0.0,0.0,1.0
2529097457,2529097274,-0.045875166,-0.018877832,-0.02548081,0.5830803,0.0,0.0,0.0,1.0
2529137428,2529137284,-0.063368395,-0.019492803,-0.02123575,0.58319616,0.0,0.0,0.0,1.0
2529181491,2529181274,-0.061201587,-0.027169758,-0.017808167,0.578267,0.0,0.0,0.0,1.0
2529221467,2529221274,-0.06059365,-0.035783313,-0.021420084,0.5793373,0.0,0.0,0.0,1.0
2529265459,2529265274,-0.052627265,-0.04299704,-0.024373405,0.58307046,0.0,0.0,0.0,1.0
2529305420,2529305279,-0.031376258,-0.046632145,-0.025832932,0.5795069,0.0,0.0,0.0,1.0
2529349517,2529349273,-0.028782373,-0.04004567,-0.030954279,0.58053154,0.0,0.0,0.0,1.0
2529389459,2529389274,-0.030249935,-0.034363125,-0.031328708,0.58143586,0.0,0.0,0.0,1.0
2529433448,2529433274,-0.025187524,-0.030037593,-0.03189425,0.5820025,0.0,0.0,0.0,1.0
2529473412,2529473274,-0.032742366,-0.03061563,-0.03350845,0.58330953,0.0,0.0,0.0,1.0
2529517491,2529517274,-0.04075554,-0.030883754,-0.029821366,0.5872653,0.0,0.0,0.0,1.0
2529557423,2529557274,-0.043798268,-0.033679202,-0.027636964,0.58417356,0.0,0.0,0.0,1.0
2529601455,2529601274,-0.041029777,-0.035772275,-0.026253201,0.5832991,0.0,0.0,0.0,1.0
2529641457,2529641311,-0.053571623,-0.03034077,-0.027883489,0.58363855,0.0,0.0,0.0,1.0
2529685495,2529685274,-0.057884976,-0.03843429,-0.031506866,0.57997227,0.0,0.0,0.0,1.0
2529725432,2529725280,-0.04196516,-0.036200576,-0.037978977,0.5813078,0.0,0.0,0.0,1.0
2529769457,2529769274,-0.036253672,-0.034569953,-0.039740827,0.5773534,0.0,0.0,0.0,1.0
2529809447,2529809309,-0.031784557,-0.030751143,-0.04357306,0.57607514,0.0,0.0,0.0,1.0
2529853483,2529853273,-0.03265494,-0.02868341,-0.03871197,0.5772927,0.0,0.0,0.0,1.0
2529893414,2529893279,-0.02748582,-0.024073577,-0.036943424,0.58074003,0.0,0.0,0.0,1.0
2529934280,2529934075,-0.039835308,-0.0249453,-0.034690067,0.58622015,0.0,0.0,0.0,1.0
2529975039,2529974874,-0.07619304,-0.022406863,-0.03503185,0.5866054,0.0,0.0,0.0,1.0
2530015064,2530014874,-0.07567711,-0.022554718,-0.036408618,0.5865226,0.0,0.0,0.0,1.0
2530059093,2530058907,-0.076985426,-0.01883802,-0.041250948,0.58070457,0.0,0.0,0.0,1.0
2530099066,2530098874,-0.08948152,-0.01586584,-0.052065343,0.57889676,0.0,0.0,0.0,1.0
2530139046,2530138874,-0.08348116,-0.0077799037,-0.056660227,0.56876653,0.0,0.0,0.0,1.0
2530183070,2530182873,-0.072574496,0.008248571,-0.058200978,0.55919105,0.0,0.0,0.0,1.0
2530223048,2530222875,-0.06913099,0.017119776,-0.0633881,0.5489191,0.0,0.0,0.0,1.0
2530267048,2530266874,-0.08380761,0.020921774,-0.06623598,0.5442046,0.0,0.0,0.0,1.0
2530307069,2530306886,-0.08891625,0.025537506,-0.06637724,0.536187,0.0,0.0,0.0,1.0
2530351057,2530350874,-0.078593545,0.031486887,-0.061612353,0.530185,0.0,0.0,0.0,1.0
2530391050,2530390874,-0.07262054,0.036594663,-0.060079034,0.51607525,0.0,0.0,0.0,1.0
2530435053,2530434881,-0.0693541,0.04033551,-0.0545956,0.51900804,0.0,0.0,0.0,1.0
2530475102,2530474917,-0.06181285,0.057661466,-0.05530878,0.50522673,0.0,0.0,0.0,1.0
2530519049,2530518874,-0.05572982,0.05693402,-0.05008164,0.49694788,0.0,0.0,0.0,1.0
2530559061,2530558874,-0.06151404,0.06977999,-0.046177283,0.4864161,0.0,0.0,0.0,1.0
2530603070,2530602895,-0.08156558,0.07113541,-0.04861645,0.4853918,0.0,0.0,0.0,1.0
2530643068,2530642884,-0.09119575,0.08254714,-0.05547847,0.47785825,0.0,0.0,0.0,1.0
2530687073,2530686874,-0.07979079,0.07000409,-0.05516073,0.47675186,0.0,0.0,0.0,1.0
2530727050,2530726874,-0.06885284,0.06270852,-0.054597147,0.46990275,0.0,0.0,0.0,1.0
2530771057,2530770876,-0.07284941,0.06193996,-0.054107994,0.46264717,0.0,0.0,0.0,1.0
2530811092,2530810874,-0.06444351,0.05044698,-0.050337143,0.46217012,0.0,0.0,0.0,1.0
2530855052,2530854874,-0.059873253,0.038225982,-0.051965643,0.46958756,0.0,0.0,0.0,1.0
2530895051,2530894880,-0.058832835,0.0374144,-0.057313748,0.471636,0.0,0.0,0.0,1.0
2530939073,2530938889,-0.050594963,0.046181485,-0.052644115,0.4701353,0.0,0.0,0.0,1.0
2530979071,2530978874,-0.03467615,0.066183016,-0.043619208,0.46124712,0.0,0.0,0.0,1.0
2531023051,2531022874,-0.07005256,0.07068822,-0.035654582,0.34394792,0.0,0.0,0.0,1.0
2531063051,2531062874,-0.08636432,0.055775654,-0.032691922,0.36892194,0.0,0.0,0.0,1.0
2531107117,2531106874,-0.07803285,0.045041,-0.04020857,0.3738055,0.0,0.0,0.0,1.0
2531147109,2531146874,-0.081282586,0.01636838,-0.041901585,0.39619187,0.0,0.0,0.0,1.0
2531191048,2531190874,-0.06632456,-0.0025372612,-0.046642654,0.4132146,0.0,0.0,0.0,1.0
2531231045,2531230874,-0.06592698,-0.009657901,-0.047549125,0.4286927,0.0,0.0,0.0,1.0
2531271019,2531270874,-0.06528073,-0.014041041,-0.048589654,0.44441715,0.0,0.0,0.0,1.0
2531315099,2531314874,-0.06995712,-0.013493389,-0.047522422,0.4548656,0.0,0.0,0.0,1.0
2531359058,2531358874,-0.08444217,-0.013770102,-0.043171927,0.4575535,0.0,0.0,0.0,1.0
2531399048,2531398875,-0.087626696,-0.010943599,-0.036868416,0.4658284,0.0,0.0,0.0,1.0
2531443080,2531442873,-0.09281894,-0.01079479,-0.033535592,0.4697727,0.0,0.0,0.0,1.0
2531483095,2531482874,-0.09113374,-0.010570803,-0.030678768,0.46978512,0.0,0.0,0.0,1.0
2531527059,2531526880,-0.086053275,-0.008818593,-0.029105417,0.4660405,0.0,0.0,0.0,1.0
2531567045,2531566879,-0.08993565,-0.012956433,-0.02439886,0.4747555,0.0,0.0,0.0,1.0
2531611072,2531610874,-0.07201098,-0.01044888,-0.02913782,0.46601048,0.0,0.0,0.0,1.0
2531651089,2531650874,-0.057090785,-0.012985096,-0.028957834,0.47360197,0.0,0.0,0.0,1.0
2531695051,2531694874,-0.06282965,-0.0076302756,-0.03141817,0.47497785,0.0,0.0,0.0,1.0
2531739086,2531738873,-0.06626848,-0.0021928025,-0.029884242,0.4799859,0.0,0.0,0.0,1.0
2531779109,2531778874,-0.050806433,-0.010470092,-0.030217413,0.49144208,0.0,0.0,0.0,1.0
2531823013,2531822874,-0.041953966,-0.0016742698,-0.025113076,0.48311335,0.0,0.0,0.0,1.0
2531863054,2531862880,-0.05533399,0.0022550465,-0.014129167,0.49006656,0.0,0.0,0.0,1.0
2531903051,2531902874,-0.07263865,-0.006443955,-0.016153364,0.5043309,0.0,0.0,0.0,1.0
2531947079,2531946874,-0.06423347,-0.005797995,-0.019090371,0.5096082,0.0,0.0,0.0,1.0
2531987122,2531986874,-0.06786863,-0.010481106,-0.014427496,0.51483583,0.0,0.0,0.0,1.0
2532031055,2532030876,-0.08907925,-0.0017649226,-0.015916457,0.51537204,0.0,0.0,0.0,1.0
2532071046,2532070874,-0.063802816,0.002804228,-0.016240329,0.5190207,0.0,0.0,0.0,1.0
2532115093,2532114874,-0.047119915,0.007847426,-0.011271849,0.5241473,0.0,0.0,0.0,1.0
2532155099,2532154874,-0.05331596,-0.00090151327,-0.014146006,0.52810556,0.0,0.0,0.0,1.0
2532199055,2532198881,-0.04403529,-0.006483968,-0.019434774,0.5351234,0.0,0.0,0.0,1.0
2532243056,2532242874,-0.037682675,0.00250434,-0.020036656,0.53785414,0.0,0.0,0.0,1.0
2532283093,2532282874,-0.044884183,0.0011372082,-0.019110084,0.54942435,0.0,0.0,0.0,1.0
2532327030,2532326889,-0.051818587,0.02577979,-0.020337317,0.5525614,0.0,0.0,0.0,1.0
2532367053,2532366874,-0.059536304,0.035296574,-0.020711534,0.56144774,0.0,0.0,0.0,1.0
2532411040,2532410874,-0.06376889,0.03699707,-0.02239586,0.5640866,0.0,0.0,0.0,1.0
2532451107,2532450874,-0.061017238,0.03754893,-0.022621293,0.567216,0.0,0.0,0.0,1.0
2532495009,2532494874,-0.07042901,0.042957343,-0.022322677,0.57162595,0.0,0.0,0.0,1.0
2532535053,2532534874,-0.061327994,0.044710185,-0.022985958,0.56781334,0.0,0.0,0.0,1.0
2532575050,2532574874,-0.054608483,0.03760322,-0.020709883,0.56983703,0.0,0.0,0.0,1.0
2532619055,2532618874,-0.054740068,0.03733479,-0.023334604,0.56857,0.0,0.0,0.0,1.0
2532659054,2532658873,-0.060969938,0.033003643,-0.021443225,0.5707388,0.0,0.0,0.0,1.0
2532703054,2532702874,-0.064390235,0.04010317,-0.021773387,0.56753933,0.0,0.0,0.0,1.0
2532743077,2532742897,-0.06598469,0.03475358,-0.021445379,0.56995934,0.0,0.0,0.0,1.0
2532787052,2532786874,-0.054407142,0.0110482,-0.024771018,0.56463814,0.0,0.0,0.0,1.0
2532827052,2532826874,-0.06295269,0.006755765,-0.022296578,0.5657511,0.0,0.0,0.0,1.0
2532871070,2532870882,-0.06780897,0.0037033218,-0.022464525,0.56272167,0.0,0.0,0.0,1.0
2532915010,2532914874,-0.05944567,-0.0060362956,-0.023477279,0.5619997,0.0,0.0,0.0,1.0
2532955102,2532954884,-0.052619275,-0.0019690413,-0.02342933,0.56301445,0.0,0.0,0.0,1.0
2532999098,2532998912,-0.04997486,0.002540315,-0.024518605,0.5677193,0.0,0.0,0.0,1.0
2533039103,2533038894,-0.04468735,0.0067653637,-0.023880254,0.5694239,0.0,0.0,0.0,1.0
2533083006,2533082873,-0.041067526,0.010648767,-0.025865814,0.57111675,0.0,0.0,0.0,1.0
2533123076,2533122875,-0.048218735,0.012732286,-0.026650263,0.5761771,0.0,0.0,0.0,1.0
2533167015,2533166879,-0.061569244,0.011103544,-0.0298451,0.57721865,0.0,0.0,0.0,1.0
2533207089,2533206880,-0.060207177,0.01308719,-0.034500483,0.5778487,0.0,0.0,0.0,1.0
2533251006,2533250874,-0.063847505,0.014841459,-0.03697141,0.5786137,0.0,0.0,0.0,1.0
2533291062,2533290873,-0.059663504,0.008667384,-0.038535,0.58048224,0.0,0.0,0.0,1.0
2533335105,2533334917,-0.054460853,0.0010087893,-0.037669286,0.57915735,0.0,0.0,0.0,1.0
2533375079,2533374893,-0.053193424,-0.0018767967,-0.036835186,0.5853236,0.0,0.0,0.0,1.0
2533419810,2533419680,-0.050045453,-0.0084965145,-0.03296964,0.5835537,0.0,0.0,0.0,1.0
2533459809,2533459673,-0.05819475,-0.007494581,-0.029078748,0.5848209,0.0,0.0,0.0,1.0
2533500640,2533500490,-0.07408053,0.0060004313,-0.033381145,0.5838148,0.0,0.0,0.0,1.0
2533540643,2533540483,-0.07800246,0.0009156627,-0.0363946,0.58409315,0.0,0.0,0.0,1.0
2533580640,2533580498,-0.07932201,0.0028961962,-0.039307043,0.58051795,0.0,0.0,0.0,1.0
2533624620,2533624483,-0.06163937,0.010129097,-0.041898303,0.5721882,0.0,0.0,0.0,1.0
2533668629,2533668495,-0.030749824,0.005278311,-0.04426969,0.56477106,0.0,0.0,0.0,1.0
2533708617,2533708477,-0.020391412,0.00854455,-0.047222484,0.5680681,0.0,0.0,0.0,1.0
2533752612,2533752479,-0.022269676,0.011484287,-0.047652304,0.56654656,0.0,0.0,0.0,1.0
2533792656,2533792521,-0.026324173,0.013152116,-0.04341192,0.5716279,0.0,0.0,0.0,1.0
2533836625,2533836488,-0.032203108,0.01829062,-0.046280064,0.5754212,0.0,0.0,0.0,1.0
2533876634,2533876499,-0.038269404,0.01969608,-0.04640208,0.58235145,0.0,0.0,0.0,1.0
2533920647,2533920503,-0.041168243,0.026048725,-0.044473134,0.5862653,0.0,0.0,0.0,1.0
2533960615,2533960479,-0.03115507,0.032019354,-0.045444142,0.59085685,0.0,0.0,0.0,1.0
2534004627,2534004494,-0.019449765,0.040698733,-0.053790268,0.5963476,0.0,0.0,0.0,1.0
2534044606,2534044474,-0.02353695,0.050293364,-0.055626538,0.59894097,0.0,0.0,0.0,1.0
2534088622,2534088475,-0.017553436,0.04965898,-0.05954926,0.60035014,0.0,0.0,0.0,1.0
2534128654,2534128473,-0.00853505,0.03637486,-0.06154332,0.6019896,0.0,0.0,0.0,1.0
2534172632,2534172482,-0.024465274,0.007935292,-0.0579448,0.60831213,0.0,0.0,0.0,1.0
2534212634,2534212491,-0.019832041,0.0060914285,-0.05443812,0.447976,0.0,0.0,0.0,-1.0
2534256625,2534256488,-0.0363939,-0.0057222545,-0.043595962,0.45418727,0.0,0.0,0.0,-1.0
2534296637,2534296474,-0.04131161,-0.016942495,-0.03740066,0.4713512,0.0,0.0,0.0,-1.0
2534340622,2534340474,-0.051453352,-0.02053779,-0.033918377,0.4884699,0.0,0.0,0.0,-1.0
2534380610,2534380474,-0.05836119,-0.015624499,-0.030962681,0.5055459,0.0,0.0,0.0,-1.0
2534424656,2534424474,-0.04846841,-0.007544415,-0.027100194,0.5213224,0.0,0.0,0.0,-1.0
2534464678,2534464500,-0.04268792,-0.0024502107,-0.028147634,0.53260726,0.0,0.0,0.0,-1.0
2534508617,2534508474,-0.040790442,0.004516216,-0.02777788,0.5387674,0.0,0.0,0.0,-1.0
2534552667,2534552514,-0.03584711,0.0055464166,-0.026835442,0.5447347,0.0,0.0,0.0,-1.0
2534596630,2534596483,-0.033775613,0.0052524526,-0.03061512,0.55346656,0.0,0.0,0.0,-1.0
2534636642,2534636499,-0.03306869,0.013989663,-0.033268735,0.5561058,0.0,0.0,0.0,-1.0
2534676622,2534676474,-0.041089468,0.020015905,-0.032219183,0.5615275,0.0,0.0,0.0,-1.0
2534716626,2534716484,-0.03631855,0.019912021,-0.0325956,0.56688064,0.0,0.0,0.0,-1.0
2534760665,2534760475,-0.036595866,0.014667174,-0.033950564,0.570767,0.0,0.0,0.0,-1.0
2534800666,2534800484,-0.03701731,0.0066968133,-0.035230692,0.5776395,0.0,0.0,0.0,-1.0
2534844632,2534844494,-0.033886913,-0.002308381,-0.037656724,0.576108,0.0,0.0,0.0,-1.0
2534888672,2534888483,-0.033471376,-0.013389494,-0.03422222,0.57950217,0.0,0.0,0.0,-1.0
2534932636,2534932492,-0.046347495,-0.017325522,-0.03382506,0.57941353,0.0,0.0,0.0,-1.0
2534972619,2534972483,-0.051687993,-0.008908633,-0.03264917,0.5835746,0.0,0.0,0.0,-1.0
2535016660,2535016481,-0.04757238,0.004812101,-0.029917333,0.5839653,0.0,0.0,0.0,-1.0
2535056647,2535056480,-0.04135129,0.0077610603,-0.029371582,0.58271843,0.0,0.0,0.0,-1.0
2535100632,2535100486,-0.046565734,0.026966058,-0.030110901,0.5838787,0.0,0.0,0.0,-1.0
2535144642,2535144474,-0.0462356,0.037033074,-0.031644914,0.58479476,0.0,0.0,0.0,-1.0
2535184649,2535184473,-0.04109574,0.03462248,-0.03202331,0.5846924,0.0,0.0,0.0,-1.0
2535224657,2535224482,-0.038327165,0.04066245,-0.030109864,0.5808104,0.0,0.0,0.0,-1.0
2535268627,2535268486,-0.050915875,0.05302664,-0.029460128,0.57733613,0.0,0.0,0.0,-1.0
2535312649,2535312474,-0.04398233,0.054617036,-0.027303321,0.5742197,0.0,0.0,0.0,-1.0
2535352662,2535352473,-0.03988603,0.055715844,-0.025647746,0.5682817,0.0,0.0,0.0,-1.0
2535392665,2535392492,-0.049361996,0.054878425,-0.026206892,0.5662959,0.0,0.0,0.0,-1.0
2535436642,2535436497,-0.05440972,0.050633237,-0.019918578,0.5582641,0.0,0.0,0.0,-1.0
2535476613,2535476474,-0.053510316,0.055131644,-0.020693686,0.5513367,0.0,0.0,0.0,-1.0
2535516636,2535516495,-0.052489065,0.054547705,-0.019478552,0.5481156,0.0,0.0,0.0,-1.0
2535560674,2535560483,-0.06032342,0.048039053,-0.020187432,0.5412338,0.0,0.0,0.0,-1.0
2535604638,2535604482,-0.059366204,0.037058607,-0.023222744,0.53766865,0.0,0.0,0.0,-1.0
2535644625,2535644483,-0.048113756,0.03152793,-0.023031574,0.535771,0.0,0.0,0.0,-1.0
2535688666,2535688483,-0.043361105,0.02813879,-0.024801696,0.53707063,0.0,0.0,0.0,-1.0
2535728666,2535728482,-0.036915302,0.019531,-0.023508549,0.54204196,0.0,0.0,0.0,-1.0
2535772637,2535772493,-0.024582595,0.017824728,-0.017790914,0.54016834,0.0,0.0,0.0,-1.0
2535812621,2535812482,-0.038098104,0.010753328,-0.017194591,0.5386964,0.0,0.0,0.0,-1.0
2535852619,2535852488,-0.047643844,0.0049642506,-0.018667497,0.53979117,0.0,0.0,0.0,-1.0
2535892621,2535892481,-0.049318828,0.009237461,-0.02035556,0.5430826,0.0,0.0,0.0,-1.0
2535936631,2535936486,-0.054049764,0.011935547,-0.022834888,0.54325855,0.0,0.0,0.0,-1.0
2535976610,2535976474,-0.0516778,0.013919275,-0.0246381,0.5453772,0.0,0.0,0.0,-1.0
2536020630,2536020487,-0.055325165,0.017650839,-0.030554572,0.544519,0.0,0.0,0.0,-1.0
2536060619,2536060485,-0.055453595,0.024649572,-0.035597276,0.5449788,0.0,0.0,0.0,-1.0
2536104617,2536104481,-0.051886655,0.030598149,-0.04178793,0.5447127,0.0,0.0,0.0,-1.0
2536144622,2536144479,-0.05342155,0.037983663,-0.043768827,0.5429263,0.0,0.0,0.0,-1.0
2536188632,2536188486,-0.054286156,0.033954147,-0.044895314,0.5406037,0.0,0.0,0.0,-1.0
2536228645,2536228509,-0.05794482,0.03001894,-0.046368603,0.5417323,0.0,0.0,0.0,-1.0
2536272627,2536272488,-0.057050984,0.040366616,-0.04635857,0.5454774,0.0,0.0,0.0,-1.0
2536312619,2536312474,-0.07195226,0.032707807,-0.043936938,0.54259855,0.0,0.0,0.0,-1.0
2536356641,2536356499,-0.07728259,0.025110317,-0.037185457,0.5401919,0.0,0.0,0.0,-1.0
2536396790,2536396495,-0.07265089,0.022980645,-0.030603396,0.5376351,0.0,0.0,0.0,-1.0
2536440625,2536440486,-0.07319055,0.016659774,-0.028012775,0.53644186,0.0,0.0,0.0,-1.0
2536480615,2536480482,-0.076019794,0.011362812,-0.025294388,0.53841436,0.0,0.0,0.0,-1.0
2536524631,2536524484,-0.07779435,0.012310255,-0.024482258,0.5352539,0.0,0.0,0.0,-1.0
2536564665,2536564482,-0.09307991,0.008464012,-0.020732928,0.5363285,0.0,0.0,0.0,-1.0
2536608610,2536608474,-0.09066765,-0.0070411023,-0.022950385,0.539188,0.0,0.0,0.0,-1.0
2536648615,2536648482,-0.08975247,-0.006288335,-0.028195133,0.5390242,0.0,0.0,0.0,-1.0
2536692632,2536692493,-0.0856148,-0.00469093,-0.037399285,0.5385739,0.0,0.0,0.0,-1.0
2536732661,2536732482,-0.07980219,0.007994395,-0.041315142,0.5387161,0.0,0.0,0.0,-1.0
2536776609,2536776474,-0.0746808,0.016181367,-0.04148008,0.543625,0.0,0.0,0.0,-1.0
2536816606,2536816474,-0.06404339,0.03157486,-0.04091098,0.5446539,0.0,0.0,0.0,-1.0
2536860670,2536860490,-0.063079506,0.039819147,-0.037644222,0.5443105,0.0,0.0,0.0,-1.0
2536902314,2536902102,-0.057555348,0.030992104,-0.03532813,0.540877,0.0,0.0,0.0,-1.0
2536942289,2536942080,-0.056108322,0.019822894,-0.032968096,0.5411429,0.0,0.0,0.0,-1.0
2536986245,2536986074,-0.060875777,0.014868426,-0.036134813,0.54297656,0.0,0.0,0.0,-1.0
2537026250,2537026076,-0.056430742,0.012936136,-0.032989796,0.54139566,0.0,0.0,0.0,-1.0
2537070252,2537070114,-0.048355676,0.0116739115,-0.028228253,0.5448978,0.0,0.0,0.0,-1.0
2537110273,2537110124,-0.042176757,0.016832154,-0.028999291,0.5442683,0.0,0.0,0.0,-1.0
2537154217,2537154074,-0.032233756,0.01899327,-0.027284112,0.54265386,0.0,0.0,0.0,-1.0
2537194219,2537194074,-0.043517068,0.02658638,-0.020879526,0.5401997,0.0,0.0,0.0,-1.0
2537238257,2537238116,-0.06410576,0.03460493,-0.010846013,0.5395124,0.0,0.0,0.0,-1.0
2537278225,2537278077,-0.056939013,0.03559582,-0.0010284614,0.5396438,0.0,0.0,0.0,-1.0
2537318274,2537318074,-0.06846642,0.030448077,0.00726407,0.5400958,0.0,0.0,0.0,-1.0
2537358255,2537358074,-0.07751743,0.02742226,0.011005204,0.54100573,0.0,0.0,0.0,-1.0
2537402275,2537402074,-0.078765295,0.032715652,0.013676919,0.537215,0.0,0.0,0.0,-1.0
2537442270,2537442074,-0.07494387,0.016918719,0.015049893,0.5352776,0.0,0.0,0.0,-1.0
2537486280,2537486074,-0.0670843,0.008252513,0.013509272,0.5373425,0.0,0.0,0.0,-1.0
2537526288,2537526075,-0.07459022,0.017020367,0.011646159,0.53263414,0.0,0.0,0.0,-1.0
2537570213,2537570074,-0.086135805,0.014811625,0.009088397,0.5350749,0.0,0.0,0.0,-1.0
2537610220,2537610080,-0.079008,-0.0034210552,0.00765826,0.5332023,0.0,0.0,0.0,-1.0
2537654245,2537654074,-0.08484855,-0.012156064,0.0035300124,0.5330086,0.0,0.0,0.0,-1.0
2537694273,2537694074,-0.080349214,-0.00729304,0.00096989796,0.53140306,0.0,0.0,0.0,-1.0
2537738219,2537738074,-0.07361548,-0.012332409,-0.0025050566,0.53366333,0.0,0.0,0.0,-1.0
2537778220,2537778074,-0.06511587,-0.015443048,-0.0056102574,0.5302076,0.0,0.0,0.0,-1.0
2537822296,2537822074,-0.061726127,-0.0134675205,-0.009922453,0.53777224,0.0,0.0,0.0,-1.0
2537862323,2537862074,-0.078391664,-0.0034362595,-0.012414251,0.5352863,0.0,0.0,0.0,-1.0
2537906262,2537906074,-0.08906791,0.006109501,-0.016186723,0.53505063,0.0,0.0,0.0,-1.0
