timestamp,rollspeed,pitchspeed,yawspeed,rollspeed_integ,pitchspeed_integ,yawspeed_integ,additional_integ1
2508751896,0.004690625,-0.0036622882,0.00026226311,-0.00013499655,-0.0005150621,-4.2739266e-05,0.0
2508879848,-0.005475754,0.0036918204,0.0025193223,-0.00040820218,-0.0011571127,-0.00010500752,0.0
2508911870,-0.0040020384,0.0015827715,0.0022406648,-0.00047640913,-0.0013366267,-0.00012439601,0.0
2508943835,-0.0033394415,0.0023425203,0.0011354845,-0.0005463245,-0.0015143633,-0.00014297968,0.0
2508975827,-0.0025875736,0.00020159408,-0.001862276,-0.00061792164,-0.0016883246,-0.00015106259,0.0
2509007847,0.014478131,0.0023289956,-0.010054909,-0.00070569554,-0.0018603258,-0.0001356232,0.0
2509039874,0.000701122,-0.012064574,0.008251632,-0.000779204,-0.0020136253,-0.00013316669,0.0
2509071872,0.0014365353,-0.007300867,-0.035128903,-0.0008770618,-0.002190935,-2.274493e-05,0.0
2509103834,0.004796574,-0.02639072,0.019602979,-0.0009406872,-0.0023211106,-2.5476793e-06,0.0
2509135885,-5.218759e-05,-0.017346948,0.049684275,-0.001013878,-0.0024112433,-0.00024709554,0.0
2509167879,0.008753473,-0.039285116,-0.05650859,-0.0011518003,-0.0025220793,-0.00023771562,0.0
2509201486,-0.0073291417,0.032043085,0.027785577,-0.0011558733,-0.0027787688,-0.00011744104,0.0
2509233490,0.002491247,0.013993232,-0.03574185,-0.0012116976,-0.0029415921,-5.2936225e-06,0.0
2509265428,0.028114801,0.01878427,0.047293503,-0.001316953,-0.0029947523,-0.00024506036,0.0
2509297498,0.022685193,0.017916994,-0.013025684,-0.0015237783,-0.0032056319,-0.0002644072,0.0
2509329500,0.025666954,0.031788662,-0.0095327,-0.001628905,-0.003500231,-0.0002617089,0.0
2509361423,0.032869585,-0.0047092866,0.01342023,-0.001745437,-0.0036925871,-0.0002458047,0.0
2509393422,0.021944143,-0.014190042,-0.0054408475,-0.0018827784,-0.0037679751,-0.0002546632,0.0
2509425479,-0.0056161303,-0.02356748,0.0032025583,-0.0020483688,-0.0038643,-0.00025760572,0.0
2509457457,-0.020411083,-0.024433617,-0.0064509716,-0.0021919445,-0.0039998316,-0.00025329832,0.0
2509489435,-0.008991577,-0.013414031,0.003881866,-0.002278901,-0.004162342,-0.0002474341,0.0
2509521449,-0.0068451073,-0.009992549,-0.0013731953,-0.0023512826,-0.0042719897,-0.0002378793,0.0
2509553454,-0.020161102,0.006936338,0.0057126367,-0.002436578,-0.004380301,-0.0002553856,0.0
2509585485,-0.025007304,0.01771622,-0.0036794683,-0.0025497493,-0.0045159017,-0.0002687876,0.0
2509617437,-0.0010654647,0.021109462,0.005860585,-0.0026564777,-0.0047083236,-0.00031567595,0.0
2509649434,0.0039365273,-0.0035396162,0.0019855038,-0.0027439997,-0.0048797145,-0.00036236175,0.0
2509681423,-0.019332755,-0.09075836,-0.002092878,-0.0028330474,-0.0049525383,-0.00038895546,0.0
2509713517,-0.05385294,-0.2650256,-0.016088838,-0.0029079993,-0.004776492,-0.00035149505,0.0
2509745443,-0.07523072,-0.4679159,-0.036858533,-0.0029332917,-0.0042543467,-0.0001738211,0.0
2509777486,-0.12688144,-0.68054986,-0.048481412,-0.002870983,-0.0032967995,0.0001402506,0.0
2509809431,-0.15204996,-0.813733,-0.051686153,-0.002747965,-0.0018820723,0.00051210047,0.0
2509841499,-0.14996858,-0.73607516,-0.039093345,-0.002573738,-0.00016327528,0.00083692773,0.0
2509873461,-0.091174036,-0.41821,-0.032798976,-0.00237744,0.0014753473,0.0011233243,0.0
2509905478,-0.06294321,-0.091191426,-0.008126656,-0.0022000046,0.0028420533,0.0013771402,0.0
2509937470,0.022217717,0.12272129,0.0050808606,-0.0020890108,0.0038471173,0.0014723993,0.0
2509969516,-0.03645287,0.07268083,0.043105192,-0.001976504,0.0046538203,0.0013554047,0.0
2510001438,-0.10828276,0.022666687,0.04788528,-0.0017901565,0.0053807735,0.0011262451,0.0
2510033437,-0.14351496,0.1032683,0.055404443,-0.0015453035,0.005913488,0.0008436491,0.0
2510065439,-0.13165686,0.34080458,0.053118277,-0.0012999552,0.0062186043,0.00056162785,0.0
2510097532,-0.05196054,0.55423224,0.05501088,-0.0010675711,0.0062943585,0.0002504775,0.0
2510129430,-0.021909911,0.6572478,0.07358217,-0.00083921,0.0061640386,-0.00018043448,0.0
2510161442,0.004990423,0.5747964,0.08209371,-0.0006498793,0.0058597503,-0.000691507,0.0
2510193438,0.12836182,0.45192695,0.06456922,-0.00063447806,0.0055373865,-0.0011711735,0.0
2510225461,0.08911027,0.30834636,0.06244806,-0.0007048279,0.0053393473,-0.0016605456,0.0
2510257476,0.12194954,0.33005857,0.072056666,-0.00080569944,0.0052337605,-0.002182232,0.0
2510289472,0.2422376,0.38048425,0.06398659,-0.0010251458,0.0050864536,-0.0027198596,0.0
2510321484,0.23475005,0.38664985,0.06639805,-0.0013438284,0.0048122364,-0.0032704808,0.0
2510353467,0.16415597,0.35282028,0.0638634,-0.0016807074,0.00440901,-0.003834829,0.0
2510385534,0.15178846,0.27121967,0.06095472,-0.0019836428,0.0039759907,-0.0044029793,0.0
2510417434,0.18176077,0.24458027,0.0505423,-0.0023126802,0.003579173,-0.0049442635,0.0
2510449477,0.2040178,0.28222528,0.04064324,-0.0027135492,0.0031605256,-0.0054467656,0.0
2510481477,0.19079721,0.29602274,0.03568088,-0.003186942,0.0026720646,-0.0059183934,0.0
2510513501,0.1241156,0.20639232,0.030197475,-0.0036921413,0.0021220378,-0.006362703,0.0
2510545446,0.11258396,0.15026055,0.027447179,-0.004164259,0.0015664193,-0.0067856847,0.0
2510577483,0.124888204,0.11942611,0.021448871,-0.004636302,0.0010367173,-0.007185405,0.0
2510609465,0.1299611,0.12142375,0.021150889,-0.0051531815,0.0005052043,-0.0075962744,0.0
2510641526,0.062235504,0.06763476,0.024377968,-0.0056825546,-2.5582442e-05,-0.008010771,0.0
2510673434,0.010911188,-0.008389801,0.018415226,-0.0061579063,-0.00051134115,-0.008423888,0.0
2510705437,-0.008902241,-0.038493086,0.014198065,-0.006568205,-0.0009501921,-0.008826602,0.0
2510737463,0.012368798,-0.051506866,0.012842907,-0.0069886493,-0.0013766277,-0.009208227,0.0
2510769466,0.032166276,-0.08443174,0.0120912865,-0.0074573965,-0.0017760984,-0.009586136,0.0
2510801431,0.007220829,-0.1191915,0.0034358643,-0.007950454,-0.0021420978,-0.009955578,0.0
2510833442,-0.015648684,-0.12902635,0.003044088,-0.0084322635,-0.0024743064,-0.010323295,0.0
2510865478,-0.02063624,-0.1345409,0.0062256204,-0.008903039,-0.0028048165,-0.010685408,0.0
2510897464,0.025032373,-0.14749141,0.0013734244,-0.009419269,-0.0031377957,-0.011024183,0.0
2510929441,0.007500061,-0.1818425,0.0010871552,-0.009989135,-0.0034423557,-0.011349799,0.0
2510961448,-0.01897994,-0.18808514,-0.0010640606,-0.010559373,-0.0037338315,-0.011660189,0.0
2510993443,-0.02745088,-0.17655018,-0.0052611493,-0.011114862,-0.00401247,-0.01195576,0.0
2511025463,-0.022750469,-0.18473664,-0.0057212026,-0.011670244,-0.0042670295,-0.012238454,0.0
2511057480,-0.012086412,-0.1997136,-0.009838533,-0.01223705,-0.0044954265,-0.012507363,0.0
2511089436,-0.035675287,-0.18243924,-0.011257971,-0.0128024835,-0.004738815,-0.012748873,0.0
2511121496,-0.057136294,-0.1603658,-0.013518483,-0.013356588,-0.0050169267,-0.01298299,0.0
2511153493,-0.07731888,-0.1704897,-0.013011084,-0.013891454,-0.0052976855,-0.013199102,0.0
2511185482,-0.092674404,-0.17619261,-0.012959594,-0.014410001,-0.0055640116,-0.013415543,0.0
2511217422,-0.086572096,-0.1584292,-0.016447939,-0.014937074,-0.0058508925,-0.013605331,0.0
2511249495,-0.109485336,-0.15506476,-0.007989497,-0.015478753,-0.0061638476,-0.013791771,0.0
2511281471,-0.120998524,-0.15247624,-0.016435955,-0.016006855,-0.0064835344,-0.013966759,0.0
2511313477,-0.11815353,-0.14577828,-0.017359793,-0.016511302,-0.0068055727,-0.014134786,0.0
2511345437,-0.13359463,-0.111643046,-0.021381957,-0.017008616,-0.0071623717,-0.014275069,0.0
2511381484,-0.17090932,-0.12076894,-0.029414717,-0.017490974,-0.0075807786,-0.014417229,0.0
2511413419,-0.2500864,-0.16603279,-0.025471682,-0.017808557,-0.007934643,-0.014528403,0.0
2511445429,-0.27804187,-0.17194688,-0.026893323,-0.017995102,-0.008227719,-0.014628102,0.0
2511477469,-0.2747712,-0.14213887,-0.029174706,-0.018092671,-0.008503669,-0.014714295,0.0
2511509488,-0.26940846,-0.16434842,-0.022906464,-0.018170072,-0.0087866355,-0.014834954,0.0
2511541481,-0.25175297,-0.18602641,-0.0057541295,-0.018241068,-0.009045029,-0.015022186,0.0
2511573437,-0.1762934,-0.17117175,-0.010918446,-0.018352238,-0.009283482,-0.015226042,0.0
2511605498,-0.123152435,-0.12613621,0.0016739054,-0.018550737,-0.009539901,-0.015477372,0.0
2511637475,-0.055409774,-0.121002905,0.008976044,-0.018839117,-0.009826437,-0.015792014,0.0
2511669474,0.008568467,-0.11320698,0.014059877,-0.01920015,-0.010130626,-0.016161587,0.0
2511701438,0.038907804,-0.097609214,0.019070055,-0.019644093,-0.010443992,-0.016572408,0.0
2511733500,0.058903933,-0.11559351,0.019654265,-0.020148387,-0.01073005,-0.01701858,0.0
2511765468,0.049981236,-0.13151465,0.024950854,-0.020691335,-0.010987541,-0.01749147,0.0
2511797483,0.032342456,-0.115028575,0.02151503,-0.021221604,-0.011249365,-0.01797028,0.0
2511825486,-0.027731266,-0.14371428,0.02098074,-0.021650178,-0.011477367,-0.018384889,0.0
2511857476,-0.045310766,-0.11674435,0.015413323,-0.02208293,-0.011754329,-0.018835906,0.0
2511889439,-0.06810157,-0.13441786,0.014638053,-0.02248348,-0.012025311,-0.019282138,0.0
2511921526,-0.0726001,-0.123719394,0.008517263,-0.022869429,-0.012295793,-0.019705044,0.0
2511953494,-0.09299181,-0.10230176,0.004217576,-0.023224898,-0.012572315,-0.020113826,0.0
2511985495,-0.09858194,-0.09376605,-0.0045590205,-0.023541026,-0.012854573,-0.020492984,0.0
2512017423,-0.11457427,-0.112181276,-0.002205932,-0.023828777,-0.013147766,-0.02085209,0.0
2512049505,-0.095948696,-0.09848724,-0.006710079,-0.024098901,-0.013440831,-0.021177236,0.0
2512081532,-0.09988447,-0.078939244,-0.006938441,-0.024362082,-0.013732907,-0.021485617,0.0
2512113441,-0.101067215,-0.088503405,-0.012209121,-0.02462944,-0.014015165,-0.021777239,0.0
2512145434,-0.102121636,-0.09584045,-0.01478426,-0.024876043,-0.014284055,-0.022044614,0.0
2512177464,-0.079036206,-0.07793714,-0.020005861,-0.025098365,-0.01455832,-0.022291603,0.0
2512209473,-0.07834484,-0.0790526,-0.018576538,-0.025299028,-0.014822047,-0.022546548,0.0
2512241435,-0.06684787,-0.0775509,-0.01532656,-0.025491182,-0.0150776515,-0.022799699,0.0
2512273440,-0.051491853,-0.08517798,-0.013336612,-0.025686994,-0.015316543,-0.023034185,0.0
2512305443,-0.035231136,-0.06630841,-0.020210251,-0.025870841,-0.015540061,-0.023267956,0.0
2512337488,-0.031978812,-0.04634033,-0.016899412,-0.02605249,-0.015773837,-0.023513673,0.0
2512369449,-0.020282552,-0.057631407,-0.013881057,-0.026233537,-0.016006568,-0.023759825,0.0
2512401482,-0.0013553891,-0.08459721,-0.012961558,-0.026430307,-0.016229268,-0.024023429,0.0
2512433484,0.009651859,-0.07926573,-0.009201432,-0.026651444,-0.016449027,-0.024285302,0.0
2512465500,0.015395437,-0.044323824,-0.0032827258,-0.026897766,-0.016688824,-0.024554249,0.0
2512497437,0.027602978,-0.026510756,-0.006109784,-0.027169187,-0.016940786,-0.024822759,0.0
2512529479,0.038475573,-0.051134694,-0.007891543,-0.027453665,-0.017174559,-0.025085552,0.0
2512561451,0.060637295,-0.055944502,-0.0053415573,-0.027752677,-0.017378207,-0.025343621,0.0
2512593527,0.05198656,-0.060242765,-0.010212083,-0.028050417,-0.017558984,-0.025584921,0.0
2512625446,0.05913802,-0.03691502,-0.013562464,-0.028346188,-0.017729819,-0.025805574,0.0
2512655068,0.058026455,-0.02835968,-0.007883797,-0.02860463,-0.017875925,-0.026026571,0.0
2512687119,0.042861775,-0.036169417,-0.006331274,-0.028864413,-0.01803289,-0.026244666,0.0
2512719043,0.057770588,-0.017266618,-0.0035693252,-0.029119434,-0.01818996,-0.026473504,0.0
2512751076,0.047867596,0.0111139845,0.0024292613,-0.029383887,-0.018359419,-0.026705446,0.0
2512783075,0.08251995,0.041165106,-0.0073571224,-0.029677331,-0.018546259,-0.026929203,0.0
2512815097,0.07323788,0.03645186,-0.005384157,-0.029976998,-0.01874623,-0.027169097,0.0
2512847029,0.07710807,0.060481377,-0.007178331,-0.030266808,-0.018973876,-0.027399639,0.0
2512879090,0.07320309,0.074848145,-0.007931301,-0.030546471,-0.019219784,-0.027611818,0.0
2512911038,0.060756337,0.067585595,-0.0054800683,-0.030810794,-0.01945473,-0.027836666,0.0
2512943134,0.05437167,0.067449436,0.0015548654,-0.031073919,-0.019701773,-0.028059158,0.0
2512975043,0.07316179,0.084850475,0.0027503057,-0.03136111,-0.019974073,-0.028316936,0.0
2513007023,0.080550626,0.08784153,-0.0033041406,-0.031681355,-0.020261398,-0.028551184,0.0
2513039029,0.082816884,0.056814626,0.0038028667,-0.032033198,-0.020541571,-0.028804634,0.0
2513071072,0.10382418,0.05985775,0.00052898395,-0.03242087,-0.020806562,-0.029043796,0.0
2513103054,0.1171962,0.088157445,0.00042970254,-0.03284077,-0.021102732,-0.02928596,0.0
2513135069,0.103117436,0.1129814,-0.0062983814,-0.03327858,-0.021432994,-0.029497275,0.0
2513167068,0.08497715,0.076726735,0.0009980681,-0.0337113,-0.021757271,-0.029720552,0.0
2513199079,0.05614329,0.06942031,0.0016001165,-0.034118425,-0.022086896,-0.029934833,0.0
2513231038,0.070890956,0.11777397,-0.0042856843,-0.03452315,-0.022455117,-0.030136216,0.0
2513263040,0.07315586,0.15051258,-0.0033543883,-0.034941345,-0.02286229,-0.03032513,0.0
2513295069,0.08471488,0.13658896,-0.009605645,-0.03537687,-0.023286866,-0.030504564,0.0
2513327078,0.08111463,0.11448656,-0.011872346,-0.03582738,-0.023718344,-0.030671323,0.0
2513359067,0.092896715,0.14039825,-0.016367799,-0.036302075,-0.02419011,-0.030833129,0.0
2513391039,0.058527514,0.16441439,-0.011872809,-0.03677149,-0.024701003,-0.030991372,0.0
2513423073,0.058257766,0.15003484,-0.00823958,-0.037231993,-0.025248798,-0.03115913,0.0
2513455049,0.02351656,0.12897125,-0.004052191,-0.037681498,-0.025811322,-0.031323448,0.0
2513487080,0.021360647,0.117821015,-0.00358209,-0.038121626,-0.02637,-0.031500727,0.0
2513519035,0.014200552,0.11029141,-0.00702071,-0.03852596,-0.026903115,-0.031676505,0.0
2513551069,-0.025293492,0.095607735,-0.008025677,-0.038916357,-0.027455524,-0.031837996,0.0
2513583067,-0.020820301,0.109099455,-0.009437407,-0.03928668,-0.028035466,-0.031991348,0.0
2513615071,-0.024745595,0.088154554,-0.0065584453,-0.039628107,-0.028614651,-0.032146618,0.0
2513647025,-0.045590006,0.06251962,-0.008342683,-0.039962746,-0.029188244,-0.03231338,0.0
2513679027,-0.034225076,0.06291427,-0.011187616,-0.040279306,-0.029736787,-0.03245907,0.0
2513711072,-0.054334424,0.061841406,-0.011674596,-0.040582277,-0.030287404,-0.03260699,0.0
2513743045,-0.054831,0.038837153,-0.015899986,-0.040885273,-0.030844457,-0.032730903,0.0
2513775033,-0.0689178,0.008258816,-0.0061674365,-0.041160095,-0.03137912,-0.032874256,0.0
2513807029,-0.073311664,-0.012218272,-0.011293391,-0.04141557,-0.03187964,-0.03301645,0.0
2513839094,-0.062264193,-0.022099815,-0.011148518,-0.041652415,-0.032348905,-0.03313514,0.0
2513871026,-0.08437163,-0.028127523,-0.005929575,-0.041874383,-0.032817904,-0.033266358,0.0
2513903033,-0.10106155,-0.026634306,-0.005795,-0.04205768,-0.03329536,-0.03339639,0.0
2513935028,-0.08806237,-0.05277808,-0.005563981,-0.042217076,-0.033730205,-0.033520192,0.0
2513967075,-0.07057077,-0.060098123,-0.0043973937,-0.042356864,-0.034101266,-0.033641327,0.0
2513999074,-0.047540024,-0.046881296,-0.012486229,-0.042502496,-0.03445737,-0.033758454,0.0
2514031081,-0.033665992,-0.06211762,-0.016490879,-0.042633187,-0.03480741,-0.03386703,0.0
2514063022,-0.030191215,-0.0898189,-0.015062153,-0.042759214,-0.035133895,-0.03397518,0.0
2514095115,-0.035201307,-0.11677808,-0.015621261,-0.042883594,-0.035406366,-0.034062847,0.0
2514127073,0.0035181344,-0.09935416,-0.011288432,-0.043040518,-0.035625223,-0.034132477,0.0
2514159092,0.039549135,-0.089420214,-0.015264627,-0.043242343,-0.03581677,-0.034198985,0.0
2514191029,0.0368508,-0.10797586,-0.019999724,-0.043469165,-0.035993148,-0.034235545,0.0
2514223092,0.024717387,-0.105803505,-0.02539409,-0.04367678,-0.03616267,-0.034239437,0.0
2514255064,0.022073856,-0.11232882,-0.026501846,-0.043878086,-0.036293976,-0.034204528,0.0
2514287095,0.030230744,-0.0758499,-0.024751978,-0.044074163,-0.03641349,-0.03415394,0.0
2514319023,0.01636479,-0.06341033,-0.02281782,-0.044258144,-0.036525924,-0.03410551,0.0
2514351098,-0.004665492,-0.062496796,-0.018376786,-0.04440855,-0.036648344,-0.034076173,0.0
2514383099,-0.0120521,-0.035943855,-0.016133491,-0.04451856,-0.03678631,-0.034056827,0.0
2514415019,-0.02151661,-0.039075382,-0.007281539,-0.044606846,-0.036915336,-0.034086604,0.0
2514447034,0.009634186,-0.011162143,-0.0031268764,-0.04472923,-0.03705657,-0.034148928,0.0
2514479040,0.024408031,-0.0016513485,0.0031565826,-0.044920184,-0.037233427,-0.03420525,0.0
2514511076,0.050212935,0.051827222,0.0030168118,-0.045140676,-0.037459213,-0.03428909,0.0
2514543040,0.053160638,0.07344411,-0.0010894958,-0.04536669,-0.03770469,-0.034376092,0.0
2514575026,0.05659818,0.08755426,0.0041429363,-0.045591336,-0.037973877,-0.034467377,0.0
2514607070,0.057326883,0.0889342,0.0025507086,-0.04584521,-0.038298324,-0.03455286,0.0
2514639117,0.05932874,0.123262435,0.0071371114,-0.04610509,-0.03866225,-0.034640644,0.0
2514671041,0.030000309,0.11884982,0.0072891125,-0.046339534,-0.039037533,-0.03476638,0.0
2514703099,-0.0013467241,0.089544594,0.010382824,-0.04652527,-0.039399665,-0.03489116,0.0
2514735070,0.02712532,0.088100195,0.008646607,-0.046705358,-0.039746393,-0.035028502,0.0
2514767101,0.042802773,0.043818545,0.005869471,-0.04689929,-0.040056437,-0.03518292,0.0
2514799026,0.03277119,0.026240047,0.010057018,-0.047098786,-0.04033646,-0.03532778,0.0
2514831066,-0.013205221,0.024638096,0.010997749,-0.047282044,-0.040613122,-0.03549015,0.0
2514863036,-0.011998739,0.04222768,0.0024357813,-0.047440287,-0.04088683,-0.035613153,0.0
2514895125,-0.013792139,0.03653574,-0.006245475,-0.04756555,-0.041158214,-0.03570802,0.0
2514927027,-0.037097227,-0.0068004485,-0.0040381057,-0.047659006,-0.041426834,-0.035782866,0.0
2514959071,-0.050326906,-0.012733163,-0.00073655613,-0.047734935,-0.041686557,-0.035862405,0.0
2514991055,-0.07810822,-0.034538068,0.00030011655,-0.04777775,-0.041882727,-0.035953242,0.0
2515023103,-0.05392828,-0.024819108,-0.002477544,-0.047812503,-0.04205322,-0.036025386,0.0
2515055030,-0.0508454,-0.045814052,-0.003283132,-0.047857374,-0.042195365,-0.03610494,0.0
2515087024,-0.046178285,-0.024818031,-0.0016658904,-0.047902238,-0.042355407,-0.036186367,0.0
2515119043,-0.05734603,-0.02684297,0.00022119185,-0.04792682,-0.042536356,-0.036256943,0.0
2515151077,-0.03958131,0.008144798,0.0010506863,-0.047931325,-0.042713854,-0.03633927,0.0
2515183030,-0.04728412,-0.011675945,0.0026116841,-0.047917347,-0.04287781,-0.036445595,0.0
2515215026,-0.032949775,0.00565031,0.009911199,-0.047887444,-0.04303598,-0.036575597,0.0
2515247032,-0.017884165,0.02862177,0.0025694142,-0.04785963,-0.043204777,-0.036710124,0.0
2515279062,-0.051628612,-0.002252208,0.009155727,-0.047831297,-0.043365803,-0.03685717,0.0
2515311027,-0.05450537,-0.048821528,0.002322868,-0.047781922,-0.043469545,-0.036993578,0.0
2515343046,-0.03861061,-0.028539633,-0.0018702149,-0.04771748,-0.043547995,-0.037077703,0.0
2515375103,-0.057182435,9.95025e-06,-0.004286713,-0.0476358,-0.04366568,-0.03713006,0.0
2515407061,-0.030682785,0.030792834,-0.009370645,-0.047541738,-0.043808505,-0.037171476,0.0
2515439099,-0.028049218,0.021705285,-0.01296064,-0.047459003,-0.043986693,-0.03719642,0.0
2515471023,0.0032803956,0.04474552,-0.01546398,-0.047405224,-0.044195957,-0.037177093,0.0
2515503075,0.0043319687,0.07551324,-0.023816127,-0.047370654,-0.044453155,-0.03710008,0.0
2515535064,0.042399462,0.11293678,-0.031196978,-0.047356684,-0.04476926,-0.036967106,0.0
2515567111,0.05185411,0.10072595,-0.032288108,-0.047364958,-0.04512393,-0.03681369,0.0
2515599044,0.065692075,0.08689989,-0.0349359,-0.04739368,-0.04548971,-0.036625907,0.0
2515631074,0.05316765,0.07954386,-0.033509694,-0.04742113,-0.04582621,-0.03644983,0.0
2515663069,0.05246444,0.068311125,-0.029327143,-0.0474567,-0.046149313,-0.036271382,0.0
2515695133,0.034163915,0.030270156,-0.02853654,-0.04746837,-0.04646067,-0.036097713,0.0
2515727047,0.021486117,-0.012652444,-0.01677347,-0.04745335,-0.046746936,-0.035959367,0.0
2515759032,0.0027189776,-0.035091292,-0.010455335,-0.047405113,-0.04698122,-0.03584696,0.0
2515791077,0.0025261715,-0.03129417,-0.0017316223,-0.047352772,-0.047192458,-0.035784673,0.0
2515823075,0.00025293604,-0.05271637,-0.00012803107,-0.047299206,-0.047355626,-0.035743356,0.0
2515855025,0.020613136,-0.066989,0.0058343783,-0.047268536,-0.04746872,-0.035736434,0.0
2515887030,0.012960085,-0.065969974,0.009220348,-0.04724116,-0.047581617,-0.035761945,0.0
2515919054,0.01988136,-0.06253517,0.008648401,-0.04720869,-0.047701005,-0.03580271,0.0
2515951102,0.008157173,-0.08458729,0.011472075,-0.047169544,-0.047776736,-0.035837974,0.0
2515983028,0.05816707,-0.06852254,0.003993203,-0.04714026,-0.047814175,-0.035859924,0.0
2516015037,0.053344376,-0.07714392,-0.0003911297,-0.047129784,-0.047815707,-0.03588186,0.0
2516047059,0.023775777,-0.08831051,0.0071814647,-0.047124743,-0.04779722,-0.035901736,0.0
2516079060,0.0002799593,-0.06367309,0.008602363,-0.04707676,-0.04777736,-0.03593519,0.0
2516112670,0.019598369,-0.07644539,0.0064390483,-0.04701124,-0.047738064,-0.035954263,0.0
2516144675,0.034145266,-0.07249226,-0.0007086726,-0.04695509,-0.047678728,-0.035948526,0.0
2516172689,0.05206565,-0.03614262,-0.008261386,-0.046909813,-0.047610827,-0.03592258,0.0
2516204626,0.046682775,-0.018230427,-0.01350638,-0.0468845,-0.0475537,-0.035844687,0.0
2516236636,0.044468157,-0.023745421,-0.01021634,-0.046872064,-0.04750365,-0.035735935,0.0
2516268674,0.074203335,0.014552131,-0.022988146,-0.046874683,-0.047488846,-0.03557923,0.0
2516300692,0.086861655,0.06091971,-0.023393782,-0.046901055,-0.04753449,-0.035385735,0.0
2516332702,0.12892266,0.07194246,-0.032318402,-0.046990957,-0.04764107,-0.03514105,0.0
2516364629,0.15393919,0.053376384,-0.030558247,-0.047172688,-0.047736928,-0.034885503,0.0
2516396710,0.13743038,0.0853595,-0.037692178,-0.047394503,-0.04784498,-0.034593295,0.0
2516428678,0.13965593,0.12090072,-0.033938207,-0.047622077,-0.048016913,-0.03428108,0.0
2516460678,0.161409,0.109109685,-0.038216207,-0.04786607,-0.048228104,-0.033960715,0.0
2516492623,0.16497974,0.078592815,-0.03297747,-0.048152804,-0.04843752,-0.033653114,0.0
2516524711,0.10267926,0.08696763,-0.031025378,-0.048437092,-0.048639033,-0.03334278,0.0
2516556679,0.0210915,0.11012444,-0.01526319,-0.04866111,-0.048874408,-0.03306804,0.0
2516588677,0.01607189,0.11576391,-0.014529609,-0.048817888,-0.049141023,-0.032825124,0.0
2516620630,0.034000557,0.07198362,-0.01692454,-0.04894897,-0.049405508,-0.03258741,0.0
2516652631,0.00444977,0.04286665,-0.0065000136,-0.04906657,-0.049645096,-0.032384977,0.0
2516684664,-0.02041164,0.06279542,0.0016435322,-0.049161565,-0.04988242,-0.032221593,0.0
2516716651,-0.037525423,0.055036977,-0.00042158423,-0.049241036,-0.05012964,-0.032077268,0.0
2516748662,-0.028495723,0.036396258,0.0070171077,-0.04932614,-0.05034984,-0.031961996,0.0
2516780673,-0.0040871315,0.020983592,0.006396776,-0.04942131,-0.050544016,-0.031880245,0.0
2516812678,-0.012789542,-0.0042248406,0.018030686,-0.049533263,-0.050720003,-0.031838074,0.0
2516844652,0.014063627,-0.0022261366,0.022540275,-0.04967343,-0.050885003,-0.0318219,0.0
2516876642,0.03882333,0.010701535,0.014910167,-0.049836677,-0.051046938,-0.031810388,0.0
2516908667,0.016411401,-0.0016029086,0.017722763,-0.05003471,-0.051222052,-0.03181516,0.0
2516940689,0.0098520685,-0.0009172,0.020890241,-0.05024331,-0.051395282,-0.031839587,0.0
2516972644,0.014804904,0.006361155,0.0246207,-0.050450712,-0.051593777,-0.03188955,0.0
2517004676,-0.010588735,0.0077143237,0.042092934,-0.05066048,-0.051819395,-0.032020036,0.0
2517036659,-0.011019688,-0.014358391,0.03893811,-0.050879985,-0.0520441,-0.03218823,0.0
2517068719,-0.015713535,-0.038514555,0.039768822,-0.051121775,-0.05219825,-0.032337617,0.0
2517100647,0.010373082,-0.02533944,0.031119384,-0.051372375,-0.05230828,-0.03251175,0.0
2517132999,0.005803881,-0.054314293,0.03403177,-0.051634423,-0.052391794,-0.032698937,0.0
2517164643,-0.002361156,-0.08564504,0.027158918,-0.051909264,-0.052443836,-0.032861415,0.0
2517196707,-0.006789392,-0.10417044,0.017202359,-0.052193057,-0.052439816,-0.032991104,0.0
2517228641,-0.036200702,-0.095585756,0.011088485,-0.052455116,-0.05237347,-0.033082537,0.0
2517260669,-0.051892325,-0.10645943,0.013344835,-0.052712034,-0.05230286,-0.033154517,0.0
2517292657,-0.045664832,-0.07374747,0.011564706,-0.052964367,-0.05226994,-0.0332103,0.0
2517324721,-0.036078423,-0.03101456,0.012048981,-0.053241484,-0.052273363,-0.033266008,0.0
2517356636,-0.018580701,-0.0099195335,0.009253302,-0.05354405,-0.052286256,-0.033344552,0.0
2517388649,0.0041668154,-0.012162633,0.014146321,-0.053873338,-0.052292094,-0.033443145,0.0
2517420645,-0.018824255,0.003855681,0.018002748,-0.054223776,-0.05232254,-0.033593003,0.0
2517452669,-0.028744385,0.013084205,0.015446585,-0.054567203,-0.052371133,-0.03372725,0.0
2517484644,-0.020090407,0.021493435,0.024018167,-0.05492461,-0.05242294,-0.033896156,0.0
2517516658,-0.033866033,-0.0148096215,0.019364202,-0.055313036,-0.05244223,-0.034065478,0.0
2517548635,-0.08218099,-0.033023287,0.021248337,-0.055669207,-0.052418604,-0.034219075,0.0
2517580687,-0.1377362,-0.046804763,0.019439673,-0.055912927,-0.052332494,-0.034394417,0.0
2517612643,-0.23155391,-0.05714632,0.024309209,-0.056003097,-0.05219387,-0.034561265,0.0
2517644654,-0.2654447,-0.06823219,0.026097009,-0.055973016,-0.052051116,-0.03474202,0.0
2517676682,-0.2512329,-0.06170909,0.024966257,-0.055863217,-0.051894624,-0.034949847,0.0
2517708684,-0.2217505,-0.026260044,0.024486657,-0.055747464,-0.051728312,-0.035178054,0.0
2517740837,-0.20927577,0.018783918,0.027718546,-0.055653457,-0.05160246,-0.035435107,0.0
2517772633,-0.1704801,0.017781766,0.02545153,-0.055584196,-0.051515386,-0.03568337,0.0
2517804697,-0.14315298,0.0076207425,0.027624566,-0.055529077,-0.05144079,-0.03592633,0.0
2517836690,-0.067647524,0.029147184,0.021641523,-0.055512674,-0.05135103,-0.03614157,0.0
2517868708,-0.030880837,0.034779355,0.012011229,-0.05556861,-0.05123626,-0.036331385,0.0
2517900662,0.00023937412,0.031878546,0.017513903,-0.055682156,-0.051103134,-0.03652386,0.0
2517932673,-0.02806647,0.035658076,0.011713602,-0.055782642,-0.050974175,-0.036720663,0.0
2517964661,-0.0085212495,0.038438212,0.010185548,-0.0558675,-0.050841134,-0.036904708,0.0
2517996673,0.02228701,0.022639053,0.017560856,-0.05596712,-0.050695807,-0.037111577,0.0
2518028632,0.03649768,0.031177476,0.010466166,-0.056107156,-0.050536476,-0.037320677,0.0
2518060646,0.02108269,0.020890543,0.015826894,-0.056269046,-0.050359886,-0.037544213,0.0
2518092654,-0.0077872053,0.0095804185,0.014197437,-0.056408603,-0.050172307,-0.037761744,0.0
2518124666,-0.023020266,0.02292851,0.011927339,-0.056519367,-0.0500012,-0.037985895,0.0
2518156626,-0.02062017,0.011642339,0.02094193,-0.056623705,-0.04982883,-0.038210157,0.0
2518188660,0.009481344,0.025098557,0.015505877,-0.05674619,-0.04964763,-0.03843377,0.0
2518220675,-0.00839586,0.050495505,0.011600849,-0.056867484,-0.04948732,-0.038667742,0.0
2518252680,-0.034008123,0.06075227,0.011476233,-0.056966316,-0.04933697,-0.03889849,0.0
2518284641,-0.01957851,0.06397694,0.013505619,-0.057038527,-0.049208976,-0.039143674,0.0
2518316649,-0.0335161,0.06972692,0.014823923,-0.057092957,-0.049091402,-0.03937961,0.0
2518348685,-0.021780703,0.06257299,0.012235506,-0.057142206,-0.048969455,-0.039614864,0.0
2518380687,-0.031560592,0.0729466,0.010894196,-0.057167374,-0.04885792,-0.0398371,0.0
2518412682,-0.057560645,0.09243838,0.007398074,-0.057171296,-0.04877897,-0.040068552,0.0
2518444643,-0.051911213,0.083762735,0.014168252,-0.05716581,-0.0487171,-0.040287096,0.0
2518476690,-0.02903385,0.078137375,0.0057035782,-0.057168677,-0.048650905,-0.040493928,0.0
2518508695,-0.006651558,0.09966865,0.0058076493,-0.057177596,-0.04861429,-0.04067958,0.0
2518540701,0.017502131,0.11051944,-0.0033027157,-0.057209104,-0.04859261,-0.040867444,0.0
2518572644,0.018339477,0.06754669,0.00047673433,-0.057249796,-0.048557036,-0.041036528,0.0
2518604700,0.028940046,0.050660003,-0.0028565943,-0.057313014,-0.048521288,-0.04121486,0.0
2518636683,0.032655463,0.061119642,-0.0015088691,-0.05739606,-0.04847556,-0.041378044,0.0
2518668687,0.009684604,0.028657926,3.3703167e-05,-0.057484236,-0.048420835,-0.041530907,0.0
2518700645,0.040269375,0.038478687,-0.007111231,-0.057576846,-0.04837133,-0.041669916,0.0
2518732659,0.021786219,0.04317899,-0.006298363,-0.057636596,-0.048311256,-0.041798018,0.0
2518764678,0.026223235,0.044099666,-0.009890608,-0.05768167,-0.0482603,-0.04192153,0.0
2518796630,-0.0016709585,0.032633036,-0.004237449,-0.05771233,-0.048227347,-0.042027894,0.0
2518828640,-0.0012014303,0.045180835,-0.006755196,-0.057741802,-0.048217922,-0.042142536,0.0
2518860648,0.012439548,0.046103418,-0.007272169,-0.057781518,-0.04822118,-0.042238332,0.0
2518892676,0.02997387,0.03166164,-0.0075010518,-0.0578371,-0.04821154,-0.04232877,0.0
2518924642,0.053023666,0.030896489,-0.017548395,-0.057892103,-0.04818994,-0.042405266,0.0
2518956650,0.03709934,0.028096022,-0.01859385,-0.05795016,-0.048154905,-0.04245942,0.0
2518988664,0.018083606,-0.004257595,-0.009360839,-0.05800359,-0.048115373,-0.04252237,0.0
2519020872,0.02103751,-0.025118308,-0.009209192,-0.05804971,-0.04806947,-0.042587355,0.0
2519052633,0.013453365,-0.007276425,-0.010093638,-0.058080643,-0.04803079,-0.04265533,0.0
2519084689,0.000746591,0.0030603912,-0.011539881,-0.058095917,-0.04799504,-0.04272749,0.0
2519116639,0.027640827,-0.012708982,-0.004946501,-0.058121588,-0.047961958,-0.042801294,0.0
2519148736,0.033432573,-0.013446318,-0.0103051495,-0.05815581,-0.047925264,-0.042865716,0.0
2519180686,0.033229504,-0.008714693,-0.0070990743,-0.058195446,-0.04787703,-0.042943586,0.0
2519212684,0.0136170415,-0.03596826,-0.007184297,-0.058228318,-0.04780545,-0.04301528,0.0
2519244647,0.038925003,-0.041513674,-0.004241257,-0.058262497,-0.04771503,-0.043088958,0.0
2519276703,0.012332767,-0.04840281,-0.005929757,-0.05828974,-0.04762358,-0.04317631,0.0
2519308686,0.012327381,-0.038634304,-0.0045091542,-0.05830402,-0.047513757,-0.043272946,0.0
2519340691,0.0058570784,-0.054062046,-0.007579018,-0.058286447,-0.04737282,-0.04334013,0.0
2519372623,0.018472763,-0.037059415,-0.011431549,-0.058252763,-0.04723262,-0.043403577,0.0
2519404662,-0.002742853,-0.03882099,-0.0071767634,-0.058213834,-0.047108624,-0.043463994,0.0
2519436677,0.027151518,-0.04769709,-0.0076083974,-0.05820041,-0.04699738,-0.043523602,0.0
2519468644,0.033892862,-0.036438096,-0.004547315,-0.058207877,-0.04689016,-0.043597072,0.0
2519500663,0.020719657,-0.032235254,-0.0028265638,-0.058229264,-0.046799675,-0.04367359,0.0
2519532668,0.032069135,-0.00460718,-0.0014844611,-0.05825345,-0.04671746,-0.043756496,0.0
2519566314,0.050927922,-0.018345855,-0.00037529704,-0.05827506,-0.046624128,-0.043860417,0.0
2519598283,0.040802356,-0.027591078,-8.689886e-05,-0.058271255,-0.04653588,-0.043969672,0.0
2519630230,0.04135239,-0.01456209,-0.0033591017,-0.058250822,-0.04643323,-0.04407118,0.0
2519662305,0.019736089,-0.040525123,0.0040928954,-0.058235217,-0.046306565,-0.044180084,0.0
2519694254,0.02668457,-0.033043668,0.0058790566,-0.05822306,-0.0461815,-0.044295575,0.0
2519726462,0.03125488,-0.015673496,0.005807918,-0.058211654,-0.046065662,-0.04441034,0.0
2519758243,0.056295007,-0.021603342,-0.0013612979,-0.058215875,-0.045940157,-0.04451814,0.0
2519790266,0.055862736,-0.036279432,-0.0003960306,-0.05822166,-0.045785278,-0.0446293,0.0
2519822296,0.039190438,-0.020822553,-0.008242179,-0.058218148,-0.0456364,-0.0447144,0.0
2519854307,0.0033947416,-0.01940886,-0.004391253,-0.058174044,-0.045483172,-0.04480143,0.0
2519886293,-0.010942977,-0.03776492,-0.005197827,-0.058089104,-0.04533556,-0.044872034,0.0
2519918285,0.008234883,-0.038660508,-0.006740428,-0.05798652,-0.045186713,-0.044931877,0.0
2519950281,0.0032500513,-0.022868164,-0.012710971,-0.057899877,-0.045032226,-0.044968825,0.0
2519982393,-0.015977304,-0.026758222,-0.007435598,-0.057801157,-0.044881627,-0.045009084,0.0
2520014232,0.0068616085,0.0032477751,-0.010339361,-0.057697605,-0.04478067,-0.04505514,0.0
2520046308,0.0024223514,0.010539163,-0.0038307817,-0.05759407,-0.04471024,-0.045093462,0.0
2520078249,0.044151682,0.029747935,-0.010714581,-0.05750913,-0.04464532,-0.045133293,0.0
2520110278,0.05991103,0.03160297,-0.008691632,-0.05745647,-0.044589225,-0.04516846,0.0
2520142300,0.07106845,0.051341213,-0.00787126,-0.05742952,-0.044567775,-0.04521121,0.0
2520174226,0.06467095,0.06957717,-0.005219659,-0.057415545,-0.044584896,-0.045260698,0.0
2520206270,0.06493396,0.05695051,0.0056217154,-0.057419874,-0.044649027,-0.045340065,0.0
2520238271,0.08795114,0.08203727,0.009461591,-0.057436056,-0.04476667,-0.045443017,0.0
2520270227,0.096754774,0.102970496,0.0058625834,-0.05748367,-0.044914793,-0.045561813,0.0
2520302309,0.086149685,0.07744391,0.0056227287,-0.05753493,-0.045047674,-0.045698714,0.0
2520334281,0.07566905,0.004571568,0.008760843,-0.057589713,-0.04512688,-0.045848973,0.0
2520366302,0.07615618,-0.018429413,0.010318314,-0.05763439,-0.045166712,-0.04600423,0.0
2520398335,0.052509777,-0.032946505,0.013407606,-0.057692762,-0.04519177,-0.04617196,0.0
2520430226,0.062823765,-0.0559178,0.014330751,-0.05776453,-0.045188073,-0.046366297,0.0
2520462325,0.061638273,-0.06387672,0.013281489,-0.057839263,-0.04515732,-0.046565607,0.0
2520494309,0.036689207,-0.061482288,0.016192274,-0.05790257,-0.045112845,-0.046759143,0.0
2520526442,0.009874955,-0.07055702,0.011521775,-0.05794192,-0.045055874,-0.046966184,0.0
2520558246,0.015345017,-0.07364541,0.013597658,-0.057967283,-0.044998806,-0.047155917,0.0
2520590278,-0.01421012,-0.06910249,0.014365393,-0.05797188,-0.044950023,-0.04737389,0.0
2520622330,-0.00049294904,-0.070470795,0.008292517,-0.057968535,-0.044886395,-0.047590777,0.0
2520654277,0.00586392,-0.081687614,0.008039324,-0.05797324,-0.044795122,-0.047793813,0.0
2520686273,-0.024812168,-0.07696228,0.0015615358,-0.05797669,-0.044703387,-0.047973327,0.0
2520718306,-0.040723227,-0.06568189,0.0028989606,-0.0579465,-0.04462564,-0.048121903,0.0
2520750277,-0.05751056,-0.08255477,-0.0046630846,-0.057896174,-0.04456701,-0.04823537,0.0
2520782459,-0.058474503,-0.0907368,-0.009729739,-0.057920847,-0.044656966,-0.048324306,0.0
2520814234,-0.071767725,-0.10028499,-0.023433715,-0.057920933,-0.044703558,-0.048359293,0.0
2520846256,-0.084743485,-0.13187142,-0.02350577,-0.05785943,-0.044660933,-0.04835373,0.0
2520878266,-0.10699608,-0.14862224,-0.025968261,-0.057744678,-0.04455784,-0.04829641,0.0
2520910294,-0.08385697,-0.16735613,-0.036639642,-0.05761207,-0.04438997,-0.048199847,0.0
2520942293,-0.083753474,-0.17935006,-0.037546977,-0.05747322,-0.044186547,-0.04806644,0.0
2520974235,-0.075508505,-0.1402945,-0.03577061,-0.057335917,-0.04397361,-0.047903508,0.0
2521006307,-0.044794004,-0.07993746,-0.04758418,-0.057216648,-0.04379714,-0.047701027,0.0
2521038269,-0.044410653,-0.047388695,-0.036799762,-0.057079215,-0.043672144,-0.047493216,0.0
2521070234,-0.040478013,-0.02181727,-0.03792626,-0.056946225,-0.043591782,-0.04730087,0.0
2521102331,-0.027702427,0.010977769,-0.031969655,-0.05681156,-0.043558713,-0.047121465,0.0
2521134310,-0.019508906,0.032838102,-0.028836936,-0.05666337,-0.04354919,-0.04693551,0.0
2521166305,-0.021632276,0.046336286,-0.025053116,-0.056511205,-0.04355609,-0.04676872,0.0
2521198274,-0.019984739,0.036381125,-0.01926982,-0.056365374,-0.04358453,-0.04660627,0.0
2521230231,0.013464427,0.047733374,-0.023196006,-0.056243245,-0.04362397,-0.04644014,0.0
2521262337,-0.010783421,0.021647194,-0.021517137,-0.05610874,-0.043640926,-0.046256766,0.0
2521294278,0.02323714,0.016611956,-0.025330508,-0.05598811,-0.04365056,-0.04607071,0.0
2521326320,-0.0033064205,0.021097843,-0.020295007,-0.05585798,-0.04366524,-0.04587691,0.0
2521358237,0.043716446,0.028639887,-0.029311623,-0.055749353,-0.043683287,-0.04567175,0.0
2521390317,0.022667702,0.027079005,-0.021380547,-0.055642772,-0.04370311,-0.045445595,0.0
2521422330,0.012127946,0.006224338,-0.024402384,-0.055540837,-0.04373208,-0.04521422,0.0
2521454245,0.02536401,0.021309718,-0.029219173,-0.055434,-0.043776534,-0.044965826,0.0
2521486281,0.005412305,0.024206586,-0.028542763,-0.055312563,-0.043814454,-0.04470141,0.0
2521518267,-0.0053215064,-0.019578319,-0.02839577,-0.055173222,-0.043829806,-0.04442147,0.0
2521550280,-0.01193979,0.004081106,-0.031399768,-0.055002827,-0.043864895,-0.044119563,0.0
2521582296,-0.016311187,0.031716265,-0.028568016,-0.054807443,-0.04392314,-0.043808244,0.0
2521614227,-0.02525821,0.013457222,-0.027366113,-0.05459258,-0.043976676,-0.04349127,0.0
2521646275,0.0047062375,0.01605134,-0.031560376,-0.05437278,-0.04402102,-0.043162953,0.0
2521678297,-0.0020729639,0.02185087,-0.031952415,-0.054168522,-0.04407148,-0.042825058,0.0
2521710253,0.0052825473,0.02905002,-0.02168732,-0.0539785,-0.0441338,-0.04249243,0.0
2521742339,0.0061411746,0.017338537,-0.019535962,-0.05378577,-0.044206895,-0.04217379,0.0
2521774242,0.025407007,0.019941444,-0.016433373,-0.05360476,-0.044296723,-0.041868154,0.0
2521806423,0.044029236,0.011605658,-0.015103209,-0.053456016,-0.04437803,-0.041584067,0.0
2521838239,0.06619956,0.027058195,-0.008468043,-0.053352553,-0.044451002,-0.04132225,0.0
2521870273,0.040630188,-0.008285429,-0.0029158383,-0.053272642,-0.04451514,-0.041099407,0.0
2521902318,0.069479235,-0.00023637712,0.0051856474,-0.05319798,-0.04457732,-0.040904053,0.0
2521934320,0.07590364,0.018636046,0.0020474552,-0.05311324,-0.04462897,-0.040732298,0.0
2521966277,0.08128516,0.018017145,0.008329747,-0.053052474,-0.044676803,-0.040606778,0.0
2521998276,0.05726695,-0.009452684,0.019445023,-0.053014383,-0.044719122,-0.040517706,0.0
2522030229,0.062906146,-0.003941197,0.021489745,-0.05298999,-0.044750895,-0.04046546,0.0
2522062441,0.042688437,-0.0020706132,0.029345173,-0.052968945,-0.04477,-0.04046281,0.0
2522094235,0.05160199,0.0076703317,0.036481712,-0.052939024,-0.04478625,-0.040524177,0.0
2522126277,0.05542706,-0.0077459402,0.03822915,-0.0529141,-0.04480348,-0.04062976,0.0
2522158229,0.04340613,-0.021349125,0.050327804,-0.052912325,-0.0448081,-0.040789112,0.0
2522190262,0.029451216,-0.022249598,0.05316596,-0.052920163,-0.044773176,-0.041006368,0.0
2522222334,0.014219281,-0.05175462,0.059017062,-0.052938476,-0.044710115,-0.041272122,0.0
2522254230,0.042681843,-0.037713192,0.05469381,-0.05296638,-0.044627428,-0.04154552,0.0
2522286270,0.057947148,-0.020617453,0.04699256,-0.053028837,-0.044535533,-0.041813668,0.0
2522318269,0.058894522,-0.03477512,0.045641307,-0.053132627,-0.04441988,-0.0420799,0.0
2522350297,0.08356204,-0.018044315,0.03695795,-0.053274907,-0.04430668,-0.042322267,0.0
2522382289,0.05736351,-0.01629804,0.03305438,-0.05343863,-0.04418318,-0.042557087,0.0
2522414235,0.043773692,-0.027750967,0.023951963,-0.053596158,-0.044042576,-0.04273669,0.0
2522446301,0.023684863,-0.017085653,0.019122332,-0.053720713,-0.043897305,-0.04289765,0.0
2522478318,-0.029242046,-0.003709752,0.014015311,-0.053808983,-0.04377285,-0.043012366,0.0
2522510252,-0.057082973,-0.01301582,0.009363835,-0.05385553,-0.04365688,-0.043094106,0.0
2522542415,-0.08552658,0.00052431785,-0.0037471773,-0.053866234,-0.043557316,-0.043126028,0.0
2522574289,-0.08785306,0.045515895,-0.0032244264,-0.053839087,-0.043475676,-0.043123152,0.0
2522606400,-0.069529526,0.04895716,-0.006857416,-0.053812083,-0.043424144,-0.04310746,0.0
2522638226,-0.050775196,0.06237013,-0.0100573795,-0.053813968,-0.043410555,-0.04307393,0.0
2522670274,-0.0587195,0.06852372,-0.0074237706,-0.053821266,-0.043413144,-0.043034535,0.0
2522702404,-0.04585457,0.08071498,-0.01706597,-0.05382107,-0.04341519,-0.042977862,0.0
2522734266,-0.064374365,0.06406823,-0.013666086,-0.053801276,-0.043426167,-0.04289062,0.0
2522766263,-0.05147512,0.06734454,-0.018868709,-0.05376913,-0.04344531,-0.04278034,0.0
2522798245,-0.053595595,0.051079273,-0.023290774,-0.05374237,-0.043450963,-0.042636435,0.0
2522830221,-0.07136013,0.031893156,-0.024439387,-0.053729773,-0.04343653,-0.04248156,0.0
2522862319,-0.073243365,0.034255326,-0.020918686,-0.053721074,-0.043438684,-0.042310525,0.0
2522894286,-0.07579284,0.03959582,-0.019793821,-0.05370099,-0.043473665,-0.04213025,0.0
2522926265,-0.051921535,0.05209157,-0.021667253,-0.05369217,-0.043517124,-0.04195313,0.0
2522958277,-0.042344227,0.025911417,-0.0153611945,-0.05371278,-0.04355759,-0.04177149,0.0
2522990279,-0.032504145,-0.005287215,-0.015287435,-0.05374668,-0.043549806,-0.04160872,0.0
2523019106,-0.046537705,-0.009541227,-0.01069573,-0.053771388,-0.04350808,-0.041462563,0.0
2523051072,-0.03620829,-0.002660837,-0.017392566,-0.05379198,-0.04343195,-0.041319784,0.0
2523083897,-0.07344107,-0.030030381,-0.0124492925,-0.053781826,-0.043329448,-0.041182544,0.0
2523115840,-0.074478775,-0.03711032,-0.0036486452,-0.053746674,-0.043232076,-0.041066937,0.0
2523147839,-0.08568915,-0.018808141,-0.0027567768,-0.05368425,-0.04316548,-0.04098091,0.0
2523175830,-0.06550878,-0.0067034476,-0.00084502605,-0.053637028,-0.04311289,-0.04091659,0.0
2523207863,-0.0704915,0.011511283,-0.0020669843,-0.053596374,-0.043057792,-0.0408624,0.0
2523239877,-0.06735763,-0.012818571,0.010912799,-0.053558964,-0.043002132,-0.040821243,0.0
2523271826,-0.024036353,-0.008511635,0.005939811,-0.053535447,-0.042928986,-0.04081149,0.0
2523303836,-0.033011593,-0.025744,0.015105735,-0.053527426,-0.0428201,-0.04082214,0.0
2523335855,-0.032087572,-0.030354533,0.014747964,-0.053511113,-0.04266162,-0.040866423,0.0
2523367871,-0.04936909,-0.050174795,0.027157964,-0.05347708,-0.042476848,-0.04095063,0.0
2523399838,-0.03793653,-0.05180704,0.030366166,-0.053457722,-0.042277303,-0.041091803,0.0
2523431829,-0.03953922,-0.06053885,0.033498053,-0.053466797,-0.04203709,-0.041263882,0.0
2523463830,-0.052397635,-0.056836642,0.033856824,-0.05346228,-0.041768692,-0.04146383,0.0
2523495884,-0.082132846,-0.041015517,0.03304693,-0.05340741,-0.04150173,-0.041666355,0.0
2523527834,-0.10837407,-0.07778307,0.034291774,-0.05329764,-0.04118945,-0.041874923,0.0
2523559856,-0.101792514,-0.08266293,0.02852456,-0.053158004,-0.040835366,-0.04206142,0.0
2523591839,-0.10345906,-0.070722446,0.02269876,-0.052999564,-0.04043376,-0.042227637,0.0
2523623849,-0.099715166,-0.08830419,0.023038717,-0.052842036,-0.039985225,-0.042369954,0.0
2523651823,-0.079446375,-0.092824355,0.011911081,-0.052711643,-0.03955663,-0.042457025,0.0
2523683858,-0.061203334,-0.06142053,0.0033317998,-0.05256103,-0.039041355,-0.042525485,0.0
2523715837,-0.040637597,-0.061596453,-0.0016379093,-0.052424915,-0.038490474,-0.042538416,0.0
2523747834,-0.033791434,-0.09228217,-0.0083277505,-0.05230403,-0.037889183,-0.04251584,0.0
2523779850,-0.06467897,-0.06721306,-0.0021088596,-0.052192,-0.03726358,-0.042472456,0.0
2523811863,-0.07302633,-0.031529978,-0.00686299,-0.052041657,-0.03664176,-0.042410832,0.0
2523843833,-0.06311682,0.0074128844,-0.0046197004,-0.051850595,-0.036037378,-0.042365856,0.0
2523875868,-0.060625557,0.027078554,-0.002931806,-0.05163559,-0.03546814,-0.04229637,0.0
2523903843,-0.06382623,0.040378854,0.0008411595,-0.0514329,-0.035003323,-0.04227289,0.0
2523935829,-0.068531245,0.06511475,0.0036920342,-0.051189803,-0.034471344,-0.042248756,0.0
2523967854,-0.058175478,0.06497036,0.0053897593,-0.050930116,-0.033898186,-0.04223189,0.0
2523999876,-0.06179598,0.051250733,0.0040397746,-0.050641872,-0.033268448,-0.042212475,0.0
2524031833,-0.0829086,0.04480979,0.006773103,-0.05031346,-0.03262468,-0.04221046,0.0
2524063833,-0.07861326,0.027331294,0.007296853,-0.049939603,-0.03195875,-0.04220442,0.0
2524095835,-0.09031944,0.03661876,0.014735615,-0.04950627,-0.0312767,-0.042242657,0.0
2524127920,-0.044756003,0.07617028,0.0117227305,-0.049059983,-0.030608395,-0.042291157,0.0
2524159840,-0.026010191,0.105136506,0.007945008,-0.048661806,-0.02996339,-0.042322785,0.0
2524191871,0.002166072,0.1106163,0.0013206239,-0.048316687,-0.029351396,-0.04229932,0.0
2524223829,0.04521223,0.15052101,-0.010387966,-0.048017923,-0.028781146,-0.042230234,0.0
2524255906,0.06882183,0.14885074,-0.013320126,-0.047746338,-0.028230106,-0.042106196,0.0
2524287835,0.12475067,0.20942245,-0.018514695,-0.047527928,-0.027753195,-0.041937575,0.0
2524319856,0.18862537,0.23336968,-0.023278018,-0.047421016,-0.027367085,-0.04175193,0.0
2524351845,0.19029956,0.24318306,-0.019384565,-0.047402944,-0.027033329,-0.041552603,0.0
2524383920,0.20842417,0.24130026,-0.028220875,-0.047442935,-0.02670957,-0.04132344,0.0
2524415821,0.19294657,0.23180318,-0.029729884,-0.047490392,-0.026404778,-0.041057598,0.0
2524447836,0.20511854,0.23592983,-0.031630296,-0.047547486,-0.026132034,-0.04076385,0.0
2524479826,0.1581852,0.23644683,-0.038077027,-0.047577012,-0.025884988,-0.040436346,0.0
2524511863,0.08426152,0.19062534,-0.032995887,-0.047537867,-0.025617024,-0.040085748,0.0
2524543838,0.066875465,0.23643215,-0.03690038,-0.047452714,-0.025394505,-0.03972553,0.0
2524575851,0.05459441,0.25095868,-0.03120008,-0.04735135,-0.025255082,-0.039357413,0.0
2524607826,0.06902402,0.26054037,-0.027151566,-0.047231723,-0.025174577,-0.039029263,0.0
2524639869,0.040317155,0.23459633,-0.017801387,-0.047118906,-0.02512221,-0.038715508,0.0
2524671838,0.07529908,0.21594048,-0.018831808,-0.047033463,-0.02507205,-0.0384274,0.0
2524703843,0.05383207,0.19339113,-0.014669531,-0.04695263,-0.025018772,-0.038148567,0.0
2524735839,0.05840246,0.1551691,-0.0073401914,-0.04686294,-0.024936477,-0.037900724,0.0
2524767855,0.037777185,0.11313169,-0.009045701,-0.04674461,-0.024814444,-0.03766014,0.0
2524799911,0.034026686,0.09585883,-0.0048593604,-0.046619337,-0.0246729,-0.037422754,0.0
2524831838,0.039880328,0.05255205,-0.007847906,-0.046496734,-0.024496716,-0.037200365,0.0
2524863869,0.031157847,0.064216174,-0.005770466,-0.046378165,-0.024333907,-0.03697509,0.0
2524895880,0.026366577,0.12145162,-0.0058321673,-0.046236362,-0.024233954,-0.036749605,0.0
2524927914,0.018686123,0.08342057,-0.0011388541,-0.046072874,-0.024162782,-0.03654027,0.0
2524959831,-0.0011710208,0.068476975,-0.0006869238,-0.0458882,-0.024111148,-0.03633289,0.0
2524991861,0.021073986,0.094034806,-0.0065890467,-0.04571201,-0.024090612,-0.036119536,0.0
2525023870,0.006920425,0.060342014,0.0025340589,-0.045526553,-0.024071816,-0.03592441,0.0
2525055916,-0.0023926385,0.03799037,0.0027646048,-0.045302466,-0.024040945,-0.0357549,0.0
2525087828,-0.019331433,-0.02007382,0.007011695,-0.045060568,-0.023947345,-0.035595793,0.0
2525119881,0.03430796,-0.06407063,0.0016643899,-0.04484814,-0.023777235,-0.035415843,0.0
2525151853,0.035572913,-0.08654616,-0.0065053063,-0.0446768,-0.023558946,-0.035229128,0.0
2525183870,0.05734545,-0.10420431,0.00077738875,-0.0445361,-0.023307227,-0.03503138,0.0
2525215833,0.048307654,-0.10226177,-0.0036904218,-0.04439957,-0.023027817,-0.034843583,0.0
2525247834,0.073321484,-0.12411751,0.0021500988,-0.044290926,-0.022719676,-0.034646828,0.0
2525279868,0.103685476,-0.097578265,-0.0037145037,-0.044251453,-0.022428397,-0.03445464,0.0
2525311860,0.11062258,-0.050191283,-0.0042831134,-0.044260357,-0.022198234,-0.03425417,0.0
2525343838,0.13567056,-0.05861503,-0.0025039548,-0.04430336,-0.021981742,-0.0340534,0.0
2525375847,0.13107029,-0.06260251,0.004569219,-0.044395816,-0.021769246,-0.033871252,0.0
2525407868,0.18907581,-0.06651931,-0.0013606651,-0.04459518,-0.02154246,-0.03369123,0.0
2525439873,0.21660636,-0.05069533,-0.0003410164,-0.04489332,-0.021311758,-0.033501424,0.0
2525471829,0.1734053,-0.06688446,-0.0027286164,-0.04522603,-0.021075409,-0.033323128,0.0
2525503836,0.14721285,-0.10439323,0.0039051808,-0.0455496,-0.020809261,-0.033155028,0.0
2525535891,0.13266498,-0.10846306,0.00064313004,-0.045862973,-0.020497542,-0.03297057,0.0
2525567876,0.095728695,-0.105056725,-0.0033280344,-0.04615754,-0.02015951,-0.032785684,0.0
2525599876,0.011584138,-0.07373521,0.0020185306,-0.046365887,-0.019842204,-0.032604296,0.0
2525631830,-0.053279564,-0.086585954,0.0066082324,-0.04649502,-0.019530373,-0.032447573,0.0
2525663893,-0.095054016,-0.060133725,0.0041336967,-0.04654654,-0.019241748,-0.032294046,0.0
2525695880,-0.08448227,-0.03372713,0.0028788657,-0.046565045,-0.018993704,-0.032126877,0.0
2525727877,-0.097111374,-0.03596305,-0.0009802505,-0.04656805,-0.018760117,-0.031960703,0.0
2525759843,-0.10342489,0.0075032264,0.0030443347,-0.04655881,-0.018575795,-0.03180749,0.0
2525791829,-0.12991267,-0.031921178,0.017133635,-0.04652152,-0.018400399,-0.03169758,0.0
2525823869,-0.10718102,-0.04755579,0.010030511,-0.046455152,-0.018191231,-0.03160393,0.0
2525855819,-0.09997924,-0.07037528,0.017118348,-0.046379916,-0.017932238,-0.03153709,0.0
2525887868,-0.10604036,-0.1068403,0.025723085,-0.046318796,-0.017623732,-0.031509064,0.0
2525919829,-0.110394254,-0.10127239,0.028585311,-0.046262544,-0.017310739,-0.031521894,0.0
2525951872,-0.11290143,-0.083470955,0.029366827,-0.046170164,-0.016990885,-0.031566802,0.0
2525983826,-0.10361806,-0.075030245,0.02060702,-0.04605002,-0.016672045,-0.03159606,0.0
2526015838,-0.12712517,-0.06895947,0.02428087,-0.04590413,-0.016383361,-0.031619567,0.0
2526047832,-0.08929819,-0.04376367,0.014567113,-0.04574818,-0.01613022,-0.031630024,0.0
2526079862,-0.08619321,-0.023670366,0.011939354,-0.045596946,-0.01590829,-0.031597186,0.0
2526111842,-0.051997896,0.007599931,0.0049038325,-0.045477524,-0.015721926,-0.031544168,0.0
2526143883,-0.05428367,0.009709537,-0.0032031366,-0.04538864,-0.015575737,-0.031450376,0.0
2526175829,-0.044261493,0.011296961,-0.0033228933,-0.04531844,-0.015460376,-0.031310778,0.0
2526207912,-0.02161773,-0.029098682,-0.008614708,-0.045243695,-0.0153128505,-0.031154452,0.0
2526239822,-0.026264852,-0.06769989,-0.0057743043,-0.0451764,-0.01511985,-0.03099555,0.0
2526271854,-0.0062863715,-0.07363443,-0.0038448712,-0.0451389,-0.014873391,-0.030856837,0.0
2526303840,-0.0054701604,-0.09358369,0.0013592797,-0.045109928,-0.01457156,-0.030743757,0.0
2526335932,-0.008705089,-0.10686899,0.0030382269,-0.04506911,-0.014236558,-0.030651959,0.0
2526367873,-0.0039020963,-0.13210687,0.0038803695,-0.045038484,-0.013879629,-0.03056757,0.0
2526399922,0.020126617,-0.11465475,0.010056514,-0.045049425,-0.013509828,-0.030505728,0.0
2526431823,0.020252183,-0.06806243,0.0039924816,-0.045099385,-0.013165732,-0.030443544,0.0
2526463894,0.037654195,-0.059128948,0.014298285,-0.04516064,-0.012840723,-0.03040853,0.0
2526496728,0.013698902,-0.04141748,0.023320088,-0.045236796,-0.012538406,-0.030419402,0.0
2526528631,0.02727003,-0.015552229,0.021320438,-0.045311883,-0.012283062,-0.030458305,0.0
2526557531,0.032916665,-0.0027350225,0.023643663,-0.045363873,-0.0120795965,-0.030529317,0.0
2526589437,0.01855104,0.0029350854,0.032556728,-0.0454249,-0.011867697,-0.030662248,0.0
2526621476,-0.012941461,-0.029053204,0.038923215,-0.045483075,-0.0116245095,-0.030835971,0.0
2526653445,-0.018157568,-0.024193527,0.035023525,-0.04552433,-0.011360391,-0.031028813,0.0
2526685526,-0.027266314,-0.01004993,0.030079361,-0.04555128,-0.011092828,-0.031213226,0.0
2526717439,-0.037013285,-0.014125947,0.023908244,-0.04555818,-0.01083656,-0.031367492,0.0
2526749496,-0.057095632,-0.013891121,0.02044071,-0.04553705,-0.010603871,-0.031486295,0.0
2526781453,-0.028613098,-0.012251552,0.014062801,-0.04552702,-0.010376237,-0.031567294,0.0
2526813536,-0.026994605,0.013441501,0.0073427707,-0.0455352,-0.010173786,-0.03161544,0.0
2526845431,-0.01827626,0.023483664,0.005157501,-0.045564923,-0.010000802,-0.031645223,0.0
2526877421,0.027841868,0.020759387,0.0003536354,-0.045628082,-0.009846005,-0.03164642,0.0
2526909473,0.03392491,0.038147204,0.0004907721,-0.04573559,-0.009719594,-0.03165533,0.0
2526941475,0.018797813,0.030968769,0.0031394244,-0.04583124,-0.009587827,-0.03169213,0.0
2526973475,-0.015540702,0.0040202793,0.010719241,-0.045900773,-0.009437054,-0.031742997,0.0
2527005422,-0.029778516,-0.012030961,0.0090077575,-0.0459383,-0.009271045,-0.031791084,0.0
2527037438,-0.0586275,-0.047961585,0.015225137,-0.045947447,-0.009063201,-0.03187606,0.0
2527069462,-0.062857896,-0.05314934,0.01877103,-0.04593861,-0.008841669,-0.031975977,0.0
2527101496,-0.07680449,-0.053856343,0.016072381,-0.04591419,-0.008598698,-0.03211174,0.0
2527133450,-0.047087476,-0.06550357,0.01956086,-0.045894302,-0.008342103,-0.032246687,0.0
2527165476,-0.064489916,-0.072171085,0.021873746,-0.045858253,-0.008060877,-0.032416265,0.0
2527197466,-0.07211792,-0.06706708,0.031495944,-0.04579923,-0.007750375,-0.03263416,0.0
2527229530,-0.09306416,-0.06846382,0.034069423,-0.045698248,-0.0074265,-0.032879587,0.0
2527261423,-0.124253154,-0.086746305,0.045175347,-0.04553016,-0.007075407,-0.033191442,0.0
2527293456,-0.095072374,-0.09775452,0.054921225,-0.045332965,-0.006707355,-0.03356695,0.0
2527325459,-0.010161022,-0.073078305,0.05479596,-0.045207474,-0.0063299686,-0.034011118,0.0
2527357525,0.07013637,-0.081735514,0.06097709,-0.04524555,-0.005919908,-0.034508362,0.0
2527389433,0.056437045,-0.07155408,0.06351618,-0.045365218,-0.005500388,-0.03503184,0.0
2527421494,0.105614826,-0.035828616,0.05562421,-0.045534648,-0.005097358,-0.03556629,0.0
2527453440,0.12165275,-0.052076623,0.043226756,-0.04573487,-0.004691635,-0.036053605,0.0
2527485465,0.15109111,-0.054297145,0.041298177,-0.04601691,-0.00423993,-0.036528196,0.0
2527517437,0.058419667,0.006280007,0.038220532,-0.046303518,-0.0038160088,-0.036955863,0.0
2527549444,-0.010085445,0.045229517,0.020928184,-0.046483926,-0.0034662257,-0.03733748,0.0
2527581493,-0.1085642,0.012058789,0.01658855,-0.046484917,-0.0031213562,-0.03766468,0.0
2527613465,-0.08966372,0.03219685,0.0053676995,-0.04639906,-0.002772457,-0.037947867,0.0
2527645431,-0.13722068,0.05952759,0.0024994551,-0.04626413,-0.0024536923,-0.038190637,0.0
2527677445,-0.17334427,0.055544533,0.004222042,-0.046073988,-0.0021572215,-0.038426716,0.0
2527709474,-0.18581909,0.07745389,-0.0027538969,-0.04581907,-0.0018963167,-0.03864592,0.0
2527741469,-0.09302731,0.09598847,-0.008120504,-0.045570504,-0.0016419224,-0.03883405,0.0
2527773493,-0.06905851,0.10794383,-0.0112837255,-0.04536727,-0.0014162294,-0.03896609,0.0
2527805441,-0.037851736,0.08919782,-0.021786904,-0.04522467,-0.0012094838,-0.039029516,0.0
2527837492,-0.038848683,0.08549887,-0.032769483,-0.045087814,-0.000990548,-0.039042793,0.0
2527869473,-0.058311023,0.07341829,-0.03013333,-0.044922285,-0.00076570455,-0.039028317,0.0
2527901483,-0.08021769,0.08634305,-0.032481067,-0.044687454,-0.00055289594,-0.03898868,0.0
2527933433,-0.040450003,0.044565268,-0.03015393,-0.044429902,-0.00030668857,-0.038951896,0.0
2527965474,-0.042853218,0.035239726,-0.03454999,-0.044184443,-3.4112174e-05,-0.03888194,0.0
2527997486,-0.007934738,0.07621485,-0.028891107,-0.04397169,0.00019088399,-0.03881342,0.0
2528029467,-0.0027276818,0.11597628,-0.030854484,-0.043788336,0.00034330421,-0.038731027,0.0
2528061436,0.054112777,0.13445903,-0.029543435,-0.04366648,0.00041429882,-0.03862893,0.0
2528093504,0.1568034,0.1801625,-0.039594743,-0.043686636,0.0003885778,-0.03850185,0.0
2528125482,0.263783,0.22352861,-0.030819163,-0.0439169,0.00025760985,-0.038373053,0.0
2528157448,0.26578453,0.2632286,-0.026117388,-0.044298843,1.3932917e-05,-0.03825667,0.0
2528189436,0.253181,0.20569856,-0.032099348,-0.04476554,-0.00028271758,-0.038142443,0.0
2528221447,0.20672515,0.19776952,-0.030888308,-0.045224402,-0.00058934913,-0.038014255,0.0
2528253475,0.12219944,0.17400357,-0.030653847,-0.045574542,-0.0008764708,-0.0378707,0.0
2528285433,0.026051164,0.14523637,-0.02334053,-0.045782547,-0.0011783232,-0.03774207,0.0
2528317443,-0.02316645,0.07661374,-0.032519657,-0.045892633,-0.0014669526,-0.037603524,0.0
2528349433,-0.07384115,0.039104678,-0.026217801,-0.045947257,-0.0016968949,-0.03744677,0.0
2528381468,-0.055013165,0.018055653,-0.03407586,-0.04599636,-0.0018907724,-0.03728014,0.0
2528413433,-0.038332835,0.030649563,-0.028902082,-0.046057973,-0.0021078945,-0.037099704,0.0
2528445491,-0.034560546,-0.040941752,-0.03302893,-0.046121776,-0.0023055163,-0.036908954,0.0
2528477443,-0.03752291,-0.04670795,-0.025697153,-0.046174064,-0.0024664695,-0.036721706,0.0
2528509496,-0.03660354,-0.041641075,-0.022527678,-0.046216417,-0.0026167608,-0.036563814,0.0
2528541497,-0.06527324,-0.045246728,-0.021084338,-0.046225518,-0.0027889214,-0.036409743,0.0
2528573465,-0.079142965,-0.06895926,-0.017563345,-0.04620501,-0.002970789,-0.036267314,0.0
2528605429,-0.07451749,-0.057922356,-0.017642947,-0.046151705,-0.0031450342,-0.03613143,0.0
2528637498,-0.05093553,-0.10029082,-0.010302827,-0.046111528,-0.0032810892,-0.036030695,0.0
2528669480,-0.026344728,-0.11916564,-0.001048493,-0.04610732,-0.0033885504,-0.035986256,0.0
2528701470,-0.030076774,-0.15743566,0.0032784098,-0.046132516,-0.003442271,-0.035964783,0.0
2528733436,-0.013026897,-0.16509031,0.0039026972,-0.046162028,-0.0034267704,-0.03597987,0.0
2528765529,0.013103386,-0.18027592,0.007902899,-0.046228938,-0.003382647,-0.035983812,0.0
2528797475,0.04295882,-0.19059779,-2.8915529e-05,-0.04633701,-0.0033117365,-0.03600286,0.0
2528829451,0.046993494,-0.2099778,0.006857672,-0.046476733,-0.0031950749,-0.036024325,0.0
2528861432,0.006598657,-0.19612417,0.0069280914,-0.046614118,-0.0030463976,-0.036060274,0.0
2528893450,0.040252425,-0.17255601,-0.0017965988,-0.04675859,-0.0028874865,-0.036067553,0.0
2528925478,0.010322657,-0.1619651,0.0016740477,-0.04690654,-0.002746327,-0.036060516,0.0
2528957439,0.015444154,-0.12547785,-0.009349569,-0.047066566,-0.0026345442,-0.036023743,0.0
2528989431,0.00499939,-0.06739597,-0.0031762538,-0.047185924,-0.002583203,-0.03599637,0.0
2529021457,-0.02099562,-0.059677936,-0.0010160226,-0.04728686,-0.002576457,-0.03595808,0.0
2529053466,-0.07328686,-0.022194564,-0.016120648,-0.047324546,-0.0026038669,-0.035900798,0.0
2529085443,-0.099081516,0.022054767,-0.01846221,-0.047273356,-0.0026984422,-0.03578009,0.0
2529117483,-0.04309923,0.059330616,-0.034816533,-0.04722741,-0.0028812555,-0.03559278,0.0
2529149464,0.027291859,0.04267346,-0.03437822,-0.04730761,-0.0030959873,-0.035356525,0.0
2529181508,0.024984945,0.06387491,-0.036769953,-0.047462273,-0.0033385318,-0.035082437,0.0
2529213442,0.017763685,0.06796208,-0.032659072,-0.04762126,-0.003624494,-0.034821726,0.0
2529245465,-0.0019098781,0.06979163,-0.018356087,-0.04776262,-0.0039580264,-0.034616057,0.0
2529277431,-0.024943732,0.13494171,-0.015815863,-0.04783114,-0.0043680035,-0.034456983,0.0
2529309509,-0.10732549,0.10452832,-0.0063098483,-0.04776057,-0.0048293006,-0.03434289,0.0
2529341463,-0.15507017,0.062332794,0.00079009624,-0.0475704,-0.005300249,-0.034271758,0.0
2529373472,-0.15425259,0.04883827,-0.0006889936,-0.047334164,-0.005746573,-0.034212213,0.0
2529405419,-0.1366025,-0.012955334,0.0012242611,-0.047107205,-0.006130462,-0.034163572,0.0
2529437516,-0.13145483,-0.029195642,0.0012189522,-0.046859883,-0.0064668437,-0.0341314,0.0
2529469438,-0.0924382,-0.06361748,0.0053813877,-0.04660347,-0.006769671,-0.03411494,0.0
2529501439,-0.0080686025,-0.070271686,-0.0031728074,-0.046397727,-0.0070727435,-0.03409553,0.0
2529533444,0.0047067627,-0.09045329,-0.0030543054,-0.046257015,-0.0073515214,-0.034041446,0.0
2529565480,0.028243832,-0.09317826,-0.0040943166,-0.046173654,-0.0076146396,-0.03398112,0.0
2529597441,0.029487802,-0.08238467,-0.014351374,-0.046107963,-0.007892076,-0.033879615,0.0
2529629433,0.07573885,-0.097053386,-0.012365145,-0.046043687,-0.008170772,-0.033771295,0.0
2529661485,0.12471339,-0.09718034,-0.0026477182,-0.046052326,-0.00844208,-0.033693373,0.0
2529693478,0.15270954,-0.040478226,-0.002520484,-0.046166055,-0.008778864,-0.033638228,0.0
2529725449,0.056991808,-0.075251274,0.015569945,-0.04625226,-0.009121873,-0.033654362,0.0
2529757438,0.013210741,-0.09432788,0.01731335,-0.046223275,-0.009450773,-0.03371733,0.0
2529789478,-0.0052185003,-0.08187564,0.018806359,-0.046111222,-0.009769563,-0.033821005,0.0
2529821458,-0.020250386,-0.11839805,0.022326292,-0.045949347,-0.010055833,-0.033960514,0.0
2529853499,-0.009122668,-0.12732238,0.011249357,-0.04579831,-0.010304436,-0.03407375,0.0
2529885431,-0.053446583,-0.15142247,0.008856628,-0.045647465,-0.0105166165,-0.034151852,0.0
2529917466,-0.031042483,-0.15301903,-0.0011152683,-0.04547207,-0.010693266,-0.03418688,0.0
2529951072,0.06636475,-0.14919363,-0.0030535278,-0.045337714,-0.010856133,-0.03418467,0.0
2529983053,0.18621786,-0.17857786,0.0025456462,-0.045430917,-0.010990937,-0.034188557,0.0
2530015126,0.21880385,-0.15962604,0.0023550314,-0.04571095,-0.011106269,-0.03421732,0.0
