timestamp,roll,pitch,yaw,thrust
2508875798,-0.048404545,-0.10955497,-0.0009831844,0.5206916
2508919837,-0.047011435,-0.109413244,-0.0011056785,0.52952796
2508959842,-0.04762847,-0.10846829,-0.0011616745,0.5377517
2509003787,-0.059020285,-0.10814153,-0.0010615261,0.5465173
2509043791,-0.040485475,-0.09790327,-0.00083882926,0.55527765
2509087830,-0.024525607,-0.09451082,0.00071584474,0.5626827
2509127827,-0.08854793,-0.090218335,-0.0016910558,0.5732149
2509167844,-0.081030175,-0.068605036,-0.0008771244,0.5803076
2509209450,0.00051942363,-0.1537594,-0.000796842,0.59011793
2509249414,-0.031639107,-0.003066564,-0.0002072551,0.5979832
2509293408,-0.07601824,-0.12745191,-0.0019933202,0.60899675
2509333395,-0.060522392,-0.1758313,-0.0017172508,0.6162725
2509377466,-0.058600254,-0.0515241,-0.0011445094,0.6266401
2509417424,-0.08194316,-0.07515023,-0.001232032,0.6347837
2509461448,-0.07303469,-0.13894331,-0.0013541845,0.6441939
2509501394,-0.06906632,-0.08650752,-0.0009728137,0.6528563
2509545451,-0.0777046,-0.0610283,-0.0008505057,0.6624896
2509585420,-0.07107966,-0.10057069,-0.0011470662,0.67098856
2509629447,-0.05556919,-0.09747875,-0.0016033478,0.68029547
2509669394,-0.055458747,-0.070049435,-0.0017848221,0.6863283
2509713482,-0.0729401,-0.09418039,-0.001310174,0.68737596
2509765398,-0.0670324,0.053337883,0.0028588357,0.6830465
2509809391,-0.04567882,0.18292418,0.007787305,0.69019216
2509853395,0.010273947,0.41923034,0.011410353,0.6649572
2509893397,0.018379869,0.6296476,0.016011069,0.6426532
2509937432,0.08125548,0.6559685,0.013482188,0.6215977
2509981391,0.041314863,0.5145539,0.011499043,0.5983605
2510021388,-0.018384667,0.38190237,0.008968282,0.5701495
2510061391,0.027327357,0.45238173,0.00728021,0.55067617
2510105439,0.08924291,0.5339893,0.0044815866,0.53892523
2510145435,0.120416224,0.41466588,-0.001687505,0.5301721
2510189391,0.05928262,0.27641183,-0.006518243,0.52424395
2510229397,0.062718496,0.23083499,-0.011623011,0.51875037
2510273431,0.05659621,0.2653376,-0.01609139,0.5168874
2510313412,0.03038764,0.198802,-0.02135936,0.5123593
2510357411,-0.024068207,0.06594364,-0.026844477,0.51208156
2510397402,-0.023692064,0.008902524,-0.031351667,0.51195616
2510441420,-0.07097723,0.0184566,-0.034420654,0.51281774
2510481422,-0.1085165,-0.04089293,-0.03734639,0.51372683
2510525413,-0.15714303,-0.15006305,-0.040374633,0.5107198
2510565401,-0.17182155,-0.19630778,-0.041637547,0.51286584
2510609430,-0.21827972,-0.23531236,-0.043340024,0.51729465
2510649438,-0.26823583,-0.28486663,-0.045811187,0.5136447
2510693410,-0.2682841,-0.3014955,-0.04705253,0.5128471
2510733413,-0.23778388,-0.32490444,-0.047065403,0.5115802
2510777437,-0.2823511,-0.35475945,-0.048481118,0.51388764
2510817444,-0.3397636,-0.34907776,-0.050131038,0.5160838
2510861391,-0.28926533,-0.35103154,-0.050137114,0.5122908
2510901421,-0.32773983,-0.34162304,-0.050060824,0.5147958
2510945450,-0.37107897,-0.3655269,-0.050549,0.5175258
2510985430,-0.39372468,-0.3475049,-0.050641205,0.51662886
2511029419,-0.39553165,-0.33991694,-0.049978618,0.51776946
2511069392,-0.38694072,-0.34321353,-0.049296986,0.51978153
2511113445,-0.4184921,-0.34998822,-0.048922658,0.5194783
2511157391,-0.4310209,-0.33910915,-0.048287105,0.5155642
2511197407,-0.4152832,-0.32092234,-0.046844717,0.5174723
2511237395,-0.3895147,-0.32627615,-0.04619009,0.51758426
2511281436,-0.4276146,-0.3410361,-0.045790438,0.5196411
2511321421,-0.4305609,-0.3476237,-0.045124065,0.5211251
2511361446,-0.4416061,-0.3641952,-0.044980187,0.5231181
2511401386,-0.4006759,-0.37420106,-0.04458378,0.5226864
2511441394,-0.3667338,-0.32908192,-0.042236216,0.5245419
2511485388,-0.3068959,-0.32017285,-0.041012913,0.52870196
2511525401,-0.33762407,-0.33539194,-0.04223607,0.53835005
2511569384,-0.29634717,-0.30790722,-0.042231485,0.54144156
2511613403,-0.25314167,-0.2846365,-0.041769385,0.53899795
2511657391,-0.25352144,-0.3122607,-0.044600263,0.53556204
2511697396,-0.2780632,-0.32633507,-0.047754765,0.5283923
2511741399,-0.27830505,-0.307646,-0.049070314,0.5259219
2511781408,-0.29718205,-0.2937218,-0.050599247,0.5199045
2511825391,-0.31761777,-0.31902683,-0.054217994,0.51847
2511865392,-0.29890537,-0.30138177,-0.055122636,0.5169063
2511905400,-0.32238513,-0.28559119,-0.05635572,0.51612455
2511945399,-0.3101842,-0.2762601,-0.057066597,0.51596326
2511989415,-0.30542558,-0.27385655,-0.057681404,0.51444477
2512029415,-0.26759243,-0.2723228,-0.05770495,0.5154454
2512073392,-0.25259754,-0.25813347,-0.057565503,0.5106583
2512113399,-0.26714844,-0.2617546,-0.05785945,0.5154155
2512157403,-0.25084132,-0.24824214,-0.056703117,0.51440144
2512197420,-0.20134562,-0.2444727,-0.055336695,0.51111454
2512241395,-0.19301389,-0.25382102,-0.055154,0.51519275
2512285442,-0.19498774,-0.24161337,-0.05414572,0.5136483
2512329409,-0.1497275,-0.19564097,-0.05087874,0.51177675
2512369404,-0.13421689,-0.202221,-0.050838836,0.51293445
2512413439,-0.15460476,-0.20353931,-0.05037627,0.51555824
2512453395,-0.13539511,-0.20593517,-0.050161622,0.51780874
2512497392,-0.14550152,-0.20103471,-0.0492019,0.5173678
2512537395,-0.13965832,-0.20139585,-0.04830662,0.5188152
2512581404,-0.09189467,-0.16112682,-0.04608659,0.5117235
2512621432,-0.13640063,-0.14995456,-0.044693884,0.517536
2512662988,-0.120440915,-0.14061265,-0.04444944,0.51908547
2512706998,-0.10443239,-0.13376035,-0.042840254,0.5177069
2512746998,-0.09033521,-0.1085238,-0.04099547,0.5171679
2512791020,-0.12397264,-0.123618536,-0.040827505,0.5208933
2512830988,-0.15288097,-0.11009414,-0.039470028,0.5214637
2512875002,-0.12006705,-0.10519735,-0.038773388,0.51986253
2512915000,-0.09973226,-0.08079126,-0.037445027,0.51486105
2512959005,-0.105159864,-0.09349816,-0.03769583,0.51713353
2512998991,-0.12173836,-0.07271998,-0.03646345,0.51408696
2513042994,-0.11419828,-0.07686208,-0.036157615,0.514492
2513082989,-0.14200601,-0.0673827,-0.035463445,0.5165031
2513127017,-0.1814938,-0.10569259,-0.03645027,0.51567006
2513167029,-0.19022176,-0.10187799,-0.035705782,0.51648635
2513210995,-0.17557359,-0.10787529,-0.03516492,0.515332
2513250988,-0.16031937,-0.10561849,-0.034631282,0.5122434
2513295034,-0.20648165,-0.1506046,-0.035457212,0.5184791
2513334990,-0.19927895,-0.14029028,-0.033708666,0.5116273
2513379010,-0.18425812,-0.15781647,-0.033267215,0.5048779
2513418984,-0.23691398,-0.22549564,-0.03456597,0.5085793
2513463027,-0.26585048,-0.24287602,-0.034043483,0.510134
2513503035,-0.24759439,-0.21970508,-0.032850724,0.5062913
2513547011,-0.27620786,-0.23959053,-0.033393882,0.5052677
2513586995,-0.2640695,-0.28051662,-0.033590987,0.50647295
2513631037,-0.22917174,-0.2689743,-0.032318182,0.5045446
2513671023,-0.23001713,-0.2655831,-0.03210629,0.5021026
2513715002,-0.23527332,-0.2905273,-0.032184727,0.5038343
2513755005,-0.21329291,-0.31016046,-0.03185498,0.505071
2513799030,-0.23012486,-0.32296354,-0.032231066,0.5045541
2513839033,-0.23787417,-0.30466625,-0.030895632,0.5061116
2513883005,-0.18849003,-0.29316786,-0.0293808,0.50511914
2513922998,-0.16935416,-0.30750024,-0.029655356,0.5054666
2513967040,-0.11472629,-0.27363145,-0.028373176,0.49955696
2514007017,-0.13288215,-0.30225822,-0.02869101,0.5095553
2514050987,-0.12392998,-0.30939484,-0.028267864,0.51336426
2514090994,-0.11566101,-0.24191976,-0.02563735,0.51208216
2514135032,-0.099441156,-0.22403146,-0.024368567,0.513801
2514175037,-0.09229717,-0.17750224,-0.02203794,0.5133856
2514218995,-0.1265465,-0.20078522,-0.021208424,0.5171779
2514258987,-0.054078206,-0.16521275,-0.018382823,0.51224697
2514303040,-0.10196656,-0.16048256,-0.016424801,0.52027917
2514343027,-0.09147526,-0.12557098,-0.014350573,0.5140854
2514383047,-0.08225449,-0.14911376,-0.014397895,0.5174178
2514422988,-0.08230654,-0.10918088,-0.0127175115,0.5156922
2514466990,-0.05252734,-0.08107696,-0.011745284,0.51491636
2514506991,-0.11588301,-0.09185022,-0.011536683,0.5194938
2514550999,-0.087718554,-0.08026338,-0.0115829855,0.51559407
2514590994,-0.06965366,-0.0871406,-0.011344099,0.51507664
2514635004,-0.09579622,-0.10341455,-0.011553637,0.5164461
2514674987,-0.1290927,-0.14128324,-0.013094964,0.51803863
2514718995,-0.077336855,-0.13220227,-0.013269454,0.51278144
2514758993,-0.071932435,-0.15889111,-0.013666415,0.51963836
2514802995,-0.11972758,-0.16511545,-0.014965899,0.5154466
2514842992,-0.108290434,-0.1458511,-0.0152864605,0.51422775
2514887004,-0.09446352,-0.14257202,-0.015006578,0.5177425
2514926992,-0.08861124,-0.13415994,-0.014395278,0.51619965
2514970994,-0.07770125,-0.11722025,-0.014185375,0.51374245
2515011008,-0.07888194,-0.13426262,-0.014918486,0.52654004
2515054995,-0.07720126,-0.11598295,-0.014036499,0.5286888
2515094992,-0.06856216,-0.13206153,-0.014300038,0.5288995
2515139026,-0.04018839,-0.10698313,-0.013591606,0.5303405
2515179029,-0.050003797,-0.10930107,-0.013958009,0.5320239
2515223002,-0.02423858,-0.07956959,-0.013454702,0.53327036
2515262988,-0.004130391,-0.11177539,-0.01498295,0.5377667
2515307015,-0.012525608,-0.105362445,-0.01545165,0.54083407
2515347031,0.0018586256,-0.08781434,-0.014551384,0.5439275
2515391000,0.015531534,-0.08353291,-0.014057929,0.5417667
2515430985,0.028131528,-0.09803497,-0.013610698,0.5449978
2515474997,0.043576784,-0.087844476,-0.011656195,0.54204875
2515515038,0.045596648,-0.07610303,-0.0090063205,0.5403209
2515558998,0.02686438,-0.13131154,-0.0073760133,0.5455148
2515599006,0.038056836,-0.13398635,-0.0048848162,0.5395831
2515643030,0.044169918,-0.140784,-0.002088656,0.5382501
2515683040,0.032630663,-0.15279248,-0.0001349755,0.53759354
2515727006,0.049587965,-0.14432037,0.0016522505,0.5368321
2515767013,0.041695096,-0.15009287,0.0026169769,0.53886515
2515811030,0.051512167,-0.13710028,0.00324151,0.53978115
2515851024,0.03810182,-0.14337337,0.0027114588,0.54093665
2515895005,0.022651773,-0.14006928,0.0020524603,0.5432241
2515935002,0.040233977,-0.14386153,0.0016583423,0.54489845
2515979020,0.042107273,-0.09750325,0.0019958117,0.5433424
2516019031,0.060787924,-0.06994313,0.0019632902,0.5444254
2516062991,0.040455226,-0.07991241,0.0014598743,0.5499583
2516104654,0.05632239,-0.055978756,0.0012778484,0.5506639
2516144639,0.06253223,-0.03597849,0.0008957535,0.5535797
2516188662,0.051363934,-0.0243796,0.0017376461,0.5584167
2516228631,0.04170107,-0.016046545,0.0026513485,0.557162
2516272640,0.066207565,0.012687402,0.004294548,0.5529552
2516312634,0.05664498,-0.021107966,0.0060464675,0.55442387
2516356653,0.02234201,-0.005702162,0.009080898,0.5500914
2516396672,0.005019319,0.007432171,0.011557363,0.54638994
2516440643,-0.030949034,-0.03253456,0.014283534,0.5479033
2516480624,-0.017218968,-0.05311245,0.015968537,0.5404616
2516524672,-0.06810502,-0.05603016,0.018843371,0.5352385
2516564652,-0.07437652,-0.03533609,0.02052375,0.52725846
2516608638,-0.110287644,-0.09186303,0.02162811,0.5319413
2516648630,-0.09050325,-0.10688013,0.022178782,0.52921635
2516692678,-0.046676837,-0.07477652,0.0218563,0.5196123
2516732668,-0.09797096,-0.11066757,0.02185565,0.52409184
2516776633,-0.06255175,-0.10125797,0.020837964,0.5205344
2516816628,-0.057643324,-0.09800423,0.01989296,0.5190966
2516856611,-0.12814467,-0.11585947,0.019111509,0.5248619
2516900682,-0.08340925,-0.08843558,0.017375965,0.5176527
2516944653,-0.10838593,-0.09460896,0.01591143,0.518358
2516984630,-0.07455961,-0.098593645,0.013948372,0.5159223
2517028694,-0.122623764,-0.11340295,0.011142842,0.51665807
2517068680,-0.1721722,-0.13193274,0.008395908,0.5169331
2517112642,-0.19634622,-0.10577502,0.0063804886,0.51975185
2517152628,-0.18570554,-0.11798239,0.0038998434,0.51961756
2517196672,-0.22894347,-0.11723359,0.0017668493,0.5174212
2517236683,-0.18476355,-0.057714436,0.0014511256,0.511875
2517280654,-0.17597826,-0.06582884,0.0006685176,0.51399976
2517320650,-0.19601676,-0.027169479,0.0006283908,0.5086669
2517364697,-0.18648137,-0.02244512,-0.0007497224,0.50814414
2517404683,-0.24023858,0.008543458,-0.000568602,0.5110424
2517448643,-0.21952727,0.025636077,-0.0018970118,0.5009365
2517488642,-0.26454908,-0.021172289,-0.0044325,0.50916016
2517528623,-0.2425859,0.007080199,-0.0057418826,0.50616175
2517572690,-0.24981658,0.03622665,-0.0060756356,0.50953484
2517616636,-0.26256832,0.028209433,-0.0074031153,0.5246607
2517656637,-0.16944307,0.051674385,-0.008581049,0.5183621
2517700700,-0.15673149,0.05273521,-0.010136864,0.5252972
2517740704,-0.12857458,0.10380667,-0.010374708,0.524105
2517784641,-0.12729135,0.06731309,-0.012765991,0.5375812
2517824646,-0.09879028,0.0739956,-0.014050463,0.5375163
2517868674,-0.07557566,0.08513624,-0.01486024,0.5392778
2517908700,-0.09056245,0.08991016,-0.015691292,0.5368937
2517952654,-0.09391185,0.09840429,-0.015931906,0.53837067
2517992650,-0.048777714,0.10090689,-0.017347759,0.53739595
2518032633,-0.099631906,0.11057418,-0.017181419,0.53983164
2518076647,-0.124113165,0.14391659,-0.016720481,0.5399453
2518120641,-0.08029118,0.14869219,-0.01835198,0.53179884
2518160637,-0.06423887,0.1529655,-0.019675419,0.53214395
2518200620,-0.06925782,0.17025888,-0.019527333,0.5305534
2518244652,-0.10210323,0.1310083,-0.021348024,0.53579575
2518284606,-0.065666646,0.15733351,-0.021660304,0.53161687
2518328668,-0.035553336,0.12928203,-0.023360971,0.5339474
2518372636,-0.019576048,0.1472463,-0.023810823,0.52946967
2518412647,-0.06360399,0.12368331,-0.023664808,0.53531206
2518456649,-0.02529515,0.13119286,-0.024297608,0.5287639
2518496683,-0.023035351,0.10401229,-0.025289617,0.5283949
2518536633,-0.03809719,0.0769724,-0.0260742,0.53009796
2518580664,-0.01223795,0.101226054,-0.024929995,0.5277715
2518620597,-0.02154312,0.07404133,-0.0256185,0.5296323
2518664653,0.012964747,0.09602941,-0.024914965,0.5237775
2518704651,-0.017544944,0.06325889,-0.025244936,0.5282668
2518748668,-0.019932926,0.076495714,-0.024550887,0.52778774
2518792652,-0.0017161486,0.06256081,-0.02424311,0.5281486
2518832685,0.008930391,0.06457707,-0.023511441,0.5244765
2518872639,0.032699853,0.055218376,-0.023361424,0.522075
2518916671,0.017416988,0.050737873,-0.022464355,0.5241083
2518960644,0.008131056,0.041770305,-0.021362763,0.52815735
2519000670,0.014437622,0.032482706,-0.021149708,0.5281839
2519044632,0.006615594,0.014771183,-0.02075915,0.52845997
2519084654,-0.00452504,0.020339442,-0.019738233,0.52749825
2519128671,0.010214779,0.022755409,-0.019261533,0.52664495
2519168691,0.006803761,0.01141004,-0.019181075,0.5249159
2519208662,0.00929045,0.013423919,-0.018851811,0.5252334
2519252641,0.026223319,0.017632762,-0.01865525,0.52250695
2519296684,0.032444064,0.03312785,-0.01827986,0.52290237
2519336683,0.016553419,0.027497148,-0.017731272,0.5234804
2519376646,0.010238871,0.030282231,-0.016933504,0.5256197
2519420650,0.009869286,0.04198332,-0.016563047,0.52217853
2519464674,0.013660381,0.057233427,-0.016045317,0.52534187
2519504721,0.054098357,0.046060193,-0.016907135,0.52357316
2519548666,0.032381922,0.041038845,-0.016795594,0.5221213
2519590201,0.042310085,0.034430936,-0.016861573,0.5251241
2519634211,0.034970336,0.053478066,-0.016662158,0.5260462
2519674238,0.046815637,0.05295598,-0.016970014,0.5262155
2519718211,0.063054115,0.07311888,-0.016936492,0.52043664
2519762259,0.08825931,0.09080512,-0.017376361,0.5174606
2519802454,0.02077274,0.07145325,-0.01690373,0.5207007
2519846228,0.053568695,0.08376701,-0.017103419,0.5186116
2519886255,0.059668083,0.082648955,-0.016645327,0.5191693
2519930226,0.06553059,0.06874031,-0.016486105,0.5233675
2519974194,0.07111863,0.058962796,-0.016015733,0.5242757
2520018188,0.07971891,0.06548265,-0.015195228,0.52533036
2520058199,0.10179768,0.06307015,-0.0148333395,0.52410084
2520102264,0.09548269,0.048615485,-0.01414892,0.52613306
2520142258,0.08353488,0.06785957,-0.013301728,0.5249421
2520186261,0.029646434,0.020593818,-0.012633778,0.5303865
2520226247,0.061244536,-0.008823493,-0.013747789,0.5271958
2520270192,0.05085112,-0.03013531,-0.013814984,0.5287617
2520310202,0.049156904,-0.029750282,-0.014304163,0.5246341
2520354234,0.0092057185,-0.05797504,-0.014905079,0.52876896
2520394213,0.038796827,-0.03191029,-0.015978022,0.5222737
2520438194,0.010483667,-0.05556692,-0.01661158,0.5262447
2520478195,0.012070673,-0.040017493,-0.018025042,0.52511376
2520522314,-0.012325433,-0.05415656,-0.018794794,0.5292582
2520562286,0.010677033,-0.036932897,-0.019352583,0.52659667
2520606227,-0.017785124,-0.044758823,-0.020567887,0.5304003
2520646226,0.012612708,-0.008061803,-0.021241717,0.5252789
2520690230,0.0080703,-0.011800668,-0.021606985,0.5325891
2520730263,0.0060901614,-0.008466934,-0.021689849,0.5304426
2520774200,-0.07793905,-0.14719678,-0.022542346,0.5469924
2520814195,-0.05863169,-0.11813111,-0.02133837,0.56842446
2520858221,-0.052960895,-0.06961332,-0.018693678,0.5947552
2520898255,-0.032978863,-0.060554974,-0.016778331,0.6118236
2520942259,-0.016159138,-0.04514088,-0.013866046,0.62848824
2520982253,0.032938197,0.0025777717,-0.011193295,0.6356721
2521026264,0.04856207,0.027105734,-0.008487793,0.64297545
2521066273,0.052272715,0.041560255,-0.0054629557,0.65018594
2521110213,0.061859407,0.025578935,-0.002721844,0.6564799
2521150197,0.076764636,0.031849377,-0.000444501,0.66154075
2521194230,0.082609616,0.026801474,0.0011967313,0.64756227
2521234247,0.11611183,0.027949747,0.0030548656,0.62450355
2521278208,0.08480982,0.026876412,0.0050350158,0.6076641
2521318211,0.08105275,0.025331497,0.0068215965,0.59360653
2521362316,0.097017534,0.012850309,0.0090556145,0.5817129
2521402294,0.05901001,-0.02388786,0.010684848,0.5779794
2521446221,0.07851419,0.0007833619,0.012875475,0.5678683
2521486242,0.09422561,-0.012474896,0.014428673,0.5613002
2521530229,0.08993244,0.0057942197,0.01691962,0.5581183
2521570264,0.10119018,-0.03313716,0.018672612,0.55791956
2521614192,0.10498576,-0.018994752,0.021148153,0.5508557
2521654187,0.12690285,-0.018008076,0.022901598,0.5488691
2521698243,0.14983873,-0.009541246,0.024995307,0.5436142
2521738242,0.12833221,-0.026992602,0.027023105,0.54219806
2521782268,0.11818279,-0.035253786,0.028407888,0.5430301
2521822254,0.15377256,-0.014950111,0.029293135,0.5370554
2521866263,0.121180594,-0.0271428,0.030019393,0.54135984
2521906278,0.09573837,-0.05409376,0.029807022,0.5438938
2521950215,0.13639395,-0.018560844,0.028776823,0.5380179
2521990199,0.0818102,-0.033461567,0.028044734,0.5382857
2522034194,0.04426769,-0.04161463,0.026872652,0.5395777
2522074200,0.07096284,-0.026333453,0.02477911,0.53523874
2522118201,0.09473792,-0.013985129,0.021478482,0.5316903
2522158194,0.03536009,-0.002614138,0.018723048,0.53432727
2522202285,0.028151695,0.003676547,0.014880695,0.5355113
2522242255,0.052499793,0.020057194,0.010651667,0.5329256
2522286236,-0.0062385225,0.006655008,0.0071284324,0.5370043
2522326230,-0.02534506,0.019320402,0.0041193604,0.5339586
2522370190,-0.03298271,0.04953824,0.00095710397,0.5329294
2522410187,-0.0563256,0.060272403,-0.0010253745,0.5306849
2522454195,-0.045845713,0.08763033,-0.002762781,0.5291928
2522494213,-0.06264297,0.08269633,-0.003427902,0.5293551
2522538208,-0.050688807,0.11726104,-0.0035677801,0.5262571
2522578217,-0.047419123,0.09524874,-0.0031091636,0.529822
2522622277,-0.066004485,0.073749945,-0.0025217938,0.5283764
2522662286,-0.078111455,0.06721435,-0.0017173286,0.5312276
2522706236,-0.08250238,0.06622384,-0.0005607541,0.53207606
2522746242,-0.06315776,0.060207702,0.00034113802,0.53348565
2522790246,-0.0347147,0.072910815,0.0015077867,0.52898854
2522830186,-0.06140834,0.04735946,0.0031552685,0.53374076
2522874196,-0.06779986,0.0347404,0.005021604,0.53684235
2522914201,-0.054729104,0.017085914,0.0063264817,0.5381044
2522958243,-0.051535144,0.022899063,0.007903436,0.53637826
2522998239,-0.04009634,0.021631569,0.00872369,0.5367601
2523043039,-0.03866792,0.035086848,0.0101431105,0.53770524
2523083858,-0.06991589,0.016121212,0.010980281,0.543806
2523123831,-0.057755835,0.00052329374,0.010914807,0.54092956
2523167788,-0.016175693,0.038166855,0.010865525,0.5398756
2523207828,-0.055811472,0.024178533,0.011511114,0.54034775
2523251791,-0.05965655,0.023635037,0.010979167,0.54345304
2523291840,-0.035548817,0.038295727,0.010337961,0.5407009
2523335820,-0.025740908,0.05919709,0.009391105,0.5418593
2523379798,-0.02353331,0.09542599,0.008279876,0.5326957
2523419790,-0.046355113,0.10063014,0.006372816,0.53685206
2523459822,-0.036182687,0.10451482,0.0035928662,0.5367739
2523503807,-0.040703826,0.11036143,0.0015651371,0.5364673
2523543859,0.00061950024,0.14247006,-0.0001227427,0.53673995
2523587792,0.008717934,0.17023286,-0.001743625,0.53967094
2523627822,0.005183602,0.21284086,-0.0016060974,0.5379015
2523671813,0.02380934,0.23342559,-0.0017108489,0.5415139
2523711844,0.0606258,0.26467305,-0.0019140128,0.5379506
2523755794,0.009829479,0.3017395,0.0006054353,0.5462132
2523795841,0.046462648,0.36110198,0.0024469374,0.5430763
2523839821,0.08175826,0.37254766,0.002405102,0.5480527
2523879861,0.09381364,0.37060526,0.0034196926,0.55097365
2523923798,0.096447624,0.37474272,0.0042505413,0.5568418
2523963839,0.10437392,0.39594495,0.005413791,0.5589252
2524007808,0.118684724,0.44243112,0.0076106363,0.564673
2524047879,0.15889607,0.4701559,0.0076202806,0.56634355
2524091804,0.19052908,0.47079563,0.0070148855,0.57163584
2524131842,0.21401437,0.4837071,0.0070301504,0.5783436
2524175821,0.21701153,0.5146613,0.008320135,0.5799383
2524215864,0.23397821,0.508812,0.0077533894,0.5827991
2524259788,0.25217438,0.48796672,0.00772944,0.58655864
2524299836,0.23521167,0.4635924,0.009038659,0.59327364
2524343841,0.1690653,0.45679227,0.01278435,0.59571326
2524383879,0.17693038,0.43781865,0.012745966,0.5940432
2524427804,0.18878625,0.42571107,0.01352389,0.58825845
2524467838,0.1572584,0.38240463,0.015835147,0.58890456
2524511825,0.14570902,0.37922022,0.018729849,0.58045185
2524551875,0.14368781,0.34849536,0.020769253,0.579068
2524595792,0.13165347,0.30032617,0.02363715,0.5779077
2524635835,0.15310164,0.26190993,0.024514906,0.57419056
2524679842,0.12377232,0.23964089,0.026662283,0.5736386
2524719885,0.10096732,0.22411756,0.028219042,0.57420325
2524763799,0.11008583,0.20534666,0.028901912,0.5719963
2524803844,0.1299278,0.18959248,0.028873706,0.5699958
2524847821,0.09398904,0.17664845,0.029808037,0.5723562
2524887862,0.13119231,0.1758756,0.02943039,0.56829536
2524931805,0.1439875,0.12814273,0.029625108,0.56826144
2524971839,0.15327881,0.11205506,0.029768392,0.5710851
2525015845,0.12377764,0.07805099,0.030179046,0.57385135
2525055878,0.15205884,0.057502165,0.029477565,0.57417494
2525099797,0.16188753,0.05018567,0.029289184,0.5754532
2525139847,0.14121377,0.065849125,0.029403144,0.5770729
2525183828,0.12358276,0.06626294,0.028941946,0.5775823
2525223872,0.11857435,0.074101426,0.028945696,0.57905704
2525267831,0.11800351,0.072907224,0.028425913,0.58080274
2525307842,0.10985899,0.080236144,0.028474147,0.5782404
2525351792,0.07526019,0.061284363,0.028382316,0.5810392
2525391848,0.04663088,0.07896951,0.028541325,0.57775
2525435788,0.013517708,0.08851963,0.028138764,0.57268596
2525475836,-0.030624066,0.09365468,0.02819037,0.5690086
2525519798,-0.056867834,0.08741371,0.028258175,0.5648823
2525559842,-0.06246369,0.1013625,0.02806481,0.56266606
2525603795,-0.10546793,0.11236305,0.028245572,0.56043965
2525643849,-0.092231676,0.11551802,0.02778048,0.55629236
2525687789,-0.07510457,0.11846712,0.027745679,0.55456513
2525727843,-0.101922095,0.1173401,0.028175876,0.55547774
2525771791,-0.0966788,0.102449745,0.02783279,0.5541693
2525811835,-0.081808746,0.08867826,0.026924111,0.55595523
2525855784,-0.0429782,0.10131267,0.025567692,0.5562687
2525895836,-0.06533004,0.08683896,0.024306618,0.5593991
2525939802,-0.07201437,0.10318318,0.022451527,0.5587342
2525979882,-0.04810872,0.10508369,0.020479852,0.55780625
2526023798,-0.01546373,0.10044082,0.018629473,0.5587318
2526063848,-0.0078877825,0.0969607,0.017504519,0.5581596
2526107820,-0.028622124,0.08903396,0.017231362,0.55720025
2526147841,0.009005014,0.08676114,0.01659808,0.5548773
2526191795,0.009235797,0.08910167,0.017224513,0.5555266
2526231832,0.01753766,0.07118534,0.017403677,0.5575565
2526275823,0.020920692,0.097948976,0.017624147,0.5538686
2526315870,-0.009716957,0.10206668,0.017729133,0.55410624
2526359792,0.0058805747,0.09548033,0.016634043,0.5558128
2526399887,-0.0027187162,0.09803656,0.01595585,0.5541781
2526443820,-0.007283843,0.11193573,0.01528334,0.5523061
2526484627,-0.02230173,0.13533762,0.0148908375,0.55017865
2526528590,-0.0371712,0.13745488,0.013391699,0.5474887
2526569397,-0.025547389,0.14083509,0.011330687,0.54364073
2526609391,-0.03651058,0.14092043,0.009161764,0.5409062
2526653392,-0.04718971,0.14424296,0.006620758,0.54162216
2526693403,-0.029423201,0.14638491,0.004140516,0.53972906
2526737402,-0.022620827,0.13390662,0.0020147203,0.539258
2526777403,-0.02396735,0.13232097,0.0008978635,0.5394289
2526821398,-0.03986036,0.1475697,0.0012748123,0.5358019
2526861411,-0.031577762,0.14378105,0.0008854247,0.5344974
2526905407,-0.040843125,0.10685774,0.00018807201,0.53456235
2526945401,-0.05539366,0.11616793,0.00032245865,0.5345645
2526989443,-0.05163174,0.097360335,-0.0005577858,0.5362252
2527029391,-0.064587,0.0840549,-0.0016009742,0.53598994
2527073391,-0.042690817,0.089469075,-0.0029953679,0.53691167
2527113399,-0.01346959,0.0990057,-0.004491573,0.5345194
2527157442,-0.035131507,0.12221114,-0.0053791865,0.53617465
2527197415,-0.032539207,0.12821254,-0.0067572594,0.53955895
2527241391,0.011843324,0.11983389,-0.010404373,0.54024345
2527281388,0.008572685,0.14008524,-0.0125319185,0.5427197
2527325415,0.04203619,0.15384421,-0.017039748,0.5406862
2527365460,-0.0040928703,0.1781556,-0.020268716,0.5446432
2527409394,-0.056367207,0.18994533,-0.02423742,0.5464964
2527449396,-0.039502837,0.18944415,-0.028556315,0.54322004
2527493456,-0.075578295,0.23637292,-0.030587537,0.5409395
2527533428,-0.105168015,0.2389918,-0.032757282,0.54179835
2527577397,-0.07058334,0.23204005,-0.034136012,0.5418051
2527617402,-0.028501453,0.23338988,-0.034857824,0.5451048
2527661451,-0.037183512,0.26890746,-0.033182103,0.54743403
2527701467,-0.02690569,0.2583939,-0.03251671,0.5525216
2527745408,0.030790824,0.23654622,-0.03234426,0.5588047
2527785395,0.0613776,0.22847228,-0.031275053,0.5642064
2527829418,0.040555663,0.23291142,-0.028532427,0.56962204
2527869422,0.06168275,0.22295985,-0.026552688,0.5761502
2527913388,0.10026728,0.19247581,-0.024935842,0.58252156
2527953395,0.12504752,0.19727315,-0.022648834,0.58802634
2527997451,0.070579976,0.19623625,-0.018872736,0.5973694
2528037441,0.062783346,0.17429087,-0.01669492,0.60813123
2528081405,0.10622947,0.13995337,-0.015180335,0.6119173
2528121392,0.0642082,0.116485685,-0.012765603,0.6153983
2528161397,-0.008465496,0.07789572,-0.01074949,0.6153126
2528205420,-0.045448277,0.020722723,-0.009037088,0.61285985
2528245401,-0.056220543,-0.009588305,-0.007341282,0.61362875
2528289388,-0.06911417,-0.046271116,-0.006045385,0.6110974
2528329396,-0.072348654,-0.075620085,-0.0049432237,0.6108908
2528373446,-0.0760456,-0.110981986,-0.0033666668,0.61057323
2528417391,-0.10835129,-0.11582548,-0.0009782534,0.61188966
2528457393,-0.06804271,-0.13738556,0.000113858485,0.608398
2528501440,-0.049469266,-0.15259337,0.0016865778,0.6078326
2528541407,-0.033985175,-0.15024221,0.0027595581,0.6048629
2528585402,-0.04814095,-0.16314547,0.0032737802,0.6047983
2528625399,-0.005903602,-0.16073747,0.0038914792,0.602433
2528669391,-0.025870688,-0.17492172,0.0028586711,0.60150224
2528709407,-0.042558093,-0.15859585,0.002722043,0.6023309
2528753389,-0.0503278,-0.14477646,0.0018443908,0.60042316
2528793390,-0.04855401,-0.13848308,0.0010558693,0.6006595
2528837472,-0.061585046,-0.11106457,0.00068135536,0.5949886
2528877388,-0.0796034,-0.08941536,0.0002409275,0.5946252
2528921393,-0.033488005,-0.06549554,0.00067304604,0.5879414
2528961395,-0.04914495,-0.06859071,0.00035595844,0.5862744
2529005389,-0.06352381,-0.0474293,0.00091395463,0.58379585
2529045398,-0.06237687,-0.04485689,0.0011706864,0.58246946
2529085403,-0.05749046,-0.058370177,0.002085337,0.5821471
2529129410,-0.03663624,-0.09170926,0.003542328,0.5808142
2529169432,-0.04907877,-0.10306,0.005466747,0.57874703
2529213398,-0.072786,-0.10755507,0.00810096,0.5775211
2529253384,-0.07277334,-0.12744913,0.009684334,0.5784862
2529297417,-0.02437931,-0.1702888,0.009384838,0.575516
2529337431,-0.015046534,-0.20499158,0.00843605,0.57970375
2529381395,0.010549985,-0.22202983,0.008192412,0.58195364
2529421388,0.024098214,-0.230244,0.0072964625,0.5828415
2529465409,0.07516797,-0.25068876,0.006138467,0.5827411
2529505426,0.10316395,-0.25856793,0.005826937,0.5835132
2529549405,0.08939888,-0.24947174,0.005431419,0.58407265
2529589402,0.07744491,-0.26121584,0.005432804,0.58549285
2529633415,0.09630373,-0.26271868,0.006161317,0.58119595
2529673436,0.09094092,-0.26517463,0.006293596,0.5780834
2529717388,0.038028836,-0.29620472,0.0045257597,0.578094
2529757395,0.07034777,-0.26571703,0.004410835,0.57389355
2529797393,0.10454253,-0.27103212,0.0029565243,0.57487893
2529841437,0.09609571,-0.2849305,0.0003209605,0.5775208
2529885389,0.055905394,-0.27163038,-0.0018654438,0.58123267
2529925399,0.07427479,-0.2560897,-0.0020569453,0.5836694
2529966991,0.073939644,-0.23275101,-0.0013066822,0.5840867
2530011022,0.033132896,-0.23384972,-0.0029307965,0.58190054
2530051026,-0.027564876,-0.22356024,-0.003748896,0.5836938
2530095008,-0.024968956,-0.20090555,-0.0046692556,0.57366824
2530134991,-0.073426686,-0.16649675,-0.0070529506,0.5691086
2530174995,-0.088165686,-0.103024535,-0.009707432,0.5602667
2530219021,-0.18129832,-0.05788497,-0.013066855,0.55681497
2530262988,-0.16657946,-0.0030653086,-0.017002733,0.5465196
2530302997,-0.22996014,0.052009974,-0.019305443,0.53616554
2530347033,-0.26443982,0.12511358,-0.021683738,0.5263553
2530387033,-0.27279735,0.18745917,-0.021968517,0.521636
2530430992,-0.27957952,0.266744,-0.021441892,0.5141123
2530470993,-0.26540992,0.29638752,-0.021801172,0.5022857
2530515015,-0.25797024,0.38366398,-0.018023944,0.49231204
2530555049,-0.23183939,0.41703776,-0.016191352,0.49211562
2530598994,-0.22857948,0.51187336,-0.011470031,0.47809938
2530638991,-0.27023393,0.56033397,-0.009110856,0.47693193
2530683030,-0.30071634,0.6396423,-0.00553272,0.467736
2530723021,-0.2921235,0.63897455,-0.0054414785,0.46553755
2530766988,-0.26167908,0.63506854,-0.0071698353,0.4673514
2530806989,-0.31840304,0.6905292,0.00031587822,0.46528736
2530851026,-0.26865724,0.71258247,0.0011881705,0.46485662
2530891053,-0.22154859,0.7024689,0.0022182716,0.4661339
2530934998,-0.20846026,0.65227926,0.0025511533,0.47139356
2530974995,-0.14241059,0.7579026,0.010713019,0.4703204
2531019050,-0.23402502,0.87266463,0.041157484,0.34107074
2531059030,-0.16480932,0.87266463,0.03332287,0.3578976
2531102994,-0.2076502,0.83167535,0.030974124,0.38200864
2531143017,-0.169677,0.75162727,0.024774052,0.39221516
2531187018,-0.13438867,0.6859328,0.023096079,0.41168088
2531227036,-0.1661311,0.5551256,0.019676521,0.42972112
2531270997,-0.109754756,0.4096422,0.011869889,0.44441715
2531315072,-0.05557958,0.32058027,0.007754313,0.4548656
2531359040,-0.10866546,0.26256168,0.0082767075,0.4575535
2531399030,-0.09773735,0.19587716,0.0060683805,0.4658284
2531443061,-0.1331899,0.09144095,0.0030912934,0.4697727
2531483063,-0.11933975,0.027600886,0.0012108956,0.46978512
2531527041,-0.14988962,0.0007682855,0.0034651568,0.4660405
2531567027,-0.23170997,-0.09779224,0.0007352617,0.4747555
2531611053,-0.21180315,-0.1376943,0.0009845094,0.46601048
2531651064,-0.16348527,-0.16740711,0.0009885832,0.47360197
2531695032,-0.11704135,-0.19277911,0.00079165905,0.47497785
2531739024,-0.16321294,-0.2111944,-0.00040469976,0.4799859
2531779084,-0.15401688,-0.23048091,-0.0012509573,0.49144208
2531822991,0.02055785,-0.24934071,-0.0012759602,0.48311335
2531863036,0.062566034,-0.22637132,0.0019385959,0.49006656
2531903029,-0.077472806,-0.24114263,0.0017767062,0.5043309
2531947061,-0.06314254,-0.2581874,0.002548838,0.5096082
2531987096,0.024012437,-0.2648727,0.0058615035,0.51483583
2532031036,0.020090086,-0.25830764,0.008951887,0.51537204
2532075020,-0.058163308,-0.25834826,0.008950383,0.52054864
2532115071,-0.024148896,-0.21924251,0.013635312,0.5241473
2532155081,0.036008716,-0.24700183,0.01409046,0.52810556
2532199036,0.019868335,-0.24259901,0.014615176,0.5351234
2532243037,0.060111225,-0.20509884,0.01537839,0.53785414
2532286995,0.05525663,-0.19639254,0.016365826,0.5502695
2532327011,0.11045906,-0.14967221,0.017770145,0.5525614
2532367031,0.09926183,-0.1334233,0.017757706,0.56144774
2532410992,0.0832776,-0.08641662,0.018390961,0.5640866
2532451040,0.09229801,-0.0441955,0.018197773,0.567216
2532494991,0.07403731,-0.00056916394,0.018890029,0.57162595
2532535035,0.08128868,0.06535978,0.019926678,0.56781334
2532575032,0.049709346,0.10306763,0.020947922,0.56983703
2532619036,0.07252196,0.12504402,0.020877425,0.56857
2532659032,0.06651482,0.1193988,0.019694202,0.5707388
2532703036,0.055543426,0.18434858,0.022307295,0.56753933
2532743059,0.0385434,0.19112974,0.021944448,0.56995934
2532787034,0.0889498,0.18613552,0.020959852,0.56463814
2532827033,0.07576387,0.14592618,0.019946765,0.5657511
2532871051,0.065271966,0.15680751,0.020942587,0.56272167
2532914992,0.056479394,0.13733599,0.021560377,0.5619997
2532955071,0.057820655,0.090103224,0.020170871,0.56301445
2532999031,0.09115635,0.06794547,0.019846706,0.5677193
2533039077,0.100294024,0.052309867,0.019085912,0.5694239
2533082987,0.085134685,0.044287536,0.018930895,0.57111675
2533123055,0.101331025,0.033620413,0.018321088,0.5761771
2533166996,0.12297403,0.010759793,0.016558811,0.57721865
2533207064,0.115193136,0.022542313,0.015192464,0.5778487
2533250987,0.07551676,0.030866278,0.01338313,0.5786137
2533291044,0.0967562,0.02534015,0.010848504,0.58048224
2533335035,0.11865592,-0.0001571802,0.00850492,0.57915735
2533375060,0.08158182,-0.029625516,0.0065458743,0.5853236
2533419792,0.09325247,-0.026779018,0.0054817894,0.5835537
2533459791,0.107570045,-0.06729639,0.0050233183,0.5848209
2533504614,0.08674642,-0.09645865,0.0043057865,0.5863496
2533544621,0.04609384,-0.06383299,0.0035780785,0.58090806
2533584597,0.020093873,-0.05997827,0.0020757178,0.57546836
2533624602,-0.0038282513,-0.065608345,0.00044868316,0.5721882
2533668611,0.055964317,-0.059179243,-0.0017130442,0.56477106
2533708599,0.04438773,-0.07371274,-0.004320939,0.5680681
2533752590,0.08459396,-0.032639157,-0.006988212,0.56654656
2533792637,0.08725911,-0.03374599,-0.009017102,0.5716279
2533836606,0.109961875,-0.029906254,-0.010572483,0.5754212
2533876615,0.10826529,-0.029124185,-0.012298874,0.58235145
2533920628,0.116419725,-0.0047255987,-0.014154941,0.5862653
2533960597,0.1454091,0.025549807,-0.015456799,0.59085685
2534004608,0.14486879,0.044219073,-0.017293569,0.5963476
2534044584,0.19105859,0.09946845,-0.019359864,0.59894097
2534088603,0.22935703,0.14096642,-0.022616988,0.60035014
2534128635,0.22552228,0.17075697,-0.024929345,0.6019896
2534172614,0.25159165,0.14698447,-0.02746281,0.60831213
2534212615,0.30038,0.17414373,-0.028707106,0.447976
2534256603,0.2571368,0.13134027,-0.027963419,0.45418727
2534296618,0.2361614,0.12436036,-0.02509394,0.4713512
2534340604,0.21204503,0.041234303,-0.02268726,0.4884699
2534380591,0.19587705,0.004421185,-0.020535817,0.5055459
2534424638,0.17007208,-0.010815371,-0.017242482,0.5213224
2534464660,0.1788865,-0.018131744,-0.014733751,0.53260726
2534508598,0.1523885,-0.06447376,-0.011706484,0.5387674
2534552645,0.1336451,-0.06584928,-0.009536569,0.5447347
2534596608,0.1424522,-0.0627825,-0.007930616,0.55346656
2534636624,0.14434236,-0.07555677,-0.0065315743,0.5561058
2534680637,0.14391209,-0.040743925,-0.00563859,0.5645393
2534720629,0.10018946,-0.013297836,-0.004856992,0.5659548
2534764599,0.10515026,-0.021975784,-0.004682253,0.56857497
2534808638,0.11773787,-0.04190749,-0.0040840916,0.5717548
2534848625,0.112480305,-0.050567515,-0.0038427855,0.57431644
2534892624,0.0824098,-0.03969515,-0.003005569,0.57768804
2534932618,0.07976002,-0.067650445,-0.002791783,0.57941353
2534972601,0.081428275,-0.0826861,-0.0024087923,0.5835746
2535016641,0.07456294,-0.08422107,-0.00086163514,0.5839653
2535056628,0.070002064,-0.0774251,1.2311777e-05,0.58271843
2535100614,0.062109455,-0.056360673,0.0010325339,0.5838787
2535144623,0.07038138,-0.01494202,0.0015578342,0.58479476
2535184631,0.05423954,0.013048737,0.0018150199,0.5846924
2535224639,0.0500688,0.044681568,0.00211081,0.5808104
2535268609,0.03829393,0.10520749,0.00316785,0.57733613
2535312630,0.028757572,0.14241372,0.0040753325,0.5742197
2535352643,-0.0017446289,0.19250649,0.0060137757,0.5682817
2535392647,0.010697408,0.23195527,0.0072987885,0.5662959
2535436624,0.0062770005,0.23702502,0.008849522,0.5582641
2535476595,-0.03534834,0.2768349,0.011177896,0.5513367
2535516617,-0.047480073,0.33659637,0.013193073,0.5481156
2535560656,-0.07548528,0.339549,0.015131094,0.5412338
2535604619,-0.071631216,0.31125265,0.015249679,0.53766865
2535644606,-0.097589165,0.31743768,0.01648332,0.535771
2535688647,-0.11799656,0.3278708,0.018571781,0.53707063
2535728647,-0.08549152,0.3169726,0.019211583,0.54204196
2535772618,-0.060729228,0.2709764,0.019998787,0.54016834
2535812603,-0.072207026,0.23546799,0.02230833,0.5386964
2535852600,-0.058462176,0.19874501,0.022610184,0.53979117
2535896597,-0.07631958,0.13936093,0.02310676,0.54131263
2535940619,-0.07001157,0.099055156,0.022714216,0.54073215
2535980600,-0.046408083,0.10251374,0.02254613,0.5444513
2536024601,-0.072675385,0.09562826,0.021941165,0.5451485
2536064604,-0.09115205,0.09300486,0.020252004,0.5432268
2536108595,-0.0770603,0.09766276,0.016715873,0.54172915
2536152629,-0.06269986,0.094419084,0.012977822,0.54238236
2536192603,-0.09546641,0.10042981,0.010412499,0.5407634
2536232607,-0.09481602,0.111396246,0.007276085,0.54240656
2536276607,-0.10214626,0.14107683,0.00499143,0.5400374
2536320598,-0.12041244,0.1358801,0.0027893027,0.5402022
2536360601,-0.13929519,0.12520613,0.0012455116,0.5395087
2536404586,-0.14936961,0.12245041,0.0012490744,0.5407353
2536444604,-0.14698157,0.11472314,0.0015226806,0.5401106
2536488606,-0.18337405,0.07906705,0.0020726575,0.5375871
2536528634,-0.22993697,0.05622495,0.003541941,0.53745866
2536568612,-0.22890726,0.04144653,0.0044947998,0.53800064
2536612616,-0.2606181,0.031874433,0.00590433,0.5370611
2536652600,-0.26512802,-0.022559494,0.0042288164,0.5370168
2536692614,-0.29244038,-0.046301007,0.0025521675,0.5385739
2536732643,-0.3194094,-0.0666641,0.0007684445,0.5387161
2536776591,-0.27393672,-0.042058878,-0.00033359343,0.543625
2536816588,-0.25714502,-0.037348736,-0.0020370195,0.5446539
2536860652,-0.22804406,-0.04511995,-0.0040087765,0.5443105
2536902295,-0.2179229,-0.04472621,-0.004794197,0.540877
2536942271,-0.20474148,-0.039617848,-0.0056744944,0.5411429
2536986227,-0.18184005,-0.0371659,-0.006510623,0.54297656
2537026231,-0.15687995,-0.035871096,-0.0066989493,0.54139566
2537070234,-0.09959544,-0.040124506,-0.0060459473,0.5448978
2537110255,-0.07233438,-0.04021369,-0.0055149044,0.5442683
2537154198,-0.030366847,-0.042871602,-0.0050529344,0.54265386
2537194200,-0.030274495,-0.04954907,-0.0035811348,0.5401997
2537238238,-0.026306251,-0.035022065,-0.0006698992,0.5395124
2537278203,-0.029322524,-0.0058580004,0.0044821193,0.5396438
2537318251,-0.022632122,0.0070810486,0.010189905,0.5400958
2537358237,-0.00064103253,-0.008041404,0.0142295975,0.54100573
2537402257,-0.029108008,0.0058439174,0.020938784,0.537215
2537442252,-0.055589624,0.016331378,0.026639173,0.5352776
2537486262,-0.05314842,-0.0132315215,0.031241814,0.5373425
2537526270,-0.023372239,-0.03356285,0.0339138,0.53263414
2537570194,-0.0885068,-0.0147568295,0.039615314,0.5350749
2537610202,-0.14946406,-0.028233381,0.042611998,0.5332023
2537654226,-0.15410961,-0.10528529,0.041708272,0.5330086
2537694255,-0.094865195,-0.12744582,0.04236479,0.53140306
2537738201,-0.09955459,-0.11414909,0.04400188,0.53366333
2537778201,-0.16628861,-0.13831362,0.043154705,0.5302076
2537822278,-0.10613747,-0.18327811,0.041412674,0.53777224
2537862301,-0.060097806,-0.20763332,0.03952617,0.5352863
2537906244,-0.10280317,-0.17603071,0.03874275,0.53505063
2537946240,-0.17722715,-0.1697514,0.035595257,0.5286599
2537990264,-0.106954664,-0.1772639,0.032949734,0.53156775
2538030221,0.0005991875,-0.15797445,0.031444028,0.5374953
2538074199,-0.07751521,-0.113573544,0.029845458,0.53413916
2538114208,-0.12808166,-0.12571143,0.025585657,0.5335229
2538158239,-0.046674628,-0.12669176,0.021555327,0.5347931
2538198199,-0.03485961,-0.11291352,0.018954197,0.5326501
2538242255,-0.04351943,-0.10952068,0.01597923,0.53516066
2538282256,-0.040726732,-0.13486296,0.0123019535,0.5349341
2538326274,-0.0159478,-0.1344235,0.009870386,0.5362899
2538366231,-0.029697105,-0.14537638,0.0073111216,0.53527594
2538410197,-0.033064075,-0.13791695,0.0063392613,0.5391478
2538450213,-0.0014902905,-0.15492205,0.004170185,0.53965116
2538494290,-0.034598667,-0.1561268,0.0035430386,0.53777164
2538534206,-0.029158277,-0.1531119,0.004005134,0.54053295
2538574197,-0.085607044,-0.18947113,0.0030846333,0.5367569
2538618208,-0.07856187,-0.18606763,0.0033856577,0.5413102
2538658221,-0.10852886,-0.19095606,0.00354629,0.5334141
2538702316,-0.114804894,-0.16835076,0.0038212016,0.5352973
2538742282,-0.11940217,-0.18736425,0.002943245,0.5334527
2538786233,-0.12774883,-0.21545579,0.0016348641,0.5242516
2538826275,-0.13039657,-0.1849672,0.0024417858,0.5258651
2538870200,-0.14932896,-0.22426984,0.0003028492,0.5202687
2538910210,-0.17776427,-0.24159706,-0.0009337107,0.5199466
2538950202,-0.15698469,-0.251569,-0.0016952222,0.52317125
2538994216,-0.084713176,-0.23119383,-0.0022007062,0.52840805
2539038198,-0.15012299,-0.27192074,-0.0060340716,0.52025217
2539078210,-0.12942281,-0.26750416,-0.0077153863,0.5246145
2539122288,-0.071534745,-0.24980423,-0.009402712,0.5256633
2539162293,-0.048619296,-0.22323765,-0.01060649,0.5317391
2539206235,-0.078198195,-0.23923458,-0.01420325,0.5233755
2539250216,-0.004928404,-0.1870067,-0.015297299,0.5327973
2539290238,-0.06809805,-0.17805257,-0.017247628,0.53442377
2539330254,-0.063908055,-0.17080577,-0.018294284,0.531846
2539374198,-0.048173025,-0.14568688,-0.017888477,0.5286186
2539418203,-0.061633553,-0.12108691,-0.01756128,0.5287147
2539458232,-0.08122727,-0.12141063,-0.018006856,0.5273009
2539498238,-0.091982335,-0.12577647,-0.018587522,0.52241
2539542277,-0.027195353,-0.09848338,-0.016875178,0.52687305
2539582274,-0.056961954,-0.08263224,-0.015609175,0.52672625
2539626278,-0.07822838,-0.09209865,-0.015750544,0.5176141
2539666262,-0.052973658,-0.059455283,-0.013790147,0.52147233
2539710217,-0.06873227,-0.10755008,-0.014458902,0.51664764
2539750210,-0.11339257,-0.0997131,-0.0138179865,0.5113247
2539790199,-0.080200896,-0.06206429,-0.012706938,0.5157745
2539830191,-0.07802848,-0.06722874,-0.0126956,0.5123419
2539874254,-0.0777077,-0.0736466,-0.01294085,0.5118098
2539914197,-0.048064034,-0.04326321,-0.012022944,0.515488
2539958205,-0.10468752,-0.068475865,-0.012231439,0.50966793
2539998194,-0.035536844,-0.0734998,-0.013272855,0.5108747
2540042282,-0.032793034,-0.071428224,-0.013527005,0.5124693
2540082297,-0.027193645,-0.035860505,-0.012408859,0.5148382
2540126228,-0.05769568,-0.0809559,-0.012746317,0.50760216
2540166232,-0.05163315,-0.0716812,-0.011806334,0.50722027
2540210204,-0.06688205,-0.08576397,-0.0110820485,0.50309056
2540250195,-0.06951392,-0.08521197,-0.009862042,0.5029605
2540294205,-0.0069369036,-0.09696859,-0.009296887,0.5010046
2540334991,-0.050846443,-0.10411358,-0.008101283,0.499067
2540375793,-0.0826855,-0.1306875,-0.007855285,0.497425
2540419834,-0.063101545,-0.15248373,-0.008138768,0.49441627
2540459841,0.013591697,-0.13892964,-0.007742855,0.5000954
2540503792,-0.06705016,-0.17279685,-0.008761751,0.49290657
2540543829,-0.06401712,-0.18985261,-0.00928564,0.4943394
2540587825,-0.0529616,-0.20765351,-0.009431698,0.49108008
2540627831,-0.11863582,-0.25585672,-0.012215163,0.48734087
2540671800,0.16353136,-0.08649646,-0.006439995,0.12
2540711804,0.14828315,-0.07834567,-0.008896262,0.12
2540755840,0.1281986,-0.06771504,-0.01124927,0.12
2540795858,-0.21616852,-0.18740192,-0.018527074,0.5362745
2540839794,-0.17683807,-0.18100445,-0.020953842,0.5676402
2540879794,-0.25988635,-0.16789235,-0.020816775,0.57681763
2540923823,-0.22971544,-0.16059557,-0.02209827,0.5751167
2540963810,-0.26992488,-0.15867208,-0.0233603,0.55861676
2541007790,-0.27566633,-0.13990422,-0.024782002,0.5504012
2541047799,-0.2859132,-0.16742207,-0.027751654,0.5430602
2541091792,-0.26930323,-0.17001638,-0.030776616,0.5240428
2541131795,-0.25283468,-0.1631658,-0.03015833,0.5161328
2541175794,-0.20651603,-0.18958975,-0.031164028,0.5234837
2541219790,-0.22693722,-0.19768742,-0.03231829,0.5155308
2541263841,-0.24618804,-0.2287077,-0.033110093,0.5123811
2541303790,-0.14544737,-0.20383449,-0.032299414,0.51134187
2541347863,-0.1880079,-0.22677909,-0.033540647,0.511685
2541387790,-0.18733573,-0.23246399,-0.03482757,0.5097372
2541431813,-0.16184215,-0.19426794,-0.033151664,0.51258856
2541471788,-0.11616118,-0.16415155,-0.032199427,0.5123815
2541515885,-0.12047679,-0.15533021,-0.03228925,0.5146405
2541555804,-0.105627276,-0.108909994,-0.030298505,0.5142621
2541599847,-0.08797438,-0.08778296,-0.028611502,0.51149595
2541643871,-0.049470183,-0.025404721,-0.026074585,0.5091443
2541687846,-0.031534262,0.012133708,-0.023262866,0.5050322
2541727874,-0.010413475,0.060949326,-0.019384604,0.50930697
2541771874,0.0026927728,0.07478838,-0.016565824,0.505309
2541811886,0.022687819,0.10072377,-0.012846026,0.50662774
2541855829,0.026532644,0.0626421,-0.010642148,0.500157
2541895861,0.014350345,0.07734059,-0.006094088,0.49673864
2541935840,0.014040508,0.0825889,-0.002031136,0.4989711
2541975818,0.048849337,0.062479883,-0.000116133095,0.49753955
2542019845,0.02597769,0.07048895,0.0039316956,0.49929872
2542059795,0.03277641,0.048337705,0.0057293144,0.49819538
2542103847,0.062242076,0.05475876,0.008620323,0.50202805
2542147841,0.08664307,0.07209681,0.011216752,0.50311375
2542191850,0.03911178,0.049545433,0.013448548,0.5045214
2542231844,0.060681723,0.046491243,0.0146046635,0.50051934
2542275840,0.10932679,0.07632546,0.01678315,0.5029733
2542315847,0.08712389,0.047751907,0.017442496,0.5007052
2542359843,0.120302945,0.0209207,0.017936647,0.49836376
2542399854,0.14499469,0.040129945,0.019776134,0.50181293
2542443847,0.10911938,0.0358212,0.021045292,0.50349265
2542483838,0.1681073,0.06255376,0.021868084,0.5087662
2542527848,0.18544848,0.024815077,0.020919811,0.5052655
2542567878,0.16677248,0.018641133,0.020236047,0.50686586
2542607837,0.20459008,0.0240751,0.018962484,0.51019907
2542651841,0.17278388,0.049716886,0.019522268,0.5143694
2542695853,0.1718654,0.04714808,0.018481666,0.5063146
2542735855,0.20267189,0.09126593,0.018108418,0.50879633
2542775884,0.18477188,0.08937674,0.016645223,0.50979674
2542819851,0.17395751,0.095549725,0.015837682,0.5096623
2542859839,0.1932687,0.10669577,0.014597163,0.5128367
2542903882,0.19935647,0.11437402,0.013280959,0.5158704
2542947829,0.15362562,0.1236809,0.012676489,0.5141208
2542987877,0.18277657,0.12029995,0.010696386,0.51463854
2543031805,0.15008414,0.09726036,0.009534832,0.51171964
2543075797,0.15125422,0.10331475,0.00776043,0.51459414
2543115820,0.17082036,0.12768969,0.0058409916,0.5165898
2543159809,0.15777466,0.108432084,0.0039854413,0.5131248
2543199866,0.10590756,0.118400574,0.0035623997,0.5106255
2543243791,0.11687347,0.10287491,0.0018608418,0.508802
2543283816,0.08583913,0.12847987,0.0016482618,0.50922024
2543327835,0.11121218,0.11899108,0.00025286435,0.50997305
2543367858,0.09177506,0.12715633,4.096079e-05,0.5125213
2543411791,0.052827563,0.11793868,0.00027188816,0.5136292
2543451786,0.077605724,0.091725364,-0.0010458309,0.513118
2543495837,0.063945144,0.08974184,-0.0008712872,0.5122035
2543535874,0.07684375,0.09181336,-0.0012945558,0.51593214
2543579797,0.09162398,0.08115757,-0.0022895348,0.5192958
2543619829,0.084697455,0.06190107,-0.002393236,0.5179218
2543663824,0.06965742,0.031429585,-0.0027001996,0.51621443
2543703845,0.04921894,0.0001938106,-0.0026700273,0.51430446
2543747807,0.06975098,0.029028548,-0.0030288706,0.5177934
2543787823,0.072756566,0.018309448,-0.0033677747,0.5202548
2543829395,0.09199956,-0.0029308144,-0.0041420413,0.5198263
2543869396,0.057870235,-0.00767627,-0.0037206796,0.5162756
2543913400,0.029127324,-0.014799937,-0.0040899785,0.5185298
2543953441,0.046073977,-0.010582095,-0.004464145,0.5192625
2543997417,0.03957733,0.017328266,-0.004426408,0.5191555
2544037404,0.06415088,-0.005600258,-0.005226965,0.5221827
2544081437,0.03393877,0.008061425,-0.004879616,0.51524794
2544121450,0.049885884,0.011044119,-0.0044751763,0.51650727
2544161413,0.0118496725,-0.0058740294,-0.003476275,0.51738274
2544205391,-0.03441916,0.008177578,-0.0026653537,0.5130836
2544249418,0.0029785496,0.029108852,-0.0024723436,0.5233214
2544289435,-0.0030882945,0.018015996,-0.0018976838,0.5238676
2544333404,-0.009629899,-0.014845785,-0.0019033797,0.52073413
2544373397,-0.0063064788,0.014457687,-0.0013003426,0.5271456
2544417439,-0.025607195,-0.0071418947,-0.0009916546,0.5236853
2544457420,-0.015714072,-0.007822559,-0.0009320351,0.52741736
2544497453,0.0016757726,0.023483764,-0.0001926203,0.53170466
2544541404,0.011055106,-0.009636803,-0.000248607,0.5278314
2544585435,-0.006800653,-0.019243307,0.0003959032,0.52961284
2544625453,-0.025731515,0.007693131,0.0011516474,0.5273871
2544665439,-0.004351498,0.035810754,0.001213777,0.5292044
2544705392,-0.0137373,0.031198988,0.0015291356,0.5289386
2544749395,-0.015747063,0.038701184,0.0021267326,0.5284731
2544789393,-0.019245926,0.05403212,0.0025706775,0.5295228
2544833387,0.015143385,0.086204305,0.0029979236,0.53286844
2544873402,-0.00340164,0.05150692,0.00293303,0.5268466
2544917399,-0.00014205975,0.061599392,0.0035521567,0.5298086
2544957395,0.0059461035,0.05430367,0.0034308496,0.52452624
2545001387,0.03443794,0.063982524,0.0035518478,0.52824914
2545041391,0.041376308,0.07166728,0.0033656007,0.5282388
2545085391,0.04656298,0.040939435,0.0023746712,0.5287786
2545125392,-0.03635848,0.02588674,0.0027204691,0.52166724
2545169392,0.012426091,0.030928504,0.002216183,0.52141786
2545209391,0.004871995,0.0030488204,0.0016133056,0.5171531
2545253402,-0.00012763494,-0.012260963,0.0012920487,0.5181828
2545293406,0.019676935,-0.0035526375,0.0010180691,0.51903445
2545337418,0.004241338,-0.025922168,0.0005644712,0.5162735
2545377398,0.0057727173,-0.047149546,-0.00042905213,0.5151592
2545421401,0.004037132,-0.064328164,-0.00082858733,0.51927394
2545461420,0.01144453,-0.08670186,-0.0015527454,0.5181579
2545505400,0.061841212,-0.07420828,-0.001997312,0.52407336
2545545400,0.026258139,-0.07818235,-0.0020014327,0.5235117
2545589420,0.0026380278,-0.10702495,-0.0028376146,0.522198
2545629408,0.017450886,-0.12662816,-0.0028046928,0.51789683
2545673391,0.048803516,-0.10895454,-0.0019000551,0.52259564
2545713386,0.058212664,-0.10782766,-0.00088201376,0.52429265
2545757402,0.024611255,-0.12302385,-0.0006169725,0.5233701
2545797417,0.06873333,-0.104435414,-0.00013267621,0.5261621
2545841387,0.059094213,-0.10968693,3.262202e-05,0.52531844
2545881392,0.07991644,-0.105435625,-8.544236e-05,0.52652925
2545925403,0.12447724,-0.0935624,-0.00020221768,0.53001475
2545965436,0.07404118,-0.08423345,-7.2506155e-05,0.5295076
2546009388,0.08725282,-0.079036735,-0.0007255195,0.5323625
2546049386,0.096502766,-0.06542313,-0.00093523023,0.53068143
2546093437,0.11951926,-0.04134305,-0.00086525397,0.5350137
2546133433,0.08479183,-0.030185673,-0.00013238717,0.53209376
2546177394,0.115186974,0.0069617676,0.00024541226,0.53692645
2546221415,0.11109714,0.01101279,9.922416e-05,0.5361945
2546265397,0.110377334,0.0061885365,-0.00010719681,0.53451514
2546305392,0.14282994,0.018025465,-6.627321e-05,0.5360529
2546345400,0.09620331,0.014716927,0.0007234972,0.53138185
2546385396,0.120228715,0.028163921,0.0010118943,0.53251094
2546429423,0.11084291,0.024700366,0.0017986195,0.5312787
2546469426,0.107025415,0.042100247,0.0033274384,0.5320985
2546513388,0.11929616,0.048840035,0.004730215,0.5344572
2546553398,0.10028347,0.04451696,0.006171353,0.53582513
2546597419,0.11137487,0.05433846,0.0077128243,0.53609276
2546637441,0.08240555,0.032113567,0.009250641,0.5335676
2546681399,0.079251364,0.039768938,0.010689779,0.5317594
2546721398,0.057905972,0.015930299,0.012135739,0.5316509
2546765435,0.029431868,-0.000245863,0.012916018,0.53183824
2546805417,0.03273813,-0.014424266,0.013104981,0.53047216
2546849384,0.02569923,-0.002547516,0.0129009895,0.5285263
2546889397,0.007797744,-0.012199465,0.01200121,0.5269579
2546933447,-0.026533846,-0.0040976014,0.011254582,0.52254707
2546973397,-0.014802691,0.021026662,0.010216025,0.5269115
2547017384,-0.03897874,0.006359652,0.009041399,0.5239027
2547057388,-0.05732594,0.0019435668,0.008155623,0.51858777
2547101435,-0.07738349,0.016606525,0.0080212485,0.5196549
2547141395,-0.048445392,0.025393205,0.007274203,0.5239525
2547185390,-0.062688485,0.0073809624,0.006954667,0.5205373
2547225388,-0.05356424,0.040740903,0.0069353255,0.5236167
2547270243,-0.1068282,-0.016445458,0.0074152127,0.51472175
2547311027,-0.09902566,-0.012483186,0.00808705,0.5180874
2547351030,-0.09406449,-0.01653192,0.008726596,0.5218271
2547395018,-0.11727443,-0.04417909,0.009185586,0.5154718
2547435007,-0.104560904,-0.03523465,0.0096924845,0.518104
2547479018,-0.109150805,-0.05553248,0.009781182,0.5169127
2547519047,-0.12600999,-0.04163569,0.010105399,0.5198436
2547563014,-0.124811105,-0.04725345,0.010472008,0.51616776
2547602993,-0.10070583,-0.029496739,0.011135514,0.5214364
2547647034,-0.14700651,-0.06578654,0.010935187,0.51916313
2547687017,-0.15017803,-0.02515717,0.011547984,0.5158459
2547730992,-0.11926002,0.03688989,0.012429861,0.51954556
2547770995,-0.15150912,0.044628013,0.013266554,0.51793903
2547815039,-0.09539097,0.056969684,0.012638093,0.5159971
2547854991,-0.13732177,0.07826456,0.014755043,0.5108496
2547899008,-0.11361029,0.09668597,0.016579362,0.51767254
2547939014,-0.14424032,0.066477336,0.01865585,0.5136437
2547983034,-0.105315454,0.06386267,0.021590011,0.52195674
2548022993,-0.05838651,0.054910164,0.023365876,0.52237153
2548066988,-0.078050464,0.033356555,0.026445635,0.5238389
2548107002,-0.046667904,0.011408296,0.027615394,0.5272125
2548151003,-0.08488963,-0.04157323,0.02909188,0.52355826
2548190997,-0.029422063,-0.029232701,0.030952642,0.52903605
2548234992,-0.036917116,-0.06378348,0.031783428,0.52921444
2548274998,-0.07328957,-0.081575684,0.032906227,0.5275754
2548318992,-0.0030736532,-0.085909605,0.033452444,0.5348054
2548358995,0.0034670387,-0.11981819,0.033417035,0.53316313
2548402984,0.023775768,-0.12363387,0.03391906,0.53497225
2548443000,0.040104233,-0.14587036,0.033340003,0.5361555
2548486984,0.018015426,-0.1670636,0.03309521,0.5341787
2548527001,0.06159449,-0.20779423,0.03125804,0.528603
2548570992,0.065358594,-0.20717432,0.030851576,0.5323887
2548611012,0.07912076,-0.2065855,0.02974049,0.5363876
2548654988,0.07724483,-0.21271859,0.027944565,0.5348894
2548694999,0.10682448,-0.22461449,0.026086861,0.53644335
2548739001,0.09537558,-0.22927058,0.023431066,0.5363494
2548779040,0.085328355,-0.23101377,0.02144096,0.5363834
2548819032,0.10796749,-0.22958389,0.019313918,0.5380666
2548859038,0.11443328,-0.26731834,0.015889505,0.53720486
2548903032,0.10644946,-0.267109,0.013444877,0.5351894
2548943016,0.10063388,-0.26116848,0.011621155,0.53642863
2548987030,0.117163464,-0.2562267,0.009308664,0.5399756
2549027025,0.07028589,-0.2657726,0.0069377813,0.5360812
2549070991,0.09986902,-0.22121389,0.0062685907,0.5437321
2549111000,0.08215321,-0.22661102,0.0037210642,0.540846
2549155059,0.083272934,-0.20693217,0.0017733814,0.540186
2549195065,0.093568675,-0.1919587,0.0006384654,0.5408317
2549238992,0.100846685,-0.15861547,-0.00085177895,0.54208463
2549279005,0.007803416,-0.1601712,-0.0024248357,0.5344854
2549323025,0.025270041,-0.15895455,-0.0036592823,0.53529793
2549363033,0.03879584,-0.1551141,-0.0043561924,0.53437805
2549407001,0.02926018,-0.14358445,-0.0051028556,0.5354633
2549446999,0.033849016,-0.12075872,-0.0053700777,0.5370531
2549491037,0.0346937,-0.11416054,-0.0056100446,0.5352889
2549531051,0.024405498,-0.13884076,-0.0068454957,0.5357588
2549570994,0.016957808,-0.120410554,-0.0066745877,0.5340719
2549614996,0.0075059193,-0.12869737,-0.007171438,0.53164995
2549659017,0.027925652,-0.10589621,-0.0072899703,0.5374909
2549699002,0.01438324,-0.09688456,-0.0075239884,0.536447
2549742995,0.016348414,-0.074737,-0.0074871485,0.5379034
2549783008,0.023296136,-0.076811746,-0.007976811,0.5416361
2549827033,0.022412356,-0.07670118,-0.007928145,0.5387878
2549867013,0.061142817,-0.04004682,-0.0073137265,0.5449845
2549911002,0.054639496,-0.048220776,-0.007280103,0.54339904
2549951024,0.016134843,-0.05228175,-0.007042268,0.5436747
2549994990,0.010957407,-0.04566624,-0.0065619093,0.54211247
2550039002,0.058754873,-0.031905245,-0.0065282187,0.54529774
2550083030,0.05198786,-0.055172674,-0.00707308,0.54244894
2550123024,0.06183769,-0.052742407,-0.0074886596,0.54283434
2550166990,0.043230556,-0.08154578,-0.007967017,0.53663075
2550207007,0.04181817,-0.070357405,-0.008032622,0.5386487
2550251025,0.06280839,-0.088593796,-0.009020418,0.5390145
2550290998,0.024484579,-0.08969852,-0.0094491,0.53700244
2550334999,0.038341563,-0.08982314,-0.010506416,0.5386689
2550375002,0.024270166,-0.09303326,-0.012076064,0.5359002
2550419052,0.024977174,-0.122087225,-0.013620317,0.53250796
2550458996,0.053806216,-0.108637735,-0.014693836,0.5368152
2550502992,0.022283936,-0.12008592,-0.016500317,0.5326628
2550543025,0.01135881,-0.11045313,-0.01788012,0.53313774
2550586999,0.017789926,-0.13114986,-0.019601624,0.52960485
2550626995,0.023114046,-0.11355691,-0.02134058,0.53079146
2550671001,0.0061776126,-0.12179907,-0.02303292,0.5274255
2550710995,0.0436499,-0.1281439,-0.02412022,0.529386
2550752661,0.027859619,-0.13523722,-0.024977613,0.5300574
2550792596,0.03831837,-0.14101516,-0.02644552,0.5277459
2550832619,-0.011537213,-0.13074933,-0.026942857,0.5263012
2550872612,0.052888166,-0.12881523,-0.027742773,0.53057045
2550916600,0.04156013,-0.13312036,-0.027383527,0.52808326
2550956608,0.03030395,-0.16348201,-0.028074102,0.52328783
2551000593,0.058965333,-0.13638449,-0.027717086,0.52899534
2551044595,0.05108935,-0.16189851,-0.027647486,0.5293208
2551088651,0.03899762,-0.18161154,-0.027730212,0.52461404
2551128608,0.055616956,-0.16901948,-0.027071696,0.52535075
2551172678,0.04745853,-0.18041322,-0.026641827,0.52646685
2551212598,0.03943726,-0.19794893,-0.026314154,0.5266608
2551256640,0.031941384,-0.20144594,-0.025984738,0.5268218
2551296594,0.028854901,-0.20410599,-0.025128914,0.5273308
2551340673,0.05805488,-0.19386594,-0.024435021,0.5298462
2551380603,0.04243871,-0.20956938,-0.023427306,0.5292444
2551424661,0.05065059,-0.1945147,-0.022988537,0.529695
2551464617,0.05452732,-0.20718235,-0.022491349,0.52550554
2551508704,0.04355791,-0.21420085,-0.021959644,0.5259914
2551548605,0.099781886,-0.19800445,-0.021296442,0.5303832
2551592661,0.026037509,-0.238602,-0.021266624,0.52407414
2551632631,0.05093928,-0.18714023,-0.020963954,0.53009367
2551676629,0.043415878,-0.21766934,-0.0207645,0.52485085
2551716611,0.080378294,-0.20131236,-0.020200478,0.5267768
2551760657,0.07904582,-0.21670106,-0.020112049,0.52561444
2551800608,0.064608574,-0.1930512,-0.020240411,0.52202934
2551844639,0.08311543,-0.21741521,-0.021076228,0.52412665
2551884599,0.11954902,-0.18667467,-0.021246484,0.52697146
2551928679,0.08285229,-0.18728851,-0.021979135,0.5248792
2551968618,0.12734455,-0.17122242,-0.02226516,0.5272569
2552008636,0.10945594,-0.17065623,-0.022375919,0.5266283
2552048647,0.13723367,-0.11815576,-0.022780648,0.53084517
2552092602,0.11944629,-0.108842164,-0.02252041,0.5311132
2552132592,0.1265769,-0.09495433,-0.021991933,0.5327244
2552176655,0.12021628,-0.07212053,-0.020593511,0.5351528
2552220596,0.105259486,-0.07841739,-0.019832477,0.5334264
2552264663,0.11928027,-0.041849416,-0.018944735,0.5365805
2552308647,0.10443409,-0.055595294,-0.017419111,0.5325451
2552348646,0.10424867,-0.04596778,-0.016229749,0.5345152
2552392648,0.058753047,-0.033599835,-0.01503146,0.53267264
2552432683,0.115354516,-0.012857353,-0.01458566,0.5382213
2552476652,0.11101945,-0.043438926,-0.013042141,0.53339475
