timestamp,magnetometer_ga[0],magnetometer_ga[1],magnetometer_ga[2]
2508858699,0.16474503,-0.043611266,0.361409
2508870663,0.15434499,-0.0466709,0.3658607
2508910329,0.15583073,-0.0466709,0.37624794
2508922629,0.17663077,-0.052790165,0.36882848
2508946656,0.15731643,-0.032902546,0.37179625
2508958670,0.17217362,-0.04055163,0.3628929
2508973462,0.15731643,-0.055849798,0.37476408
2508985722,0.16474503,-0.043611266,0.37476408
2509022454,0.16028787,-0.032902546,0.3599251
2509034645,0.16474503,-0.0466709,0.37773186
2509046643,0.16474503,-0.0466709,0.3658607
2509070698,0.1706879,-0.039021816,0.36882848
2509083286,0.16474503,-0.029842915,0.3658607
2509094663,0.16474503,-0.034432363,0.36734456
2509107266,0.16920218,-0.0466709,0.36734456
2509118644,0.16771646,-0.0466709,0.3658607
2509131244,0.16474503,-0.045141082,0.36734456
2509142720,0.17663077,-0.032902546,0.35250562
2509155109,0.17514506,-0.037492,0.36882848
2509179837,0.15285929,-0.04055163,0.36734456
2509192261,0.1706879,-0.037492,0.361409
2509204607,0.17365932,-0.0466709,0.35250562
2509228628,0.1706879,-0.049730532,0.36882848
2509240658,0.16474503,-0.039021816,0.37179625
2509288613,0.16474503,-0.039021816,0.3599251
2509301056,0.15285929,-0.045141082,0.36882848
2509312639,0.18108793,-0.037492,0.37476408
2509324678,0.16920218,-0.0466709,0.36734456
2509348615,0.17960219,-0.045141082,0.35844123
2509360646,0.1706879,-0.039021816,0.35250562
2509375025,0.17514506,-0.04055163,0.3599251
2509400616,0.16474503,-0.037492,0.36882848
2509412582,0.16920218,-0.04055163,0.34508616
2509424703,0.15880215,-0.045141082,0.37328017
2509460617,0.16474503,-0.025253465,0.35398954
2509472031,0.18108793,-0.043611266,0.3599251
2509484615,0.18108793,-0.0466709,0.3599251
2509496729,0.17365932,-0.037492,0.3658607
2509520621,0.16920218,-0.045141082,0.3628929
2509544658,0.16920218,-0.03137273,0.3628929
2509568023,0.16474503,-0.029842915,0.35250562
2509580646,0.17365932,-0.052790165,0.3554734
2509592703,0.16028787,-0.043611266,0.361409
2509604643,0.17960219,-0.037492,0.35398954
2509616645,0.17960219,-0.03137273,0.36734456
2509628625,0.15434499,-0.037492,0.3658607
2509640153,0.15583073,-0.037492,0.3599251
2509652346,0.17514506,-0.0466709,0.37921575
2509676255,0.16474503,-0.058909435,0.3599251
2509688077,0.16028787,-0.0466709,0.37773186
2509700661,0.16474503,-0.037492,0.38366744
2509736636,0.17217362,-0.05431998,0.34508616
2509748638,0.16028787,-0.055849798,0.34953785
2509774791,0.19000223,-0.0466709,0.3599251
2509799930,0.19000223,-0.045141082,0.34211835
2509812654,0.19594511,-0.04514108,0.3628929
2509860658,0.20931657,-0.039021812,0.33618277
2509872664,0.20931657,-0.05890943,0.35250562
2509896638,0.21525945,-0.051260345,0.33915055
2509920402,0.20931657,-0.05737961,0.34211835
2509956416,0.19743082,-0.037491996,0.34211835
2509980531,0.19594511,-0.037491996,0.33915055
2509991884,0.19594511,-0.037491996,0.34211835
2510004843,0.20783085,-0.04973053,0.34211835
2510016697,0.20188798,-0.054319978,0.34211835
2510028530,0.20931657,-0.046670895,0.34805393
2510040020,0.20931657,-0.05279016,0.33618277
2510064655,0.19891654,-0.051260345,0.3346989
2510076845,0.20931657,-0.054319978,0.33321497
2510088673,0.20040226,-0.04973053,0.34063447
2510100927,0.18554509,-0.05126035,0.34508616
2510126991,0.19891654,-0.051260345,0.33915055
2510139349,0.18405935,-0.063498884,0.34657004
2510151013,0.19891654,-0.060439248,0.3510217
2510174940,0.17217362,-0.045141082,0.35398954
2510187440,0.17960219,-0.06043925,0.36734456
2510200141,0.17960219,-0.057379615,0.3628929
2510247928,0.16920218,-0.045141082,0.35398954
2510271892,0.1706879,-0.043611266,0.361409
2510296712,0.1706879,-0.039021816,0.361409
2510308961,0.15285929,-0.05126035,0.3599251
2510344640,0.16474503,-0.049730532,0.36882848
2510356618,0.15880215,-0.0466709,0.37624794
2510367933,0.1469164,-0.049730536,0.3658607
2510382971,0.15880215,-0.037492,0.3628929
2510396974,0.13651638,-0.046670903,0.37624794
2510408622,0.15880215,-0.0466709,0.37328017
2510420644,0.1469164,-0.040551633,0.36882848
2510444991,0.1632593,-0.045141082,0.37624794
2510468843,0.1469164,-0.045141086,0.38663524
2510480716,0.13205923,-0.045141086,0.38218355
2510492641,0.13205923,-0.034432366,0.38218355
2510528403,0.14394496,-0.029842917,0.36882848
2510552656,0.14097354,-0.03290255,0.3599251
2510564678,0.1380021,-0.022193834,0.37773186
2510589180,0.12760207,-0.03290255,0.38366744
2510600694,0.14394496,-0.03290255,0.37179625
2510624658,0.12908779,-0.040551633,0.37921575
2510636979,0.13057351,-0.026783284,0.37476408
2510648707,0.12760207,-0.03290255,0.38366744
2510672043,0.1380021,-0.046670903,0.3658607
2510684576,0.12908779,-0.031372733,0.37328017
2510696651,0.12908779,-0.034432366,0.3881191
2510720233,0.14097354,-0.04361127,0.38366744
2510744677,0.1380021,-0.022193834,0.38960302
2510756528,0.14245926,-0.040551633,0.37921575
2510767903,0.121659204,-0.034432366,0.37624794
2510792030,0.13651638,-0.040551633,0.3881191
2510804622,0.1469164,-0.03902182,0.3940547
2510816029,0.12611637,-0.034432366,0.37624794
2510828610,0.14840212,-0.014544749,0.37921575
2510840641,0.1469164,-0.020664016,0.38663524
2510852800,0.1469164,-0.03290255,0.38069963
2510863931,0.1469164,-0.03290255,0.37476408
2510876660,0.14394496,-0.03290255,0.38663524
2510901112,0.13205923,-0.037492003,0.37921575
2510912687,0.14840212,-0.034432366,0.36882848
2510924946,0.14394496,-0.03290255,0.37476408
2510936669,0.14840212,-0.045141086,0.37328017
2510975011,0.15434499,-0.043611266,0.38366744
2510988512,0.15731643,-0.029842917,0.36882848
2511000025,0.1632593,-0.034432363,0.36882848
2511012256,0.15731643,-0.029842917,0.37476408
2511024060,0.15880215,-0.025253467,0.3628929
2511036237,0.14097354,-0.037492003,0.37476408
2511048154,0.16474503,-0.029842915,0.37773186
2511072187,0.1469164,-0.020664016,0.37328017
2511084747,0.15285929,-0.04055163,0.36734456
2511096667,0.14840212,-0.025253467,0.3628929
2511119904,0.15434499,-0.037492,0.36882848
2511144030,0.15731643,-0.029842917,0.38069963
2511156636,0.15731643,-0.039021816,0.38069963
2511168122,0.16771646,-0.02219383,0.3658607
2511196538,0.16474503,-0.037492,0.3599251
2511208212,0.16474503,-0.032902546,0.3658607
2511220531,0.1632593,-0.037492,0.37624794
2511244539,0.16474503,-0.034432363,0.3599251
2511256613,0.17365932,-0.037492,0.37773186
2511268647,0.16920218,-0.04055163,0.36882848
2511293116,0.15583073,-0.037492,0.3599251
2511304635,0.15583073,-0.045141082,0.3599251
2511317765,0.16771646,-0.049730532,0.35250562
2511331258,0.16771646,-0.052790165,0.35250562
2511343043,0.17960219,-0.028313098,0.36882848
2511355377,0.17960219,-0.05431998,0.3510217
2511366902,0.16474503,-0.045141082,0.3599251
2511381094,0.1706879,-0.0466709,0.3599251
2511416644,0.18257365,-0.03137273,0.36882848
2511428669,0.16474503,-0.039021816,0.37179625
2511440096,0.18405935,-0.049730532,0.3658607
2511464685,0.19297366,-0.055849794,0.34953785
2511476684,0.17514506,-0.0466709,0.35844123
2511488191,0.17365932,-0.052790165,0.37476408
2511500814,0.18108793,-0.049730532,0.3658607
2511512650,0.16474503,-0.058909435,0.3554734
2511524976,0.17960219,-0.05431998,0.34508616
2511536644,0.19743082,-0.04973053,0.34953785
2511548276,0.17960219,-0.057379615,0.33915055
2511573721,0.19000223,-0.06043925,0.3510217
2511600104,0.19148795,-0.058909435,0.34953785
2511612527,0.17663077,-0.058909435,0.34657004
2511636562,0.18257365,-0.057379615,0.35844123
2511648041,0.18405935,-0.052790165,0.34953785
2511660530,0.19594511,-0.06655852,0.34211835
2511672685,0.19297366,-0.06961815,0.34953785
2511684648,0.17217362,-0.05126035,0.3510217
2511696001,0.18405935,-0.063498884,0.33321497
2511709175,0.19297366,-0.063498884,0.35250562
2511720665,0.19743082,-0.0650287,0.34657004
2511744679,0.20634513,-0.06655852,0.34508616
2511756948,0.20188798,-0.074207604,0.34508616
2511768642,0.18405935,-0.055849798,0.34953785
2511792635,0.19891654,-0.060439248,0.34211835
2511804638,0.19148795,-0.063498884,0.35250562
2511815836,0.19891654,-0.04514108,0.35398954
2511864257,0.19148795,-0.0466709,0.34508616
2511876417,0.19148795,-0.07114796,0.33915055
2511888255,0.19743082,-0.0650287,0.34211835
2511912741,0.20040226,-0.06961815,0.33173108
2511924967,0.20634513,-0.07114796,0.3346989
2511936656,0.19148795,-0.0466709,0.3510217
2511951025,0.19148795,-0.058909435,0.34211835
2511963489,0.20931657,-0.05890943,0.33173108
2511976127,0.19148795,-0.057379615,0.34805393
2511988300,0.19148795,-0.058909435,0.34657004
2512024034,0.19148795,-0.07879704,0.3213438
2512048682,0.19297366,-0.0650287,0.33618277
2512072237,0.20337369,-0.055849794,0.34063447
2512084514,0.19594511,-0.074207604,0.3346989
2512096749,0.20634513,-0.07114796,0.34211835
2512108526,0.21823087,-0.06655851,0.33915055
2512144175,0.20931657,-0.07267778,0.33173108
2512156258,0.21377371,-0.072677776,0.3213438
2512167853,0.20634513,-0.07114796,0.33321497
2512192029,0.20783085,-0.07879704,0.30798873
2512204449,0.20931657,-0.06655852,0.33915055
2512216163,0.21823087,-0.078797035,0.33618277
2512240035,0.20931657,-0.07114796,0.33321497
2512252337,0.21823087,-0.07573741,0.3243116
2512264039,0.20337369,-0.07879704,0.33173108
2512276300,0.22565947,-0.06655851,0.3287633
2512324616,0.21525945,-0.07726722,0.33915055
2512348376,0.21525945,-0.08338649,0.3257955
2512360048,0.20931657,-0.083386496,0.3287633
2512375093,0.21525945,-0.07726722,0.3346989
2512387598,0.20931657,-0.074207604,0.33915055
2512399893,0.21377371,-0.06961814,0.33321497
2512412423,0.21377371,-0.08491631,0.34657004
2512423948,0.20931657,-0.07879704,0.33618277
2512436415,0.20931657,-0.074207604,0.34508616
2512447870,0.21377371,-0.07573741,0.3272794
2512462724,0.22714518,-0.07573741,0.3213438
2512487863,0.21823087,-0.08338649,0.31985992
2512512025,0.23011664,-0.09562503,0.33173108
2512536718,0.21377373,-0.09562503,0.3213438
2512548607,0.23160234,-0.06655851,0.3228277
2512560662,0.21377371,-0.078797035,0.3213438
2512587548,0.20931657,-0.063498884,0.3243116
2512599937,0.20931657,-0.083386496,0.3287633
2512612386,0.21377371,-0.08338649,0.3243116
2512637294,0.22417374,-0.08338649,0.3272794
2512649040,0.21823087,-0.072677776,0.3272794
2512661469,0.22565947,-0.08338649,0.3228277
2512698020,0.21377371,-0.06502869,0.33618277
2512722298,0.22714518,-0.06502869,0.3243116
2512733782,0.21823087,-0.07573741,0.34063447
2512746008,0.22417374,-0.08338649,0.34063447
2512757755,0.21377371,-0.07573741,0.31837603
2512772645,0.22268803,-0.06655851,0.3346989
2512797755,0.22268803,-0.05737961,0.33321497
2512810161,0.2197166,-0.06349888,0.33321497
2512821750,0.21377371,-0.078797035,0.33618277
2512834572,0.22268803,-0.060439248,0.31985992
2512845734,0.20337369,-0.084916316,0.33173108
2512858224,0.21525945,-0.06655851,0.3257955
2512869767,0.21377371,-0.07573741,0.3213438
2512893918,0.2197166,-0.06502869,0.33173108
2512917877,0.21823087,-0.0742076,0.3257955
2512930161,0.22268803,-0.071147956,0.31985992
2512941754,0.21823087,-0.07726722,0.3346989
2512965762,0.20931657,-0.063498884,0.33321497
2512978279,0.2197166,-0.060439248,0.33618277
2512989696,0.21377371,-0.06502869,0.34063447
2513013640,0.212288,-0.074207604,0.3346989
2513037756,0.22565947,-0.0742076,0.3287633
2513050552,0.212288,-0.0650287,0.3228277
2513062748,0.212288,-0.074207604,0.33915055
2513085703,0.19891654,-0.054319978,0.33321497
2513109723,0.21823087,-0.07573741,0.33618277
2513122271,0.212288,-0.040551625,0.34805393
2513133763,0.20188798,-0.0650287,0.33321497
2513146521,0.20783085,-0.063498884,0.33173108
2513157763,0.20337369,-0.046670895,0.33321497
2513172687,0.20931657,-0.0650287,0.33618277
2513185039,0.21377371,-0.06349888,0.34063447
2513196638,0.23011662,-0.06502869,0.33321497
2513210243,0.21823087,-0.055849794,0.33173108
2513221748,0.20634513,-0.051260345,0.3228277
2513234337,0.19891654,-0.07114796,0.33915055
2513257867,0.20337369,-0.05890943,0.33618277
2513269778,0.20337369,-0.06961815,0.34063447
2513293857,0.20634513,-0.060439248,0.3287633
2513317764,0.212288,-0.060439248,0.3346989
2513330261,0.20783085,-0.04973053,0.3272794
2513341745,0.20931657,-0.060439248,0.3257955
2513365749,0.20634513,-0.051260345,0.3346989
2513378128,0.20188798,-0.054319978,0.3510217
2513413666,0.19148795,-0.0466709,0.34805393
2513426599,0.19594511,-0.051260345,0.33321497
2513438675,0.19148795,-0.034432363,0.35844123
2513462822,0.20783085,-0.046670895,0.34953785
2513474724,0.19000223,-0.057379615,0.34508616
2513486668,0.20337369,-0.0650287,0.3554734
2513498642,0.19148795,-0.0466709,0.34805393
2513510687,0.19891654,-0.037491996,0.3510217
2513533761,0.18257365,-0.057379615,0.34805393
2513557824,0.19297366,-0.05890943,0.34953785
2513581669,0.19148795,-0.0466709,0.34211835
2513594212,0.19148795,-0.0466709,0.35250562
2513605758,0.19743082,-0.05279016,0.3554734
2513617990,0.19148795,-0.055849798,0.34063447
2513642428,0.18405935,-0.049730532,0.34211835
2513653763,0.19148795,-0.06655852,0.34805393
2513666249,0.18257365,-0.045141082,0.34508616
2513689850,0.18703079,-0.052790165,0.35250562
2513701861,0.19297366,-0.063498884,0.34953785
2513714124,0.17365932,-0.0650287,0.35250562
2513737892,0.19743082,-0.063498884,0.3599251
2513762233,0.18405935,-0.052790165,0.35250562
2513773742,0.19000223,-0.05431998,0.33915055
2513786044,0.18257365,-0.057379615,0.3510217
2513810628,0.19000223,-0.06043925,0.34211835
2513834215,0.18554509,-0.057379615,0.3599251
2513845755,0.17365932,-0.049730532,0.34953785
2513857878,0.18108793,-0.052790165,0.35250562
2513869694,0.19000223,-0.07114796,0.34211835
2513881773,0.19148795,-0.049730532,0.3599251
2513893875,0.17960219,-0.06655852,0.3599251
2513905890,0.19148795,-0.0650287,0.3510217
2513917798,0.19148795,-0.06043925,0.34508616
2513930327,0.18554509,-0.06655852,0.35398954
2513941769,0.19148795,-0.057379615,0.3599251
2513965778,0.19148795,-0.063498884,0.34953785
2513980525,0.17514506,-0.057379615,0.34508616
2513994284,0.19000223,-0.0650287,0.33321497
2514018249,0.18554509,-0.057379615,0.34211835
2514042269,0.20337369,-0.0650287,0.3554734
2514053644,0.18703079,-0.058909435,0.34063447
2514066149,0.19891654,-0.0650287,0.3346989
2514090217,0.18405935,-0.0650287,0.34211835
2514101727,0.19594511,-0.083386496,0.34805393
2514114245,0.19297366,-0.07267778,0.34657004
2514138134,0.20337369,-0.05279016,0.34953785
2514149665,0.19594511,-0.06655852,0.3346989
2514162444,0.19594511,-0.07726723,0.34211835
2514186164,0.19891654,-0.046670895,0.33915055
2514197729,0.18554509,-0.07114796,0.3599251
2514210661,0.20188798,-0.06655852,0.34211835
2514221731,0.19594511,-0.0650287,0.34805393
2514234221,0.19594511,-0.07114796,0.3346989
2514258212,0.19148795,-0.06655852,0.34211835
2514282184,0.19891654,-0.060439248,0.34211835
2514306256,0.21823087,-0.05890943,0.33321497
2514317737,0.20337369,-0.06961815,0.34063447
2514330482,0.19594511,-0.05737961,0.34508616
2514342726,0.19297366,-0.06961815,0.34211835
2514354659,0.20337369,-0.05279016,0.34657004
2514365728,0.20337369,-0.0650287,0.34063447
2514378246,0.21823087,-0.051260345,0.3287633
2514389730,0.21377371,-0.072677776,0.35250562
2514413795,0.20188798,-0.07114796,0.33321497
2514426282,0.20040226,-0.055849794,0.34657004
2514437727,0.19743082,-0.05890943,0.34063447
2514462698,0.20188798,-0.046670895,0.34805393
2514488853,0.22417374,-0.072677776,0.34953785
2514513947,0.19000223,-0.05126035,0.33321497
2514538019,0.21525945,-0.06502869,0.33321497
2514549793,0.21525945,-0.054319978,0.33915055
2514561841,0.19148795,-0.063498884,0.33173108
2514588686,0.20931657,-0.05737961,0.33915055
2514600919,0.21823087,-0.06349888,0.34211835
2514613800,0.19594511,-0.05737961,0.3346989
2514637774,0.20931657,-0.06961815,0.3554734
2514649851,0.20783085,-0.04973053,0.35250562
2514661813,0.20783085,-0.055849794,0.34657004
2514685747,0.20188798,-0.04514108,0.3510217
2514698240,0.19297366,-0.055849794,0.3554734
2514709650,0.18554509,-0.06655852,0.33915055
2514760891,0.18405935,-0.055849798,0.34211835
2514772719,0.19297366,-0.04973053,0.34211835
2514784949,0.20931657,-0.0650287,0.34657004
2514808949,0.20040226,-0.06961815,0.33173108
2514821491,0.19891654,-0.054319978,0.3287633
2514833879,0.20783085,-0.05890943,0.33618277
2514858001,0.21823087,-0.060439248,0.34805393
2514869729,0.20337369,-0.05890943,0.35250562
2514882246,0.18257365,-0.05431998,0.34805393
2514893765,0.19891654,-0.054319978,0.34805393
2514906252,0.19148795,-0.058909435,0.34063447
2514917756,0.19000223,-0.0466709,0.35844123
2514929855,0.18405935,-0.055849798,0.34063447
2514941793,0.19594511,-0.051260345,0.34508616
2514965804,0.19297366,-0.05890943,0.34211835
2514980387,0.19891654,-0.054319978,0.3510217
2515005801,0.19891654,-0.0650287,0.33321497
2515018398,0.19000223,-0.05431998,0.34508616
2515029764,0.20188798,-0.054319978,0.34211835
2515042413,0.18703079,-0.07267778,0.33173108
2515053775,0.20188798,-0.05737961,0.35844123
2515066513,0.19148795,-0.049730532,0.35250562
2515078655,0.18405935,-0.058909435,0.34657004
2515090447,0.19000223,-0.05126035,0.34805393
2515101775,0.19743082,-0.0650287,0.34063447
2515114673,0.19891654,-0.05737961,0.33915055
2515138168,0.19891654,-0.054319978,0.34805393
2515149753,0.20931657,-0.06655852,0.34211835
2515162185,0.18108793,-0.055849798,0.33618277
2515210663,0.19148795,-0.063498884,0.34657004
2515222634,0.20040226,-0.04973053,0.34953785
2515234653,0.19297366,-0.06961815,0.34953785
2515258647,0.19594511,-0.06655852,0.34508616
2515270700,0.212288,-0.07114796,0.34211835
2515282185,0.20188798,-0.06655852,0.33321497
2515293762,0.20188798,-0.0650287,0.33321497
2515306228,0.20931657,-0.046670895,0.34805393
2515317563,0.19743082,-0.05890943,0.34211835
2515330326,0.19148795,-0.063498884,0.34063447
2515341640,0.19594511,-0.07114796,0.33915055
2515354543,0.21823087,-0.06502869,0.34211835
2515366582,0.18257365,-0.074207604,0.3510217
2515390598,0.19000223,-0.06655852,0.33321497
2515414616,0.19297366,-0.06961815,0.33173108
2515426630,0.19891654,-0.051260345,0.34805393
2515438657,0.19148795,-0.049730532,0.3554734
2515450128,0.20634513,-0.06655852,0.3287633
2515485780,0.18703079,-0.06655852,0.33173108
2515498250,0.19297366,-0.05890943,0.34657004
2515509752,0.19743082,-0.055849794,0.34063447
2515533757,0.20634513,-0.0650287,0.35398954
2515546173,0.19594511,-0.05737961,0.3554734
2515557782,0.18703079,-0.07267778,0.3554734
2515581784,0.17663077,-0.063498884,0.3599251
2515594248,0.21823087,-0.06961814,0.34657004
2515605708,0.17960219,-0.05431998,0.34211835
2515618125,0.19743082,-0.063498884,0.3554734
2515629758,0.18257365,-0.05126035,0.35844123
2515642593,0.18554509,-0.06043925,0.34805393
2515666636,0.19891654,-0.0650287,0.34805393
2515690655,0.20040226,-0.05890943,0.35250562
2515702670,0.19891654,-0.054319978,0.3510217
2515714649,0.19891654,-0.060439248,0.34211835
2515726614,0.19297366,-0.05890943,0.34063447
2515762641,0.20931657,-0.0650287,0.34805393
2515774664,0.19743082,-0.06961815,0.34953785
2515786623,0.20337369,-0.063498884,0.34657004
2515810623,0.19000223,-0.06043925,0.34211835
2515821762,0.19297366,-0.063498884,0.34063447
2515836523,0.19148795,-0.052790165,0.35250562
2515861647,0.19000223,-0.0650287,0.34508616
2515873859,0.19000223,-0.06043925,0.33915055
2515885729,0.21377371,-0.05890943,0.3554734
2515909733,0.19743082,-0.04973053,0.35250562
2515946181,0.19297366,-0.05890943,0.34657004
2515957747,0.19594511,-0.0650287,0.34211835
2515981735,0.19743082,-0.07267778,0.34211835
2515994340,0.20634513,-0.060439248,0.34211835
2516005750,0.18703079,-0.058909435,0.34657004
2516029725,0.20337369,-0.04973053,0.3272794
2516042268,0.19594511,-0.07114796,0.3287633
2516053850,0.19297366,-0.05890943,0.33618277
2516066198,0.20188798,-0.0650287,0.33915055
2516077745,0.19594511,-0.051260345,0.3346989
2516089887,0.19000223,-0.06043925,0.34508616
2516103002,0.20931657,-0.063498884,0.35250562
2516151733,0.17514506,-0.0650287,0.3628929
2516163719,0.19000223,-0.05126035,0.34805393
2516178171,0.20337369,-0.05890943,0.3272794
2516190633,0.20040226,-0.055849794,0.33618277
2516202280,0.20188798,-0.051260345,0.33321497
2516214533,0.19891654,-0.046670895,0.33915055
2516227244,0.20931657,-0.040551625,0.34508616
2516239409,0.20931657,-0.0650287,0.3346989
2516251230,0.20783085,-0.05279016,0.33618277
2516263727,0.19148795,-0.058909435,0.33618277
2516275646,0.20931657,-0.055849794,0.34211835
2516287820,0.19000223,-0.0466709,0.34508616
2516311619,0.18703079,-0.063498884,0.34657004
2516335910,0.20931657,-0.051260345,0.35398954
2516359445,0.20040226,-0.046670895,0.34953785
2516371577,0.19148795,-0.043611266,0.33618277
2516383824,0.19000223,-0.045141082,0.3257955
2516407581,0.19891654,-0.054319978,0.34211835
2516431722,0.20188798,-0.040551625,0.3287633
2516443581,0.19148795,-0.0466709,0.3599251
2516455722,0.19148795,-0.029842913,0.34211835
2516491609,0.19891654,-0.040551625,0.3599251
2516515720,0.19891654,-0.060439248,0.3599251
2516528028,0.19297366,-0.037491996,0.34953785
2516539592,0.20783085,-0.046670895,0.3658607
2516551775,0.19148795,-0.04055163,0.3599251
2516563623,0.19743082,-0.022193829,0.34211835
2516575725,0.19000223,-0.022193829,0.34211835
2516587605,0.20188798,-0.04514108,0.35398954
2516599859,0.19297366,-0.046670895,0.34953785
2516611620,0.19148795,-0.043611266,0.34953785
2516635603,0.18405935,-0.0466709,0.34953785
2516647716,0.18703079,-0.043611266,0.34657004
2516671600,0.18257365,-0.028313097,0.35844123
2516683575,0.17663077,-0.0466709,0.34211835
2516707613,0.19594511,-0.03443236,0.34805393
2516719825,0.17663077,-0.049730532,0.34953785
2516731728,0.18703079,-0.043611266,0.3599251
2516755601,0.18405935,-0.037492,0.3554734
2516767710,0.19891654,-0.03443236,0.3599251
2516779620,0.19297366,-0.04973053,0.3599251
2516791497,0.18703079,-0.039021816,0.34953785
2516803583,0.19000223,-0.0466709,0.3510217
2516815478,0.17960219,-0.034432363,0.3510217
2516827622,0.20634513,-0.037491996,0.35844123
2516839614,0.19000223,-0.04055163,0.35844123
2516851590,0.19148795,-0.032902546,0.34953785
2516875588,0.18554509,-0.037492,0.34805393
2516887576,0.17960219,-0.04055163,0.3628929
2516911592,0.17960219,-0.025253465,0.3599251
2516923602,0.19148795,-0.037492,0.3599251
2516947613,0.18554509,-0.034432363,0.35844123
2516959822,0.19891654,-0.040551625,0.3510217
2516986247,0.18554509,-0.025253464,0.35398954
2516998766,0.19000223,-0.04055163,0.35398954
2517011469,0.18257365,-0.04055163,0.35844123
2517035336,0.18554509,-0.037492,0.3628929
2517048131,0.19148795,-0.037492,0.3510217
2517059579,0.18257365,-0.037492,0.34805393
2517083604,0.18703079,-0.022193829,0.3658607
2517096048,0.17960219,-0.045141082,0.3599251
2517159493,0.19148795,-0.03137273,0.35398954
2517186461,0.19000223,-0.045141082,0.3510217
2517199767,0.18257365,-0.045141082,0.35398954
2517211588,0.17663077,-0.049730532,0.34657004
2517223574,0.20337369,-0.05279016,0.34063447
2517235722,0.18405935,-0.049730532,0.34953785
2517259212,0.19594511,-0.04973053,0.34211835
2517271446,0.19148795,-0.032902546,0.34063447
2517283618,0.20040226,-0.043611262,0.3554734
2517307604,0.19594511,-0.046670895,0.35398954
2517319806,0.20040226,-0.046670895,0.33618277
2517331363,0.19594511,-0.031372726,0.33321497
2517355723,0.19891654,-0.03443236,0.34211835
2517379614,0.20337369,-0.029842911,0.3599251
2517392047,0.18703079,-0.049730532,0.3554734
2517403723,0.20040226,-0.032902543,0.3554734
2517439839,0.19743082,-0.026783278,0.3554734
2517451614,0.19148795,-0.0466709,0.3599251
2517463856,0.18108793,-0.039021816,0.33618277
2517475614,0.19148795,-0.04055163,0.34508616
2517488157,0.19148795,-0.037492,0.35398954
2517499576,0.19148795,-0.049730532,0.34657004
2517512269,0.19743082,-0.046670895,0.34657004
2517535844,0.19891654,-0.040551625,0.3599251
2517547710,0.18703079,-0.055849798,0.34063447
2517559816,0.19743082,-0.043611262,0.34953785
2517584295,0.21525945,-0.046670895,0.34508616
2517607835,0.18405935,-0.043611266,0.33618277
2517631719,0.19000223,-0.0466709,0.35398954
2517655727,0.19594511,-0.06655852,0.34805393
2517667592,0.19594511,-0.04514108,0.34508616
2517715599,0.18405935,-0.0650287,0.33618277
2517727810,0.20931657,-0.04973053,0.33321497
2517739709,0.18554509,-0.05431998,0.33321497
2517752069,0.18554509,-0.057379615,0.3287633
2517763611,0.18405935,-0.058909435,0.34211835
2517776035,0.19743082,-0.07267778,0.3554734
2517787620,0.19148795,-0.06043925,0.34805393
2517800183,0.19891654,-0.05737961,0.34211835
2517824032,0.1706879,-0.07573742,0.34657004
2517835583,0.19891654,-0.051260345,0.3628929
2517847828,0.20634513,-0.07114796,0.33915055
2517859583,0.18405935,-0.063498884,0.34211835
2517883574,0.18257365,-0.06043925,0.33915055
2517907609,0.20634513,-0.05737961,0.33915055
2517931620,0.19148795,-0.06961815,0.34657004
2517944121,0.19743082,-0.04973053,0.33173108
2517991812,0.19148795,-0.08185668,0.35398954
2518003584,0.19594511,-0.07114796,0.34805393
2518027625,0.1706879,-0.055849798,0.34211835
2518051576,0.19891654,-0.06655852,0.34508616
2518063903,0.19594511,-0.0650287,0.34508616
2518075611,0.19891654,-0.0650287,0.3510217
2518111731,0.19891654,-0.054319978,0.3346989
2518136349,0.19594511,-0.0650287,0.35844123
2518147736,0.19743082,-0.063498884,0.35250562
2518159728,0.19148795,-0.07267778,0.34657004
2518171726,0.18405935,-0.07573742,0.34953785
2518183849,0.19594511,-0.0650287,0.34508616
2518207843,0.18703079,-0.084916316,0.3554734
2518219593,0.19000223,-0.074207604,0.34211835
2518231721,0.18703079,-0.0650287,0.34953785
2518256098,0.18257365,-0.07726723,0.34508616
2518267597,0.18554509,-0.057379615,0.3346989
2518279718,0.19148795,-0.0650287,0.3272794
2518304153,0.19148795,-0.058909435,0.34953785
2518328037,0.18703079,-0.058909435,0.34953785
2518339141,0.19743082,-0.05890943,0.34657004
2518353976,0.19743082,-0.07573742,0.34657004
2518391523,0.19148795,-0.07267778,0.3554734
2518403220,0.19000223,-0.07726723,0.3599251
2518427587,0.19000223,-0.07726723,0.34805393
2518440188,0.18703079,-0.052790165,0.35250562
2518451713,0.19000223,-0.074207604,0.34508616
2518464272,0.1706879,-0.06961815,0.3554734
2518475609,0.17217362,-0.06043925,0.35398954
2518499242,0.19148795,-0.084916316,0.34063447
2518511728,0.18257365,-0.07114796,0.3510217
2518523621,0.19148795,-0.0650287,0.34063447
2518559615,0.18257365,-0.0650287,0.35398954
2518583752,0.19000223,-0.06655852,0.34508616
2518595730,0.17514506,-0.07114796,0.3510217
2518619609,0.17960219,-0.07726723,0.3599251
2518655618,0.17960219,-0.07726723,0.34211835
2518667724,0.19000223,-0.06043925,0.34211835
2518679730,0.16771646,-0.083386496,0.34657004
2518703852,0.16920218,-0.0650287,0.3599251
2518727607,0.17663077,-0.07267778,0.34953785
2518751899,0.17514506,-0.074207604,0.3599251
2518776291,0.18108793,-0.07573742,0.34063447
2518787595,0.17663077,-0.07267778,0.36734456
2518802255,0.17365932,-0.0650287,0.35250562
2518827588,0.17663077,-0.07573742,0.361409
2518839774,0.19148795,-0.074207604,0.34211835
2518851607,0.17217362,-0.0650287,0.3599251
2518875708,0.17217362,-0.06043925,0.34508616
2518887806,0.18257365,-0.07114796,0.3599251
2518899585,0.18257365,-0.05431998,0.3599251
2518923592,0.1632593,-0.08185668,0.37328017
2518935732,0.18108793,-0.063498884,0.3554734
2518947613,0.16028787,-0.0650287,0.34953785
2518959730,0.16771646,-0.0650287,0.3554734
2518984296,0.16474503,-0.07267778,0.3554734
2518995611,0.17365932,-0.049730532,0.34953785
2519022537,0.17514506,-0.0650287,0.35398954
2519059056,0.18405935,-0.07267778,0.34953785
2519083122,0.16920218,-0.06655852,0.35398954
2519095714,0.16771646,-0.06961815,0.3599251
2519107599,0.15880215,-0.06655852,0.34211835
2519119581,0.1706879,-0.06961815,0.34657004
2519131577,0.18405935,-0.07573742,0.34063447
2519155590,0.17217362,-0.0650287,0.34805393
2519167846,0.15880215,-0.06655852,0.34211835
2519179582,0.17663077,-0.055849798,0.34211835
2519203709,0.18554509,-0.057379615,0.36734456
2519227718,0.16028787,-0.083386496,0.3554734
2519239457,0.17365932,-0.055849798,0.35250562
2519251620,0.17514506,-0.05431998,0.3599251
2519275595,0.18257365,-0.057379615,0.34211835
2519287736,0.16920218,-0.06655852,0.35398954
2519299752,0.16474503,-0.06043925,0.34805393
2519323591,0.17663077,-0.06961815,0.34657004
2519335726,0.18703079,-0.063498884,0.35250562
2519347244,0.17514506,-0.057379615,0.3510217
2519359473,0.17217362,-0.06655852,0.35844123
2519386313,0.19148795,-0.0650287,0.3510217
2519410150,0.18108793,-0.063498884,0.34657004
2519423243,0.18405935,-0.063498884,0.35250562
2519447201,0.19000223,-0.057379615,0.35844123
2519458223,0.16920218,-0.083386496,0.34805393
2519471372,0.18108793,-0.058909435,0.361409
2519483325,0.18108793,-0.06961815,0.3554734
2519496230,0.17514506,-0.057379615,0.3628929
2519507647,0.16474503,-0.058909435,0.3554734
2519520315,0.16771646,-0.052790165,0.35250562
2519531621,0.1706879,-0.063498884,0.361409
2519544259,0.17514506,-0.06655852,0.3510217
2519556233,0.16474503,-0.057379615,0.3510217
2519568590,0.16920218,-0.0650287,0.3599251
2519580960,0.1706879,-0.0466709,0.34953785
2519595876,0.18108793,-0.055849798,0.361409
2519609849,0.19148795,-0.063498884,0.3599251
2519621771,0.16920218,-0.06043925,0.3510217
2519633683,0.19000223,-0.05126035,0.34508616
2519681749,0.18257365,-0.057379615,0.35398954
2519693646,0.16474503,-0.055849798,0.34063447
2519705795,0.17217362,-0.0650287,0.35844123
2519717687,0.19000223,-0.06043925,0.3599251
2519729726,0.19594511,-0.03443236,0.34805393
2519741732,0.1706879,-0.052790165,0.3658607
2519753645,0.17365932,-0.052790165,0.34953785
2519777728,0.18703079,-0.063498884,0.3599251
2519789771,0.18405935,-0.0466709,0.34211835
2519803825,0.17365932,-0.063498884,0.35250562
2519817632,0.16920218,-0.06655852,0.3599251
2519828635,0.17960219,-0.0466709,0.34508616
2519852871,0.18108793,-0.049730532,0.33618277
2519877640,0.17960219,-0.057379615,0.3628929
2519889834,0.19000223,-0.06655852,0.35844123
2519901643,0.18554509,-0.045141082,0.35398954
2519913799,0.18405935,-0.055849798,0.34657004
2519948843,0.17217362,-0.0466709,0.34211835
2519961724,0.18554509,-0.05126035,0.34805393
2519973752,0.17365932,-0.063498884,0.34953785
2519996971,0.17217362,-0.06655852,0.34805393
2520009663,0.19000223,-0.05431998,0.34805393
2520021779,0.16920218,-0.0466709,0.34805393
2520044963,0.18554509,-0.05431998,0.3510217
2520057360,0.18108793,-0.052790165,0.3554734
2520068730,0.17960219,-0.057379615,0.35844123
2520081319,0.18257365,-0.06655852,0.35844123
2520129409,0.19000223,-0.06043925,0.34508616
2520153418,0.18405935,-0.0466709,0.33618277
2520165720,0.17663077,-0.052790165,0.34657004
2520180033,0.17514506,-0.0466709,0.3510217
2520193161,0.19148795,-0.05431998,0.35398954
2520205058,0.17365932,-0.0466709,0.3554734
2520217121,0.17365932,-0.0466709,0.3599251
2520229039,0.18257365,-0.06043925,0.3599251
2520241175,0.17217362,-0.045141082,0.35398954
2520252955,0.1706879,-0.049730532,0.361409
2520277806,0.17514506,-0.0466709,0.35844123
2520289321,0.18257365,-0.0466709,0.34508616
2520300980,0.18703079,-0.049730532,0.3599251
2520324733,0.18257365,-0.05126035,0.3599251
2520337141,0.17217362,-0.045141082,0.3628929
2520348842,0.18108793,-0.049730532,0.35250562
2520372643,0.18405935,-0.0466709,0.34657004
2520400835,0.18554509,-0.037492,0.34805393
2520412771,0.1706879,-0.052790165,0.37179625
2520427723,0.17960219,-0.05126035,0.35844123
2520441099,0.17960219,-0.037492,0.3599251
2520452702,0.18405935,-0.052790165,0.3554734
2520465053,0.18257365,-0.037492,0.35398954
2520476688,0.19148795,-0.045141082,0.35398954
2520500959,0.16474503,-0.055849798,0.34953785
2520513221,0.18405935,-0.037492,0.3599251
2520525004,0.18554509,-0.04055163,0.34805393
2520548961,0.18405935,-0.039021816,0.3554734
2520561188,0.19000223,-0.0466709,0.3510217
2520572731,0.19594511,-0.051260345,0.3599251
2520596992,0.19297366,-0.05890943,0.34953785
2520620672,0.19000223,-0.05126035,0.3510217
2520633106,0.18703079,-0.039021816,0.37476408
2520644988,0.18257365,-0.05126035,0.35398954
2520681705,0.18703079,-0.0466709,0.34953785
2520705780,0.17663077,-0.055849798,0.35250562
2520716924,0.19743082,-0.04973053,0.34953785
2520740853,0.19148795,-0.043611266,0.3554734
2520753460,0.18108793,-0.043611266,0.34211835
2520777121,0.19891654,-0.040551625,0.3510217
2520788990,0.19148795,-0.049730532,0.361409
2520803796,0.19891654,-0.040551625,0.34508616
2520817360,0.18257365,-0.04055163,0.34508616
2520841461,0.19000223,-0.0466709,0.3510217
2520853638,0.19000223,-0.04055163,0.3599251
2520865752,0.19594511,-0.051260345,0.33915055
2520876673,0.20040226,-0.043611262,0.34657004
2520889438,0.19297366,-0.039021812,0.34953785
2520901038,0.20337369,-0.037491996,0.35250562
2520913518,0.19594511,-0.054319978,0.34508616
2520925379,0.19891654,-0.046670895,0.35398954
2520949748,0.19743082,-0.037491996,0.3554734
2520973730,0.19148795,-0.058909435,0.33321497
2520997667,0.20783085,-0.04973053,0.34063447
2521010574,0.19148795,-0.058909435,0.33173108
2521024182,0.20188798,-0.046670895,0.34508616
2521048259,0.19148795,-0.049730532,0.33321497
2521060805,0.19891654,-0.04973053,0.34508616
2521073062,0.19743082,-0.05890943,0.34657004
2521084992,0.20188798,-0.04514108,0.34211835
2521097533,0.20040226,-0.037491996,0.34211835
2521121843,0.19891654,-0.054319978,0.3346989
2521133769,0.20040226,-0.05890943,0.34211835
2521145761,0.20931657,-0.046670895,0.35398954
2521169441,0.20931657,-0.074207604,0.34211835
2521180901,0.19148795,-0.06043925,0.34508616
2521193450,0.20337369,-0.046670895,0.34063447
2521228733,0.18257365,-0.045141082,0.34211835
2521241062,0.20188798,-0.054319978,0.3346989
2521253072,0.21377371,-0.06502869,0.34211835
2521265054,0.19743082,-0.05890943,0.34657004
2521289648,0.21823087,-0.08338649,0.3510217
2521301053,0.19594511,-0.046670895,0.34805393
2521313120,0.19297366,-0.043611262,0.33618277
2521325004,0.21377371,-0.046670895,0.34657004
2521337052,0.19891654,-0.05737961,0.34508616
2521348998,0.21525945,-0.040551625,0.3510217
2521361095,0.212288,-0.054319978,0.3510217
2521372807,0.19000223,-0.05431998,0.34508616
2521387809,0.19000223,-0.05431998,0.34805393
2521401328,0.18554509,-0.057379615,0.34508616
2521412840,0.19148795,-0.049730532,0.3554734
2521425341,0.18257365,-0.057379615,0.33915055
2521449319,0.18257365,-0.05126035,0.35844123
2521460878,0.18108793,-0.055849798,0.361409
2521499800,0.18257365,-0.05126035,0.35398954
2521512293,0.20040226,-0.063498884,0.3272794
2521524944,0.20040226,-0.043611262,0.35250562
2521537167,0.21525945,-0.054319978,0.35398954
2521548975,0.20634513,-0.0650287,0.34805393
2521561172,0.20634513,-0.054319978,0.3346989
2521572932,0.19891654,-0.04514108,0.34805393
2521587920,0.20188798,-0.074207604,0.34508616
2521600570,0.19891654,-0.04514108,0.33915055
2521612974,0.19148795,-0.0466709,0.33321497
2521625054,0.19594511,-0.040551625,0.34508616
2521636873,0.19891654,-0.04514108,0.35398954
2521649152,0.19148795,-0.055849798,0.34211835
2521673103,0.19297366,-0.05279016,0.33618277
2521697641,0.19594511,-0.051260345,0.34508616
2521721798,0.18405935,-0.055849798,0.361409
2521745776,0.18405935,-0.039021816,0.3599251
2521757730,0.18554509,-0.045141082,0.35398954
2521769754,0.18405935,-0.039021816,0.35250562
2521793752,0.19891654,-0.05737961,0.34805393
2521805743,0.19297366,-0.04973053,0.35250562
2521819584,0.20188798,-0.046670895,0.34805393
2521843762,0.18703079,-0.049730532,0.3658607
2521856960,0.20188798,-0.037491996,0.3510217
2521868828,0.19743082,-0.055849794,0.34953785
2521892835,0.212288,-0.06655852,0.34508616
2521905159,0.19000223,-0.037492,0.34508616
2521916666,0.20040226,-0.05279016,0.33618277
2521929329,0.20040226,-0.055849794,0.33618277
2521964930,0.18405935,-0.043611266,0.34657004
2521979765,0.19297366,-0.043611262,0.34953785
2521992416,0.20783085,-0.05279016,0.33618277
2522016635,0.20188798,-0.040551625,0.3599251
2522028834,0.18554509,-0.0466709,0.34805393
2522041631,0.20783085,-0.055849794,0.3554734
2522065761,0.19594511,-0.031372726,0.35844123
2522077640,0.19148795,-0.05126035,0.34805393
2522089854,0.19000223,-0.05431998,0.34508616
2522100775,0.19000223,-0.034432363,0.34508616
2522125059,0.20188798,-0.05737961,0.34211835
2522148837,0.19148795,-0.028313097,0.35398954
2522172735,0.19297366,-0.046670895,0.33173108
2522185494,0.18703079,-0.052790165,0.34211835
2522196699,0.20783085,-0.055849794,0.33618277
2522209364,0.20931657,-0.046670895,0.3554734
2522220920,0.18405935,-0.039021816,0.34953785
2522233457,0.18703079,-0.039021816,0.3599251
2522244832,0.21377371,-0.05279016,0.33618277
2522269760,0.19000223,-0.04055163,0.3510217
2522292732,0.18554509,-0.05126035,0.34805393
2522305502,0.19743082,-0.039021812,0.34953785
2522316728,0.19000223,-0.03137273,0.34805393
2522341043,0.19000223,-0.034432363,0.34805393
2522365751,0.18257365,-0.045141082,0.34508616
2522388731,0.18554509,-0.045141082,0.3510217
2522412636,0.20188798,-0.05737961,0.34211835
2522425496,0.19891654,-0.040551625,0.3510217
2522436854,0.19297366,-0.040551625,0.35250562
2522449325,0.19297366,-0.046670895,0.35250562
2522460872,0.19148795,-0.037492,0.34657004
2522521429,0.20634513,-0.037491996,0.34805393
2522545653,0.20040226,-0.026783278,0.33618277
2522569452,0.20188798,-0.051260345,0.35398954
2522580930,0.19743082,-0.039021812,0.361409
2522641895,0.19297366,-0.046670895,0.35250562
2522653753,0.18257365,-0.057379615,0.33915055
2522665766,0.18703079,-0.037492,0.33618277
2522691583,0.20188798,-0.037491996,0.35844123
2522704259,0.19743082,-0.037491996,0.34953785
2522715786,0.17217362,-0.034432363,0.3510217
2522740922,0.18554509,-0.06655852,0.3599251
2522753189,0.19000223,-0.045141082,0.33915055
2522804995,0.19148795,-0.058909435,0.361409
2522817044,0.19594511,-0.04514108,0.34805393
2522828705,0.18257365,-0.037492,0.34211835
2522841019,0.19148795,-0.045141082,0.3599251
2522865086,0.18703079,-0.037492,0.33173108
2522876653,0.18703079,-0.043611266,0.34211835
2522913645,0.18405935,-0.0466709,0.3599251
2522925057,0.19000223,-0.0466709,0.3510217
2522937609,0.19148795,-0.052790165,0.34211835
2522961638,0.18554509,-0.045141082,0.34805393
2522973698,0.19297366,-0.055849794,0.361409
2522985843,0.19148795,-0.049730532,0.34953785
2522996875,0.19148795,-0.045141082,0.3599251
2523009444,0.18703079,-0.055849798,0.34657004
2523034556,0.18405935,-0.052790165,0.33618277
2523045750,0.18257365,-0.0466709,0.36734456
2523058169,0.1706879,-0.0466709,0.34211835
2523094656,0.18257365,-0.03137273,0.3510217
2523107053,0.17365932,-0.058909435,0.3554734
2523118626,0.18554509,-0.04055163,0.34211835
2523130915,0.20634513,-0.054319978,0.35398954
2523142621,0.18257365,-0.06043925,0.3510217
2523155383,0.19743082,-0.05279016,0.34211835
2523166617,0.20337369,-0.05890943,0.35250562
2523193756,0.17663077,-0.049730532,0.35250562
2523206432,0.19148795,-0.0466709,0.34657004
2523218910,0.18554509,-0.05126035,0.3510217
2523242922,0.18554509,-0.0466709,0.35398954
2523254669,0.18703079,-0.0466709,0.34657004
2523278617,0.19000223,-0.05126035,0.34508616
2523314855,0.19148795,-0.049730532,0.3599251
2523326634,0.17663077,-0.058909435,0.35250562
2523338780,0.20783085,-0.06961815,0.34657004
2523362770,0.20040226,-0.046670895,0.34657004
2523374651,0.19891654,-0.07114796,0.33915055
2523386642,0.19000223,-0.0650287,0.3599251
2523410649,0.20188798,-0.06655852,0.34211835
2523434691,0.19000223,-0.057379615,0.35844123
2523446686,0.19000223,-0.06043925,0.3599251
2523483245,0.19743082,-0.055849794,0.34211835
2523494659,0.19148795,-0.058909435,0.3599251
2523507014,0.19148795,-0.06043925,0.34211835
2523530921,0.20931657,-0.060439248,0.3346989
2523555116,0.20040226,-0.055849794,0.34063447
2523593961,0.20337369,-0.0650287,0.34063447
2523618216,0.20337369,-0.063498884,0.361409
2523629361,0.20337369,-0.063498884,0.34063447
2523642228,0.19297366,-0.07573742,0.34063447
2523654326,0.20040226,-0.07573742,0.33321497
2523667621,0.20931657,-0.05890943,0.34657004
2523679584,0.19148795,-0.0650287,0.34211835
2523693307,0.20634513,-0.074207604,0.33321497
2523705719,0.20337369,-0.063498884,0.33321497
2523718526,0.19297366,-0.06961815,0.33618277
2523730630,0.19891654,-0.060439248,0.33321497
2523742641,0.19891654,-0.06655852,0.33321497
2523766644,0.20931657,-0.06961815,0.34211835
2523793895,0.20634513,-0.06655852,0.3228277
2523806475,0.20337369,-0.07267778,0.34657004
2523830706,0.19000223,-0.083386496,0.33915055
2523892221,0.20931658,-0.08950577,0.33173108
2523915574,0.20634513,-0.07114796,0.34805393
2523926709,0.21377371,-0.06502869,0.33618277
2523938918,0.19297366,-0.07573742,0.33173108
2523950671,0.20188798,-0.07726723,0.33321497
2523987355,0.19000223,-0.06655852,0.3287633
2523998712,0.19743082,-0.07573742,0.34657004
2524010930,0.18257365,-0.06655852,0.3510217
2524035059,0.19891655,-0.09103558,0.34508616
2524046662,0.20931657,-0.084916316,0.34953785
2524059156,0.20634513,-0.06655852,0.34211835
2524083240,0.19891654,-0.083386496,0.33321497
2524109319,0.19000223,-0.0650287,0.35398954
2524121820,0.19891654,-0.074207604,0.33915055
2524173415,0.19594511,-0.08185668,0.34211835
2524187121,0.19148795,-0.07726723,0.34211835
2524210585,0.19297366,-0.06961815,0.3554734
2524222715,0.18405935,-0.084916316,0.34211835
2524234732,0.18703079,-0.07573742,0.33618277
2524270659,0.19891654,-0.07114796,0.35398954
2524283066,0.19891654,-0.074207604,0.3510217
2524306918,0.18257365,-0.06655852,0.34805393
2524330963,0.17365932,-0.07879704,0.3599251
2524342306,0.18703079,-0.06961815,0.3554734
2524357215,0.17663077,-0.07573742,0.34953785
2524382328,0.18554509,-0.06043925,0.35398954
2524393813,0.17663077,-0.063498884,0.3599251
2524406330,0.18257365,-0.05431998,0.35844123
2524430321,0.16771646,-0.063498884,0.34953785
2524442736,0.16771646,-0.058909435,0.34657004
2524454653,0.1706879,-0.058909435,0.35250562
2524467008,0.1706879,-0.0466709,0.35250562
2524478649,0.16474503,-0.05431998,0.34508616
2524502710,0.17514506,-0.06043925,0.34211835
2524526759,0.16920218,-0.0650287,0.3599251
2524563255,0.16474503,-0.0466709,0.35398954
2524587114,0.16920218,-0.057379615,0.3599251
2524598601,0.16920218,-0.06043925,0.36882848
2524622672,0.17217362,-0.0650287,0.36882848
2524635094,0.17365932,-0.052790165,0.37773186
2524658703,0.1469164,-0.07114796,0.37624794
2524670712,0.14245926,-0.051260352,0.3628929
2524682725,0.15434499,-0.052790165,0.3658607
2524706951,0.14840212,-0.054319985,0.36734456
2524731043,0.15434499,-0.055849798,0.37476408
2524755110,0.14394496,-0.063498884,0.37476408
2524781537,0.14394496,-0.049730536,0.36882848
2524795029,0.16920218,-0.057379615,0.37328017
2524843007,0.14097354,-0.046670903,0.37179625
2524854668,0.1469164,-0.05279017,0.3599251
2524878556,0.14394496,-0.04361127,0.37773186
2524891049,0.14394496,-0.04361127,0.37476408
2524902680,0.15434499,-0.052790165,0.37476408
2524950647,0.14988784,-0.052790165,0.3658607
2524963055,0.14840212,-0.054319985,0.37624794
2524974693,0.15285929,-0.05431998,0.3599251
2525001726,0.1469164,-0.051260352,0.37921575
2525013490,0.14988784,-0.049730532,0.37179625
2525025986,0.13057351,-0.0558498,0.37179625
2525038540,0.1380021,-0.045141086,0.36882848
2525051068,0.14840212,-0.054319985,0.36882848
2525062311,0.14840212,-0.054319985,0.37328017
2525074677,0.13354494,-0.05279017,0.37179625
2525110652,0.14245926,-0.046670903,0.37328017
2525123080,0.14840212,-0.045141086,0.37328017
2525134599,0.13354494,-0.04361127,0.3658607
2525158650,0.14394496,-0.05279017,0.361409
2525173184,0.14840212,-0.046670903,0.36734456
2525198390,0.1380021,-0.05890944,0.37179625
2525222720,0.14840212,-0.051260352,0.37328017
2525235363,0.14988784,-0.0466709,0.37179625
2525246642,0.1469164,-0.05279017,0.36882848
2525259139,0.14245926,-0.054319985,0.36882848
2525270686,0.14840212,-0.034432366,0.36734456
2525283104,0.16028787,-0.049730532,0.361409
2525294586,0.14394496,-0.049730536,0.38069963
2525307124,0.16920218,-0.045141082,0.37328017
2525330957,0.15434499,-0.063498884,0.36882848
2525342651,0.15434499,-0.052790165,0.36882848
2525355098,0.1632593,-0.037492,0.3628929
2525366736,0.15880215,-0.0466709,0.3599251
2525394262,0.14097354,-0.03902182,0.36882848
2525405532,0.1380021,-0.04361127,0.37476408
2525418560,0.14840212,-0.031372733,0.36882848
2525430715,0.14988784,-0.0466709,0.3599251
2525443418,0.1380021,-0.037492003,0.37476408
2525467095,0.16474503,-0.0466709,0.35844123
2525514964,0.1469164,-0.037492003,0.3658607
2525526660,0.15583073,-0.0283131,0.37328017
2525550650,0.15731643,-0.037492,0.37179625
2525574931,0.15434499,-0.029842917,0.37179625
2525587100,0.15880215,-0.037492,0.37328017
2525598684,0.17365932,-0.037492,0.361409
2525622654,0.15583073,-0.034432363,0.38663524
2525635131,0.14840212,-0.0283131,0.36734456
2525646658,0.15880215,-0.0283131,0.3599251
2525658638,0.15434499,-0.049730532,0.3658607
2525670652,0.16920218,-0.037492,0.36882848
2525683129,0.17217362,-0.025253465,0.37624794
2525694667,0.16474503,-0.02678328,0.37476408
2525730661,0.16474503,-0.045141082,0.36882848
2525742715,0.16028787,-0.043611266,0.37179625
2525755219,0.15583073,-0.04055163,0.35844123
2525779009,0.1632593,-0.037492,0.37328017
2525790618,0.17663077,-0.037492,0.3658607
2525805359,0.16474503,-0.029842915,0.37476408
2525818252,0.15880215,-0.020664016,0.3628929
2525830246,0.1632593,-0.028313098,0.3628929
2525843373,0.16028787,-0.0466709,0.361409
2525854615,0.15731643,-0.039021816,0.3599251
2525867240,0.16028787,-0.039021816,0.37476408
2525878633,0.1469164,-0.046670903,0.37624794
2525902699,0.16474503,-0.045141082,0.36734456
2525929746,0.16771646,-0.039021816,0.37179625
2525954125,0.15731643,-0.043611266,0.361409
2525965356,0.16028787,-0.049730532,0.3599251
2526005393,0.16771646,-0.052790165,0.36882848
2526017747,0.17960219,-0.05431998,0.36734456
2526029359,0.17514506,-0.05431998,0.3628929
2526041973,0.17514506,-0.04055163,0.3628929
2526054483,0.17514506,-0.05126035,0.3599251
2526066940,0.1632593,-0.0466709,0.3510217
2526078696,0.17960219,-0.057379615,0.3599251
2526091008,0.16920218,-0.0466709,0.3599251
2526102735,0.18554509,-0.045141082,0.3599251
2526126658,0.16474503,-0.05431998,0.35844123
2526139006,0.16474503,-0.055849798,0.361409
2526198653,0.16474503,-0.05126035,0.3599251
2526211413,0.1706879,-0.049730532,0.3599251
2526222619,0.1706879,-0.063498884,0.361409
2526246679,0.1706879,-0.055849798,0.3554734
2526259393,0.15434499,-0.043611266,0.361409
2526270727,0.1706879,-0.063498884,0.35250562
2526294612,0.1706879,-0.058909435,0.3599251
2526307331,0.16920218,-0.034432363,0.37624794
2526318649,0.17217362,-0.05431998,0.3599251
2526331237,0.18405935,-0.055849798,0.361409
2526355007,0.16474503,-0.052790165,0.36882848
2526381331,0.17365932,-0.043611266,0.34211835
2526393972,0.16771646,-0.052790165,0.34953785
2526418770,0.1706879,-0.0466709,0.3658607
2526430651,0.19148795,-0.049730532,0.3599251
2526442808,0.17217362,-0.045141082,0.3599251
2526466648,0.17217362,-0.0466709,0.3628929
2526479345,0.16920218,-0.0466709,0.3599251
2526490528,0.18108793,-0.039021816,0.35250562
2526503302,0.16771646,-0.039021816,0.3599251
2526514633,0.16920218,-0.0466709,0.35844123
2526527611,0.18405935,-0.0466709,0.3658607
2526552839,0.17365932,-0.043611266,0.35250562
2526564708,0.18108793,-0.0466709,0.34953785
2526592399,0.17514506,-0.045141082,0.3599251
2526604169,0.16920218,-0.06043925,0.35250562
2526616199,0.18405935,-0.055849798,0.35250562
2526640323,0.19000223,-0.06043925,0.3628929
2526652011,0.18257365,-0.057379615,0.3628929
2526664524,0.17960219,-0.057379615,0.35398954
2526676150,0.17365932,-0.055849798,0.361409
2526688404,0.17217362,-0.057379615,0.35844123
2526700042,0.16771646,-0.055849798,0.35250562
2526712654,0.17365932,-0.052790165,0.35250562
2526723947,0.17217362,-0.0466709,0.35398954
2526748315,0.18703079,-0.049730532,0.3599251
2526760273,0.17217362,-0.0466709,0.3599251
2526772005,0.17514506,-0.05126035,0.3510217
2526796221,0.1706879,-0.049730532,0.3658607
2526808423,0.1706879,-0.049730532,0.36734456
2526820018,0.18257365,-0.06043925,0.36734456
2526832333,0.17663077,-0.049730532,0.3658607
2526844094,0.19148795,-0.043611266,0.3658607
2526868006,0.18108793,-0.063498884,0.34211835
2526880653,0.18257365,-0.0466709,0.35844123
2526892022,0.16920218,-0.05126035,0.36734456
2526916619,0.17960219,-0.05431998,0.3628929
2526928847,0.16771646,-0.052790165,0.35250562
2526940669,0.18405935,-0.058909435,0.3554734
2526952629,0.17217362,-0.0650287,0.3599251
2526964656,0.19297366,-0.043611262,0.36882848
2526979046,0.18405935,-0.055849798,0.35250562
2526991858,0.17217362,-0.05431998,0.3510217
2527042957,0.17663077,-0.0466709,0.34953785
2527055276,0.17365932,-0.055849798,0.3658607
2527068021,0.17514506,-0.05431998,0.36882848
2527092046,0.17217362,-0.057379615,0.34805393
2527104540,0.17960219,-0.057379615,0.34805393
2527116650,0.17365932,-0.052790165,0.3599251
2527140041,0.17663077,-0.055849798,0.361409
2527152616,0.17217362,-0.06043925,0.3599251
2527163932,0.18257365,-0.05126035,0.3510217
2527178959,0.18554509,-0.0650287,0.34805393
2527191345,0.17663077,-0.055849798,0.35250562
2527204236,0.19148795,-0.058909435,0.35250562
2527228169,0.17960219,-0.05431998,0.3599251
2527240520,0.17663077,-0.043611266,0.34211835
2527264568,0.16771646,-0.063498884,0.34953785
2527288626,0.19297366,-0.055849794,0.36882848
2527324669,0.17663077,-0.0650287,0.3554734
2527348621,0.19594511,-0.05737961,0.35844123
2527360732,0.18703079,-0.055849798,0.3599251
2527387108,0.18554509,-0.057379615,0.3510217
2527400128,0.19297366,-0.0650287,0.3554734
2527412186,0.19297366,-0.05890943,0.34211835
2527436617,0.18257365,-0.06655852,0.34805393
2527448636,0.18554509,-0.074207604,0.3510217
2527460057,0.17365932,-0.058909435,0.35250562
2527472375,0.18703079,-0.055849798,0.34211835
2527484156,0.18703079,-0.055849798,0.34953785
2527496644,0.17663077,-0.063498884,0.361409
2527520736,0.19148795,-0.05126035,0.3628929
2527532669,0.18108793,-0.058909435,0.3658607
2527556626,0.18554509,-0.07114796,0.35844123
2527568663,0.18554509,-0.05126035,0.3510217
2527592680,0.18108793,-0.058909435,0.34953785
2527604611,0.18405935,-0.058909435,0.33321497
2527616613,0.19148795,-0.0650287,0.34211835
2527640612,0.18108793,-0.07267778,0.3554734
2527664726,0.17960219,-0.06655852,0.34805393
2527676677,0.17514506,-0.074207604,0.3628929
2527688646,0.19743082,-0.055849794,0.36882848
2527712654,0.17663077,-0.07879704,0.34657004
2527724616,0.19148795,-0.07114796,0.33915055
2527737086,0.17365932,-0.055849798,0.34657004
2527760988,0.17960219,-0.0650287,0.3599251
2527772671,0.17960219,-0.06655852,0.36882848
2527795937,0.18405935,-0.063498884,0.3554734
2527808398,0.17960219,-0.074207604,0.34508616
2527832629,0.19000223,-0.07726723,0.34805393
2527868220,0.18108793,-0.058909435,0.34063447
2527880247,0.1706879,-0.07267778,0.34211835
2527892181,0.15583073,-0.08185668,0.34805393
2527904416,0.18405935,-0.084916316,0.34211835
2527916138,0.19148795,-0.06961815,0.34953785
2527940253,0.16920218,-0.07114796,0.35398954
2527952408,0.16920218,-0.06655852,0.3510217
2527964079,0.18108793,-0.063498884,0.3599251
2527991857,0.18405935,-0.07879704,0.37179625
2528003898,0.17365932,-0.083386496,0.34953785
2528016303,0.16028787,-0.055849798,0.35250562
2528052667,0.16920218,-0.074207604,0.35398954
2528064737,0.16920218,-0.07114796,0.3628929
2528076739,0.16920218,-0.074207604,0.36882848
2528088727,0.18405937,-0.08950577,0.361409
2528112732,0.16028787,-0.07573742,0.3554734
2528124309,0.16474503,-0.05431998,0.3628929
2528136850,0.15583073,-0.057379615,0.34211835
2528160697,0.17663077,-0.058909435,0.37476408
2528171919,0.15285929,-0.06043925,0.3599251
2528184542,0.17663077,-0.063498884,0.3599251
2528220680,0.15434499,-0.055849798,0.3658607
2528247318,0.15880215,-0.07114796,0.3628929
2528258973,0.1380021,-0.046670903,0.36734456
2528284058,0.15880215,-0.05431998,0.36734456
2528296976,0.15583073,-0.0466709,0.3599251
2528308152,0.1632593,-0.06043925,0.38218355
2528332684,0.16474503,-0.0650287,0.37179625
2528344856,0.15434499,-0.063498884,0.361409
2528355882,0.15880215,-0.0650287,0.35844123
2528368661,0.16474503,-0.0466709,0.37921575
2528380640,0.15285929,-0.05431998,0.37328017
2528392274,0.1380021,-0.051260352,0.37921575
2528416553,0.16474503,-0.063498884,0.38069963
2528440650,0.14245926,-0.05737962,0.36734456
2528452227,0.1469164,-0.0650287,0.37476408
2528488650,0.15285929,-0.06043925,0.37624794
2528512736,0.15434499,-0.055849798,0.37179625
2528524644,0.14840212,-0.045141086,0.36734456
2528538932,0.1469164,-0.0558498,0.37179625
2528564135,0.16474503,-0.057379615,0.3599251
2528579008,0.16771646,-0.06961815,0.3658607
2528592325,0.15434499,-0.049730532,0.3658607
2528604189,0.14988784,-0.058909435,0.361409
2528616172,0.14988784,-0.058909435,0.36882848
2528627946,0.1706879,-0.049730532,0.37773186
2528640567,0.1632593,-0.05431998,0.35844123
2528664395,0.14988784,-0.0650287,0.38069963
2528675913,0.15583073,-0.05431998,0.35398954
2528688165,0.14988784,-0.07267778,0.36882848
2528713024,0.15583073,-0.07114796,0.35398954
2528724819,0.16474503,-0.057379615,0.3510217
2528748698,0.15583073,-0.05431998,0.3599251
2528760641,0.16771646,-0.058909435,0.36882848
2528784523,0.16474503,-0.05431998,0.35398954
2528795955,0.17514506,-0.06655852,0.3599251
2528808290,0.15434499,-0.052790165,0.34657004
2528832308,0.16771646,-0.058909435,0.361409
2528843940,0.17365932,-0.049730532,0.3554734
2528856283,0.18108793,-0.052790165,0.3599251
2528868069,0.17514506,-0.0650287,0.34508616
2528880243,0.18108793,-0.06961815,0.34657004
2528892062,0.17514506,-0.07114796,0.35398954
2528904293,0.17663077,-0.055849798,0.3599251
2528916221,0.17514506,-0.06043925,0.36734456
2528928525,0.17663077,-0.055849798,0.34657004
2528963953,0.17217362,-0.057379615,0.3599251
2528976200,0.17365932,-0.063498884,0.34657004
2528988056,0.1632593,-0.06043925,0.34211835
2529000554,0.18554509,-0.0650287,0.34508616
2529011844,0.17663077,-0.063498884,0.361409
2529024663,0.19000223,-0.05431998,0.34805393
2529036642,0.19148795,-0.057379615,0.35844123
2529060000,0.18257365,-0.06043925,0.35398954
2529072270,0.16771646,-0.055849798,0.34953785
2529084217,0.18257365,-0.0650287,0.3628929
2529108006,0.17960219,-0.06043925,0.36734456
2529144552,0.17365932,-0.0650287,0.3599251
2529155887,0.1632593,-0.05126035,0.34508616
2529180011,0.17514506,-0.06043925,0.3599251
2529192279,0.19594511,-0.0650287,0.34805393
2529204043,0.17960219,-0.05126035,0.34508616
2529240975,0.17663077,-0.055849798,0.3599251
2529264947,0.17960219,-0.045141082,0.3599251
2529276662,0.18405935,-0.052790165,0.361409
2529288526,0.17365932,-0.058909435,0.36882848
2529300018,0.17960219,-0.06043925,0.35844123
2529313065,0.16920218,-0.057379615,0.35844123
2529336839,0.17663077,-0.063498884,0.34657004
2529348692,0.17960219,-0.057379615,0.3599251
2529360639,0.17217362,-0.07114796,0.36734456
2529372012,0.17960219,-0.0650287,0.3599251
2529384627,0.17217362,-0.06655852,0.3628929
2529408260,0.18257365,-0.0650287,0.35398954
2529419844,0.16028787,-0.084916316,0.3658607
2529456666,0.18108793,-0.055849798,0.361409
2529468654,0.1706879,-0.07267778,0.36734456
2529480643,0.17960219,-0.0650287,0.34805393
2529504721,0.17663077,-0.07573742,0.3599251
2529515938,0.17514506,-0.07114796,0.3599251
2529529097,0.17365932,-0.07267778,0.3554734
2529540139,0.16771646,-0.06961815,0.361409
2529552818,0.18554509,-0.07726723,0.3510217
2529578972,0.17365932,-0.07879704,0.34657004
2529591831,0.16474503,-0.05431998,0.34805393
2529604083,0.18108793,-0.0466709,0.3658607
2529628032,0.18108793,-0.0650287,0.3658607
2529640841,0.17663077,-0.0650287,0.3599251
2529652738,0.18108793,-0.0650287,0.35250562
2529676652,0.18257365,-0.06043925,0.35398954
2529700175,0.17365932,-0.06961815,0.3554734
2529712921,0.18405935,-0.0650287,0.3599251
2529724638,0.19148795,-0.057379615,0.3599251
2529748306,0.1706879,-0.063498884,0.3554734
2529760637,0.17960219,-0.06043925,0.3510217
2529772687,0.18703079,-0.07573742,0.34953785
2529784644,0.17217362,-0.07114796,0.3510217
2529796636,0.18257365,-0.0650287,0.35844123
2529808834,0.19148795,-0.0650287,0.3599251
2529820750,0.18703079,-0.058909435,0.35250562
2529832845,0.16920218,-0.0650287,0.35844123
2529856733,0.18703079,-0.063498884,0.34953785
2529868088,0.19891654,-0.08185668,0.34211835
2529904673,0.19594511,-0.06655852,0.34805393
2529915929,0.18554509,-0.05431998,0.34805393
2529929041,0.17663077,-0.06961815,0.34211835
2529954581,0.19594511,-0.06655852,0.3510217
2529980420,0.18257365,-0.04055163,0.3599251
2529993899,0.18257365,-0.06655852,0.34805393
2530005787,0.20188798,-0.0650287,0.34805393
2530029754,0.19000223,-0.07114796,0.3510217
2530042212,0.19297366,-0.055849794,0.3554734
2530089779,0.19000223,-0.057379615,0.3346989
2530101759,0.20634513,-0.05737961,0.3510217
2530126170,0.20783085,-0.055849794,0.34953785
2530137884,0.20931657,-0.05890943,0.34657004
2530149778,0.19297366,-0.039021812,0.34063447
2530210226,0.212288,-0.06655852,0.35844123
2530234244,0.21823087,-0.05890943,0.34063447
2530245727,0.21525945,-0.046670895,0.3346989
2530259365,0.20931657,-0.043611262,0.3272794
2530269777,0.21823087,-0.04973053,0.33321497
2530282581,0.22714518,-0.046670895,0.33173108
2530306294,0.19594511,-0.046670895,0.3287633
2530317785,0.20634513,-0.046670895,0.3346989
2530329894,0.24051665,-0.05584979,0.34063447
2530354254,0.22417374,-0.05890943,0.3272794
2530365750,0.21377371,-0.04973053,0.33173108
2530380589,0.22565947,-0.051260345,0.3228277
2530406693,0.23011662,-0.06349888,0.33173108
2530418678,0.22714518,-0.055849794,0.33618277
2530442681,0.22417374,-0.04973053,0.3272794
2530454649,0.2286309,-0.06502869,0.3228277
2530478662,0.22714518,-0.05890943,0.33173108
2530490735,0.22417374,-0.06961814,0.3272794
2530502718,0.2197166,-0.05279016,0.33173108
2530525770,0.22714518,-0.072677776,0.34211835
2530538553,0.2197166,-0.06349888,0.3243116
2530549884,0.22714518,-0.055849794,0.3213438
2530574644,0.2197166,-0.05890943,0.3213438
2530597760,0.2286309,-0.06655851,0.31540823
2530621777,0.24497381,-0.06502869,0.33173108
2530645742,0.20783085,-0.06961815,0.30798873
2530658262,0.22714518,-0.046670895,0.33618277
2530669698,0.22565947,-0.07726722,0.3257955
2530682302,0.23160234,-0.06502869,0.31392434
2530693739,0.2360595,-0.08338649,0.31540823
2530708528,0.24497381,-0.071147956,0.3287633
2530722197,0.23903093,-0.06502869,0.3257955
2530733782,0.22714518,-0.055849794,0.33618277
2530746249,0.22268803,-0.060439248,0.31392434
2530757842,0.22417374,-0.06502869,0.31837603
2530770237,0.2360595,-0.08491631,0.3272794
2530781747,0.2360595,-0.06502869,0.3257955
2530834018,0.2286309,-0.071147956,0.33915055
2530845762,0.2197166,-0.078797035,0.3243116
2530869608,0.20634513,-0.074207604,0.3346989
2530882549,0.21823087,-0.06655851,0.3346989
2530894673,0.21823087,-0.078797035,0.31837603
2530908639,0.20931657,-0.08185668,0.33321497
2530921204,0.19891654,-0.07726723,0.33321497
2530933649,0.21377371,-0.08338649,0.34211835
2530946273,0.19743082,-0.06961815,0.3243116
2530957710,0.20931657,-0.083386496,0.3243116
2530970341,0.20931658,-0.0925654,0.34063447
2530981773,0.20783085,-0.06961815,0.33618277
2530994282,0.20040226,-0.084916316,0.33321497
2531005754,0.19891654,-0.08185668,0.3346989
2531018441,0.19891654,-0.074207604,0.33915055
2531042645,0.20040227,-0.0925654,0.34063447
2531054677,0.17217363,-0.094095215,0.33915055
2531066689,0.17663077,-0.07573742,0.34953785
2531077777,0.19148795,-0.08185668,0.34211835
2531101729,0.17365932,-0.083386496,0.34063447
2531114349,0.16771647,-0.095625035,0.361409
2531125889,0.18405937,-0.101744294,0.35250562
2531149736,0.15583074,-0.094095215,0.3510217
2531162267,0.16325931,-0.09103558,0.36734456
2531173639,0.17514507,-0.09103558,0.3510217
2531197853,0.16028789,-0.0925654,0.34657004
2531210211,0.16474503,-0.083386496,0.3599251
2531221754,0.15285929,-0.07726723,0.3628929
2531234296,0.1528593,-0.094095215,0.3628929
2531245804,0.14988786,-0.09868466,0.36882848
2531269776,0.13651638,-0.083386496,0.35844123
2531281921,0.13800211,-0.0925654,0.37921575
2531293723,0.12463065,-0.0833865,0.361409
2531317650,0.154345,-0.08950577,0.37179625
2531330272,0.1290878,-0.09103558,0.37921575
2531341649,0.14691642,-0.09103558,0.37328017
2531365643,0.1290878,-0.09103558,0.37328017
2531380575,0.13057351,-0.083386496,0.37476408
2531393097,0.11720205,-0.08950578,0.38366744
2531405760,0.11720205,-0.09868467,0.37476408
2531418210,0.12017349,-0.065028705,0.37179625
2531429719,0.12165921,-0.0833865,0.37921575
2531442430,0.12017349,-0.08797596,0.38218355
2531454691,0.11423062,-0.07879705,0.38069963
2531493738,0.109773465,-0.09103559,0.36734456
2531506026,0.09937344,-0.09103559,0.36882848
2531517757,0.108287744,-0.08491632,0.37476408
2531541805,0.10531631,-0.07726724,0.37921575
2531554301,0.108287744,-0.09256541,0.37476408
2531565829,0.109773465,-0.07420761,0.37624794
2531580591,0.108287744,-0.07267779,0.3599251
