timestamp,time_utc_usec,lat,lon,alt,alt_ellipsoid,s_variance_m_s,c_variance_rad,eph,epv,hdop,vdop,noise_per_ms,jamming_indicator,vel_m_s,vel_n_m_s,vel_e_m_s,vel_d_m_s,cog_rad,timestamp_time_relative,fix_type,vel_ned_valid,satellites_used
2508907488,1686758158600384,371027961,-763922378,5995,-29773,0.277,0.73945934,0.72300005,1.128,0.62,1.09,98,20,0.043,0.006,0.043,-0.060000002,1.4772102,0,4,1,18
2509111611,1686758158800384,371027962,-763922376,5970,-29797,0.28,0.73946977,0.72400004,1.128,0.62,1.09,98,20,0.044000003,-0.021000002,0.038000003,-0.009000001,1.4772102,0,4,1,18
2509313026,1686758159000384,371027962,-763922374,5971,-29796,0.21100001,0.73947746,0.725,1.1290001,0.62,1.09,98,20,0.043,0.022000002,0.037,0.002,1.4772102,0,4,1,18
2509510976,1686758159200384,371027963,-763922372,5932,-29836,0.30900002,0.73948896,0.726,1.13,0.62,1.09,98,20,0.025,-0.018000001,0.018000001,-0.015000001,1.4772102,0,4,1,18
2509712568,1686758159400384,371027964,-763922371,5913,-29854,0.26000002,0.73949856,0.72800004,1.1320001,0.62,1.09,97,19,0.055000003,0.055000003,0.0050000004,0.002,1.4772102,0,4,1,18
2509912590,1686758159600384,371027965,-763922370,5878,-29890,0.30900002,0.7395101,0.72900003,1.133,0.62,1.09,97,19,0.020000001,0.017,-0.010000001,0.104,1.4772102,0,4,1,18
2510112867,1686758159800384,371027971,-763922369,5895,-29873,0.21700001,0.40449014,0.73,1.1320001,0.62,1.09,97,19,0.565,0.564,-0.029000001,-0.48900002,0.30119702,0,4,1,18
2510318760,1686758160000384,371027986,-763922377,5951,-29817,0.24900001,0.6732347,0.725,1.1170001,0.62,1.09,97,19,0.27400002,0.26900002,-0.052,-1.223,0.17046124,0,4,1,18
2510519063,1686758160200384,371027991,-763922381,6182,-29585,0.25100002,0.66249275,0.72300005,1.115,0.62,1.09,97,19,0.252,0.194,-0.16100001,-1.258,6.0158257,0,4,1,18
2510715228,1686758160400384,371027995,-763922387,6362,-29405,0.25500003,0.66253567,0.721,1.113,0.62,1.09,97,19,0.18200001,0.141,-0.11400001,-1.018,6.0158257,0,4,1,18
2510915768,1686758160600384,371027995,-763922390,6539,-29228,0.287,0.5568811,0.72,1.11,0.62,1.09,97,19,0.335,-0.319,0.10300001,-0.96900004,1.5472655,0,4,1,18
2511116655,1686758160800384,371027990,-763922390,6659,-29108,0.30200002,0.46055764,0.71900004,1.1110001,0.62,1.09,97,19,0.43500003,-0.42700002,0.081,-0.87100005,2.382368,0,4,1,18
2511316619,1686758161000384,371027983,-763922387,6778,-28989,0.30100003,0.30245104,0.71800005,1.1090001,0.62,1.09,97,19,0.62700003,-0.51000005,0.365,-0.74,2.4788368,0,4,1,18
2511515612,1686758161200384,371027973,-763922382,6943,-28824,0.30600002,0.2695216,0.717,1.105,0.62,1.09,97,19,0.68200004,-0.65900004,0.17300001,-0.8,2.7052257,0,4,1,18
2511715555,1686758161400384,371027960,-763922376,7030,-28737,0.298,0.19473982,0.717,1.1040001,0.62,1.09,97,16,0.97300005,-0.86,0.45600003,-0.61700004,2.6714132,0,4,1,18
2511912931,1686758161600384,371027946,-763922369,7177,-28590,0.307,0.22226557,0.717,1.103,0.62,1.09,97,16,0.85800004,-0.785,0.34600002,-0.77400005,2.6955018,0,4,1,18
2512112912,1686758161800384,371027931,-763922363,7351,-28416,0.31500003,0.23493108,0.717,1.1010001,0.62,1.09,97,16,0.78300005,-0.76500005,0.16800001,-0.716,2.8044033,0,4,1,18
2512312923,1686758162000383,371027920,-763922360,7480,-28288,0.34500003,0.3618989,0.71800005,1.103,0.62,1.09,97,16,0.568,-0.546,0.155,-0.572,2.822505,0,4,1,18
2512512623,1686758162200383,371027918,-763922364,7446,-28322,0.291,0.47349784,0.716,1.095,0.62,1.09,97,16,0.418,-0.41700003,0.027,-0.54800004,2.9163632,0,4,1,18
2512713539,1686758162400383,371027913,-763922366,7420,-28347,0.28800002,0.40856254,0.71400005,1.0910001,0.62,1.09,97,17,0.47300002,-0.46400002,0.093,-0.18300001,2.9315794,0,4,1,18
2512913484,1686758162600383,371027906,-763922365,7454,-28313,0.328,0.65797406,0.71400005,1.0890001,0.62,1.09,97,17,0.264,-0.22000001,0.14600001,-0.24900001,2.8268437,0,4,1,18
2513109850,1686758162800383,371027902,-763922364,7511,-28256,0.33100003,0.6579877,0.71500003,1.0860001,0.62,1.09,97,17,0.21700001,-0.20600002,0.068,-0.124000005,2.8268437,0,4,1,18
2513313865,1686758163000383,371027900,-763922365,7513,-28255,0.30400002,0.6580004,0.716,1.0860001,0.62,1.09,97,17,0.041,-0.028,0.030000001,-0.120000005,2.8268437,0,4,1,18
2513514576,1686758163200383,371027901,-763922366,7521,-28246,0.187,0.6580083,0.717,1.0860001,0.62,1.09,97,17,0.120000005,0.08400001,0.086,-0.018000001,2.8268437,0,4,1,18
2513717533,1686758163400383,371027902,-763922365,7538,-28229,0.245,0.6580184,0.71800005,1.088,0.62,1.09,89,18,0.08400001,0.049000002,0.068,0.054,2.8268437,0,4,1,18
2513918657,1686758163600383,371027902,-763922364,7512,-28255,0.21400002,0.6580273,0.71800005,1.09,0.62,1.09,89,18,0.187,0.019000001,0.186,0.07300001,2.8268437,0,4,1,18
2514118549,1686758163800383,371027902,-763922361,7515,-28253,0.22900002,0.6580369,0.71800005,1.0890001,0.62,1.09,89,18,0.136,0.046000004,0.128,0.096,2.8268437,0,4,1,18
2514322481,1686758164000383,371027903,-763922358,7520,-28248,0.21200001,0.65804565,0.717,1.087,0.62,1.09,89,18,0.071,0.009000001,0.07,0.037,2.8268437,0,4,1,18
2514522511,1686758164200383,371027903,-763922356,7508,-28259,0.261,0.6580566,0.71500003,1.0840001,0.62,1.09,89,18,0.045,0.028,0.035,0.075,2.8268437,0,4,1,18
2514737190,1686758164400383,371027904,-763922353,7511,-28256,0.163,0.6580634,0.71400005,1.0810001,0.62,1.09,89,21,0.105000004,0.068,0.079,-0.009000001,2.8268437,0,4,1,18
2514914507,1686758164600383,371027906,-763922351,7495,-28272,0.24200001,0.65807337,0.712,1.0760001,0.62,1.09,89,21,0.193,0.18400002,0.058000002,0.097,2.8268437,0,4,1,18
2515118495,1686758164800383,371027910,-763922350,7464,-28303,0.27100003,0.65808475,0.71000004,1.069,0.62,1.09,89,21,0.165,0.162,-0.029000001,0.082,2.8268437,0,4,1,18
2515322492,1686758165000383,371027914,-763922350,7403,-28364,0.266,0.6580959,0.708,1.0630001,0.62,1.09,89,21,0.096,0.09200001,0.027,0.19100001,2.8268437,0,4,1,18
2515522475,1686758165200383,371027917,-763922351,7367,-28400,0.264,0.6581069,0.70600003,1.059,0.62,1.09,89,21,0.172,0.16900001,0.033,0.19700001,2.8268437,0,4,1,18
2515737750,1686758165400383,371027922,-763922353,7323,-28444,0.26200002,0.6581177,0.702,1.052,0.62,1.09,89,29,0.157,0.143,-0.064,0.081,2.8268437,0,4,1,18
2515922508,1686758165600383,371027925,-763922355,7285,-28482,0.277,0.6581292,0.70000005,1.047,0.62,1.09,89,29,0.19500001,0.156,-0.11800001,0.15100001,2.8268437,0,4,1,18
2516119483,1686758165800383,371027927,-763922357,7230,-28538,0.294,0.6581416,0.69900006,1.044,0.62,1.09,89,29,0.133,0.120000005,-0.058000002,0.165,2.8268437,0,4,1,18
2516330467,1686758166000383,371027930,-763922359,7207,-28560,0.27100003,0.6581528,0.698,1.041,0.62,1.09,89,29,0.15900001,0.101,-0.123,0.060000002,2.8268437,0,4,1,18
2516522764,1686758166200383,371027933,-763922362,7183,-28585,0.257,0.6581636,0.697,1.0380001,0.62,1.09,89,29,0.21700001,0.13100001,-0.17300001,-0.009000001,2.8268437,0,4,1,18
2516742587,1686758166400383,371027937,-763922365,7158,-28610,0.263,0.65817463,0.69600004,1.036,0.62,1.09,89,25,0.215,0.17300001,-0.12900001,-0.022000002,2.8268437,0,4,1,18
2516919478,1686758166600383,371027941,-763922368,7133,-28634,0.22200002,0.6581839,0.69600004,1.0350001,0.62,1.09,89,25,0.14400001,0.112,-0.091000006,-0.1,2.8268437,0,4,1,18
2517122786,1686758166800383,371027945,-763922369,7117,-28650,0.209,0.6581924,0.697,1.034,0.62,1.09,89,25,0.074,0.074,-0.001,-0.035,2.8268437,0,4,1,18
2517322982,1686758167000383,371027949,-763922369,7084,-28683,0.208,0.65820116,0.69600004,1.0320001,0.62,1.09,89,25,0.113000005,0.053000003,0.1,-0.093,2.8268437,0,4,1,18
2517518661,1686758167200383,371027952,-763922367,7069,-28699,0.26500002,0.6582121,0.69500005,1.031,0.62,1.09,89,25,0.11800001,-0.009000001,0.117000006,-0.165,2.8268437,0,4,1,18
2517743850,1686758167400383,371027955,-763922365,7037,-28730,0.177,0.6582219,0.69500005,1.0300001,0.62,1.09,89,25,0.23400001,0.11800001,0.201,-0.009000001,2.8268437,0,4,1,18
2517919484,1686758167600383,371027958,-763922362,7023,-28745,0.17,0.6582324,0.69500005,1.029,0.62,1.09,89,25,0.24900001,0.081,0.23500001,0.039,2.8268437,0,4,1,18
2518103797,1686758167800382,371027961,-763922360,7016,-28751,0.201,0.65824217,0.69500005,1.0300001,0.62,1.09,89,25,0.19800001,0.102000006,0.16900001,-0.13000001,2.8268437,0,4,1,18
2518322537,1686758168000382,371027965,-763922360,7019,-28748,0.19000001,0.65825313,0.69500005,1.031,0.62,1.09,89,25,0.21800001,0.18300001,0.119,-0.15,2.8268437,0,4,1,18
2518527533,1686758168200382,371027970,-763922361,6971,-28796,0.19500001,0.65826344,0.694,1.028,0.62,1.09,89,25,0.18900001,0.13800001,0.13000001,-0.155,2.8268437,0,4,1,18
2518739854,1686758168400382,371027974,-763922362,6955,-28813,0.21000001,0.6582722,0.693,1.0250001,0.62,1.09,89,17,0.14600001,0.14500001,-0.012,-0.05,2.8268437,0,4,1,18
2518919448,1686758168600382,371027978,-763922366,6986,-28782,0.22200002,0.65828335,0.69200003,1.024,0.62,1.09,89,17,0.14500001,0.132,-0.059000004,-0.22500001,2.8268437,0,4,1,18
2519120134,1686758168800382,371027981,-763922369,6974,-28793,0.252,0.65829384,0.69100004,1.023,0.62,1.09,89,17,0.024,0.024,-0.003,-0.209,2.8268437,0,4,1,18
2519322013,1686758169000382,371027983,-763922373,6963,-28804,0.216,0.6583029,0.69000006,1.021,0.62,1.09,89,17,0.13100001,0.036000002,-0.126,-0.134,2.8268437,0,4,1,18
2519527503,1686758169200382,371027984,-763922378,7007,-28760,0.209,0.65831494,0.69000006,1.021,0.62,1.09,89,17,0.22800002,0.037,-0.22500001,-0.177,2.8268437,0,4,1,18
2519737467,1686758169400382,371027983,-763922384,7054,-28713,0.22000001,0.6583266,0.689,1.019,0.62,1.09,89,20,0.22600001,-0.104,-0.2,-0.16900001,2.8268437,0,4,1,18
2519920536,1686758169600382,371027981,-763922388,7085,-28682,0.22500001,0.65833765,0.689,1.018,0.62,1.09,89,20,0.192,-0.082,-0.17400001,-0.18200001,2.8268437,0,4,1,18
2520116943,1686758169800382,371027979,-763922392,7108,-28659,0.18800001,0.65834826,0.688,1.0150001,0.62,1.09,89,20,0.24000001,-0.148,-0.18800001,-0.087000005,2.8268437,0,4,1,18
2520321481,1686758170000382,371027976,-763922397,7129,-28639,0.19900002,0.6583572,0.688,1.014,0.62,1.09,89,20,0.21100001,-0.12100001,-0.17300001,-0.044000003,2.8268437,0,4,1,18
2520520651,1686758170200382,371027974,-763922401,7144,-28624,0.21900001,0.65836644,0.68700004,1.014,0.62,1.09,89,20,0.17400001,-0.12900001,-0.117000006,-0.053000003,2.8268437,0,4,1,18
2520741476,1686758170400382,371027971,-763922406,7143,-28624,0.21000001,0.65837723,0.68700004,1.0150001,0.62,1.09,89,21,0.256,-0.21700001,-0.135,-0.057000004,2.8268437,0,4,1,18
2520917517,1686758170600382,371027967,-763922410,7158,-28609,0.178,0.65838826,0.68600005,1.0150001,0.62,1.09,89,21,0.23900001,-0.22100002,-0.09200001,0.108,2.8268437,0,4,1,18
2521125504,1686758170800382,371027964,-763922413,7192,-28575,0.26700002,0.6584001,0.68500006,1.016,0.62,1.09,89,21,0.19600001,-0.17400001,-0.091000006,-0.20600002,2.8268437,0,4,1,18
2521321477,1686758171000382,371027960,-763922413,7261,-28506,0.286,0.46590742,0.683,1.014,0.62,1.09,89,21,0.36900002,-0.333,0.158,-0.65400004,2.7417326,0,4,1,18
2521521479,1686758171200382,371027956,-763922413,7411,-28356,0.264,0.46596587,0.68200004,1.013,0.62,1.09,89,21,0.074,-0.033,-0.067,-0.99300003,2.7417326,0,4,1,18
2521741493,1686758171400382,371027957,-763922415,7589,-28179,0.25300002,0.46602994,0.68200004,1.0120001,0.62,1.09,89,21,0.149,0.104,-0.10700001,-1.0760001,2.7417326,0,4,1,18
2521917477,1686758171600382,371027959,-763922419,7797,-27970,0.25500003,0.46609834,0.683,1.0120001,0.62,1.09,89,21,0.16600001,0.078,-0.14600001,-1.153,2.7417326,0,4,1,18
2522117529,1686758171800382,371027960,-763922423,8025,-27742,0.256,0.46616486,0.68200004,1.008,0.62,1.09,89,21,0.126,0.028,-0.123,-1.121,2.7417326,0,4,1,18
2522331769,1686758172000382,371027960,-763922425,8291,-27476,0.26700002,0.46624094,0.68100005,1.0070001,0.62,1.09,89,21,0.086,-0.038000003,0.07700001,-1.292,2.7417326,0,4,1,18
2522520621,1686758172200382,371027959,-763922423,8613,-27154,0.26700002,0.46632192,0.68100005,1.005,0.62,1.09,89,21,0.081,0.008,0.080000006,-1.376,2.7417326,0,4,1,18
2522713416,1686758172400382,371027960,-763922422,8869,-26898,0.263,0.46639943,0.68,1.0040001,0.62,1.09,89,29,0.155,0.076000005,0.136,-1.307,2.7417326,0,4,1,18
2522917529,1686758172600382,371027961,-763922420,9161,-26607,0.268,0.46648267,0.68,1.0020001,0.62,1.09,89,29,0.17600001,0.016,0.17500001,-1.406,2.7417326,0,4,1,18
2523118775,1686758172800382,371027962,-763922415,9430,-26337,0.26200002,0.7323656,0.68,1.001,0.62,1.09,89,29,0.328,0.123,0.30400002,-1.3390001,2.2931862,0,4,1,18
2523318509,1686758173000382,371027964,-763922409,9709,-26059,0.263,0.6696629,0.67800003,0.998,0.62,1.09,89,29,0.31,0.015000001,0.31,-1.406,1.8731631,0,4,1,18
2523518488,1686758173200382,371027967,-763922404,9940,-25827,0.26000002,0.6697172,0.67800003,0.9990001,0.62,1.09,89,29,0.24700001,0.156,0.19100001,-1.3050001,1.8731631,0,4,1,18
2523715488,1686758173400381,371027970,-763922402,10195,-25572,0.252,0.78090125,0.67800003,0.9990001,0.62,1.09,96,24,0.303,0.28,0.115,-1.1570001,1.2440542,0,4,1,18
2523917369,1686758173600381,371027975,-763922399,10452,-25316,0.257,0.776987,0.67800003,0.998,0.62,1.09,96,24,0.32500002,0.282,0.162,-1.302,0.88054544,0,4,1,18
2524114485,1686758173800381,371027981,-763922396,10714,-25053,0.25,0.60740703,0.67800003,0.9990001,0.62,1.09,96,24,0.4,0.36200002,0.17,-1.3160001,0.6062048,0,4,1,18
2524315479,1686758174000381,371027989,-763922394,10945,-24822,0.23400001,0.38939306,0.679,0.9990001,0.62,1.09,96,24,0.565,0.56,0.069000006,-1.1450001,0.26295844,0,4,1,18
2524515491,1686758174200381,371028000,-763922396,11195,-24573,0.231,0.27189437,0.679,1.0,0.62,1.09,96,24,0.69600004,0.67300004,-0.17600001,-1.189,6.1972127,0,4,1,18
2524718499,1686758174400381,371028012,-763922401,11406,-24362,0.23200001,0.2577741,0.68,1.001,0.62,1.09,96,21,0.72300005,0.684,-0.23300001,-1.263,6.0697327,0,4,1,18
2524914163,1686758174600381,371028024,-763922406,11622,-24145,0.22900002,0.32723874,0.68100005,1.0020001,0.63,1.1,96,21,0.56600004,0.52900004,-0.20300001,-1.047,6.01125,0,4,1,17
2525113709,1686758174800381,371028032,-763922410,11873,-23894,0.25,0.52777743,0.68100005,1.003,0.62,1.09,96,21,0.34300002,0.31100002,-0.14500001,-1.1420001,5.965436,0,4,1,18
2525315493,1686758175000381,371028037,-763922414,12079,-23688,0.26000002,0.7501346,0.68100005,1.005,0.62,1.09,96,21,0.25,0.18100001,-0.17300001,-1.113,5.8185177,0,4,1,18
2525514485,1686758175200381,371028039,-763922418,12309,-23458,0.27800003,0.7501753,0.68100005,1.006,0.62,1.09,96,21,0.13100001,-0.008,-0.13100001,-1.108,5.8185177,0,4,1,18
2525742804,1686758175400381,371028039,-763922421,12540,-23228,0.29000002,0.75021946,0.68100005,1.008,0.62,1.09,96,25,0.13100001,-0.125,-0.039,-1.1980001,5.8185177,0,4,1,18
2525918483,1686758175600381,371028036,-763922422,12809,-22958,0.293,0.7502632,0.68100005,1.01,0.62,1.09,96,25,0.22200002,-0.21400002,-0.060000002,-1.1780001,5.8185177,0,4,1,18
2526115522,1686758175800381,371028033,-763922423,13028,-22739,0.29200003,0.7503051,0.68100005,1.011,0.62,1.09,96,25,0.164,-0.163,-0.015000001,-1.1370001,5.8185177,0,4,1,18
2526319481,1686758176000381,371028030,-763922424,13245,-22522,0.29500002,0.7417612,0.68100005,1.013,0.62,1.09,96,25,0.28500003,-0.28500003,-0.011000001,-1.1980001,4.483761,0,4,1,18
2526519542,1686758176200381,371028025,-763922423,13474,-22294,0.3,0.52570623,0.68200004,1.014,0.62,1.09,96,25,0.37500003,-0.36600003,0.080000006,-1.051,3.4466338,0,4,1,18
2526716601,1686758176400381,371028020,-763922421,13685,-22082,0.29900002,0.548071,0.68200004,1.0150001,0.62,1.09,96,14,0.34800002,-0.323,0.13100001,-1.166,3.1163704,0,4,1,18
2526916826,1686758176600381,371028015,-763922418,13920,-21848,0.298,0.55479354,0.68200004,1.016,0.62,1.09,96,14,0.335,-0.291,0.16700001,-1.2160001,2.87186,0,4,1,18
2527116861,1686758176800381,371028009,-763922416,14183,-21585,0.294,0.5644225,0.683,1.0170001,0.62,1.09,96,14,0.34800002,-0.33800003,0.081,-1.3870001,2.88867,0,4,1,18
2527322963,1686758177000381,371028004,-763922415,14437,-21330,0.293,0.6594005,0.683,1.019,0.62,1.09,96,14,0.298,-0.29000002,0.068,-1.1620001,2.8979769,0,4,1,18
2527516577,1686758177200381,371028000,-763922414,14692,-21075,0.28800002,0.70376456,0.683,1.019,0.62,1.09,96,14,0.27800003,-0.27,0.064,-1.345,2.9030933,0,4,1,18
2527711562,1686758177400381,371027997,-763922412,14916,-20851,0.286,0.7659606,0.684,1.0200001,0.62,1.09,96,29,0.24100001,-0.163,0.177,-1.1680001,2.6336606,0,4,1,18
2527914921,1686758177600381,371027996,-763922409,15129,-20639,0.27800003,0.7660023,0.684,1.021,0.62,1.09,96,29,0.15,-0.042000003,0.14400001,-1.1580001,2.6336606,0,4,1,18
2528112946,1686758177800381,371027995,-763922406,15372,-20395,0.27400002,0.76603717,0.68500006,1.0220001,0.62,1.09,96,29,0.08800001,-0.001,0.08800001,-0.97,2.6336606,0,4,1,18
2528319828,1686758178000381,371027994,-763922405,15607,-20161,0.27600002,0.7660794,0.68600005,1.0220001,0.62,1.09,96,29,0.125,-0.11400001,-0.051000003,-1.174,2.6336606,0,4,1,18
2528516578,1686758178200381,371027992,-763922404,15828,-19939,0.27600002,0.76611763,0.68500006,1.019,0.62,1.09,96,29,0.20500001,-0.185,0.089,-1.047,2.6336606,0,4,1,18
2528739075,1686758178400381,371027988,-763922402,16011,-19757,0.287,0.76615536,0.68500006,1.0200001,0.62,1.09,96,16,0.25800002,-0.25800002,0.001,-1.024,2.6336606,0,4,1,18
2528920228,1686758178600381,371027984,-763922401,16183,-19584,0.291,0.76619077,0.68600005,1.0220001,0.62,1.09,96,16,0.21300001,-0.19800001,0.079,-0.96700007,2.6336606,0,4,1,18
2529116565,1686758178800381,371027978,-763922399,16447,-19321,0.29000002,0.4278854,0.68500006,1.0220001,0.62,1.09,96,16,0.44400004,-0.42400002,0.132,-1.2390001,2.7916422,0,4,1,18
2529319458,1686758179000381,371027970,-763922397,16696,-19071,0.29000002,0.41626117,0.68500006,1.0220001,0.62,1.09,96,16,0.48000002,-0.476,0.057000004,-1.3210001,2.909973,0,4,1,18
2529516565,1686758179200380,371027962,-763922397,16918,-18849,0.29200003,0.4236394,0.68500006,1.0220001,0.62,1.09,96,16,0.5,-0.499,-0.030000001,-1.1960001,3.0530505,0,4,1,18
2529739092,1686758179400380,371027953,-763922399,17120,-18647,0.296,0.44483885,0.68500006,1.0250001,0.62,1.09,96,22,0.517,-0.503,-0.12100001,-1.0220001,3.2074423,0,4,1,18
2529916563,1686758179600380,371027944,-763922401,17334,-18434,0.30100003,0.38487142,0.68600005,1.0270001,0.62,1.09,96,22,0.572,-0.569,-0.057000004,-1.1700001,3.227305,0,4,1,18
2530117487,1686758179800380,371027935,-763922403,17536,-18232,0.303,0.4110463,0.68700004,1.028,0.62,1.09,96,22,0.51900005,-0.51900005,-0.001,-1.054,3.188493,0,4,1,18
2530318485,1686758180000380,371027928,-763922402,17731,-18036,0.29900002,0.67481285,0.68700004,1.0300001,0.62,1.09,96,22,0.291,-0.28100002,0.078,-1.215,3.1020947,0,4,1,18
2530514478,1686758180200380,371027926,-763922399,17948,-17820,0.284,0.67486435,0.688,1.029,0.62,1.09,96,22,0.21900001,-0.021000002,0.21800001,-1.248,3.1020947,0,4,1,18
2530737471,1686758180400380,371027930,-763922392,18097,-17670,0.26200002,0.5686071,0.689,1.029,0.62,1.09,96,17,0.53300005,0.201,0.49300003,-1.11,1.9797624,0,4,1,18
2530914662,1686758180600380,371027938,-763922382,18260,-17507,0.23300001,0.4160652,0.69100004,1.029,0.62,1.09,96,17,0.72400004,0.55200005,0.46800002,-0.975,1.1477876,0,4,1,18
2531117911,1686758180800380,371027950,-763922373,18403,-17364,0.22700001,0.32092607,0.693,1.0300001,0.62,1.09,96,17,0.81700003,0.77400005,0.26200002,-0.72900003,0.63304937,0,4,1,18
2531318525,1686758181000380,371027965,-763922366,18568,-17199,0.18200001,0.23304002,0.694,1.0300001,0.62,1.09,96,17,1.0170001,0.938,0.39400002,-0.36400002,0.4789628,0,4,1,18
2531518477,1686758181200380,371027981,-763922358,18566,-17201,0.18,0.2686037,0.694,1.0300001,0.62,1.09,96,17,0.84300005,0.80200005,0.259,-0.060000002,0.40738618,0,4,1,18
2531718544,1686758181400380,371027992,-763922354,18580,-17187,0.21200001,0.48388675,0.694,1.031,0.62,1.09,96,23,0.47900003,0.45900002,0.136,0.083000004,0.3791335,0,4,1,18
2531909490,1686758181600380,371027998,-763922352,18559,-17208,0.24900001,0.4839021,0.694,1.0320001,0.62,1.09,96,23,0.22000001,0.18300001,0.12200001,0.16000001,0.3791335,0,4,1,18
2532114490,1686758181800380,371027999,-763922350,18501,-17266,0.23900001,0.48391747,0.694,1.0320001,0.62,1.09,96,23,0.119,-0.112,0.041,0.24400002,0.3791335,0,4,1,18
2532317876,1686758182000380,371027995,-763922351,18431,-17336,0.192,0.7616255,0.694,1.0320001,0.62,1.09,96,23,0.29700002,-0.279,-0.101,0.216,1.2733461,0,4,1,18
2532514817,1686758182200380,371027988,-763922355,18382,-17385,0.19100001,0.54835117,0.694,1.033,0.62,1.09,96,23,0.43100002,-0.36400002,-0.231,0.246,2.8756235,0,4,1,18
2532714548,1686758182400380,371027982,-763922362,18349,-17418,0.18300001,0.6619377,0.694,1.0350001,0.62,1.09,96,24,0.367,-0.27800003,-0.23900001,0.034,3.2727869,0,4,1,18
2532918485,1686758182600380,371027977,-763922367,18324,-17444,0.19800001,0.71171397,0.694,1.0350001,0.62,1.09,96,24,0.36600003,-0.257,-0.261,-0.018000001,3.5797846,0,4,1,18
2533114490,1686758182800380,371027974,-763922374,18299,-17468,0.22100002,0.64056265,0.694,1.0350001,0.62,1.09,96,24,0.38200003,-0.194,-0.328,-0.21400002,3.9107265,0,4,1,18
2533310522,1686758183000380,371027970,-763922383,18348,-17420,0.19600001,0.590433,0.694,1.0380001,0.62,1.09,96,24,0.41000003,-0.158,-0.37800002,-0.059000004,4.1303787,0,4,1,18
2533519369,1686758183200380,371027966,-763922391,18394,-17373,0.2,0.6130106,0.694,1.0400001,0.62,1.09,96,24,0.39000002,-0.15900001,-0.356,-0.082,4.2078056,0,4,1,18
2533715487,1686758183400380,371027964,-763922399,18398,-17370,0.215,0.6206085,0.694,1.0400001,0.62,1.09,96,25,0.388,-0.187,-0.34,-0.19000001,4.2088304,0,4,1,18
2533915484,1686758183600380,371027960,-763922405,18408,-17360,0.21300001,0.6075861,0.693,1.039,0.62,1.09,96,25,0.39200002,-0.264,-0.29000002,-0.15100001,4.0884233,0,4,1,18
2534119099,1686758183800380,371027956,-763922410,18433,-17334,0.21300001,0.6075993,0.693,1.039,0.62,1.09,96,25,0.27800003,-0.18300001,-0.21000001,-0.09200001,4.0884233,0,4,1,18
2534327476,1686758184000380,371027954,-763922415,18452,-17315,0.19900002,0.60761136,0.693,1.0400001,0.62,1.09,96,25,0.26000002,-0.101,-0.24000001,-0.066,4.0884233,0,4,1,18
2534518549,1686758184200380,371027953,-763922421,18428,-17340,0.238,0.74395597,0.69200003,1.0400001,0.62,1.09,96,25,0.303,-0.033,-0.30200002,0.245,4.2941413,0,4,1,18
2534714191,1686758184400380,371027951,-763922427,18340,-17427,0.26900002,0.7439804,0.69100004,1.039,0.62,1.09,96,23,0.215,-0.072000004,-0.202,0.628,4.2941413,0,4,1,18
2534915840,1686758184600380,371027950,-763922432,18225,-17543,0.256,0.6964546,0.69000006,1.0380001,0.62,1.09,96,23,0.33100003,-0.086,-0.32000002,0.60400003,4.377328,0,4,1,18
2535119336,1686758184800379,371027948,-763922436,18069,-17698,0.26700002,0.69648755,0.69000006,1.039,0.62,1.09,96,23,0.08800001,-0.087000005,-0.017,0.832,4.377328,0,4,1,18
2535319421,1686758185000379,371027947,-763922436,17899,-17868,0.27800003,0.69652194,0.689,1.0380001,0.62,1.09,96,23,0.056,0.012,-0.055000003,0.869,4.377328,0,4,1,18
2535519569,1686758185200379,371027946,-763922436,17737,-18030,0.266,0.6965556,0.689,1.0400001,0.62,1.09,96,23,0.11800001,-0.059000004,0.102000006,0.846,4.377328,0,4,1,18
2535738191,1686758185400379,371027949,-763922433,17542,-18226,0.26000002,0.6965818,0.68700004,1.0350001,0.62,1.09,96,27,0.25800002,0.185,0.18,0.615,4.377328,0,4,1,18
2535926972,1686758185600379,371027953,-763922427,17424,-18343,0.25100002,0.6298484,0.68700004,1.033,0.62,1.09,96,27,0.38500002,0.24900001,0.293,0.61,5.9024963,0,4,1,18
2536115756,1686758185800379,371027959,-763922419,17237,-18531,0.25800002,0.5487289,0.68600005,1.0320001,0.62,1.09,96,27,0.43,0.24100001,0.35500002,0.808,0.3896753,0,4,1,18
2536319476,1686758186000379,371027962,-763922411,17123,-18644,0.268,0.68377334,0.68600005,1.0320001,0.62,1.09,96,27,0.354,0.24100001,0.259,0.855,0.5584868,0,4,1,18
2536515530,1686758186200379,371027966,-763922402,16948,-18819,0.256,0.48215503,0.68600005,1.033,0.62,1.09,96,27,0.497,0.22100002,0.446,0.80100006,0.9270955,0,4,1,18
2536742953,1686758186400379,371027969,-763922391,16813,-18954,0.24700001,0.46689284,0.68600005,1.033,0.62,1.09,96,22,0.512,0.22700001,0.45900002,0.69900006,1.0228863,0,4,1,18
2536917509,1686758186600379,371027971,-763922380,16647,-19120,0.24400002,0.41409802,0.68500006,1.033,0.62,1.09,96,22,0.505,0.032,0.504,0.88400006,1.2943108,0,4,1,18
2537121189,1686758186800379,371027969,-763922369,16481,-19286,0.24200001,0.41832608,0.68500006,1.033,0.62,1.09,96,22,0.462,-0.15400001,0.43500003,0.94900006,1.5991408,0,4,1,18
2537321491,1686758187000379,371027966,-763922361,16337,-19431,0.24200001,0.51517475,0.684,1.031,0.62,1.09,96,22,0.36400002,-0.14500001,0.33400002,0.82900006,1.7502598,0,4,1,18
2537517485,1686758187200379,371027965,-763922357,16134,-19634,0.256,0.51521784,0.684,1.031,0.62,1.09,96,22,0.15,-0.14600001,0.033,0.794,1.7502598,0,4,1,18
2537741483,1686758187400379,371027961,-763922355,16006,-19761,0.25500003,0.5152613,0.684,1.0320001,0.62,1.09,95,24,0.20500001,-0.20500001,0.002,0.79200006,1.7502598,0,4,1,18
2537917478,1686758187600379,371027955,-763922354,15891,-19876,0.24400002,0.7112982,0.68500006,1.0320001,0.62,1.09,95,24,0.294,-0.294,0.007,0.757,2.2211702,0,4,1,18
2538113484,1686758187800379,371027952,-763922354,15713,-20054,0.264,0.7113314,0.68500006,1.0320001,0.62,1.09,95,24,0.123,-0.11800001,0.036000002,0.85400003,2.2211702,0,4,1,18
2538317497,1686758188000379,371027947,-763922353,15584,-20183,0.23600002,0.5847565,0.68500006,1.033,0.62,1.09,95,24,0.384,-0.377,-0.07,0.74700004,2.8797798,0,4,1,18
2538517493,1686758188200379,371027941,-763922354,15407,-20361,0.252,0.5847938,0.68500006,1.033,0.62,1.09,95,24,0.24300002,-0.24200001,-0.025,0.75900006,2.8797798,0,4,1,18
2538713778,1686758188400379,371027936,-763922356,15283,-20485,0.25300002,0.5848268,0.68500006,1.034,0.62,1.09,95,22,0.293,-0.21100001,-0.20400001,0.64000005,2.8797798,0,4,1,18
2538917640,1686758188600379,371027932,-763922360,15136,-20631,0.24900001,0.6907301,0.68500006,1.034,0.62,1.09,95,22,0.35300002,-0.25300002,-0.245,0.71900004,3.3105578,0,4,1,18
2539117515,1686758188800379,371027928,-763922364,14942,-20825,0.254,0.6907648,0.68500006,1.034,0.62,1.09,95,22,0.286,-0.25500003,-0.128,0.82800007,3.3105578,0,4,1,18
2539320864,1686758189000379,371027923,-763922366,14782,-20986,0.254,0.6907971,0.68500006,1.034,0.62,1.09,95,22,0.272,-0.23200001,-0.142,0.76600003,3.3105578,0,4,1,18
2539517794,1686758189200379,371027919,-763922368,14647,-21120,0.266,0.6908285,0.68500006,1.034,0.62,1.09,95,22,0.143,-0.13800001,-0.035,0.77500004,3.3105578,0,4,1,18
2539740973,1686758189400379,371027915,-763922368,14503,-21265,0.24300002,0.69084996,0.68700004,1.034,0.62,1.09,95,16,0.21100001,-0.209,0.030000001,0.49800003,3.3105578,0,4,1,18
2539917479,1686758189600379,371027913,-763922370,14436,-21331,0.277,0.690861,0.688,1.0350001,0.62,1.09,95,16,0.113000005,-0.017,-0.112,0.25500003,3.3105578,0,4,1,18
2540117482,1686758189800379,371027914,-763922374,14338,-21429,0.30100003,0.6226226,0.688,1.034,0.62,1.09,95,16,0.27800003,0.185,-0.208,0.54700005,4.484087,0,4,1,18
2540321481,1686758190000379,371027916,-763922377,14290,-21477,0.29500002,0.62263554,0.688,1.034,0.62,1.09,95,16,0.085,0.081,-0.026,0.23300001,4.484087,0,4,1,18
2540518740,1686758190200379,371027918,-763922381,14239,-21528,0.29700002,0.5739628,0.688,1.0350001,0.62,1.09,95,16,0.30900002,0.187,-0.24700001,0.32700002,4.9583263,0,4,1,18
2540737973,1686758190400379,371027920,-763922385,14207,-21560,0.29200003,0.5739768,0.68700004,1.033,0.62,1.09,95,23,0.07700001,0.059000004,-0.049000002,0.126,4.9583263,0,4,1,18
2540915491,1686758190600378,371027921,-763922386,14125,-21642,0.286,0.5739979,0.68600005,1.0320001,0.62,1.09,95,23,0.113000005,0.113000005,0.004,0.42600003,4.9583263,0,4,1,18
2541115522,1686758190800378,371027922,-763922384,14024,-21744,0.26900002,0.57403475,0.68600005,1.0320001,0.62,1.09,95,23,0.21900001,0.021000002,0.21800001,0.74,4.9583263,0,4,1,18
2541318771,1686758191000378,371027922,-763922379,13903,-21864,0.24400002,0.6685145,0.68500006,1.033,0.62,1.09,95,23,0.317,-0.027,0.316,0.45700002,6.223267,0,4,1,18
2541511531,1686758191200378,371027922,-763922377,13824,-21943,0.27400002,0.668529,0.68500006,1.0320001,0.62,1.09,95,23,0.018000001,0.012,-0.013,0.35500002,6.223267,0,4,1,18
2541717411,1686758191400378,371027924,-763922377,13766,-22001,0.303,0.6685448,0.68600005,1.0350001,0.62,1.09,95,17,0.15300001,0.14600001,0.044000003,0.35500002,6.223267,0,4,1,18
2541915494,1686758191600378,371027925,-763922377,13736,-22031,0.254,0.6685553,0.68700004,1.036,0.62,1.09,95,17,0.12200001,0.058000002,0.10700001,0.16900001,6.223267,0,4,1,18
2542115478,1686758191800378,371027928,-763922378,13698,-22069,0.30600002,0.68095744,0.688,1.0350001,0.62,1.09,95,17,0.279,0.24800001,-0.127,0.178,6.021236,0,4,1,18
2542315482,1686758192000378,371027933,-763922383,13648,-22119,0.30100003,0.52454036,0.689,1.0370001,0.62,1.09,95,17,0.367,0.303,-0.20700002,0.21900001,5.809907,0,4,1,18
2542515566,1686758192200378,371027939,-763922389,13617,-22150,0.29200003,0.5607479,0.69000006,1.0370001,0.62,1.09,95,17,0.33800003,0.29200003,-0.171,0.117000006,5.783504,0,4,1,18
2542715488,1686758192400378,371027945,-763922396,13537,-22230,0.30600002,0.38441798,0.69000006,1.0370001,0.62,1.09,95,16,0.503,0.38700002,-0.321,0.367,5.651667,0,4,1,18
2542914577,1686758192600378,371027951,-763922403,13483,-22284,0.279,0.4688134,0.69000006,1.036,0.62,1.09,95,16,0.36900002,0.29200003,-0.22500001,0.178,5.6411085,0,4,1,18
2543117340,1686758192800378,371027958,-763922411,13416,-22352,0.275,0.31787086,0.689,1.0350001,0.62,1.09,95,16,0.535,0.39900002,-0.356,0.26700002,5.5820484,0,4,1,18
2543315510,1686758193000378,371027965,-763922420,13357,-22410,0.286,0.35194144,0.689,1.036,0.62,1.09,95,16,0.48600003,0.38500002,-0.29700002,0.287,5.6016626,0,4,1,18
2543515484,1686758193200378,371027970,-763922425,13344,-22423,0.305,0.6113638,0.689,1.036,0.62,1.09,95,16,0.286,0.24300002,-0.15100001,0.27800003,5.633089,0,4,1,18
2543719591,1686758193400378,371027977,-763922432,13256,-22512,0.273,0.2754529,0.688,1.033,0.62,1.09,95,21,0.61300004,0.43300003,-0.43400002,0.28300002,5.5190115,0,4,1,18
2543915608,1686758193600378,371027984,-763922438,13111,-22656,0.291,0.27551523,0.68700004,1.0320001,0.62,1.09,95,21,0.22500001,0.20400001,-0.095000006,0.58500004,5.5190115,0,4,1,18
2544115369,1686758193800378,371027986,-763922437,12999,-22768,0.25100002,0.7823743,0.68700004,1.031,0.62,1.09,95,21,0.29500002,0.052,0.291,0.675,5.7572117,0,4,1,18
2544315542,1686758194000378,371027985,-763922432,12881,-22886,0.246,0.78239787,0.68600005,1.029,0.62,1.09,95,21,0.21100001,-0.11100001,0.179,0.64000005,5.7572117,0,4,1,18
2544519602,1686758194200378,371027983,-763922429,12781,-22986,0.24900001,0.7290737,0.68500006,1.028,0.62,1.09,95,21,0.24300002,-0.15100001,0.19000001,0.66,0.9559632,0,4,1,18
2544739267,1686758194400378,371027980,-763922427,12699,-23068,0.23600002,0.7755791,0.68500006,1.028,0.62,1.09,95,30,0.22900002,-0.21000001,0.093,0.56,1.7852378,0,4,1,18
2544916638,1686758194600378,371027976,-763922424,12637,-23130,0.224,0.5858445,0.68500006,1.0270001,0.62,1.09,95,30,0.296,-0.22700001,0.19000001,0.49600002,2.2058327,0,4,1,18
2545116904,1686758194800378,371027972,-763922420,12567,-23201,0.223,0.56217015,0.68500006,1.0270001,0.62,1.09,95,30,0.31500003,-0.18800001,0.252,0.469,2.2095404,0,4,1,18
2545318799,1686758195000378,371027969,-763922418,12516,-23251,0.24300002,0.56219774,0.68500006,1.026,0.62,1.09,95,30,0.16800001,-0.164,0.039,0.53900003,2.2095404,0,4,1,18
2545518932,1686758195200378,371027966,-763922418,12454,-23313,0.25100002,0.56222093,0.68500006,1.026,0.62,1.09,95,30,0.12100001,-0.119,-0.024,0.46100003,2.2095404,0,4,1,18
2545712985,1686758195400378,371027967,-763922421,12304,-23463,0.25800002,0.56224644,0.683,1.0220001,0.62,1.09,95,28,0.075,-0.053000003,-0.052,0.518,2.2095404,0,4,1,18
2545915858,1686758195600378,371027964,-763922422,12241,-23527,0.25300002,0.56227666,0.683,1.023,0.62,1.09,95,28,0.177,-0.16800001,-0.057000004,0.59300005,2.2095404,0,4,1,18
2546120965,1686758195800378,371027962,-763922423,12091,-23677,0.264,0.56231225,0.683,1.024,0.62,1.09,95,28,0.133,-0.133,0.013,0.71800005,2.2095404,0,4,1,18
2546328849,1686758196000378,371027961,-763922423,11952,-23815,0.27,0.56234276,0.683,1.0250001,0.62,1.09,95,28,0.094000004,-0.07,0.062000003,0.61700004,2.2095404,0,4,1,18
2546516598,1686758196200378,371027959,-763922424,11863,-23904,0.27100003,0.5623737,0.684,1.0250001,0.62,1.09,95,28,0.15400001,-0.097,-0.120000005,0.61800003,2.2095404,0,4,1,18
2546715511,1686758196400377,371027959,-763922429,11788,-23980,0.27100003,0.56239986,0.683,1.023,0.62,1.09,95,27,0.23900001,-0.011000001,-0.23900001,0.47900003,2.2095404,0,4,1,18
2546915562,1686758196600377,371027960,-763922433,11691,-24076,0.3,0.5624274,0.683,1.023,0.62,1.09,95,27,0.18300001,0.162,-0.085,0.53800005,2.2095404,0,4,1,18
2547112720,1686758196800377,371027964,-763922435,11557,-24210,0.29700002,0.5624522,0.684,1.024,0.62,1.09,95,27,0.165,0.164,0.017,0.47800002,2.2095404,0,4,1,18
2547317491,1686758197000377,371027966,-763922433,11455,-24312,0.268,0.5624807,0.683,1.023,0.62,1.09,95,27,0.128,-0.032,0.124000005,0.57100004,2.2095404,0,4,1,18
2547518648,1686758197200377,371027965,-763922429,11346,-24421,0.24700001,0.5625105,0.683,1.023,0.62,1.09,95,27,0.27100003,-0.018000001,0.27,0.546,2.2095404,0,4,1,18
2547741474,1686758197400377,371027966,-763922422,11215,-24552,0.246,0.57420665,0.683,1.021,0.62,1.09,95,22,0.39000002,0.071,0.384,0.65300006,1.8073931,0,4,1,18
2547917831,1686758197600377,371027967,-763922414,11122,-24645,0.24900001,0.65835613,0.68200004,1.0200001,0.62,1.09,95,22,0.34100002,0.059000004,0.33600003,0.55,1.6297076,0,4,1,18
2548118476,1686758197800377,371027967,-763922406,11087,-24680,0.24200001,0.7121882,0.68200004,1.0200001,0.62,1.09,95,22,0.31100002,-0.014,0.31100002,0.476,1.6238363,0,4,1,18
2548317479,1686758198000377,371027967,-763922400,10968,-24799,0.25100002,0.6918994,0.68100005,1.019,0.62,1.09,95,22,0.32000002,0.074,0.31100002,0.522,1.4771211,0,4,1,18
2548514480,1686758198200377,371027967,-763922393,10878,-24890,0.264,0.7329864,0.68200004,1.0220001,0.62,1.09,95,22,0.29200003,-0.08800001,0.27800003,0.69900006,1.6655229,0,4,1,18
2548714579,1686758198400377,371027965,-763922388,10743,-25025,0.26900002,0.7330157,0.68200004,1.0220001,0.62,1.09,95,20,0.156,-0.106000006,0.115,0.77000004,1.6655229,0,4,1,18
2548917487,1686758198600377,371027962,-763922385,10607,-25160,0.268,0.7330484,0.683,1.024,0.62,1.09,95,20,0.208,-0.097,0.18400002,0.84400004,1.6655229,0,4,1,18
2549120919,1686758198800377,371027960,-763922382,10455,-25313,0.25800002,0.733074,0.683,1.023,0.62,1.09,95,20,0.19000001,-0.179,0.063,0.66300005,1.6655229,0,4,1,18
2549318483,1686758199000377,371027956,-763922380,10316,-25451,0.263,0.75208014,0.683,1.024,0.62,1.09,95,20,0.24000001,-0.22900002,0.07,0.85300004,2.2393942,0,4,1,18
2549518490,1686758199200377,371027953,-763922379,10175,-25592,0.264,0.75210756,0.683,1.023,0.62,1.09,95,20,0.15100001,-0.147,-0.032,0.73800004,2.2393942,0,4,1,18
2549738518,1686758199400377,371027949,-763922379,10064,-25704,0.268,0.7521372,0.683,1.0250001,0.62,1.09,95,23,0.162,-0.162,0.004,0.79700005,2.2393942,0,4,1,18
2549914483,1686758199600377,371027946,-763922377,9935,-25832,0.26200002,0.7521635,0.683,1.024,0.62,1.09,95,23,0.126,-0.101,0.075,0.70900005,2.2393942,0,4,1,18
2550121451,1686758199800377,371027943,-763922376,9826,-25941,0.266,0.7521887,0.684,1.024,0.62,1.09,95,23,0.13000001,-0.11000001,-0.07,0.67800003,2.2393942,0,4,1,18
2550318623,1686758200000377,371027941,-763922379,9755,-26013,0.263,0.75221366,0.684,1.024,0.62,1.09,95,23,0.223,-0.126,-0.18400002,0.648,2.2393942,0,4,1,18
2550518517,1686758200200377,371027941,-763922382,9643,-26125,0.28500003,0.75223404,0.68500006,1.024,0.62,1.09,95,23,0.142,0.035,-0.13800001,0.54,2.2393942,0,4,1,18
2550718550,1686758200400377,371027941,-763922382,9541,-26226,0.28300002,0.7522515,0.68500006,1.023,0.62,1.09,95,16,0.09,0.08800001,0.020000001,0.47200003,2.2393942,0,4,1,18
2550919835,1686758200600377,371027943,-763922382,9449,-26318,0.293,0.7522721,0.68600005,1.024,0.62,1.09,95,16,0.125,0.120000005,-0.034,0.55,2.2393942,0,4,1,18
2551119499,1686758200800377,371027944,-763922383,9375,-26392,0.289,0.7522896,0.68700004,1.0250001,0.62,1.09,95,16,0.133,0.029000001,-0.13000001,0.46,2.2393942,0,4,1,18
2551320084,1686758201000377,371027946,-763922385,9240,-26528,0.29900002,0.7523105,0.688,1.026,0.62,1.09,95,16,0.14,0.12200001,-0.068,0.558,2.2393942,0,4,1,18
2551518202,1686758201200377,371027948,-763922388,9116,-26651,0.294,0.75233513,0.688,1.029,0.62,1.09,95,16,0.20500001,0.082,-0.18900001,0.64000005,2.2393942,0,4,1,18
2551719886,1686758201400377,371027950,-763922392,8945,-26822,0.282,0.7523613,0.688,1.028,0.62,1.09,95,25,0.252,0.013,-0.25100002,0.67300004,2.2393942,0,4,1,18
2551918336,1686758201600377,371027950,-763922397,8788,-26979,0.275,0.752385,0.688,1.028,0.62,1.09,95,25,0.19900002,-0.057000004,-0.19000001,0.623,2.2393942,0,4,1,18
2552119831,1686758201800377,371027948,-763922402,8689,-27078,0.266,0.7097006,0.688,1.0300001,0.62,1.09,95,25,0.34300002,-0.120000005,-0.321,0.69600004,3.3588238,0,4,1,18
2552325973,1686758202000377,371027947,-763922406,8567,-27200,0.27600002,0.70972586,0.688,1.028,0.62,1.09,95,25,0.14500001,-0.05,-0.136,0.64100003,3.3588238,0,4,1,18
2552519553,1686758202200376,371027944,-763922407,8487,-27280,0.25100002,0.7097454,0.69000006,1.031,0.62,1.09,95,25,0.185,-0.178,0.051000003,0.47000003,3.3588238,0,4,1,18
2552711497,1686758202400376,371027942,-763922405,8372,-27396,0.24200001,0.7097653,0.69000006,1.028,0.62,1.09,95,26,0.19900002,-0.19500001,0.041,0.47300002,3.3588238,0,4,1,18
2552916121,1686758202600376,371027940,-763922404,8273,-27494,0.254,0.70978206,0.689,1.024,0.62,1.09,95,26,0.108,-0.042000003,0.1,0.42100003,3.3588238,0,4,1,18
2553117902,1686758202800376,371027939,-763922401,8188,-27579,0.25100002,0.7098023,0.689,1.023,0.62,1.09,95,26,0.128,-0.078,0.101,0.507,3.3588238,0,4,1,18
2553317930,1686758203000376,371027939,-763922400,8101,-27666,0.28500003,0.7098257,0.689,1.023,0.62,1.09,95,26,0.098000005,0.05,-0.08400001,0.59800005,3.3588238,0,4,1,18
2553518331,1686758203200376,371027941,-763922402,7975,-27792,0.27600002,0.709839,0.68700004,1.019,0.62,1.09,95,26,0.07,0.058000002,-0.040000003,0.33600003,3.3588238,0,4,1,18
2553718205,1686758203400376,371027941,-763922401,7961,-27807,0.282,0.7098498,0.68500006,1.0150001,0.62,1.09,95,18,0.096,-0.076000005,0.058000002,-0.12200001,3.3588238,0,4,1,18
2553914484,1686758203600376,371027940,-763922399,8000,-27767,0.27800003,0.70986885,0.683,1.01,0.62,1.09,95,18,0.2,-0.16000001,0.119,-0.44900003,3.3588238,0,4,1,18
2554115589,1686758203800376,371027936,-763922396,8162,-27605,0.29000002,0.62455034,0.683,1.011,0.62,1.09,95,18,0.305,-0.28800002,0.10300001,-0.95300007,3.0430882,0,4,1,18
2554316625,1686758204000376,371027931,-763922394,8384,-27384,0.27800003,0.5050496,0.683,1.008,0.62,1.09,95,18,0.384,-0.37100002,0.1,-1.4300001,2.9433467,0,4,1,18
2554516533,1686758204200376,371027924,-763922392,8724,-27043,0.28,0.5428588,0.68200004,1.008,0.62,1.09,95,18,0.38700002,-0.386,0.0050000004,-1.9380001,3.0295067,0,4,1,18
2554716965,1686758204400376,371027919,-763922391,9158,-26609,0.27600002,0.68117684,0.68200004,1.008,0.62,1.09,95,18,0.30600002,-0.30600002,-0.002,-2.476,3.0756993,0,4,1,18
2554917710,1686758204600376,371027914,-763922391,9708,-26059,0.273,0.6812938,0.68200004,1.008,0.62,1.09,95,18,0.22500001,-0.224,0.017,-2.8930001,3.0756993,0,4,1,18
2555117484,1686758204800376,371027911,-763922390,10319,-25448,0.27,0.68142796,0.68200004,1.008,0.62,1.09,95,18,0.101,-0.101,-0.013,-3.334,3.0756993,0,4,1,18
2555313943,1686758205000376,371027911,-763922389,11031,-24736,0.264,0.68157876,0.683,1.0070001,0.62,1.09,95,18,0.143,0.142,-0.012,-3.7460003,3.0756993,0,4,1,18
2555517482,1686758205200376,371027914,-763922389,11814,-23954,0.26000002,0.60125697,0.683,1.0070001,0.62,1.09,95,18,0.32500002,0.32200003,-0.041,-4.063,4.8083777,0,4,1,18
2555720612,1686758205400376,371027921,-763922389,12639,-23129,0.257,0.44937268,0.684,1.0070001,0.62,1.09,95,23,0.43100002,0.425,-0.074,-4.4300003,5.643573,0,4,1,18
2555917859,1686758205600376,371027931,-763922391,13553,-22215,0.25100002,0.23279461,0.68500006,1.006,0.62,1.09,95,23,0.81700003,0.79800004,-0.17400001,-4.741,5.978474,0,4,1,18
2556120580,1686758205800376,371027946,-763922394,14525,-21243,0.252,0.21839234,0.68700004,1.006,0.62,1.09,95,23,0.882,0.86800003,-0.155,-5.051,6.046473,0,4,1,18
2556324901,1686758206000376,371027964,-763922398,15543,-20225,0.24800001,0.16915573,0.68700004,1.006,0.62,1.09,95,23,1.116,1.085,-0.263,-5.2440004,6.0459976,0,4,1,18
2556525514,1686758206200376,371027985,-763922404,16609,-19159,0.246,0.15030268,0.688,1.006,0.62,1.09,95,23,1.2540001,1.218,-0.3,-5.4300003,6.043426,0,4,1,18
2556717714,1686758206400376,371028007,-763922411,17698,-18069,0.245,0.1403599,0.688,1.005,0.62,1.09,95,23,1.3280001,1.2800001,-0.35200003,-5.6080003,6.027961,0,4,1,18
2556917488,1686758206600376,371028031,-763922419,18826,-16941,0.245,0.13476804,0.689,1.005,0.62,1.09,95,23,1.3790001,1.33,-0.367,-5.8190002,6.020611,0,4,1,18
2557117505,1686758206800376,371028055,-763922428,20020,-15747,0.246,0.12704687,0.689,1.0040001,0.62,1.09,95,23,1.4560001,1.3980001,-0.40800002,-6.0420003,6.009204,0,4,1,18
2557317663,1686758207000376,371028080,-763922437,21261,-14506,0.24700001,0.1296195,0.689,1.0040001,0.62,1.09,95,23,1.424,1.365,-0.407,-6.2910004,6.0014763,0,4,1,18
2557521786,1686758207200376,371028105,-763922445,22531,-13236,0.246,0.12442452,0.689,1.003,0.62,1.09,95,23,1.488,1.4380001,-0.38300002,-6.5810003,6.0128326,0,4,1,18
2557717781,1686758207400376,371028132,-763922454,23847,-11920,0.245,0.11586228,0.688,1.003,0.62,1.09,95,19,1.5890001,1.5230001,-0.453,-6.8420005,6.0026965,0,4,1,18
2557918481,1686758207600376,371028160,-763922463,25235,-10532,0.246,0.11544776,0.68700004,1.0020001,0.62,1.09,95,19,1.6040001,1.5500001,-0.41200003,-7.0220003,6.013234,0,4,1,18
2558115476,1686758207800376,371028188,-763922470,26660,-9107,0.246,0.11415168,0.68700004,1.0020001,0.62,1.09,95,19,1.6790001,1.6520001,-0.3,-7.2330003,6.0595264,0,4,1,18
2558327485,1686758208000375,371028218,-763922476,28120,-7647,0.246,0.1089773,0.68700004,1.0020001,0.62,1.09,95,19,1.7670001,1.746,-0.273,-7.3490005,6.095848,0,4,1,18
2558519492,1686758208200375,371028249,-763922480,29611,-6156,0.24700001,0.10965048,0.68700004,1.001,0.62,1.09,95,19,1.7990001,1.7930001,-0.15100001,-7.438,6.148067,0,4,1,18
2558715520,1686758208400375,371028282,-763922482,31118,-4650,0.245,0.10614045,0.68700004,1.001,0.62,1.09,95,17,1.8960001,1.894,-0.079,-7.36,6.1969914,0,4,1,18
2558918790,1686758208600375,371028317,-763922481,32603,-3164,0.24300002,0.10107812,0.68600005,1.0,0.62,1.09,95,17,2.075,2.072,0.12100001,-7.5210004,6.274119,0,4,1,18
2559119486,1686758208800375,371028356,-763922471,34092,-1675,0.245,0.10411272,0.68600005,0.99700004,0.62,1.09,95,17,2.203,2.1260002,0.57500005,-7.6120005,0.12632431,0,4,1,18
2559319514,1686758209000375,371028397,-763922451,35596,-171,0.24400002,0.09584039,0.68600005,0.994,0.62,1.09,95,17,2.414,2.1430001,1.1110001,-7.5730004,0.32025883,0,4,1,18
2559494287,1686758209200375,371028437,-763922417,37103,1336,0.25300002,0.08395906,0.68500006,0.99300003,0.62,1.09,95,17,2.858,2.223,1.7960001,-7.5520005,0.67956364,0,4,1,18
2559715565,1686758209400375,371028479,-763922369,38581,2814,0.246,0.07480289,0.68500006,0.99200004,0.62,1.09,95,26,3.206,2.19,2.342,-7.3620005,0.818913,0,4,1,18
2559901129,1686758209600375,371028519,-763922308,40063,4296,0.246,0.0661485,0.684,0.99100006,0.62,1.09,95,26,3.6280003,2.0630002,2.9850001,-7.3210006,0.9658943,0,4,1,18
2560099627,1686758209800375,371028557,-763922233,41525,5758,0.245,0.058236223,0.684,0.99200004,0.62,1.09,95,26,4.117,2.039,3.5770001,-7.1040006,1.0526295,0,4,1,18
2560322661,1686758210000375,371028593,-763922146,42945,7178,0.24300002,0.052626036,0.684,0.99300003,0.62,1.09,95,26,4.53,1.9160001,4.105,-6.8890004,1.1340204,0,4,1,18
2560517222,1686758210200375,371028628,-763922046,44344,8576,0.24200001,0.047666334,0.684,0.99300003,0.62,1.09,95,26,4.971,1.8280001,4.623,-6.8110003,1.194215,0,4,1,18
2560717403,1686758210400375,371028661,-763921936,45700,9933,0.24000001,0.043568652,0.684,0.994,0.62,1.09,95,21,5.407,1.705,5.131,-6.5590005,1.2499214,0,4,1,18
2560911483,1686758210600375,371028693,-763921815,47003,11236,0.23600002,0.037144445,0.684,0.994,0.62,1.09,95,21,5.848,1.593,5.6270003,-6.3780003,1.2949016,0,4,1,18
2561118515,1686758210800375,371028722,-763921683,48256,12488,0.23400001,0.03488494,0.683,0.994,0.62,1.09,95,21,6.1780005,1.485,5.997,-6.1060004,1.3280759,0,4,1,18
2561318723,1686758211000375,371028750,-763921544,49459,13691,0.23,0.03279421,0.683,0.99500006,0.62,1.09,95,21,6.544,1.46,6.379,-5.8180003,1.3457853,0,4,1,18
2561518947,1686758211200375,371028778,-763921395,50606,14839,0.22700001,0.033194937,0.68200004,0.99500006,0.62,1.09,95,21,6.9740005,1.4770001,6.8160005,-5.55,1.3573899,0,4,1,18
2561727541,1686758211400375,371028805,-763921235,51707,15939,0.224,0.028758312,0.68200004,0.99500006,0.62,1.09,95,26,7.4070005,1.427,7.268,-5.2900004,1.3768594,0,4,1,18
2561918945,1686758211600375,371028831,-763921066,52761,16993,0.22100002,0.02968962,0.68100005,0.99600005,0.62,1.09,95,26,7.7560005,1.4260001,7.6240005,-5.0480003,1.385888,0,4,1,18
2562119483,1686758211800375,371028857,-763920889,53764,17997,0.21800001,0.02814797,0.68200004,0.99600005,0.62,1.09,95,26,8.163,1.4050001,8.041,-4.769,1.3977783,0,4,1,18
2562320563,1686758212000375,371028882,-763920703,54734,18967,0.21700001,0.02686079,0.68200004,0.99600005,0.62,1.09,95,26,8.534,1.3690001,8.423,-4.5690002,1.4096773,0,4,1,18
2562512915,1686758212200375,371028908,-763920508,55640,19873,0.215,0.025580766,0.68200004,0.99700004,0.62,1.09,95,26,8.949,1.378,8.842,-4.458,1.4162046,0,4,1,18
2562715805,1686758212400375,371028934,-763920304,56492,20725,0.21200001,0.0245025,0.68100005,0.99500006,0.62,1.09,94,22,9.26,1.365,9.159,-4.052,1.4228733,0,4,1,18
2562916591,1686758212600375,371028960,-763920093,57275,21507,0.21200001,0.023904726,0.68100005,0.994,0.62,1.09,94,22,9.599001,1.3510001,9.504001,-3.749,1.4295881,0,4,1,18
2563116922,1686758212800375,371028986,-763919873,58012,22244,0.208,0.022461338,0.68100005,0.99300003,0.62,1.09,94,22,10.080001,1.3950001,9.983001,-3.7240002,1.4319696,0,4,1,18
2563317141,1686758213000375,371029012,-763919642,58737,22969,0.208,0.021525145,0.68100005,0.99200004,0.62,1.09,94,22,10.490001,1.314,10.407001,-3.5040002,1.4451667,0,4,1,18
2563502737,1686758213200375,371029037,-763919401,59408,23641,0.20500001,0.020002693,0.68,0.99100006,0.62,1.09,94,22,11.0390005,1.335,10.958,-3.252,1.4495702,0,4,1,18
2563711511,1686758213400375,371029063,-763919149,60020,24253,0.20600002,0.019294264,0.68,0.99000007,0.62,1.09,94,24,11.452001,1.3510001,11.372001,-3.0170002,1.4525512,0,4,1,18
2563903255,1686758213600375,371029089,-763918888,60584,24817,0.20600002,0.01861184,0.679,0.989,0.62,1.09,94,24,11.875001,1.371,11.795001,-2.753,1.4550902,0,4,1,18
2564116163,1686758213800374,371029114,-763918616,61142,25375,0.20500001,0.017851576,0.679,0.989,0.62,1.09,94,24,12.366,1.3870001,12.288,-2.801,1.4584141,0,4,1,18
2564331022,1686758214000374,371029140,-763918333,61688,25921,0.20600002,0.017186604,0.679,0.98800004,0.62,1.09,94,24,12.827001,1.363,12.754001,-2.812,1.464341,0,4,1,18
2564520563,1686758214200374,371029166,-763918040,62232,26465,0.20600002,0.016650265,0.67800003,0.98600006,0.62,1.09,94,24,13.233001,1.348,13.1640005,-2.637,1.468723,0,4,1,18
2564718222,1686758214400374,371029192,-763917736,62788,27020,0.20600002,0.01592002,0.67800003,0.984,0.62,1.09,94,16,13.832001,1.381,13.7630005,-2.7910001,1.4707956,0,4,1,18
2564914522,1686758214600374,371029217,-763917420,63370,27602,0.20700002,0.015427662,0.67800003,0.98200005,0.62,1.09,94,16,14.242001,1.271,14.185,-2.736,1.4814256,0,4,1,18
2565113488,1686758214800374,371029240,-763917094,63914,28146,0.20700002,0.014878756,0.67700005,0.98,0.62,1.09,94,16,14.733001,1.164,14.687,-2.67,1.4917287,0,4,1,18
2565317658,1686758215000374,371029262,-763916758,64380,28612,0.216,0.01568475,0.67800003,0.97900003,0.62,1.09,94,16,15.192,1.102,15.152,-2.22,1.4982038,0,4,1,18
2565514561,1686758215200374,371029281,-763916413,64786,29018,0.21700001,0.01496899,0.679,0.98100007,0.62,1.09,94,16,15.475,0.93900007,15.4470005,-1.8540001,1.5100639,0,4,1,18
2565720563,1686758215400374,371029299,-763916058,65157,29390,0.21700001,0.014396871,0.68,0.98100007,0.62,1.09,94,20,16.055,0.88900006,16.03,-1.7810001,1.5154157,0,4,1,18
2565917496,1686758215600374,371029314,-763915691,65540,29772,0.215,0.013852503,0.68,0.98200005,0.62,1.09,94,20,16.534,0.83500004,16.513,-1.838,1.5202981,0,4,1,18
2566116900,1686758215800374,371029331,-763915314,65893,30125,0.216,0.0135352025,0.68100005,0.98200005,0.62,1.09,94,20,16.974,0.96500003,16.946001,-1.5280001,1.5138962,0,4,1,18
2566318538,1686758216000374,371029349,-763914926,66225,30457,0.216,0.0135163525,0.68100005,0.98100007,0.62,1.09,94,20,17.433,0.934,17.408,-1.713,1.5171669,0,4,1,18
2566521175,1686758216200374,371029367,-763914526,66582,30814,0.21700001,0.013077752,0.68200004,0.98,0.62,1.09,94,20,18.012001,0.9480001,17.987001,-1.9790001,1.5181599,0,4,1,18
2566725198,1686758216400374,371029387,-763914118,66940,31172,0.21700001,0.012939347,0.683,0.97900003,0.62,1.09,94,30,18.225,1.0990001,18.192001,-1.725,1.5104487,0,4,1,18
2566914493,1686758216600374,371029408,-763913703,67282,31514,0.21800001,0.012712105,0.683,0.97800004,0.62,1.09,94,30,18.570002,1.1580001,18.534,-1.6370001,1.5083694,0,4,1,18
2567114486,1686758216800374,371029431,-763913282,67602,31834,0.216,0.012499698,0.684,0.97700006,0.62,1.09,94,30,18.891,1.2470001,18.85,-1.6550001,1.5047313,0,4,1,18
2567321793,1686758217000374,371029455,-763912852,67926,32159,0.21800001,0.0122466255,0.68500006,0.9760001,0.62,1.09,94,30,19.330002,1.3240001,19.285002,-1.7070001,1.5022622,0,4,1,18
2567526781,1686758217200374,371029481,-763912415,68243,32475,0.21800001,0.012107348,0.68600005,0.9760001,0.62,1.09,94,30,19.543001,1.3790001,19.494001,-1.6110001,1.500183,0,4,1,18
2567714495,1686758217400374,371029509,-763911974,68523,32755,0.21800001,0.012014671,0.68600005,0.975,0.62,1.09,94,24,19.728,1.534,19.668001,-1.4100001,1.4929581,0,4,1,18
2567914488,1686758217600374,371029539,-763911529,68807,33039,0.21000001,0.011642742,0.68700004,0.97400004,0.62,1.09,94,24,19.891,1.6780001,19.820002,-1.4440001,1.4863466,0,4,1,18
2568113707,1686758217800374,371029571,-763911082,69073,33305,0.209,0.011603472,0.68700004,0.97300005,0.62,1.09,94,24,19.934,1.613,19.869001,-1.4410001,1.4897913,0,4,1,18
2568315731,1686758218000374,371029600,-763910634,69365,33597,0.20600002,0.010973059,0.68700004,0.97200006,0.62,1.09,94,24,19.972,1.5320001,19.913,-1.475,1.4940239,0,4,1,18
2568515539,1686758218200374,371029630,-763910186,69657,33889,0.20400001,0.011015819,0.68700004,0.9710001,0.62,1.09,94,24,19.881,1.5200001,19.823002,-1.4360001,1.4942442,0,4,1,18
2568720346,1686758218400374,371029657,-763909742,69936,34168,0.19600001,0.011053169,0.68600005,0.96900004,0.62,1.09,94,26,19.730001,1.437,19.678001,-1.2850001,1.4978851,0,4,1,18
2568922338,1686758218600374,371029683,-763909304,70207,34439,0.19100001,0.011157541,0.684,0.96800005,0.62,1.09,94,26,19.497002,1.389,19.448002,-1.2310001,1.4995182,0,4,1,18
2569111477,1686758218800374,371029709,-763908871,70456,34688,0.18900001,0.011627383,0.68200004,0.96700007,0.62,1.09,94,26,19.297,1.3510001,19.249,-1.4120001,1.500714,0,4,1,18
2569318477,1686758219000374,371029734,-763908445,70765,34997,0.18900001,0.01166386,0.68,0.96400005,0.62,1.09,94,26,19.036001,1.343,18.989,-1.572,1.5002029,0,4,1,18
2569515482,1686758219200374,371029758,-763908023,71103,35335,0.19500001,0.012456764,0.67800003,0.96400005,0.62,1.09,94,26,18.623001,1.3670001,18.573,-1.6070001,1.4973235,0,4,1,18
2569716281,1686758219400374,371029781,-763907609,71508,35740,0.19800001,0.012776682,0.67600006,0.96300006,0.62,1.09,94,20,18.174002,1.2950001,18.127,-2.061,1.4994521,0,4,1,18
2569915484,1686758219600373,371029803,-763907204,72039,36271,0.2,0.011895989,0.674,0.96300006,0.62,1.09,94,20,17.837002,1.199,17.796001,-2.532,1.5035496,0,4,1,18
2570119474,1686758219800373,371029824,-763906806,72568,36800,0.19900002,0.012051847,0.67300004,0.9620001,0.62,1.09,94,20,17.570002,1.0890001,17.536001,-2.5240002,1.5087715,0,4,1,18
2570319488,1686758220000373,371029843,-763906413,73117,37348,0.19900002,0.01204853,0.671,0.961,0.62,1.09,94,20,17.506,1.0250001,17.476002,-2.595,1.5121874,0,4,1,18
2570515542,1686758220200373,371029862,-763906021,73633,37865,0.202,0.012152028,0.669,0.96000004,0.62,1.09,94,20,17.384,1.039,17.353,-2.355,1.5109775,0,4,1,18
2570715535,1686758220400373,371029881,-763905630,74096,38328,0.2,0.0119247865,0.66800004,0.957,0.62,1.09,94,29,17.434,0.98200005,17.406,-2.1680002,1.5144647,0,4,1,18
2570915479,1686758220600373,371029900,-763905240,74507,38738,0.19800001,0.013141281,0.666,0.95500004,0.62,1.09,94,29,17.312,1.093,17.278,-2.108,1.5075984,0,4,1,18
2571115721,1686758220800373,371029918,-763904852,74946,39177,0.2,0.0131096905,0.665,0.952,0.62,1.09,94,29,17.331001,0.94500005,17.306002,-2.091,1.5162272,0,4,1,18
2571318734,1686758221000373,371029935,-763904465,75350,39582,0.2,0.0132685155,0.66400003,0.95000005,0.62,1.09,94,29,17.12,0.92,17.096,-2.0180001,1.5170612,0,4,1,18
2571515485,1686758221200373,371029951,-763904084,75756,39987,0.19700001,0.013481795,0.66300005,0.94900006,0.62,1.09,94,29,16.954,0.869,16.932001,-2.0990002,1.5195459,0,4,1,18
2571719641,1686758221400373,371029966,-763903709,76186,40417,0.19800001,0.013789322,0.66200006,0.9480001,0.62,1.09,94,23,16.583,0.869,16.560001,-2.072,1.5183539,0,4,1,18
2571917919,1686758221600373,371029981,-763903340,76592,40824,0.201,0.014222687,0.661,0.947,0.62,1.09,94,23,16.331001,0.86600006,16.308,-2.138,1.5177175,0,4,1,18
2572120347,1686758221800373,371029996,-763902980,76989,41221,0.201,0.014755711,0.66,0.947,0.62,1.09,94,23,15.865001,0.87700003,15.841001,-1.8490001,1.5155123,0,4,1,18
2572324569,1686758222000373,371030012,-763902627,77369,41601,0.20600002,0.013878858,0.66,0.947,0.62,1.09,94,23,15.557001,0.791,15.537001,-2.0180001,1.5199127,0,4,1,18
2572513485,1686758222200373,371030027,-763902282,77733,41964,0.20700002,0.014504733,0.66,0.9480001,0.62,1.09,94,23,15.219001,0.795,15.199,-1.7120001,1.5185434,0,4,1,18
2572716553,1686758222400373,371030042,-763901944,78036,42267,0.208,0.01493164,0.66,0.94900006,0.62,1.09,94,29,14.85,0.74,14.832001,-1.5400001,1.5209711,0,4,1,18
2572916190,1686758222600373,371030055,-763901614,78308,42540,0.208,0.015205133,0.65900004,0.95000005,0.62,1.09,94,29,14.592001,0.65500003,14.578001,-1.337,1.5258803,0,4,1,18
2573116557,1686758222800373,371030067,-763901288,78560,42791,0.20300001,0.015161499,0.65900004,0.95100003,0.62,1.09,94,29,14.408001,0.637,14.394001,-1.19,1.5265573,0,4,1,18
2573293723,1686758223000373,371030079,-763900968,78771,43003,0.209,0.015902393,0.65900004,0.95300007,0.62,1.09,94,29,14.122001,0.646,14.107,-1.0070001,1.5250258,0,4,1,18
2573519900,1686758223200373,371030091,-763900655,78890,43121,0.20500001,0.016007636,0.65900004,0.95400006,0.62,1.09,94,29,13.811001,0.586,13.799001,-0.50100005,1.5283331,0,4,1,18
2573719900,1686758223400373,371030104,-763900347,78965,43196,0.209,0.016779246,0.66,0.95600003,0.62,1.09,94,23,13.646001,0.71300006,13.628,-0.384,1.5185337,0,4,1,18
2573917950,1686758223600373,371030119,-763900043,79016,43247,0.21000001,0.016572423,0.66,0.95800006,0.62,1.09,94,23,13.441001,0.85600007,13.413001,-0.36200002,1.5070572,0,4,1,18
2574117904,1686758223800373,371030137,-763899745,79049,43280,0.19900002,0.016195258,0.66,0.95600003,0.62,1.09,94,23,13.169001,0.933,13.136001,-0.36400002,1.4998854,0,4,1,18
2574320178,1686758224000373,371030158,-763899453,79099,43330,0.201,0.017194983,0.65900004,0.957,0.62,1.09,94,23,12.944,1.1600001,12.891001,-0.47000003,1.4810342,0,4,1,18
2574516558,1686758224200373,371030182,-763899164,79110,43341,0.2,0.017690307,0.65900004,0.957,0.62,1.09,94,23,12.824,1.296,12.759001,-0.192,1.4695691,0,4,1,18
2574719577,1686758224400373,371030208,-763898880,79129,43360,0.19900002,0.02028055,0.65900004,0.957,0.62,1.09,94,29,12.554001,1.557,12.457001,-0.19700001,1.4464514,0,4,1,18
2574916729,1686758224600373,371030236,-763898601,79184,43415,0.21300001,0.018982025,0.66,0.95900005,0.62,1.09,94,29,12.299001,1.5370001,12.203001,-0.314,1.445536,0,4,1,18
2575117474,1686758224800373,371030264,-763898328,79260,43491,0.20600002,0.019446632,0.661,0.961,0.62,1.09,94,29,12.043,1.639,11.931001,-0.266,1.4342458,0,4,1,18
2575317695,1686758225000373,371030295,-763898061,79285,43517,0.20500001,0.019708257,0.66200006,0.96300006,0.62,1.09,94,29,11.889001,1.6860001,11.769001,-0.201,1.428479,0,4,1,18
2575517732,1686758225200373,371030327,-763897799,79310,43541,0.20300001,0.020252625,0.66200006,0.96400005,0.62,1.09,94,29,11.6380005,1.8720001,11.486001,-0.047000002,1.4092014,0,4,1,18
2575718519,1686758225400373,371030362,-763897543,79316,43547,0.20300001,0.020739397,0.66300005,0.966,0.62,1.09,94,24,11.391001,1.9460001,11.223001,-0.101,1.3991104,0,4,1,18
2575915601,1686758225600372,371030399,-763897294,79303,43534,0.202,0.020970827,0.66300005,0.96700007,0.62,1.09,94,24,11.156,2.019,10.972,-0.08800001,1.3887975,0,4,1,18
2576115499,1686758225800372,371030435,-763897050,79295,43526,0.20500001,0.02141606,0.66300005,0.96900004,0.62,1.09,94,24,10.904,1.889,10.739,0.0,1.3966508,0,4,1,18
2576325275,1686758226000372,371030469,-763896812,79230,43461,0.209,0.021326177,0.66400003,0.97200006,0.62,1.09,94,24,10.620001,1.6800001,10.487,0.316,1.4119072,0,4,1,18
2576527054,1686758226200372,371030499,-763896579,79122,43353,0.21000001,0.022182086,0.66400003,0.975,0.62,1.09,94,24,10.338,1.5450001,10.222,0.455,1.4208146,0,4,1,18
2578913027,1686758228600372,371030609,-763894333,72786,37017,0.21800001,0.035114627,0.675,1.013,0.62,1.09,94,18,6.9110003,-1.0350001,6.833,4.537,1.7211238,0,4,1,18
2579524662,1686758229200372,371030533,-763893875,69770,34001,0.21700001,0.03365588,0.67700005,1.0200001,0.62,1.09,94,18,6.9470005,-1.9760001,6.6600003,5.1530004,1.8592181,0,4,1,18
2579716956,1686758229400372,371030497,-763893727,68676,32907,0.21800001,0.033606835,0.67800003,1.0220001,0.62,1.09,94,22,6.9140005,-2.176,6.5620003,5.497,1.8909367,0,4,1,18
2579919538,1686758229600372,371030454,-763893582,67594,31825,0.21700001,0.03399814,0.679,1.0250001,0.62,1.09,94,22,6.8480005,-2.5080001,6.372,5.32,1.9458177,0,4,1,18
2580115537,1686758229800372,371030407,-763893442,66527,30758,0.215,0.033625163,0.68,1.0270001,0.62,1.09,94,22,6.8110003,-2.815,6.202,5.089,1.9968616,0,4,1,18
2580312989,1686758230000372,371030354,-763893302,65510,29741,0.21300001,0.03230901,0.68100005,1.029,0.62,1.09,94,22,6.9630003,-3.1330001,6.2180004,4.7980003,2.037591,0,4,1,18
2580516724,1686758230200372,371030297,-763893163,64582,28812,0.21400002,0.033135246,0.68200004,1.0300001,0.62,1.09,94,22,7.043,-3.2250001,6.262,4.4940004,2.0463624,0,4,1,18
2580719781,1686758230400372,371030237,-763893023,63684,27915,0.21400002,0.03258547,0.683,1.0320001,0.62,1.09,94,19,7.1270003,-3.38,6.274,4.4370003,2.064888,0,4,1,18
2580916560,1686758230600372,371030176,-763892881,62813,27044,0.21000001,0.03079511,0.683,1.033,0.62,1.09,94,19,7.267,-3.436,6.4030004,4.177,2.0633256,0,4,1,18
2581119604,1686758230800372,371030113,-763892736,62001,26232,0.21000001,0.03037379,0.684,1.033,0.62,1.09,94,19,7.3700004,-3.479,6.497,4.007,2.0624702,0,4,1,18
2581319474,1686758231000372,371030050,-763892589,61206,25437,0.209,0.02955872,0.684,1.034,0.62,1.09,94,19,7.57,-3.578,6.6710005,3.88,2.0630686,0,4,1,18
2581516867,1686758231200372,371029986,-763892438,60423,24653,0.202,0.029152757,0.684,1.034,0.62,1.09,94,19,7.669,-3.5170002,6.814,3.808,2.0472693,0,4,1,18
2581723432,1686758231400372,371029924,-763892283,59652,23883,0.201,0.02845253,0.684,1.034,0.62,1.09,94,25,7.8310003,-3.4870002,7.011,3.676,2.0322764,0,4,1,18
2581921115,1686758231600371,371029861,-763892124,58931,23162,0.209,0.028307842,0.684,1.0350001,0.62,1.09,94,25,7.9290004,-3.4600003,7.1340003,3.4580002,2.0223904,0,4,1,18
2582116562,1686758231800371,371029799,-763891963,58213,22444,0.21000001,0.028162457,0.68500006,1.036,0.62,1.09,94,25,7.965,-3.4830003,7.163,3.4600003,2.0233157,0,4,1,18
