timestamp,ref_timestamp,ref_lat,ref_lon,x,y,z,delta_xy[0],delta_xy[1],delta_z,vx,vy,vz,z_deriv,delta_vxy[0],delta_vxy[1],delta_vz,ax,ay,az,yaw,ref_alt,dist_bottom,dist_bottom_rate,eph,epv,evh,evv,vxy_max,vz_max,hagl_min,hagl_max,xy_valid,z_valid,v_xy_valid,v_z_valid,xy_reset_counter,z_reset_counter,vxy_reset_counter,vz_reset_counter,xy_global,z_global,dist_bottom_valid
2508952539,16626177,37.1028221,-76.392246,-3.0859082,1.0321227,3.013059,0.0014296504,-0.0004615323,0.0,0.038401175,0.038072277,-0.02726733,-0.012229244,-0.0014411984,-0.04349453,-0.007694766,0.0006521751,0.017048137,-0.013390768,-0.044355724,6.121544,0.10356903,0.02726733,0.3491936,0.23469509,0.1633722,0.09489328,inf,inf,inf,inf,1,1,1,1,2,0,2,2,1,1,0
2509056524,16626177,37.1028221,-76.392246,-3.079901,1.0366594,3.0103033,0.0014296504,-0.0004615323,0.0,0.030328661,0.04966984,-0.026712114,-0.013748282,-0.0014411984,-0.04349453,-0.007694766,-1.4213681,-0.29649734,1.1090482,-0.044888716,6.121544,0.10632467,0.026712114,0.3379708,0.23462288,0.15913565,0.094645664,inf,inf,inf,inf,1,1,1,1,2,0,2,2,1,1,0
2509156597,16626177,37.1028221,-76.392246,-3.074372,1.0410088,3.0116692,0.0014296504,-0.0004615323,0.0,0.061595686,0.07474111,-0.027244445,-0.012018401,-0.0014411984,-0.04349453,-0.007694766,1.8244773,1.8139352,0.09667657,-0.04391901,6.121544,0.10495877,0.027244445,0.34954968,0.23502533,0.1634756,0.0949755,inf,inf,inf,inf,1,1,1,1,2,0,2,2,1,1,0
2509258110,16626177,37.1028221,-76.392246,-3.0690985,1.0457033,3.012554,0.0014296504,-0.0004615323,0.0,0.07340064,0.06788544,-0.0286674,-0.012064546,-0.0014411984,-0.04349453,-0.007694766,-1.0380372,3.3937945,0.3118817,-0.043865185,6.121544,0.104074,0.0286674,0.33831728,0.23493214,0.15922862,0.09471886,inf,inf,inf,inf,1,1,1,1,2,0,2,2,1,1,0
2509362207,16626177,37.1028221,-76.392246,-3.0649636,1.0514554,3.0139346,0.0014296504,-0.0004615323,0.0,0.050646693,0.03163333,-0.021253012,-0.0032678158,-0.0014411984,-0.04349453,-0.007694766,1.299059,0.8873908,-0.69981444,-0.044049125,6.121544,0.10269332,0.021253012,0.3510904,0.23604454,0.16402793,0.095230855,inf,inf,inf,inf,1,1,1,1,2,0,2,2,1,1,0
2509466182,16626177,37.1028221,-76.392246,-3.0563176,1.0593331,3.015956,0.0014296504,-0.0004615323,0.0,0.020692715,0.049183488,-0.024447184,-0.004594599,-0.0014411984,-0.04349453,-0.007694766,0.0643297,-0.31029305,-0.33853126,-0.04440097,6.121544,0.10067201,0.024447184,0.3397785,0.23432818,0.15972278,0.094592445,inf,inf,inf,inf,1,1,1,1,2,0,2,2,1,1,0
2509565968,16626177,37.1028221,-76.392246,-3.0496724,1.0654681,3.0162773,0.0014296504,-0.0004615323,0.0,0.059615206,0.05736671,-0.024225606,-0.004293854,-0.0014411984,-0.04349453,-0.007694766,-0.64538586,0.5142184,0.33286113,-0.04427786,6.121544,0.10035062,0.024225606,0.35142127,0.23638065,0.16406952,0.095309965,inf,inf,inf,inf,1,1,1,1,2,0,2,2,1,1,0
2509670002,16626177,37.1028221,-76.392246,-3.0447228,1.0725498,3.0192475,0.0014296504,-0.0004615323,0.0,0.04239707,0.039441526,-0.032806423,-0.010061916,-0.0014411984,-0.04349453,-0.007694766,-1.9739963,-0.06320847,0.40126398,-0.043868486,6.121544,0.1,0.032806423,0.34010333,0.23463702,0.15978849,0.0946658,inf,inf,inf,inf,1,1,1,1,2,0,2,2,1,1,0
2509770134,16626177,37.1028221,-76.392246,-3.0401592,1.0794874,3.0241683,0.0014296504,-0.0004615323,0.0,0.052486196,0.064360365,-0.08080606,-0.05094494,-0.0014411984,-0.04349453,-0.007694766,2.1013741,-1.3863074,3.056518,-0.046445,6.121544,0.1,0.08080606,0.32932433,0.23453116,0.15558264,0.09439346,inf,inf,inf,inf,1,1,1,1,2,0,2,2,1,1,0
2509870115,16626177,37.1028221,-76.392246,-3.0272815,1.0865016,3.026289,0.0014296504,-0.0004615323,0.0,0.2491462,0.040103752,-0.20192106,-0.16400196,-0.0014411984,-0.04349453,-0.007694766,4.889485,-4.0927854,-1.324716,-0.049400683,6.121544,0.1,0.20192106,0.3404767,0.23494907,0.15992565,0.094739914,inf,inf,inf,inf,1,1,1,1,2,0,2,2,1,1,0
2509974122,16626177,37.1028221,-76.392246,-2.9858718,1.0857041,3.0068524,0.0014296504,-0.0004615323,0.0,0.4026596,-0.06037533,-0.48745456,-0.43911248,-0.0014411984,-0.04349453,-0.007694766,-0.8290794,-3.266412,1.1286185,-0.04832064,6.121544,0.10977554,0.48745456,0.32969078,0.234855,0.15550546,0.09447186,inf,inf,inf,inf,1,1,1,1,2,0,2,2,1,1,0
2510074017,16626177,37.1028221,-76.392246,-2.954483,1.0849243,2.9560468,0.0014296504,-0.0004615323,0.0,0.3221153,-0.008136856,-0.7673221,-0.7116019,-0.0014411984,-0.04349453,-0.007694766,1.2604032,-1.6915846,-2.5535638,-0.04379304,6.121544,0.16058111,0.7673221,0.34182224,0.23424193,0.16147596,0.09460125,inf,inf,inf,inf,1,1,1,1,2,0,2,2,1,1,0
2510174012,16626177,37.1028221,-76.392246,-2.9159162,1.0810596,2.8793433,0.0014296504,-0.0004615323,0.0,0.3764546,-0.054181673,-0.90722615,-0.8509181,-0.0014411984,-0.04349453,-0.007694766,1.263136,0.8698681,6.3254476,-0.0388094,6.121544,0.23728466,0.90722615,0.33004606,0.23359269,0.157967,0.09418559,inf,inf,inf,inf,1,1,1,1,2,0,2,2,1,1,0
2510277952,16626177,37.1028221,-76.392246,-2.8716955,1.078035,2.7827911,0.0014296504,-0.0004615323,0.0,0.3618282,-0.07305235,-0.95767146,-0.9084845,-0.0014411984,-0.04349453,-0.007694766,-0.005321221,-3.3715959,3.2111022,-0.033214603,6.121544,0.3338368,0.95767146,0.34232813,0.23460737,0.16382682,0.094699845,inf,inf,inf,inf,1,1,1,1,2,0,2,2,1,1,0
2510378021,16626177,37.1028221,-76.392246,-2.83368,1.0730875,2.671079,0.0014296504,-0.0004615323,0.0,0.25709328,-0.060705848,-0.97349936,-0.94559956,-0.0014411984,-0.04349453,-0.007694766,-0.37155855,1.9669627,0.17991376,-0.027366482,6.121544,0.445549,0.97349936,0.33108598,0.23451132,0.15953915,0.09443348,inf,inf,inf,inf,1,1,1,1,2,0,2,2,1,1,0
2510482231,16626177,37.1028221,-76.392246,-2.8027833,1.0671061,2.551622,0.0014296504,-0.0004615323,0.0,0.21122634,-0.03496683,-0.97726643,-0.97119075,-0.0014411984,-0.04349453,-0.007694766,-0.22123589,2.4944522,-0.7864798,-0.0228981,6.121544,0.565006,0.97726643,0.34344885,0.23551187,0.16435942,0.094935514,inf,inf,inf,inf,1,1,1,1,2,0,2,2,1,1,0
2510586149,16626177,37.1028221,-76.392246,-2.783949,1.0645984,2.4419036,0.0014296504,-0.0004615323,0.0,0.07040696,-0.009509746,-0.9510847,-0.9559028,-0.0014411984,-0.04349453,-0.007694766,0.17856777,-0.29829964,4.2306333,-0.020003865,6.121544,0.67472434,0.9510847,0.33205026,0.23380342,0.15963778,0.094290696,inf,inf,inf,inf,1,1,1,1,2,0,2,2,1,1,0
2510690004,16626177,37.1028221,-76.392246,-2.7764435,1.0620468,2.3322275,0.0014296504,-0.0004615323,0.0,-0.04680441,0.059234872,-0.94106376,-0.9563724,-0.0014411984,-0.04349453,-0.007694766,-1.38084,1.7563704,-4.98738,-0.018069366,6.121544,0.78440046,0.94106376,0.34443933,0.23480965,0.16416056,0.09478822,inf,inf,inf,inf,1,1,1,1,2,0,2,2,1,1,0
2510790180,16626177,37.1028221,-76.392246,-2.781621,1.0639602,2.232964,0.0014296504,-0.0004615323,0.0,-0.17290185,0.09683889,-0.9201636,-0.9391211,-0.0014411984,-0.04349453,-0.007694766,-3.9739122,0.738708,-1.2852485,-0.01716392,6.121544,0.8836639,0.9201636,0.3320736,0.23416172,0.15908413,0.09437087,inf,inf,inf,inf,1,1,1,1,2,0,2,2,1,1,0
2510894130,16626177,37.1028221,-76.392246,-2.7949545,1.0687805,2.1311252,0.0014296504,-0.0004615323,0.0,-0.2785984,0.1546445,-0.91534525,-0.9376741,-0.0014411984,-0.04349453,-0.007694766,-1.0551953,1.7430208,0.22695833,-0.017133491,6.121544,0.9855027,0.91534525,0.34444135,0.23518528,0.16372702,0.09487694,inf,inf,inf,inf,1,1,1,1,2,0,2,2,1,1,0
2510994113,16626177,37.1028221,-76.392246,-2.8208258,1.0793531,2.0361578,0.0014296504,-0.0004615323,0.0,-0.36354586,0.21690045,-0.9005625,-0.9239617,-0.0014411984,-0.04349453,-0.007694766,1.1770579,1.7259699,-3.1287663,-0.017999005,6.121544,1.0804701,0.9005625,0.3329517,0.23351042,0.15901712,0.09424749,inf,inf,inf,inf,1,1,1,1,2,0,2,2,1,1,0
2511098136,16626177,37.1028221,-76.392246,-2.8594112,1.0961115,1.9450519,0.0014296504,-0.0004615323,0.0,-0.45087305,0.26979998,-0.9135583,-0.9311731,-0.0014411984,-0.04349453,-0.007694766,-1.1806666,2.602295,-0.8052921,-0.01939992,6.121544,1.171576,0.9135583,0.34532785,0.23453222,0.16364059,0.09476182,inf,inf,inf,inf,1,1,1,1,2,0,2,2,1,1,0
2511198182,16626177,37.1028221,-76.392246,-2.904603,1.1178983,1.8578682,0.0014296504,-0.0004615323,0.0,-0.51043177,0.32001877,-0.90179026,-0.9143078,-0.0014411984,-0.04349453,-0.007694766,-3.2538576,0.36942226,-7.363774,-0.02145707,6.121544,1.2587597,0.90179026,0.33271396,0.23388919,0.15870628,0.09435529,inf,inf,inf,inf,1,1,1,1,2,0,2,2,1,1,0
2511298171,16626177,37.1028221,-76.392246,-2.9543676,1.1398798,1.7679399,0.0014296504,-0.0004615323,0.0,-0.5557152,0.37266338,-0.91710025,-0.9268725,-0.0014411984,-0.04349453,-0.007694766,-0.4199,0.33798468,1.8174616,-0.02354055,6.121544,1.348688,0.91710025,0.3450667,0.23489632,0.16342705,0.094873406,inf,inf,inf,inf,1,1,1,1,2,0,2,2,1,1,0
2511402010,16626177,37.1028221,-76.392246,-3.0103295,1.1702073,1.676295,0.0014296504,-0.0004615323,0.0,-0.59466,0.41045344,-0.8961522,-0.90161014,-0.0014411984,-0.04349453,-0.007694766,0.5310791,0.79634374,-2.862632,-0.026176117,6.121544,1.4403329,0.8961522,0.3333746,0.23481989,0.15872325,0.094616316,inf,inf,inf,inf,1,1,1,1,2,0,2,2,1,1,0
2511506179,16626177,37.1028221,-76.392246,-3.0679648,1.2037956,1.5887027,0.0014296504,-0.0004615323,0.0,-0.6107688,0.41218835,-0.84543043,-0.8461244,-0.0014411984,-0.04349453,-0.007694766,-1.4029156,0.74628687,-0.75088024,-0.028375326,6.121544,1.5279253,0.84543043,0.34574905,0.23584606,0.16349061,0.09513823,inf,inf,inf,inf,1,1,1,1,2,0,2,2,1,1,0
2511606131,16626177,37.1028221,-76.392246,-3.1257403,1.2349654,1.5062852,0.0014296504,-0.0004615323,0.0,-0.6205623,0.423047,-0.81383103,-0.81303334,-0.0014411984,-0.04349453,-0.007694766,-0.5489157,1.2493933,1.1970634,-0.028091103,6.121544,1.6103427,0.81383103,0.33318594,0.23517027,0.15849598,0.09472365,inf,inf,inf,inf,1,1,1,1,2,0,2,2,1,1,0
2511710213,16626177,37.1028221,-76.392246,-3.1862807,1.2633569,1.4189531,0.0014296504,-0.0004615323,0.0,-0.6303831,0.41683993,-0.8042602,-0.80516815,-0.0014411984,-0.04349453,-0.007694766,-3.7915788,0.65037465,-7.426969,-0.025923109,6.121544,1.6976749,0.8042602,0.3455365,0.23454984,0.16304564,0.09485483,inf,inf,inf,inf,1,1,1,1,2,0,2,2,1,1,0
2511810001,16626177,37.1028221,-76.392246,-3.2473133,1.2915641,1.3341814,0.0014296504,-0.0004615323,0.0,-0.6090762,0.39392573,-0.7752573,-0.7802341,-0.0014411984,-0.04349453,-0.007694766,-1.2812628,-0.70786,-0.055102304,-0.022768807,6.121544,1.7824465,0.7752573,0.333934,0.23447183,0.1584628,0.094599366,inf,inf,inf,inf,1,1,1,1,2,0,2,2,1,1,0
2511910127,16626177,37.1028221,-76.392246,-3.309641,1.32064,1.2569487,0.0014296504,-0.0004615323,0.0,-0.59336597,0.3731545,-0.73116994,-0.73722637,-0.0014411984,-0.04349453,-0.007694766,-0.5625421,-0.62545025,0.8922758,-0.020824032,6.121544,1.8596792,0.73116994,0.34533063,0.23490924,0.16258034,0.09495622,inf,inf,inf,inf,1,1,1,1,2,0,2,2,1,1,0
2512014008,16626177,37.1028221,-76.392246,-3.3735623,1.3485955,1.1782901,0.0014296504,-0.0004615323,0.0,-0.5483249,0.35464373,-0.68212837,-0.6938424,-0.0014411984,-0.04349453,-0.007694766,2.0912516,0.06141882,3.1588514,-0.01988664,6.121544,1.9383378,0.68212837,0.3337626,0.23484245,0.15793596,0.094702,inf,inf,inf,inf,1,1,1,1,2,0,2,2,1,1,0
2512114117,16626177,37.1028221,-76.392246,-3.433283,1.3720239,1.1043591,0.0014296504,-0.0004615323,0.0,-0.51034135,0.32181075,-0.6095431,-0.63092947,-0.0014411984,-0.04349453,-0.007694766,2.4555445,-2.4433146,4.041792,-0.020079026,6.121544,2.0122688,0.6095431,0.34609553,0.2342471,0.16231684,0.09483482,inf,inf,inf,inf,1,1,1,1,2,0,2,2,1,1,0
2512218213,16626177,37.1028221,-76.392246,-3.492891,1.390655,1.030519,0.0014296504,-0.0004615323,0.0,-0.47878107,0.28530884,-0.52833855,-0.56211483,-0.0014411984,-0.04349453,-0.007694766,0.21591312,-1.977138,-4.827513,-0.021199146,6.121544,2.086109,0.52833855,0.33450657,0.23416215,0.15761593,0.09457735,inf,inf,inf,inf,1,1,1,1,2,0,2,2,1,1,0
2512322180,16626177,37.1028221,-76.392246,-3.5483952,1.4039474,0.96146286,0.0014296504,-0.0004615323,0.0,-0.42416507,0.24009681,-0.4633373,-0.5099197,-0.0014411984,-0.04349453,-0.007694766,2.2748876,-2.6941762,-3.6191535,-0.022169318,6.121544,2.1551652,0.4633373,0.34684265,0.23516609,0.16190204,0.09507736,inf,inf,inf,inf,1,1,1,1,2,0,2,2,1,1,0
2512422099,16626177,37.1028221,-76.392246,-3.5950127,1.4108018,0.902664,0.0014296504,-0.0004615323,0.0,-0.37021515,0.18731366,-0.3929725,-0.44992685,-0.0014411984,-0.04349453,-0.007694766,3.9018543,1.6240227,-0.9300518,-0.022377387,6.121544,2.213964,0.3929725,0.3343605,0.23451205,0.15693258,0.0946652,inf,inf,inf,inf,1,1,1,1,2,0,2,2,1,1,0
2512526128,16626177,37.1028221,-76.392246,-3.6365597,1.4134915,0.84963864,0.0014296504,-0.0004615323,0.0,-0.31574586,0.14397915,-0.32813036,-0.39282593,-0.0014411984,-0.04349453,-0.007694766,-0.33443865,1.7995698,-4.718611,-0.022935323,6.121544,2.2669892,0.32813036,0.34665596,0.23552968,0.16126494,0.09517163,inf,inf,inf,inf,1,1,1,1,2,0,2,2,1,1,0
2512626158,16626177,37.1028221,-76.392246,-3.6673884,1.4069258,0.80252,0.0014296504,-0.0004615323,0.0,-0.24378762,0.09526238,-0.27229926,-0.3448447,-0.0014411984,-0.04349453,-0.007694766,0.67073506,-0.020887371,2.2251043,-0.023538657,6.121544,2.314108,0.27229926,0.33502257,0.23384474,0.15659423,0.094544806,inf,inf,inf,inf,1,1,1,1,2,0,2,2,1,1,0
2512727630,16626177,37.1028221,-76.392246,-3.6900806,1.3968804,0.75914836,0.0014296504,-0.0004615323,0.0,-0.16681552,0.03738069,-0.24118328,-0.32249233,-0.0014411984,-0.04349453,-0.007694766,1.7024437,-1.4180557,7.6235003,-0.023794342,6.121544,2.3574796,0.24118328,0.3473148,0.23483697,0.16099598,0.09504551,inf,inf,inf,inf,1,1,1,1,2,0,2,2,1,1,0
2512827705,16626177,37.1028221,-76.392246,-3.7069542,1.3831891,0.7261471,0.0014296504,-0.0004615323,0.0,-0.10862553,0.023146503,-0.17541465,-0.2602046,-0.0014411984,-0.04349453,-0.007694766,-0.12640563,-2.4591255,-10.08204,-0.02493349,6.121544,2.3904808,0.17541465,0.33438054,0.23562251,0.1560873,0.09499802,inf,inf,inf,inf,1,1,1,1,2,0,2,2,1,1,0
2512931768,16626177,37.1028221,-76.392246,-3.7177157,1.3668364,0.6935729,0.0014296504,-0.0004615323,0.0,-0.03371851,-0.019909028,-0.14422198,-0.23391242,-0.0014411984,-0.04349453,-0.007694766,1.7779796,-0.28043664,-1.1586431,-0.025554925,6.121544,2.4230552,0.14422198,0.34662,0.23498067,0.16053407,0.09512021,inf,inf,inf,inf,1,1,1,1,2,0,2,2,1,1,0
2513031609,16626177,37.1028221,-76.392246,-3.72148,1.3502338,0.6625755,0.0014296504,-0.0004615323,0.0,0.026579477,-0.055247277,-0.13626783,-0.23286426,-0.0014411984,-0.04349453,-0.007694766,1.3747207,-0.04181505,9.466374,-0.025404708,6.121544,2.4540524,0.13626783,0.3349943,0.23488718,0.15625128,0.09486397,inf,inf,inf,inf,1,1,1,1,2,0,2,2,1,1,0
2513131736,16626177,37.1028221,-76.392246,-3.7184713,1.3357794,0.6387778,0.0014296504,-0.0004615323,0.0,0.08298996,-0.06812758,-0.115668535,-0.21477869,-0.0014411984,-0.04349453,-0.007694766,2.0286853,0.44848007,0.041024365,-0.025967253,6.121544,2.4778502,0.115668535,0.3462938,0.23531215,0.16040167,0.09522098,inf,inf,inf,inf,1,1,1,1,2,0,2,2,1,1,0
2513235749,16626177,37.1028221,-76.392246,-3.7137392,1.3202184,0.6180147,0.0014296504,-0.0004615323,0.0,0.12502857,-0.06307709,-0.07728046,-0.1762044,-0.0014411984,-0.04349453,-0.007694766,-0.34741533,1.600544,-8.086518,-0.026952451,6.121544,2.4986134,0.07728046,0.3347635,0.23522875,0.15606484,0.09497536,inf,inf,inf,inf,1,1,1,1,2,0,2,2,1,1,0
2513335602,16626177,37.1028221,-76.392246,-3.705618,1.3069167,0.5986952,0.0014296504,-0.0004615323,0.0,0.153636,-0.061631046,-0.07895053,-0.178208,-0.0014411984,-0.04349453,-0.007694766,-0.9449539,1.421062,0.2669855,-0.027949687,6.121544,2.5179327,0.07895053,0.3470175,0.23462106,0.16065621,0.0951158,inf,inf,inf,inf,1,1,1,1,2,0,2,2,1,1,0
2513439779,16626177,37.1028221,-76.392246,-3.6952324,1.2940503,0.5819899,0.0014296504,-0.0004615323,0.0,0.1687912,-0.057361536,-0.1008129,-0.19773883,-0.0014411984,-0.04349453,-0.007694766,-1.86363,2.0207088,-2.4497294,-0.029327553,6.121544,2.534638,0.1008129,0.33552983,0.23452209,0.15656766,0.094868764,inf,inf,inf,inf,1,1,1,1,2,0,2,2,1,1,0
2513543741,16626177,37.1028221,-76.392246,-3.682295,1.2842745,0.5697971,0.0014296504,-0.0004615323,0.0,0.18713917,-0.035086494,-0.0781483,-0.16878581,-0.0014411984,-0.04349453,-0.007694766,-0.7621114,2.4127908,-0.80147946,-0.030313203,6.121544,2.546831,0.0781483,0.34782416,0.23551954,0.16113529,0.095376395,inf,inf,inf,inf,1,1,1,1,2,0,2,2,1,1,0
2513647651,16626177,37.1028221,-76.392246,-3.66908,1.277129,0.55701655,0.0014296504,-0.0004615323,0.0,0.1786091,-0.033912055,-0.06847504,-0.15485819,-0.0014411984,-0.04349453,-0.007694766,0.9507842,-0.77325803,0.046239924,-0.031372335,6.121544,2.5596113,0.06847504,0.33626795,0.23543152,0.15697825,0.09513717,inf,inf,inf,inf,1,1,1,1,2,0,2,2,1,1,0
2513747744,16626177,37.1028221,-76.392246,-3.6551032,1.2728816,0.5411097,0.0014296504,-0.0004615323,0.0,0.17378166,-0.006571628,-0.04052771,-0.128035,-0.0014411984,-0.04349453,-0.007694766,-1.4782788,0.81681186,-2.8599312,-0.032986164,6.121544,2.5755181,0.04052771,0.3476408,0.2358685,0.16132946,0.09549544,inf,inf,inf,inf,1,1,1,1,2,0,2,2,1,1,0
2513851714,16626177,37.1028221,-76.392246,-3.6431718,1.2683585,0.52744836,0.0014296504,-0.0004615323,0.0,0.17526883,-0.023761768,-0.048370354,-0.13432355,-0.0014411984,-0.04349453,-0.007694766,1.2624733,-0.59620553,8.115994,-0.033835288,6.121544,2.5891795,0.048370354,0.33616072,0.23416997,0.15715243,0.09487288,inf,inf,inf,inf,1,1,1,1,2,0,2,2,1,1,0
2513951736,16626177,37.1028221,-76.392246,-3.631924,1.2643195,0.5179313,0.0014296504,-0.0004615323,0.0,0.15484886,-0.0194787,0.0013259016,-0.080697104,-0.0014411984,-0.04349453,-0.007694766,-1.3819321,1.6561028,-10.141229,-0.034847964,6.121544,2.5986967,-0.0013259016,0.3485016,0.23519234,0.16167496,0.09539262,inf,inf,inf,inf,1,1,1,1,2,0,2,2,1,1,0
2514055768,16626177,37.1028221,-76.392246,-3.624402,1.2615262,0.5122874,0.0014296504,-0.0004615323,0.0,0.14716257,-0.038455658,0.017311033,-0.05998212,-0.0014411984,-0.04349453,-0.007694766,-2.99407,1.4620475,-4.384743,-0.035325687,6.121544,2.6043406,-0.017311033,0.33700672,0.23513544,0.15743075,0.09515393,inf,inf,inf,inf,1,1,1,1,2,0,2,2,1,1,0
2514159738,16626177,37.1028221,-76.392246,-3.615896,1.2572262,0.51150036,0.0014296504,-0.0004615323,0.0,0.15445739,-0.058234863,0.023902956,-0.047710918,-0.0014411984,-0.04349453,-0.007694766,-2.7645612,1.5421202,-9.204424,-0.036131937,6.121544,2.6051276,-0.023902956,0.34938708,0.2345461,0.16197255,0.095286556,inf,inf,inf,inf,1,1,1,1,2,0,2,2,1,1,0
2514259745,16626177,37.1028221,-76.392246,-3.6094415,1.2529608,0.5077623,0.0014296504,-0.0004615323,0.0,0.16352539,-0.084966816,0.039261356,-0.031255618,-0.0014411984,-0.04349453,-0.007694766,-0.3929878,1.4110161,-5.316468,-0.037784766,6.121544,2.6088657,-0.039261356,0.33692703,0.23392577,0.15730216,0.09489839,inf,inf,inf,inf,1,1,1,1,2,0,2,2,1,1,0
2514363544,16626177,37.1028221,-76.392246,-3.5989718,1.2456163,0.50447255,0.0014296504,-0.0004615323,0.0,0.18151066,-0.12313605,0.025267167,-0.043632846,-0.0014411984,-0.04349453,-0.007694766,0.4392243,1.2652189,3.7174683,-0.038947195,6.121544,2.6121554,-0.025267167,0.34930637,0.23496908,0.16205628,0.09542289,inf,inf,inf,inf,1,1,1,1,2,0,2,2,1,1,0
2514463714,16626177,37.1028221,-76.392246,-3.5902536,1.2379477,0.50343335,0.0014296504,-0.0004615323,0.0,0.21584794,-0.1487953,0.03477522,-0.031035513,-0.0014411984,-0.04349453,-0.007694766,2.1003842,-0.0016895925,8.032115,-0.039442286,6.121544,2.6131945,-0.03477522,0.33763164,0.23493032,0.15774642,0.0951816,inf,inf,inf,inf,1,1,1,1,2,0,2,2,1,1,0
2514563710,16626177,37.1028221,-76.392246,-3.5758858,1.2283777,0.5036641,0.0014296504,-0.0004615323,0.0,0.24020413,-0.15529858,0.030374177,-0.032495588,-0.0014411984,-0.04349453,-0.007694766,1.6620568,-0.76446587,7.8898535,-0.039471418,6.121544,2.612964,-0.030374177,0.34907752,0.23540881,0.1620449,0.095552936,inf,inf,inf,inf,1,1,1,1,2,0,2,2,1,1,0
2514667739,16626177,37.1028221,-76.392246,-3.5627196,1.2193882,0.5040288,0.0014296504,-0.0004615323,0.0,0.24896362,-0.1601047,0.05467762,-0.005489055,-0.0014411984,-0.04349453,-0.007694766,-0.21072432,-1.720486,6.180905,-0.039759025,6.121544,2.6125991,-0.05467762,0.33734393,0.23537576,0.1579055,0.095314436,inf,inf,inf,inf,1,1,1,1,2,0,2,2,1,1,0
2514767594,16626177,37.1028221,-76.392246,-3.5465925,1.2094444,0.50282145,0.0014296504,-0.0004615323,0.0,0.26553842,-0.17267425,0.023295727,-0.03550383,-0.0014411984,-0.04349453,-0.007694766,-1.3588992,-1.0820509,0.8241384,-0.039153464,6.121544,2.6138065,-0.023295727,0.3497677,0.234783,0.16257124,0.09543242,inf,inf,inf,inf,1,1,1,1,2,0,2,2,1,1,0
2514867586,16626177,37.1028221,-76.392246,-3.5329368,1.2037046,0.5020068,0.0014296504,-0.0004615323,0.0,0.26569772,-0.16366082,0.039719697,-0.017771251,-0.0014411984,-0.04349453,-0.007694766,-1.2311004,-0.34634775,2.3577216,-0.038366143,6.121544,2.6146212,-0.039719697,0.33694598,0.2341519,0.1579803,0.095031045,inf,inf,inf,inf,1,1,1,1,2,0,2,2,1,1,0
2514971637,16626177,37.1028221,-76.392246,-3.5171154,1.1965029,0.5063591,0.0014296504,-0.0004615323,0.0,0.25157005,-0.15390168,0.089407876,0.037809066,-0.0014411984,-0.04349453,-0.007694766,-4.1378155,-0.038605172,-6.035796,-0.038868487,6.121544,2.6102688,-0.089407876,0.34936148,0.23516935,0.16266876,0.09553372,inf,inf,inf,inf,1,1,1,1,2,0,2,2,1,1,0
2515071733,16626177,37.1028221,-76.392246,-3.5040605,1.196086,0.51366585,0.0014296504,-0.0004615323,0.0,0.26200545,-0.15386282,0.09717694,0.050324198,-0.0014411984,-0.04349453,-0.007694766,-0.9847694,-1.2820381,3.1237545,-0.038720116,6.121544,2.602962,-0.09717694,0.33766526,0.23509765,0.15846491,0.095282145,inf,inf,inf,inf,1,1,1,1,2,0,2,2,1,1,0
2515175745,16626177,37.1028221,-76.392246,-3.4871728,1.191586,0.52257246,0.0014296504,-0.0004615323,0.0,0.25754702,-0.15503412,0.09967693,0.057133045,-0.0014411984,-0.04349453,-0.007694766,1.5117719,0.9992899,-0.19614589,-0.038774196,6.121544,2.5940554,-0.09967693,0.3264078,0.2350194,0.15402982,0.09502482,inf,inf,inf,inf,1,1,1,1,2,0,2,2,1,1,0
2515279728,16626177,37.1028221,-76.392246,-3.4717972,1.1887071,0.5360194,0.0014296504,-0.0004615323,0.0,0.25939775,-0.1661339,0.11543281,0.07950347,-0.0014411984,-0.04349453,-0.007694766,0.89577514,-0.7698883,4.76335,-0.037993975,6.121544,2.5806086,-0.11543281,0.33832338,0.23443347,0.15863095,0.095171854,inf,inf,inf,inf,1,1,1,1,2,0,2,2,1,1,0
2515379807,16626177,37.1028221,-76.392246,-3.452797,1.1811522,0.55098605,0.0014296504,-0.0004615323,0.0,0.27508807,-0.1755736,0.123099335,0.09365212,-0.0014411984,-0.04349453,-0.007694766,1.3829069,-0.8504297,-0.84080887,-0.0381716,6.121544,2.5656419,-0.123099335,0.34985122,0.23488867,0.16301543,0.09552575,inf,inf,inf,inf,1,1,1,1,2,0,2,2,1,1,0
2515483689,16626177,37.1028221,-76.392246,-3.4375267,1.17716,0.5649323,0.0014296504,-0.0004615323,0.0,0.26175764,-0.19838959,0.11075674,0.086431816,-0.0014411984,-0.04349453,-0.007694766,-3.5298197,-1.0810648,-4.0701385,-0.039981995,6.121544,2.5516956,-0.11075674,0.33787555,0.2348348,0.15864371,0.09528399,inf,inf,inf,inf,1,1,1,1,2,0,2,2,1,1,0
2515583733,16626177,37.1028221,-76.392246,-3.4203181,1.1682482,0.5770923,0.0014296504,-0.0004615323,0.0,0.2525482,-0.2216499,0.092833534,0.07355201,-0.0014411984,-0.04349453,-0.007694766,-1.0776753,-0.07502174,-0.41707617,-0.043709915,6.121544,2.5395355,-0.092833534,0.326393,0.23477991,0.15444967,0.095024556,inf,inf,inf,inf,1,1,1,1,2,0,2,2,1,1,0
2515687619,16626177,37.1028221,-76.392246,-3.4053938,1.1615398,0.5859038,0.0014296504,-0.0004615323,0.0,0.23482788,-0.23125593,0.08575775,0.06895313,-0.0014411984,-0.04349453,-0.007694766,-2.1622825,-0.9436081,-4.6116314,-0.04749233,6.121544,2.530724,-0.08575775,0.33833975,0.23421393,0.15920635,0.09516795,inf,inf,inf,inf,1,1,1,1,2,0,2,2,1,1,0
2515791735,16626177,37.1028221,-76.392246,-3.389282,1.1486604,0.5964151,0.0014296504,-0.0004615323,0.0,0.22190304,-0.25224534,0.05601339,0.044582423,-0.0014411984,-0.04349453,-0.007694766,1.6960002,-0.8725613,4.636289,-0.048703235,6.121544,2.520213,-0.05601339,0.35089195,0.23526488,0.16402368,0.095679246,inf,inf,inf,inf,1,1,1,1,2,0,2,2,1,1,0
2515895740,16626177,37.1028221,-76.392246,-3.37659,1.1387415,0.60479015,0.0014296504,-0.0004615323,0.0,0.21091886,-0.2602737,0.060511723,0.0519645,-0.0014411984,-0.04349453,-0.007694766,1.4506824,-1.1850502,6.2535477,-0.04789981,6.121544,2.5118377,-0.060511723,0.33846197,0.2352271,0.15958257,0.095438585,inf,inf,inf,inf,1,1,1,1,2,0,2,2,1,1,0
2515999729,16626177,37.1028221,-76.392246,-3.363045,1.1246306,0.61290604,0.0014296504,-0.0004615323,0.0,0.21257111,-0.28252092,0.053487025,0.047200955,-0.0014411984,-0.04349453,-0.007694766,2.1124809,-1.631172,3.840267,-0.04679439,6.121544,2.503722,-0.053487025,0.32681182,0.23357667,0.15527947,0.09480825,inf,inf,inf,inf,1,1,1,1,2,0,2,2,1,1,0
2516101359,16626177,37.1028221,-76.392246,-3.349466,1.111165,0.62236357,0.0014296504,-0.0004615323,0.0,0.2028746,-0.28129703,0.08571221,0.081388324,-0.0014411984,-0.04349453,-0.007694766,-1.8125613,-1.5363007,-3.5226007,-0.046096303,6.121544,2.4942644,-0.08571221,0.33883697,0.23460984,0.15987843,0.09532176,inf,inf,inf,inf,1,1,1,1,2,0,2,2,1,1,0
2516201388,16626177,37.1028221,-76.392246,-3.3341174,1.0946038,0.63452804,0.0014296504,-0.0004615323,0.0,0.21660405,-0.28425202,0.10983136,0.10832338,-0.0014411984,-0.04349453,-0.007694766,-0.22106716,-1.5852699,-5.7665305,-0.046366584,6.121544,2.4821,-0.10983136,0.32639354,0.23397392,0.15526368,0.094903216,inf,inf,inf,inf,1,1,1,1,2,0,2,2,1,1,0
2516305358,16626177,37.1028221,-76.392246,-3.317564,1.0789605,0.6475747,0.0014296504,-0.0004615323,0.0,0.23976296,-0.3114524,0.05540108,0.057400487,-0.0014411984,-0.04349453,-0.007694766,1.7114213,0.4185002,-2.2331576,-0.04814246,6.121544,2.4690533,-0.05540108,0.33814004,0.23485155,0.15984355,0.09540448,inf,inf,inf,inf,1,1,1,1,2,0,2,2,1,1,0
2516405316,16626177,37.1028221,-76.392246,-3.3004022,1.0616148,0.65484667,0.0014296504,-0.0004615323,0.0,0.2393869,-0.3018091,0.023219133,0.026849441,-0.0014411984,-0.04349453,-0.007694766,-1.6604033,-1.4100578,-3.5488796,-0.05174392,6.121544,2.4617813,-0.023219133,0.32644984,0.23479006,0.15549995,0.09513495,inf,inf,inf,inf,1,1,1,1,2,0,2,2,1,1,0
2516509366,16626177,37.1028221,-76.392246,-3.2842877,1.045969,0.6564768,0.0014296504,-0.0004615323,0.0,0.22721884,-0.30520138,-0.029166888,-0.025005855,-0.0014411984,-0.04349453,-0.007694766,-2.4179657,0.57495755,0.77346396,-0.05516309,6.121544,2.4601512,0.029166888,0.33850893,0.23582937,0.16036895,0.095646076,inf,inf,inf,inf,1,1,1,1,2,0,2,2,1,1,0
2516613342,16626177,37.1028221,-76.392246,-3.2677026,1.0307053,0.653822,0.0014296504,-0.0004615323,0.0,0.22492939,-0.26778686,-0.054702304,-0.049476005,-0.0014411984,-0.04349453,-0.007694766,-0.555085,1.7206025,-8.728952,-0.05769269,6.121544,2.462806,0.054702304,0.32693446,0.23413792,0.1563196,0.094988964,inf,inf,inf,inf,1,1,1,1,2,0,2,2,1,1,0
2516713414,16626177,37.1028221,-76.392246,-3.252896,1.017378,0.65182924,0.0014296504,-0.0004615323,0.0,0.21063717,-0.24640597,-0.06959236,-0.05892688,-0.0014411984,-0.04349453,-0.007694766,-1.1922048,0.034059,-7.189545,-0.058020953,6.121544,2.4647987,0.06959236,0.3381092,0.23459727,0.16071813,0.095340505,inf,inf,inf,inf,1,1,1,1,2,0,2,2,1,1,0
2516817351,16626177,37.1028221,-76.392246,-3.237224,1.0052209,0.65249604,0.0014296504,-0.0004615323,0.0,0.19825207,-0.22154702,-0.10152439,-0.08134871,-0.0014411984,-0.04349453,-0.007694766,-2.0098264,-0.9738828,0.28070334,-0.05695754,6.121544,2.4641318,0.10152439,0.32634148,0.23453972,0.15647231,0.09506586,inf,inf,inf,inf,1,1,1,1,2,0,2,2,1,1,0
2516917346,16626177,37.1028221,-76.392246,-3.2237296,0.9997363,0.6542417,0.0014296504,-0.0004615323,0.0,0.1815757,-0.19373168,-0.10890446,-0.078865744,-0.0014411984,-0.04349453,-0.007694766,-1.8073546,-2.1965535,0.3555463,-0.055074904,6.121544,2.4623861,0.10890446,0.3384755,0.23559186,0.16106778,0.09556839,inf,inf,inf,inf,1,1,1,1,2,0,2,2,1,1,0
2517017217,16626177,37.1028221,-76.392246,-3.2113137,0.9954779,0.65675074,0.0014296504,-0.0004615323,0.0,0.16870752,-0.1556225,-0.12525019,-0.08568984,-0.0014411984,-0.04349453,-0.007694766,1.8200614,0.86479014,5.14111,-0.052046858,6.121544,2.4598773,0.12525019,0.3260668,0.23495828,0.15665378,0.0951577,inf,inf,inf,inf,1,1,1,1,2,0,2,2,1,1,0
2517121419,16626177,37.1028221,-76.392246,-3.2003284,0.99617815,0.65548193,0.0014296504,-0.0004615323,0.0,0.15982985,-0.11897199,-0.13947973,-0.093561575,-0.0014411984,-0.04349453,-0.007694766,1.0290225,-1.9062644,5.987884,-0.048468914,6.121544,2.4611459,0.13947973,0.33821526,0.23439468,0.16121708,0.09528615,inf,inf,inf,inf,1,1,1,1,2,0,2,2,1,1,0
2517221218,16626177,37.1028221,-76.392246,-3.1899397,1.0018097,0.65732664,0.0014296504,-0.0004615323,0.0,0.14964016,-0.0683488,-0.12488521,-0.06969712,-0.0014411984,-0.04349453,-0.007694766,0.14222212,0.28593528,-1.1299875,-0.04617362,6.121544,2.4593012,0.12488521,0.32681334,0.23435406,0.15695263,0.09503558,inf,inf,inf,inf,1,1,1,1,2,0,2,2,1,1,0
2517321385,16626177,37.1028221,-76.392246,-3.178754,1.01032,0.65804166,0.0014296504,-0.0004615323,0.0,0.13704146,-0.022223702,-0.14500396,-0.0807064,-0.0014411984,-0.04349453,-0.007694766,-4.2267165,1.2470355,-8.153747,-0.045399357,6.121544,2.4585862,0.14500396,0.33806401,0.23482129,0.1614559,0.09539204,inf,inf,inf,inf,1,1,1,1,2,0,2,2,1,1,0
2517425216,16626177,37.1028221,-76.392246,-3.1667619,1.024073,0.6597843,0.0014296504,-0.0004615323,0.0,0.16467363,0.0136757195,-0.1603751,-0.08583737,-0.0014411984,-0.04349453,-0.007694766,1.4980109,1.6117043,-2.8228893,-0.043591045,6.121544,2.4568436,0.1603751,0.32664716,0.23475473,0.15715693,0.09512441,inf,inf,inf,inf,1,1,1,1,2,0,2,2,1,1,0
2517525372,16626177,37.1028221,-76.392246,-3.1541252,1.0414045,0.6596485,0.0014296504,-0.0004615323,0.0,0.1724093,0.039870173,-0.18398905,-0.102059044,-0.0014411984,-0.04349453,-0.007694766,4.069668,1.2350934,7.056821,-0.041235648,6.121544,2.4569795,0.18398905,0.33887088,0.23579687,0.161976,0.09563775,inf,inf,inf,inf,1,1,1,1,2,0,2,2,1,1,0
2517629331,16626177,37.1028221,-76.392246,-3.1408117,1.063031,0.665053,0.0014296504,-0.0004615323,0.0,0.1894261,0.0804237,-0.13511579,-0.04176506,-0.0014411984,-0.04349453,-0.007694766,1.3961624,0.22717552,1.0321475,-0.039608493,6.121544,2.4515748,0.13511579,0.32750565,0.23411801,0.15764384,0.094992116,inf,inf,inf,inf,1,1,1,1,2,0,2,2,1,1,0
2517733322,16626177,37.1028221,-76.392246,-3.126235,1.0835449,0.6781157,0.0014296504,-0.0004615323,0.0,0.18605238,0.09154176,-0.07390469,0.03243209,-0.0014411984,-0.04349453,-0.007694766,-3.973731,-1.2655838,-8.329961,-0.036774978,6.121544,2.4385123,0.07390469,0.33979934,0.23516338,0.16246548,0.095509276,inf,inf,inf,inf,1,1,1,1,2,0,2,2,1,1,0
2517833396,16626177,37.1028221,-76.392246,-3.1093018,1.102985,0.69117534,0.0014296504,-0.0004615323,0.0,0.20433131,0.06863607,-0.07768247,0.03803492,-0.0014411984,-0.04349453,-0.007694766,-1.0796344,-1.2435211,1.114182,-0.03444026,6.121544,2.4254527,0.07768247,0.32703057,0.23452787,0.15731461,0.09508299,inf,inf,inf,inf,1,1,1,1,2,0,2,2,1,1,0
2517937370,16626177,37.1028221,-76.392246,-3.0893452,1.1235571,0.70074,0.0014296504,-0.0004615323,0.0,0.23628926,0.06451106,-0.088820234,0.030583844,-0.0014411984,-0.04349453,-0.007694766,0.93478435,-0.42678308,4.778366,-0.032921426,6.121544,2.4158878,0.088820234,0.33929315,0.23558229,0.16200954,0.09560362,inf,inf,inf,inf,1,1,1,1,2,0,2,2,1,1,0
2518037335,16626177,37.1028221,-76.392246,-3.0693495,1.1425501,0.7076605,0.0014296504,-0.0004615323,0.0,0.23997411,0.039431237,-0.07861774,0.04199171,-0.0014411984,-0.04349453,-0.007694766,-3.5425336,-0.7949871,-2.7054737,-0.031740308,6.121544,2.4089675,0.07861774,0.327863,0.2339215,0.15748484,0.09496282,inf,inf,inf,inf,1,1,1,1,2,0,2,2,1,1,0
2518137341,16626177,37.1028221,-76.392246,-3.047009,1.157585,0.71280444,0.0014296504,-0.0004615323,0.0,0.25816277,0.02624003,-0.09112713,0.031025419,-0.0014411984,-0.04349453,-0.007694766,-0.06091446,0.17336525,-6.8928585,-0.030497117,6.121544,2.4038234,0.09112713,0.33921343,0.23439881,0.16193047,0.09532194,inf,inf,inf,inf,1,1,1,1,2,0,2,2,1,1,0
2518241352,16626177,37.1028221,-76.392246,-3.0237563,1.1713673,0.7146243,0.0014296504,-0.0004615323,0.0,0.2658914,0.009089706,-0.10448583,0.016831134,-0.0014411984,-0.04349453,-0.007694766,-2.871105,1.094156,-8.553644,-0.0291326,6.121544,2.4020038,0.10448583,0.32801887,0.23437081,0.15771165,0.095081285,inf,inf,inf,inf,1,1,1,1,2,0,2,2,1,1,0
2518341402,16626177,37.1028221,-76.392246,-2.99996,1.1801445,0.716149,0.0014296504,-0.0004615323,0.0,0.26823232,-0.02763882,-0.11867967,0.002211459,-0.0014411984,-0.04349453,-0.007694766,-1.6390783,0.7765358,-2.4087236,-0.028188238,6.121544,2.4004788,0.11867967,0.3403641,0.23543744,0.16245437,0.095593944,inf,inf,inf,inf,1,1,1,1,2,0,2,2,1,1,0
2518441318,16626177,37.1028221,-76.392246,-2.9759154,1.1857105,0.71595216,0.0014296504,-0.0004615323,0.0,0.26961154,-0.049310967,-0.12635851,-0.0063005015,-0.0014411984,-0.04349453,-0.007694766,-0.17981404,0.43198684,-3.92314,-0.027512519,6.121544,2.4006758,0.12635851,0.32795206,0.23482554,0.15780367,0.09518898,inf,inf,inf,inf,1,1,1,1,2,0,2,2,1,1,0
2518545222,16626177,37.1028221,-76.392246,-2.9511619,1.1873611,0.71687245,0.0014296504,-0.0004615323,0.0,0.26313204,-0.08569881,-0.14811665,-0.026956372,-0.0014411984,-0.04349453,-0.007694766,-0.966544,0.24859953,-2.6803544,-0.027429083,6.121544,2.3997555,0.14811665,0.3403104,0.23590125,0.16257279,0.095707044,inf,inf,inf,inf,1,1,1,1,2,0,2,2,1,1,0
2518645298,16626177,37.1028221,-76.392246,-2.929346,1.187805,0.714955,0.0014296504,-0.0004615323,0.0,0.24837378,-0.09724812,-0.14386295,-0.024983177,-0.0014411984,-0.04349453,-0.007694766,1.2384658,-0.9951046,3.3256648,-0.028258247,6.121544,2.4016728,0.14386295,0.3286784,0.23421805,0.1581271,0.09506029,inf,inf,inf,inf,1,1,1,1,2,0,2,2,1,1,0
2518749342,16626177,37.1028221,-76.392246,-2.9081068,1.1842405,0.7097587,0.0014296504,-0.0004615323,0.0,0.22502516,-0.12284549,-0.14007333,-0.025576783,-0.0014411984,-0.04349453,-0.007694766,-0.13368148,-2.385118,1.8268657,-0.02907119,6.121544,2.4068692,0.14007333,0.34108305,0.23526335,0.16282669,0.09556973,inf,inf,inf,inf,1,1,1,1,2,0,2,2,1,1,0
2518853254,16626177,37.1028221,-76.392246,-2.8895142,1.177157,0.70646983,0.0014296504,-0.0004615323,0.0,0.19526742,-0.15186162,-0.13985679,-0.027489327,-0.0014411984,-0.04349453,-0.007694766,1.8197502,-1.5592014,3.1997323,-0.03009984,6.121544,2.4101582,0.13985679,0.32927585,0.2352117,0.15828194,0.09530787,inf,inf,inf,inf,1,1,1,1,2,0,2,2,1,1,0
2518953373,16626177,37.1028221,-76.392246,-2.8738327,1.1669079,0.7059794,0.0014296504,-0.0004615323,0.0,0.16763926,-0.16279432,-0.13629174,-0.022732854,-0.0014411984,-0.04349453,-0.007694766,0.40180475,-0.59419423,-2.7801592,-0.031510692,6.121544,2.4106486,0.13629174,0.3407312,0.23568645,0.16261995,0.095660746,inf,inf,inf,inf,1,1,1,1,2,0,2,2,1,1,0
2519053290,16626177,37.1028221,-76.392246,-2.8605578,1.1546205,0.7029841,0.0014296504,-0.0004615323,0.0,0.13818674,-0.18751763,-0.14588764,-0.034749445,-0.0014411984,-0.04349453,-0.007694766,2.5500312,-0.87367404,6.9485893,-0.032330133,6.121544,2.4136438,0.14588764,0.32926765,0.23402531,0.1582788,0.09503109,inf,inf,inf,inf,1,1,1,1,2,0,2,2,1,1,0
2519157351,16626177,37.1028221,-76.392246,-2.8491752,1.1381235,0.69395494,0.0014296504,-0.0004615323,0.0,0.10042681,-0.19659035,-0.14091928,-0.037156973,-0.0014411984,-0.04349453,-0.007694766,-1.9428831,-0.6871583,-0.38914132,-0.03334102,6.121544,2.422673,0.14091928,0.34171304,0.23508239,0.16295847,0.095541686,inf,inf,inf,inf,1,1,1,1,2,0,2,2,1,1,0
2519257298,16626177,37.1028221,-76.392246,-2.8423874,1.1232084,0.6855452,0.0014296504,-0.0004615323,0.0,0.075585775,-0.21367475,-0.14018925,-0.041975874,-0.0014411984,-0.04349453,-0.007694766,-2.7087388,-1.8947115,-1.1465024,-0.03369862,6.121544,2.4310827,0.14018925,0.32910913,0.23443785,0.15819578,0.09512592,inf,inf,inf,inf,1,1,1,1,2,0,2,2,1,1,0
2519361333,16626177,37.1028221,-76.392246,-2.8375564,1.1054462,0.6755328,0.0014296504,-0.0004615323,0.0,0.056342132,-0.22981572,-0.14607388,-0.055301785,-0.0014411984,-0.04349453,-0.007694766,2.2173562,-0.22583175,2.4903085,-0.03384909,6.121544,2.441095,0.14607388,0.3415552,0.2354748,0.16295278,0.09563465,inf,inf,inf,inf,1,1,1,1,2,0,2,2,1,1,0
2519465307,16626177,37.1028221,-76.392246,-2.834885,1.0862159,0.6626926,0.0014296504,-0.0004615323,0.0,0.028648268,-0.2287651,-0.13137333,-0.050989307,-0.0014411984,-0.04349453,-0.007694766,-1.4312216,-0.0037523245,-0.0019005728,-0.034317143,6.121544,2.4539354,0.13137333,0.3298623,0.23541497,0.15848391,0.09537546,inf,inf,inf,inf,1,1,1,1,2,0,2,2,1,1,0
2519567260,16626177,37.1028221,-76.392246,-2.833806,1.065624,0.6504906,0.0014296504,-0.0004615323,0.0,0.0070035923,-0.24542655,-0.101776,-0.031674724,-0.0014411984,-0.04349453,-0.007694766,-0.03653765,-1.6227164,-1.6982675,-0.034316108,6.121544,2.4661374,0.101776,0.34234416,0.23482971,0.1631209,0.09550011,inf,inf,inf,inf,1,1,1,1,2,0,2,2,1,1,0
2519666975,16626177,37.1028221,-76.392246,-2.8328815,1.0422665,0.6373658,0.0014296504,-0.0004615323,0.0,-0.0075117475,-0.23623385,-0.08676027,-0.027409673,-0.0014411984,-0.04349453,-0.007694766,0.39912528,-1.3196706,2.081176,-0.034294575,6.121544,2.479262,0.08676027,0.3295905,0.23420516,0.15814723,0.09509151,inf,inf,inf,inf,1,1,1,1,2,0,2,2,1,1,0
2519770952,16626177,37.1028221,-76.392246,-2.832645,1.0167644,0.62224025,0.0014296504,-0.0004615323,0.0,-0.01622472,-0.23223257,-0.07172446,-0.025241237,-0.0014411984,-0.04349453,-0.007694766,-0.37096974,-2.02487,-2.1495433,-0.034349576,6.121544,2.4943876,0.07172446,0.3422455,0.23535548,0.16298884,0.09561797,inf,inf,inf,inf,1,1,1,1,2,0,2,2,1,1,0
2519870794,16626177,37.1028221,-76.392246,-2.8357399,0.9920718,0.60918105,0.0014296504,-0.0004615323,0.0,-0.028119547,-0.24850698,-0.063455254,-0.027057258,-0.0014411984,-0.04349453,-0.007694766,-1.6211541,-1.4594674,-1.2897495,-0.034021463,6.121544,2.5074468,0.063455254,0.33027282,0.23527096,0.15830788,0.09534887,inf,inf,inf,inf,1,1,1,1,2,0,2,2,1,1,0
2519974960,16626177,37.1028221,-76.392246,-2.8402169,0.96592516,0.5998799,0.0014296504,-0.0004615323,0.0,-0.031712025,-0.23907971,-0.038058452,-0.008521184,-0.0014411984,-0.04349453,-0.007694766,1.9678745,0.4188897,2.3493233,-0.03499056,6.121544,2.516748,0.038058452,0.31922188,0.23518737,0.15404628,0.09507773,inf,inf,inf,inf,1,1,1,1,2,0,2,2,1,1,0
2520078834,16626177,37.1028221,-76.392246,-2.8462548,0.941332,0.5941826,0.0014296504,-0.0004615323,0.0,-0.04118665,-0.24017267,-0.032295894,-0.006874229,-0.0014411984,-0.04349453,-0.007694766,1.6179867,-0.31753904,-4.076893,-0.036049403,6.121544,2.5224452,0.032295894,0.33116528,0.23459533,0.1585552,0.09521363,inf,inf,inf,inf,1,1,1,1,2,0,2,2,1,1,0
2520179101,16626177,37.1028221,-76.392246,-2.8526113,0.9177208,0.58981365,0.0014296504,-0.0004615323,0.0,-0.054511815,-0.24129795,-0.042465895,-0.020258956,-0.0014411984,-0.04349453,-0.007694766,1.4690841,-0.3097793,8.886276,-0.03645307,6.121544,2.5268142,0.042465895,0.31913403,0.23394991,0.15383525,0.09479394,inf,inf,inf,inf,1,1,1,1,2,0,2,2,1,1,0
2520278999,16626177,37.1028221,-76.392246,-2.8636131,0.8957291,0.58357066,0.0014296504,-0.0004615323,0.0,-0.08331222,-0.21929753,-0.018432697,-0.001233682,-0.0014411984,-0.04349453,-0.007694766,-0.9754121,-0.037954524,-3.5003006,-0.036745153,6.121544,2.5330572,0.018432697,0.33107293,0.23498721,0.15848117,0.09531613,inf,inf,inf,inf,1,1,1,1,2,0,2,2,1,1,0
2520382988,16626177,37.1028221,-76.392246,-2.8757992,0.87428534,0.5786303,0.0014296504,-0.0004615323,0.0,-0.10056071,-0.2036105,-0.029725322,-0.015172929,-0.0014411984,-0.04349453,-0.007694766,-0.37039658,0.20091946,-0.23298901,-0.03581108,6.121544,2.5379977,0.029725322,0.31984872,0.23490743,0.1541249,0.09504643,inf,inf,inf,inf,1,1,1,1,2,0,2,2,1,1,0
2520487012,16626177,37.1028221,-76.392246,-2.8908646,0.85566354,0.5745033,0.0014296504,-0.0004615323,0.0,-0.1280986,-0.16861781,-0.006460947,0.0058336593,-0.0014411984,-0.04349453,-0.007694766,-3.5139613,1.9823759,-6.9108334,-0.034417585,6.121544,2.5421247,0.006460947,0.33182973,0.23593031,0.15875264,0.09555966,inf,inf,inf,inf,1,1,1,1,2,0,2,2,1,1,0
2520587063,16626177,37.1028221,-76.392246,-2.9063773,0.8399684,0.57398176,0.0014296504,-0.0004615323,0.0,-0.14994627,-0.14495328,0.0029800003,0.015785493,-0.0014411984,-0.04349453,-0.007694766,-4.526942,-0.06041649,-3.499112,-0.033444792,6.121544,2.5426462,-0.0029800003,0.31975213,0.2352641,0.15404357,0.095132865,inf,inf,inf,inf,1,1,1,1,2,0,2,2,1,1,0
2520690789,16626177,37.1028221,-76.392246,-2.9246528,0.82732844,0.57274634,0.0014296504,-0.0004615323,0.0,-0.14308727,-0.12104891,-0.006801498,0.004643243,-0.0014411984,-0.04349453,-0.007694766,1.7176069,1.5037564,0.0359651,-0.032122176,6.121544,2.5438817,0.006801498,0.33173084,0.2362677,0.15868738,0.09564081,inf,inf,inf,inf,1,1,1,1,2,0,2,2,1,1,0
2520791022,16626177,37.1028221,-76.392246,-2.9423409,0.8167959,0.5684529,0.0014296504,-0.0004615323,0.0,-0.16341145,-0.107405104,0.010597466,0.016596429,-0.0014411984,-0.04349453,-0.007694766,-0.9424047,0.82261366,2.1556132,-0.03272259,6.121544,2.548175,-0.010597466,0.34430337,0.23562655,0.16332091,0.09574474,inf,inf,inf,inf,1,1,1,1,2,0,2,2,1,1,0
2520894921,16626177,37.1028221,-76.392246,-2.962243,0.806378,0.5627072,0.0014296504,-0.0004615323,0.0,-0.14625505,-0.08436333,-0.022529474,-0.02179587,-0.0014411984,-0.04349453,-0.007694766,-0.35433337,-0.09080107,-3.7472436,-0.035504326,6.121544,2.5539207,0.022529474,0.3322398,0.2355342,0.15869945,0.095481575,inf,inf,inf,inf,1,1,1,1,2,0,2,2,1,1,0
2520999067,16626177,37.1028221,-76.392246,-2.9800415,0.79616696,0.54638255,0.0014296504,-0.0004615323,0.0,-0.11970849,-0.089004494,-0.21195586,-0.21540952,-0.0014411984,-0.04349453,-0.007694766,1.0314429,4.2923865,1.7735167,-0.038611814,6.121544,2.5702453,0.21195586,0.32104963,0.23544215,0.15443186,0.09521368,inf,inf,inf,inf,1,1,1,1,2,0,2,2,1,1,0
2521098947,16626177,37.1028221,-76.392246,-2.9954,0.78608346,0.5126503,0.0014296504,-0.0004615323,0.0,-0.099506535,-0.087325156,-0.40608394,-0.41157195,-0.0014411984,-0.04349453,-0.007694766,1.5948707,2.7864313,-1.8839588,-0.042656567,6.121544,2.6039777,0.40608394,0.3321558,0.2358897,0.15902005,0.095571466,inf,inf,inf,inf,1,1,1,1,2,0,2,2,1,1,0
2521202965,16626177,37.1028221,-76.392246,-3.0074553,0.77400976,0.45598888,0.0014296504,-0.0004615323,0.0,-0.062051307,-0.10941714,-0.6853431,-0.688754,-0.0014411984,-0.04349453,-0.007694766,1.9864972,-2.0362406,-0.7649059,-0.045482356,6.121544,2.660639,0.6853431,0.3208183,0.23580365,0.15547918,0.09530291,inf,inf,inf,inf,1,1,1,1,2,0,2,2,1,1,0
2521303083,16626177,37.1028221,-76.392246,-3.0164454,0.76014304,0.37620586,0.0014296504,-0.0004615323,0.0,-0.03196829,-0.11909664,-0.9080017,-0.9096603,-0.0014411984,-0.04349453,-0.007694766,1.0678406,1.589293,1.8455207,-0.048103396,6.121544,2.740422,0.9080017,0.33294818,0.23517433,0.16111413,0.09542559,inf,inf,inf,inf,1,1,1,1,2,0,2,2,1,1,0
2521403022,16626177,37.1028221,-76.392246,-3.0239658,0.74743605,0.28073797,0.0014296504,-0.0004615323,0.0,-0.013009388,-0.14241177,-1.0378389,-1.0367929,-0.0014411984,-0.04349453,-0.007694766,3.9400349,-1.0656838,2.6096718,-0.050660532,6.121544,2.83589,1.0378389,0.32059735,0.23449513,0.1572226,0.09499923,inf,inf,inf,inf,1,1,1,1,2,0,2,2,1,1,0
2521506959,16626177,37.1028221,-76.392246,-3.0356052,0.738757,0.17128135,0.0014296504,-0.0004615323,0.0,-0.018186262,-0.13756491,-1.08951,-1.0860703,-0.0014411984,-0.04349453,-0.007694766,-4.34699,-1.0064082,-10.281995,-0.054037016,6.121544,2.9453466,1.08951,0.33282238,0.23550792,0.16277584,0.09551646,inf,inf,inf,inf,1,1,1,1,2,0,2,2,1,1,0
2521606957,16626177,37.1028221,-76.392246,-3.043715,0.7287085,0.061005704,0.0014296504,-0.0004615323,0.0,-0.003315917,-0.14797153,-1.1323978,-1.1266953,-0.0014411984,-0.04349453,-0.007694766,-0.6399612,-0.3887256,-1.2721177,-0.056891546,6.121544,3.0556223,1.1323978,0.32138672,0.23541926,0.1585363,0.09525371,inf,inf,inf,inf,1,1,1,1,2,0,2,2,1,1,0
2521706992,16626177,37.1028221,-76.392246,-3.0492046,0.7174298,-0.05141174,0.0014296504,-0.0004615323,0.0,0.0089280885,-0.15091461,-1.1662959,-1.1574479,-0.0014411984,-0.04349453,-0.007694766,0.44164824,-0.5459021,-0.081715815,-0.05981671,6.121544,3.1680396,1.1662959,0.33273184,0.23585927,0.1631025,0.09561394,inf,inf,inf,inf,1,1,1,1,2,0,2,2,1,1,0
2521810910,16626177,37.1028221,-76.392246,-3.0520775,0.7043871,-0.16896383,0.0014296504,-0.0004615323,0.0,0.020190831,-0.16073658,-1.2076092,-1.1935451,-0.0014411984,-0.04349453,-0.007694766,1.3158879,0.36173138,4.7873483,-0.06153502,6.121544,3.2855918,1.2076092,0.32109228,0.23574395,0.15841895,0.09533377,inf,inf,inf,inf,1,1,1,1,2,0,2,2,1,1,0
2521910792,16626177,37.1028221,-76.392246,-3.0502763,0.6923302,-0.2802084,0.0014296504,-0.0004615323,0.0,0.028664397,-0.13822228,-1.1855537,-1.1635945,-0.0014411984,-0.04349453,-0.007694766,-1.193866,2.3872883,-6.6677656,-0.061894633,6.121544,3.3968363,1.1855537,0.33340278,0.23512112,0.16318347,0.09546161,inf,inf,inf,inf,1,1,1,1,2,0,2,2,1,1,0
2522015088,16626177,37.1028221,-76.392246,-3.046045,0.6789022,-0.39399445,0.0014296504,-0.0004615323,0.0,0.029207384,-0.1336631,-1.2033095,-1.1717343,-0.0014411984,-0.04349453,-0.007694766,-4.3217373,1.7999226,-5.856367,-0.06054906,6.121544,3.5106225,1.2033095,0.3221533,0.23502082,0.15868536,0.09519705,inf,inf,inf,inf,1,1,1,1,2,0,2,2,1,1,0
2522118784,16626177,37.1028221,-76.392246,-3.039602,0.6668305,-0.5057794,0.0014296504,-0.0004615323,0.0,0.04719055,-0.117133394,-1.2283964,-1.1841083,-0.0014411984,-0.04349453,-0.007694766,-0.43031612,0.58081686,-2.3870373,-0.057173736,6.121544,3.6224074,1.2283964,0.334517,0.23601109,0.16340046,0.09570014,inf,inf,inf,inf,1,1,1,1,2,0,2,2,1,1,0
2522218912,16626177,37.1028221,-76.392246,-3.0325816,0.6566858,-0.6154464,0.0014296504,-0.0004615323,0.0,0.07449958,-0.08355329,-1.2350211,-1.1809933,-0.0014411984,-0.04349453,-0.007694766,0.20440333,2.6292543,-4.4117947,-0.051981594,6.121544,3.7320743,1.2350211,0.32222536,0.23531908,0.1585294,0.09527228,inf,inf,inf,inf,1,1,1,1,2,0,2,2,1,1,0
2522322950,16626177,37.1028221,-76.392246,-3.0231407,0.648674,-0.72779304,0.0014296504,-0.0004615323,0.0,0.084544934,-0.05429597,-1.2368306,-1.1723322,-0.0014411984,-0.04349453,-0.007694766,-3.5851173,-0.57041305,-2.8706949,-0.04697192,6.121544,3.844421,1.2368306,0.33459583,0.23632711,0.1631687,0.09578144,inf,inf,inf,inf,1,1,1,1,2,0,2,2,1,1,0
2522422934,16626177,37.1028221,-76.392246,-3.0140405,0.6463238,-0.8349773,0.0014296504,-0.0004615323,0.0,0.11805883,-0.016258737,-1.24455,-1.1700112,-0.0014411984,-0.04349453,-0.007694766,-0.6634273,0.5475972,1.7641325,-0.04356595,6.121544,3.9516053,1.24455,0.3229431,0.23459232,0.15843304,0.09512581,inf,inf,inf,inf,1,1,1,1,2,0,2,2,1,1,0
2522522971,16626177,37.1028221,-76.392246,-3.0048048,0.6487718,-0.94697547,0.0014296504,-0.0004615323,0.0,0.13762794,0.01619985,-1.2656523,-1.1854843,-0.0014411984,-0.04349453,-0.007694766,-1.5061105,1.4255878,-5.1439495,-0.042282075,6.121544,4.0636034,1.2656523,0.3343612,0.23502654,0.16282815,0.09548001,inf,inf,inf,inf,1,1,1,1,2,0,2,2,1,1,0
2522626902,16626177,37.1028221,-76.392246,-2.9953156,0.65570426,-1.0648067,0.0014296504,-0.0004615323,0.0,0.1457185,0.04270719,-1.2603481,-1.1766428,-0.0014411984,-0.04349453,-0.007694766,-1.1831106,-0.8229304,-1.0804882,-0.04293821,6.121544,4.1814346,1.2603481,0.32296753,0.2349459,0.15819941,0.095221475,inf,inf,inf,inf,1,1,1,1,2,0,2,2,1,1,0
2522726965,16626177,37.1028221,-76.392246,-2.9858916,0.66593397,-1.17845,0.0014296504,-0.0004615323,0.0,0.16321301,0.07396972,-1.241095,-1.1557262,-0.0014411984,-0.04349453,-0.007694766,1.7920636,-0.13736041,-1.8593984,-0.043971043,6.121544,4.295078,1.241095,0.3353625,0.23597991,0.16287759,0.09573885,inf,inf,inf,inf,1,1,1,1,2,0,2,2,1,1,0
2522826890,16626177,37.1028221,-76.392246,-2.97575,0.6786893,-1.2956799,0.0014296504,-0.0004615323,0.0,0.16356805,0.099741675,-1.2403935,-1.1568111,-0.0014411984,-0.04349453,-0.007694766,2.1770315,1.5600446,-3.837021,-0.046056017,6.121544,4.4123077,1.2403935,0.32293317,0.23532242,0.15799834,0.09532548,inf,inf,inf,inf,1,1,1,1,2,0,2,2,1,1,0
2522930893,16626177,37.1028221,-76.392246,-2.965328,0.6947899,-1.4132246,0.0014296504,-0.0004615323,0.0,0.15237401,0.122048885,-1.2378391,-1.1522514,-0.0014411984,-0.04349453,-0.007694766,-0.15633251,0.3446366,1.919911,-0.04839127,6.121544,4.5298524,1.2378391,0.33531627,0.23635903,0.16262089,0.09584374,inf,inf,inf,inf,1,1,1,1,2,0,2,2,1,1,0
2523031620,16626177,37.1028221,-76.392246,-2.9583523,0.71292424,-1.5297624,0.0014296504,-0.0004615323,0.0,0.14157379,0.14634158,-1.2160251,-1.132513,-0.0014411984,-0.04349453,-0.007694766,-2.2943013,1.4448352,2.4426115,-0.049948648,6.121544,4.6463904,1.2160251,0.3238283,0.23463157,0.15799409,0.09519327,inf,inf,inf,inf,1,1,1,1,2,0,2,2,1,1,0
2523132737,16626177,37.1028221,-76.392246,-2.9512346,0.7318653,-1.6457579,0.0014296504,-0.0004615323,0.0,0.13170788,0.14863396,-1.221567,-1.1394666,-0.0014411984,-0.04349453,-0.007694766,-0.0001745045,-0.9735873,-0.3474681,-0.05075279,6.121544,4.762386,1.221567,0.3352684,0.23507075,0.16221397,0.09554446,inf,inf,inf,inf,1,1,1,1,2,0,2,2,1,1,0
2523232613,16626177,37.1028221,-76.392246,-2.945611,0.7544603,-1.7580647,0.0014296504,-0.0004615323,0.0,0.12509762,0.16598044,-1.2120272,-1.130517,-0.0014411984,-0.04349453,-0.007694766,0.090564944,0.44557792,-2.6198363,-0.05068968,6.121544,4.874693,1.2120272,0.3239681,0.23510636,0.15772569,0.09530213,inf,inf,inf,inf,1,1,1,1,2,0,2,2,1,1,0
2523336577,16626177,37.1028221,-76.392246,-2.938461,0.7785685,-1.877888,0.0014296504,-0.0004615323,0.0,0.13717677,0.16788927,-1.2443639,-1.1650345,-0.0014411984,-0.04349453,-0.007694766,1.696362,0.289051,-0.3215745,-0.049047768,6.121544,4.994516,1.2443639,0.336371,0.23613317,0.16224772,0.095812276,inf,inf,inf,inf,1,1,1,1,2,0,2,2,1,1,0
2523436590,16626177,37.1028221,-76.392246,-2.9323006,0.8031841,-1.9982744,0.0014296504,-0.0004615323,0.0,0.13574795,0.1797462,-1.2259334,-1.1517247,-0.0014411984,-0.04349453,-0.007694766,-4.2180834,-0.10788517,-7.1450467,-0.046086602,6.121544,5.1149025,1.2259334,0.32378688,0.23545076,0.157329,0.09538446,inf,inf,inf,inf,1,1,1,1,2,0,2,2,1,1,0
2523540415,16626177,37.1028221,-76.392246,-2.923632,0.82783324,-2.1232262,0.0014296504,-0.0004615323,0.0,0.16318004,0.15184814,-1.2317989,-1.1616946,-0.0014411984,-0.04349453,-0.007694766,-0.35140014,0.14753984,2.1228082,-0.042000845,6.121544,5.239854,1.2317989,0.33617052,0.23646098,0.16200358,0.09588761,inf,inf,inf,inf,1,1,1,1,2,0,2,2,1,1,0
2523640458,16626177,37.1028221,-76.392246,-2.9103508,0.8487292,-2.243334,0.0014296504,-0.0004615323,0.0,0.2077283,0.14355324,-1.2206694,-1.1558081,-0.0014411984,-0.04349453,-0.007694766,0.7453037,-0.21812314,-0.81920063,-0.03919868,6.121544,5.359962,1.2206694,0.32454607,0.23472972,0.1574178,0.095234215,inf,inf,inf,inf,1,1,1,1,2,0,2,2,1,1,0
2523740513,16626177,37.1028221,-76.392246,-2.890422,0.8664345,-2.3637404,0.0014296504,-0.0004615323,0.0,0.263669,0.12973735,-1.1972551,-1.1386203,-0.0014411984,-0.04349453,-0.007694766,2.9645865,-1.2131914,7.283605,-0.038568523,6.121544,5.4803686,1.1972551,0.33597976,0.23516339,0.16165048,0.09558059,inf,inf,inf,inf,1,1,1,1,2,0,2,2,1,1,0
2523844565,16626177,37.1028221,-76.392246,-2.861598,0.8806721,-2.48942,0.0014296504,-0.0004615323,0.0,0.33060575,0.102113165,-1.1666648,-1.1166888,-0.0014411984,-0.04349453,-0.007694766,2.470016,0.9844227,1.7450566,-0.038869534,6.121544,5.6060476,1.1666648,0.32438505,0.23508625,0.1570161,0.09531885,inf,inf,inf,inf,1,1,1,1,2,0,2,2,1,1,0
2523944422,16626177,37.1028221,-76.392246,-2.8268068,0.89000493,-2.607464,0.0014296504,-0.0004615323,0.0,0.38524428,0.06757084,-1.1272691,-1.0855414,-0.0014411984,-0.04349453,-0.007694766,-2.2944925,-0.95349514,-4.476234,-0.03943529,6.121544,5.724092,1.1272691,0.3367686,0.23608428,0.16163047,0.0958152,inf,inf,inf,inf,1,1,1,1,2,0,2,2,1,1,0
2524044513,16626177,37.1028221,-76.392246,-2.7859313,0.89638716,-2.719421,0.0014296504,-0.0004615323,0.0,0.46322578,0.022905316,-1.0754626,-1.0395887,-0.0014411984,-0.04349453,-0.007694766,1.7680621,0.9848711,4.9656777,-0.0391513,6.121544,5.836049,1.0754626,0.32422256,0.23540051,0.15662022,0.09538675,inf,inf,inf,inf,1,1,1,1,2,0,2,2,1,1,0
2524148423,16626177,37.1028221,-76.392246,-2.7370267,0.89684314,-2.83107,0.0014296504,-0.0004615323,0.0,0.5182143,-0.031748805,-1.0147169,-0.9859191,-0.0014411984,-0.04349453,-0.007694766,-0.34393132,2.270325,-0.9440565,-0.038325552,6.121544,5.9476976,1.0147169,0.33657488,0.23641512,0.16113624,0.095889196,inf,inf,inf,inf,1,1,1,1,2,0,2,2,1,1,0
2524248545,16626177,37.1028221,-76.392246,-2.6865842,0.89557093,-2.9353235,0.0014296504,-0.0004615323,0.0,0.56431395,-0.076839335,-0.9711446,-0.9495496,-0.0014411984,-0.04349453,-0.007694766,2.958487,1.6246198,6.24699,-0.039979972,6.121544,6.0519514,0.9711446,0.32509404,0.23469251,0.1564666,0.09524316,inf,inf,inf,inf,1,1,1,1,2,0,2,2,1,1,0
2524352591,16626177,37.1028221,-76.392246,-2.6293404,0.8875957,-3.035562,0.0014296504,-0.0004615323,0.0,0.58398455,-0.1146865,-0.946421,-0.9272268,-0.0014411984,-0.04349453,-0.007694766,1.1929939,0.94287,-0.9109855,-0.044259787,6.121544,6.15219,0.946421,0.33745837,0.23568946,0.16094583,0.09574081,inf,inf,inf,inf,1,1,1,1,2,0,2,2,1,1,0
2524456560,16626177,37.1028221,-76.392246,-2.5695403,0.87809855,-3.13811,0.0014296504,-0.0004615323,0.0,0.5884446,-0.17075735,-1.005151,-0.9880257,-0.0014411984,-0.04349453,-0.007694766,-1.074608,1.0883186,-0.49637,-0.04902643,6.121544,6.254738,1.005151,0.3258787,0.23558356,0.15640067,0.09547178,inf,inf,inf,inf,1,1,1,1,2,0,2,2,1,1,0
2524556553,16626177,37.1028221,-76.392246,-2.5130181,0.86334646,-3.2401416,0.0014296504,-0.0004615323,0.0,0.55295485,-0.20099153,-1.0538665,-1.0368712,-0.0014411984,-0.04349453,-0.007694766,-2.6576686,2.1528673,-3.0974288,-0.053799983,6.121544,6.3567696,1.0538665,0.33728835,0.23599894,0.16073038,0.095809676,inf,inf,inf,inf,1,1,1,1,2,0,2,2,1,1,0
2524660558,16626177,37.1028221,-76.392246,-2.4558752,0.84396493,-3.3540788,0.0014296504,-0.0004615323,0.0,0.50108886,-0.22396246,-1.0903642,-1.0765822,-0.0014411984,-0.04349453,-0.007694766,-0.32643715,-1.2105623,-1.069028,-0.05788694,6.121544,6.470707,1.0903642,0.3257408,0.2358732,0.15653731,0.09553051,inf,inf,inf,inf,1,1,1,1,2,0,2,2,1,1,0
2524760331,16626177,37.1028221,-76.392246,-2.4059865,0.8233903,-3.467531,0.0014296504,-0.0004615323,0.0,0.44905093,-0.22294706,-1.1048892,-1.0953764,-0.0014411984,-0.04349453,-0.007694766,0.4463832,-0.1103413,2.670632,-0.05990031,6.121544,6.584159,1.1048892,0.33813363,0.2368662,0.16143824,0.09602222,inf,inf,inf,inf,1,1,1,1,2,0,2,2,1,1,0
2524860385,16626177,37.1028221,-76.392246,-2.3589306,0.8011835,-3.5803566,0.0014296504,-0.0004615323,0.0,0.3747578,-0.22400936,-1.1140454,-1.1068517,-0.0014411984,-0.04349453,-0.007694766,-3.9649765,0.19844124,-3.3890994,-0.060908575,6.121544,6.6969843,1.1140454,0.32569093,0.2361697,0.1567042,0.09558558,inf,inf,inf,inf,1,1,1,1,2,0,2,2,1,1,0
2524964423,16626177,37.1028221,-76.392246,-2.3190842,0.77756953,-3.696186,0.0014296504,-0.0004615323,0.0,0.288055,-0.22774804,-1.1035535,-1.0967433,-0.0014411984,-0.04349453,-0.007694766,2.3450215,-1.8541144,3.858995,-0.06167291,6.121544,6.8128138,1.1035535,0.3380829,0.23552589,0.16131479,0.095685974,inf,inf,inf,inf,1,1,1,1,2,0,2,2,1,1,0
2525064552,16626177,37.1028221,-76.392246,-2.2861357,0.7554622,-3.8086097,0.0014296504,-0.0004615323,0.0,0.19757758,-0.22696511,-1.0888617,-1.0844417,-0.0014411984,-0.04349453,-0.007694766,-2.1517684,-0.88677937,0.13316417,-0.061594345,6.121544,6.9252377,1.0888617,0.32674244,0.23543435,0.15704663,0.09541936,inf,inf,inf,inf,1,1,1,1,2,0,2,2,1,1,0
2525168518,16626177,37.1028221,-76.392246,-2.262926,0.7321291,-3.925136,0.0014296504,-0.0004615323,0.0,0.11276122,-0.2290721,-1.0757442,-1.074649,-0.0014411984,-0.04349453,-0.007694766,-1.7955294,0.74430394,0.46909592,-0.061038267,6.121544,7.0417643,1.0757442,0.31588167,0.23533733,0.15275681,0.095134355,inf,inf,inf,inf,1,1,1,1,2,0,2,2,1,1,0
2525272665,16626177,37.1028221,-76.392246,-2.2475514,0.71267724,-4.039912,0.0014296504,-0.0004615323,0.0,0.046097342,-0.22000375,-1.0678079,-1.069683,-0.0014411984,-0.04349453,-0.007694766,3.3543625,-1.0348071,2.6071124,-0.06104765,6.121544,7.15654,1.0678079,0.32777885,0.23633246,0.15727146,0.09563169,inf,inf,inf,inf,1,1,1,1,2,0,2,2,1,1,0
2525372592,16626177,37.1028221,-76.392246,-2.2423484,0.6949785,-4.152912,0.0014296504,-0.0004615323,0.0,-0.03830971,-0.18742815,-1.0840336,-1.0914258,-0.0014411984,-0.04349453,-0.007694766,-1.4767638,0.3525879,-5.068381,-0.06110192,6.121544,7.26954,1.0840336,0.33927947,0.23674765,0.16152306,0.0959622,inf,inf,inf,inf,1,1,1,1,2,0,2,2,1,1,0
2525472528,16626177,37.1028221,-76.392246,-2.2407765,0.68208987,-4.273806,0.0014296504,-0.0004615323,0.0,-0.09196055,-0.13265455,-1.1233025,-1.1404635,-0.0014411984,-0.04349453,-0.007694766,0.38478136,0.10930643,2.2875195,-0.0610242,6.121544,7.3904343,1.1233025,0.32774773,0.23500493,0.15716146,0.095305696,inf,inf,inf,inf,1,1,1,1,2,0,2,2,1,1,0
2525576539,16626177,37.1028221,-76.392246,-2.247255,0.6727434,-4.408376,0.0014296504,-0.0004615323,0.0,-0.14518692,-0.08463415,-1.1669722,-1.1968127,-0.0014411984,-0.04349453,-0.007694766,0.11819391,0.5413324,4.129453,-0.061079793,6.121544,7.5250044,1.1669722,0.31682473,0.2348966,0.15301643,0.09502553,inf,inf,inf,inf,1,1,1,1,2,0,2,2,1,1,0
2525676546,16626177,37.1028221,-76.392246,-2.25772,0.6689774,-4.538892,0.0014296504,-0.0004615323,0.0,-0.20020859,-0.03651322,-1.1908034,-1.2293581,-0.0014411984,-0.04349453,-0.007694766,0.10176287,2.1443172,0.67591566,-0.060777657,6.121544,7.6555195,1.1908034,0.32782143,0.2352987,0.15746385,0.095366515,inf,inf,inf,inf,1,1,1,1,2,0,2,2,1,1,0
2525780563,16626177,37.1028221,-76.392246,-2.2746854,0.6696488,-4.6771164,0.0014296504,-0.0004615323,0.0,-0.23747428,0.026142728,-1.1868298,-1.2338682,-0.0014411984,-0.04349453,-0.007694766,-1.7734088,-0.051700275,-2.1626275,-0.060410943,6.121544,7.793744,1.1868298,0.34031767,0.23628765,0.1622941,0.095856406,inf,inf,inf,inf,1,1,1,1,2,0,2,2,1,1,0
2525880541,16626177,37.1028221,-76.392246,-2.2930467,0.6750047,-4.811579,0.0014296504,-0.0004615323,0.0,-0.25999773,0.04539501,-1.1730884,-1.2291801,-0.0014411984,-0.04349453,-0.007694766,2.5935822,-0.8903869,2.1061635,-0.05856743,6.121544,7.9282074,1.1730884,0.32838842,0.2361734,0.15782303,0.09558201,inf,inf,inf,inf,1,1,1,1,2,0,2,2,1,1,0
2525980564,16626177,37.1028221,-76.392246,-2.3155608,0.6827937,-4.945825,0.0014296504,-0.0004615323,0.0,-0.29031932,0.075093366,-1.1710688,-1.236147,-0.0014411984,-0.04349453,-0.007694766,0.7435695,-2.1720164,-0.7176408,-0.055567715,6.121544,8.062453,1.1710688,0.31647977,0.23548645,0.15321225,0.09514635,inf,inf,inf,inf,1,1,1,1,2,0,2,2,1,1,0
2526084411,16626177,37.1028221,-76.392246,-2.340005,0.6896077,-5.088521,0.0014296504,-0.0004615323,0.0,-0.30861235,0.09184852,-1.1879956,-1.2638465,-0.0014411984,-0.04349453,-0.007694766,1.807504,-0.52778083,3.3555965,-0.05364343,6.121544,8.205149,1.1879956,0.32839677,0.23486385,0.1577198,0.09527948,inf,inf,inf,inf,1,1,1,1,2,0,2,2,1,1,0
2526184371,16626177,37.1028221,-76.392246,-2.366289,0.6975768,-5.226214,0.0014296504,-0.0004615323,0.0,-0.34536833,0.09915799,-1.1853646,-1.2701863,-0.0014411984,-0.04349453,-0.007694766,-2.3958986,0.18902963,-2.8521714,-0.05364361,6.121544,8.342842,1.1853646,0.3173771,0.23474267,0.15343244,0.09499845,inf,inf,inf,inf,1,1,1,1,2,0,2,2,1,1,0
2526284498,16626177,37.1028221,-76.392246,-2.3915262,0.70405215,-5.3635335,0.0014296504,-0.0004615323,0.0,-0.3427913,0.116511844,-1.1842024,-1.2766619,-0.0014411984,-0.04349453,-0.007694766,1.2250413,1.4587059,0.6590247,-0.054005202,6.121544,8.480162,1.1842024,0.3284028,0.23515528,0.15778409,0.09534761,inf,inf,inf,inf,1,1,1,1,2,0,2,2,1,1,0
2526388543,16626177,37.1028221,-76.392246,-2.4199724,0.71206146,-5.5109806,0.0014296504,-0.0004615323,0.0,-0.35411248,0.12358228,-1.1806068,-1.284228,-0.0014411984,-0.04349453,-0.007694766,0.7540506,-1.1740056,-3.5765533,-0.053291548,6.121544,8.627608,1.1806068,0.31738088,0.23504704,0.15351021,0.09507264,inf,inf,inf,inf,1,1,1,1,2,0,2,2,1,1,0
