timestamp,baro_alt_meter,baro_temp_celcius,baro_pressure_pa,rho
2508858713,78.048836,49.94,100391.06,1.1928118
2508870677,77.79517,49.94,100394.06,1.1928475
2508897775,78.29721,49.93,100388.07,1.1927763
2508910451,78.2153,49.93,100389.07,1.1927882
2508922643,78.130745,49.93,100390.07,1.1928002
2508946670,78.63279,49.92,100384.08,1.1927289
2508958684,78.466324,49.92,100386.07,1.1927526
2508973475,78.21266,49.92,100389.08,1.1927884
2508998252,78.801895,49.92,100382.08,1.1927052
2509010686,78.71734,49.92,100383.08,1.1927171
2509022471,78.29721,49.92,100388.08,1.1927764
2509046657,78.466324,49.92,100386.07,1.1927526
2509059413,78.21266,49.92,100389.08,1.1927884
2509070774,78.971,49.92,100380.07,1.1926813
2509094677,78.466324,49.93,100386.06,1.1927525
2509107280,78.466324,49.93,100386.06,1.1927525
2509118658,78.55087,49.93,100385.07,1.1927407
2509142734,78.2153,49.93,100389.07,1.1927882
2509155123,78.38177,49.93,100387.07,1.1927644
2509166663,77.96428,49.93,100392.06,1.1928238
2509192275,78.55087,49.93,100385.07,1.1927407
2509204621,78.466324,49.93,100386.06,1.1927525
2509216278,78.466324,49.93,100386.06,1.1927525
2509240672,78.38177,49.93,100387.07,1.1927644
2509252734,78.55087,49.93,100385.07,1.1927407
2509264147,78.71734,49.93,100383.07,1.192717
2509288657,78.38177,49.93,100387.07,1.1927644
2509301070,78.55087,49.93,100385.07,1.1927407
2509312657,78.38177,49.93,100387.07,1.1927644
2509336631,78.2153,49.93,100389.07,1.1927882
2509348632,78.71734,49.93,100383.07,1.192717
2509360712,78.55087,49.93,100385.07,1.1927407
2509388662,78.55087,49.93,100385.07,1.1927407
2509400630,78.55087,49.93,100385.07,1.1927407
2509412597,77.62871,49.93,100396.07,1.1928715
2509436663,78.2153,49.93,100389.07,1.1927882
2509448661,78.046196,49.93,100391.07,1.192812
2509460631,78.29721,49.93,100388.07,1.1927763
2509484681,78.29721,49.93,100388.07,1.1927763
2509496743,78.2153,49.93,100389.07,1.1927882
2509508857,78.2153,49.93,100389.07,1.1927882
2509532663,78.130745,49.93,100390.07,1.1928002
2509544672,78.130745,49.93,100390.07,1.1928002
2509556615,78.466324,49.93,100386.06,1.1927525
2509580659,78.29721,49.93,100388.07,1.1927763
2509592717,78.046196,49.93,100391.07,1.192812
2509604700,78.046196,49.93,100391.07,1.192812
2509628639,78.29721,49.93,100388.07,1.1927763
2509640167,78.29721,49.93,100388.07,1.1927763
2509652363,78.466324,49.93,100386.06,1.1927525
2509676269,78.2153,49.93,100389.07,1.1927882
2509688091,78.29721,49.93,100388.07,1.1927763
2509700675,78.2153,49.93,100389.07,1.1927882
2509724711,78.046196,49.93,100391.07,1.192812
2509736650,77.62871,49.93,100396.07,1.1928715
2509748652,78.046196,49.93,100391.07,1.192812
2509774936,78.55087,49.93,100385.07,1.1927407
2509787919,78.29721,49.93,100388.07,1.1927763
2509800019,77.87972,49.93,100393.07,1.1928358
2509824716,77.71062,49.93,100395.07,1.1928595
2509836626,78.801895,49.93,100382.07,1.192705
2509848681,78.38177,49.93,100387.07,1.1927644
2509872678,78.971,49.93,100380.06,1.1926812
2509884632,78.38177,49.93,100387.07,1.1927644
2509896652,78.130745,49.93,100390.07,1.1928002
2509920416,78.2153,49.93,100389.07,1.1927882
2509932534,78.71734,49.93,100383.07,1.192717
2509944324,79.05292,49.93,100379.07,1.1926694
2509967938,78.88645,49.93,100381.07,1.1926931
2509980545,78.466324,49.93,100386.06,1.1927525
2509991898,79.05292,49.93,100379.07,1.1926694
2510016711,78.38177,49.93,100387.07,1.1927644
2510028548,78.71734,49.93,100383.07,1.192717
2510040034,78.88645,49.93,100381.07,1.1926931
2510064669,78.2153,49.93,100389.07,1.1927882
2510076869,79.473045,49.93,100374.06,1.1926099
2510088687,79.72407,49.93,100371.07,1.1925744
2510112653,79.22202,49.93,100377.07,1.1926457
2510127005,79.473045,49.93,100374.06,1.1926099
2510139363,78.88645,49.93,100381.07,1.1926931
2510163372,79.80862,49.93,100370.07,1.1925625
2510174954,79.63951,49.93,100372.07,1.1925862
2510187471,78.971,49.93,100380.06,1.1926812
2510212631,79.89317,49.93,100369.07,1.1925505
2510224127,78.29721,49.93,100388.07,1.1927763
2510236688,79.473045,49.93,100374.06,1.1926099
2510260541,78.38177,49.93,100387.07,1.1927644
2510271906,79.13747,49.93,100378.07,1.1926575
2510284671,78.046196,49.93,100391.07,1.192812
2510308975,78.88645,49.93,100381.07,1.1926931
2510320676,78.046196,49.93,100391.07,1.192812
2510332737,79.22202,49.93,100377.07,1.1926457
2510356632,78.63543,49.93,100384.07,1.1927288
2510368027,79.05292,49.93,100379.07,1.1926694
2510383041,79.13747,49.93,100378.07,1.1926575
2510408636,78.971,49.93,100380.06,1.1926812
2510420659,78.88645,49.93,100381.07,1.1926931
2510432693,79.38849,49.93,100375.07,1.1926218
2510456660,79.473045,49.93,100374.06,1.1926099
2510468857,79.22202,49.93,100377.07,1.1926457
2510480731,78.63543,49.93,100384.07,1.1927288
2510504680,78.466324,49.92,100386.07,1.1927526
2510516669,79.05292,49.92,100379.08,1.1926695
2510528420,78.71734,49.92,100383.08,1.1927171
2510552670,78.801895,49.93,100382.07,1.192705
2510564695,79.13747,49.93,100378.07,1.1926575
2510576032,78.801895,49.93,100382.07,1.192705
2510600709,78.971,49.93,100380.06,1.1926812
2510612855,79.30394,49.93,100376.07,1.1926337
2510624673,78.88645,49.93,100381.07,1.1926931
2510648895,79.5576,49.93,100373.06,1.192598
2510660642,79.38849,49.93,100375.07,1.1926218
2510672057,79.38849,49.93,100375.07,1.1926218
2510696665,79.05556,49.94,100379.06,1.1926693
2510708688,79.473045,49.94,100374.055,1.1926098
2510720247,79.38849,49.94,100375.06,1.1926218
2510744691,79.13747,49.93,100378.07,1.1926575
2510756542,79.30394,49.93,100376.07,1.1926337
2510767917,79.30394,49.93,100376.07,1.1926337
2510792044,78.88645,49.93,100381.07,1.1926931
2510804636,78.88645,49.93,100381.07,1.1926931
2510816138,78.71734,49.93,100383.07,1.192717
2510840655,78.63543,49.93,100384.07,1.1927288
2510852814,79.30394,49.93,100376.07,1.1926337
2510864060,79.30394,49.93,100376.07,1.1926337
2510888643,78.971,49.93,100380.06,1.1926812
2510901126,79.22202,49.93,100377.07,1.1926457
2510912701,79.473045,49.93,100374.06,1.1926099
2510936683,79.30394,49.93,100376.07,1.1926337
2510948542,79.22202,49.93,100377.07,1.1926457
2510960041,79.05292,49.93,100379.07,1.1926694
2510988526,79.72407,49.93,100371.07,1.1925744
2511000040,79.97773,49.93,100368.07,1.1925387
2511012270,79.5576,49.93,100373.06,1.192598
2511036251,79.5576,49.93,100373.06,1.192598
2511048172,79.72407,49.93,100371.07,1.1925744
2511060258,79.30394,49.93,100376.07,1.1926337
2511084862,79.63951,49.93,100372.07,1.1925862
2511096681,79.13747,49.93,100378.07,1.1926575
2511108536,79.72407,49.93,100371.07,1.1925744
2511132306,79.5576,49.93,100373.06,1.192598
2511144044,79.63951,49.93,100372.07,1.1925862
2511156650,78.801895,49.93,100382.07,1.192705
2511183109,80.31066,49.93,100364.07,1.1924912
2511196552,79.63951,49.93,100372.07,1.1925862
2511208228,79.22202,49.93,100377.07,1.1926457
2511232068,79.13747,49.92,100378.08,1.1926576
2511244554,79.63951,49.92,100372.08,1.1925863
2511256627,79.72407,49.92,100371.08,1.1925745
2511280084,79.72407,49.93,100371.07,1.1925744
2511293129,79.89317,49.93,100369.07,1.1925505
2511304653,80.144196,49.93,100366.07,1.1925149
2511331320,79.80862,49.93,100370.07,1.1925625
2511343057,79.473045,49.93,100374.06,1.1926099
2511355495,79.80862,49.93,100370.07,1.1925625
2511381108,80.47977,49.93,100362.07,1.1924675
2511392654,80.06228,49.93,100367.06,1.1925267
2511405052,79.5576,49.93,100373.06,1.192598
2511428683,80.39522,49.92,100363.08,1.1924794
2511440114,79.89053,49.92,100369.08,1.1925507
2511452655,80.226105,49.92,100365.08,1.1925032
2511476698,80.73079,49.93,100359.07,1.1924318
2511488219,79.80862,49.93,100370.07,1.1925625
2511500828,79.72407,49.93,100371.07,1.1925744
2511524990,79.5576,49.92,100373.07,1.1925981
2511536659,80.31066,49.92,100364.08,1.1924913
2511548290,80.47977,49.92,100362.08,1.1924676
2511573738,80.56432,49.93,100361.06,1.1924554
2511587555,80.31066,49.93,100364.07,1.1924912
2511600125,80.06228,49.93,100367.06,1.1925267
2511624023,79.97773,49.93,100368.07,1.1925387
2511636576,79.72407,49.93,100371.07,1.1925744
2511648055,80.228745,49.93,100365.07,1.1925031
2511672699,79.89317,49.93,100369.07,1.1925505
2511684663,79.97773,49.93,100368.07,1.1925387
2511696014,80.06228,49.93,100367.06,1.1925267
2511720682,80.31066,49.93,100364.07,1.1924912
2511732828,80.31066,49.93,100364.07,1.1924912
2511744693,80.73079,49.93,100359.07,1.1924318
2511768712,80.98445,49.93,100356.07,1.1923962
2511780619,80.31066,49.93,100364.07,1.1924912
2511792649,80.228745,49.93,100365.07,1.1925031
2511815850,80.31066,49.93,100364.07,1.1924912
2511828584,80.56432,49.93,100361.06,1.1924554
2511840068,80.899895,49.93,100357.07,1.192408
2511864271,80.56432,49.93,100361.06,1.1924554
2511876516,80.47977,49.93,100362.07,1.1924675
2511888269,80.47977,49.93,100362.07,1.1924675
2511912755,80.73079,49.93,100359.07,1.1924318
2511924982,80.56432,49.93,100361.06,1.1924554
2511936673,80.39522,49.93,100363.07,1.1924793
2511963503,81.15092,49.93,100354.07,1.1923723
2511976141,80.899895,49.93,100357.07,1.192408
2511988314,79.72407,49.93,100371.07,1.1925744
2512012919,80.815346,49.93,100358.07,1.1924199
2512024048,81.06901,49.93,100355.06,1.1923841
2512036677,80.47977,49.93,100362.07,1.1924675
2512060320,79.80862,49.93,100370.07,1.1925625
2512072251,81.06901,49.93,100355.06,1.1923841
2512084528,80.31066,49.93,100364.07,1.1924912
2512108540,80.815346,49.93,100358.07,1.1924199
2512120346,81.15092,49.93,100354.07,1.1923723
2512132343,80.815346,49.93,100358.07,1.1924199
2512156273,80.56432,49.92,100361.07,1.1924555
2512167867,80.47977,49.92,100362.08,1.1924676
2512180589,80.98181,49.92,100356.08,1.1923962
2512204466,80.228745,49.93,100365.07,1.1925031
2512216181,80.98445,49.93,100356.07,1.1923962
2512228394,80.64623,49.93,100360.07,1.1924436
2512252351,80.56432,49.94,100361.055,1.1924554
2512264119,80.815346,49.94,100358.06,1.1924198
2512276314,80.39522,49.94,100363.06,1.1924793
2512300372,80.39522,49.93,100363.07,1.1924793
2512312339,80.899895,49.93,100357.07,1.192408
2512324630,80.47977,49.93,100362.07,1.1924675
2512348527,80.47977,49.93,100362.07,1.1924675
2512360062,81.06901,49.93,100355.06,1.1923841
2512375107,80.31066,49.93,100364.07,1.1924912
2512399907,80.98445,49.93,100356.07,1.1923962
2512412561,81.486496,49.93,100350.07,1.1923249
2512423962,80.39522,49.93,100363.07,1.1924793
2512447887,80.39522,49.93,100363.07,1.1924793
2512462738,81.06901,49.93,100355.06,1.1923841
2512475263,81.486496,49.93,100350.07,1.1923249
2512500260,81.06636,49.92,100355.07,1.1923842
2512512039,80.897255,49.92,100357.08,1.1924081
2512524761,81.15092,49.92,100354.08,1.1923724
2512548621,81.15092,49.92,100354.08,1.1923724
2512560677,80.73079,49.92,100359.08,1.1924318
2512574969,81.486496,49.92,100350.08,1.1923249
2512600036,80.05964,49.92,100367.07,1.1925268
2512612400,80.815346,49.92,100358.08,1.19242
2512624050,80.73079,49.92,100359.08,1.1924318
2512649054,80.47977,49.93,100362.07,1.1924675
2512661487,81.23547,49.93,100353.07,1.1923605
2512674021,80.899895,49.93,100357.07,1.192408
2512698123,80.897255,49.92,100357.08,1.1924081
2512709761,81.65296,49.92,100348.07,1.192301
2512722315,80.897255,49.92,100357.08,1.1924081
2512746022,81.65296,49.92,100348.07,1.192301
2512757769,81.15092,49.92,100354.08,1.1923724
2512772659,81.40194,49.92,100351.08,1.1923368
2512797769,80.899895,49.93,100357.07,1.192408
2512810179,81.23547,49.93,100353.07,1.1923605
2512821764,80.31066,49.93,100364.07,1.1924912
2512845797,81.06636,49.92,100355.07,1.1923842
2512858238,80.56432,49.92,100361.07,1.1924555
2512869781,81.06636,49.92,100355.07,1.1923842
2512893984,80.144196,49.92,100366.08,1.192515
2512906301,81.65296,49.92,100348.07,1.192301
2512917891,80.98181,49.92,100356.08,1.1923962
2512941768,81.06636,49.92,100355.07,1.1923842
2512954227,81.06636,49.92,100355.07,1.1923842
2512965776,80.815346,49.92,100358.08,1.19242
2512989710,81.40194,49.93,100351.07,1.1923367
2513002208,80.47977,49.93,100362.07,1.1924675
2513013654,80.98445,49.93,100356.07,1.1923962
2513037822,80.39522,49.93,100363.07,1.1924793
2513050566,81.32002,49.93,100352.07,1.1923486
2513062762,81.6556,49.93,100348.06,1.192301
2513085717,81.15092,49.93,100354.07,1.1923723
2513098262,81.15092,49.93,100354.07,1.1923723
2513109737,80.899895,49.93,100357.07,1.192408
2513133777,80.897255,49.92,100357.08,1.1924081
2513146535,80.98181,49.92,100356.08,1.1923962
2513157778,80.47977,49.92,100362.08,1.1924676
2513185059,81.15092,49.93,100354.07,1.1923723
2513196652,80.64623,49.93,100360.07,1.1924436
2513210266,81.40194,49.93,100351.07,1.1923367
2513234431,82.40866,49.93,100339.07,1.1921941
2513245769,80.39522,49.93,100363.07,1.1924793
2513257881,81.571045,49.93,100349.06,1.1923128
2513282318,81.15092,49.93,100354.07,1.1923723
2513293871,80.06228,49.93,100367.06,1.1925267
2513306260,81.32002,49.93,100352.07,1.1923486
2513330275,80.47977,49.93,100362.07,1.1924675
2513341759,80.815346,49.93,100358.07,1.1924199
2513354123,81.23547,49.93,100353.07,1.1923605
2513378142,82.07309,49.93,100343.07,1.1922417
2513389790,80.899895,49.93,100357.07,1.192408
2513402283,81.40194,49.93,100351.07,1.1923367
2513426613,81.32002,49.93,100352.07,1.1923486
2513438692,80.815346,49.93,100358.07,1.1924199
2513450685,81.906624,49.93,100345.07,1.1922654
2513474737,80.98445,49.93,100356.07,1.1923962
2513486682,81.906624,49.93,100345.07,1.1922654
2513498670,80.73079,49.93,100359.07,1.1924318
2513522670,81.06901,49.93,100355.06,1.1923841
2513533775,81.06901,49.93,100355.06,1.1923841
2513546647,81.486496,49.93,100350.07,1.1923249
2513570152,81.15092,49.93,100354.07,1.1923723
2513581683,81.486496,49.93,100350.07,1.1923249
2513594226,80.815346,49.93,100358.07,1.1924199
2513618134,80.31066,49.92,100364.08,1.1924913
2513629782,81.06636,49.92,100355.07,1.1923842
2513642442,80.897255,49.92,100357.08,1.1924081
2513666263,80.98445,49.93,100356.07,1.1923962
2513677727,81.15092,49.93,100354.07,1.1923723
2513689864,80.47977,49.93,100362.07,1.1924675
2513714138,80.899895,49.93,100357.07,1.192408
2513725739,81.06901,49.93,100355.06,1.1923841
2513737907,81.486496,49.93,100350.07,1.1923249
2513762299,81.73751,49.93,100347.07,1.1922892
2513773756,80.815346,49.93,100358.07,1.1924199
2513786212,80.56432,49.93,100361.06,1.1924554
2513810642,81.06636,49.92,100355.07,1.1923842
2513821786,81.486496,49.92,100350.08,1.1923249
2513834229,81.15092,49.92,100354.08,1.1923724
2513857892,80.39522,49.93,100363.07,1.1924793
2513869711,80.899895,49.93,100357.07,1.192408
2513881829,80.56432,49.93,100361.06,1.1924554
2513905959,81.40194,49.93,100351.07,1.1923367
2513917812,80.899895,49.93,100357.07,1.192408
2513930456,81.06901,49.93,100355.06,1.1923841
2513954048,80.06228,49.93,100367.06,1.1925267
2513965795,82.160286,49.93,100342.06,1.1922297
2513980539,81.23547,49.93,100353.07,1.1923605
2514005782,81.486496,49.93,100350.07,1.1923249
2514018263,81.23547,49.93,100353.07,1.1923605
2514029865,81.32002,49.93,100352.07,1.1923486
2514053657,81.23547,49.93,100353.07,1.1923605
2514066163,80.815346,49.93,100358.07,1.1924199
2514077788,81.40194,49.93,100351.07,1.1923367
2514101744,80.899895,49.93,100357.07,1.192408
2514114259,81.32002,49.93,100352.07,1.1923486
2514125875,81.15092,49.93,100354.07,1.1923723
2514149680,80.899895,49.93,100357.07,1.192408
2514162458,80.73079,49.93,100359.07,1.1924318
2514173796,81.486496,49.93,100350.07,1.1923249
2514197787,81.486496,49.93,100350.07,1.1923249
2514210704,80.98445,49.93,100356.07,1.1923962
2514221745,80.899895,49.93,100357.07,1.192408
2514245764,80.228745,49.93,100365.07,1.1925031
2514258226,81.486496,49.93,100350.07,1.1923249
2514269797,80.815346,49.93,100358.07,1.1924199
2514293774,80.899895,49.93,100357.07,1.192408
2514306283,81.40194,49.93,100351.07,1.1923367
2514317804,80.64623,49.93,100360.07,1.1924436
2514342740,81.06901,49.93,100355.06,1.1923841
2514354673,81.06901,49.93,100355.06,1.1923841
2514365783,81.23547,49.93,100353.07,1.1923605
2514389744,80.47977,49.93,100362.07,1.1924675
2514402190,81.486496,49.93,100350.07,1.1923249
2514413809,80.73079,49.93,100359.07,1.1924318
2514437741,80.47977,49.93,100362.07,1.1924675
2514450732,81.23547,49.93,100353.07,1.1923605
2514462712,81.6556,49.93,100348.06,1.192301
2514488867,81.486496,49.93,100350.07,1.1923249
2514500622,81.06901,49.93,100355.06,1.1923841
2514513961,80.899895,49.93,100357.07,1.192408
2514538036,80.815346,49.93,100358.07,1.1924199
2514549807,81.486496,49.93,100350.07,1.1923249
2514561855,81.06901,49.93,100355.06,1.1923841
2514588701,80.56432,49.93,100361.06,1.1924554
2514600933,81.40194,49.93,100351.07,1.1923367
2514613814,80.815346,49.93,100358.07,1.1924199
2514637788,81.06636,49.92,100355.07,1.1923842
2514649865,81.06636,49.92,100355.07,1.1923842
2514661827,80.73079,49.92,100359.08,1.1924318
2514685762,81.6556,49.93,100348.06,1.192301
2514698254,80.228745,49.93,100365.07,1.1925031
2514709719,81.571045,49.93,100349.06,1.1923128
2514733735,80.899895,49.93,100357.07,1.192408
2514748458,80.73079,49.93,100359.07,1.1924318
2514760905,80.73079,49.93,100359.07,1.1924318
2514784963,80.56432,49.92,100361.07,1.1924555
2514796612,81.90398,49.92,100345.08,1.1922655
2514808974,80.47977,49.92,100362.08,1.1924676
2514833894,80.815346,49.93,100358.07,1.1924199
2514845712,81.15092,49.93,100354.07,1.1923723
2514858144,81.32002,49.93,100352.07,1.1923486
2514882264,80.98181,49.92,100356.08,1.1923962
2514893780,80.73079,49.92,100359.08,1.1924318
2514906266,81.31738,49.92,100352.08,1.1923487
2514929869,81.06636,49.92,100355.07,1.1923842
2514941865,81.06636,49.92,100355.07,1.1923842
2514954135,80.98181,49.92,100356.08,1.1923962
2514980401,80.98445,49.93,100356.07,1.1923962
2514993528,81.06901,49.93,100355.06,1.1923841
2515005815,80.64623,49.93,100360.07,1.1924436
2515029778,80.815346,49.92,100358.08,1.19242
2515042429,80.56432,49.92,100361.07,1.1924555
2515053789,81.23283,49.92,100353.08,1.1923605
2515078669,81.23283,49.92,100353.08,1.1923605
2515090461,80.64623,49.92,100360.08,1.1924437
2515101833,81.40194,49.92,100351.08,1.1923368
2515126672,80.897255,49.92,100357.08,1.1924081
2515138182,80.47977,49.92,100362.08,1.1924676
2515149820,80.98181,49.92,100356.08,1.1923962
2515173759,81.40194,49.92,100351.08,1.1923368
2515186553,81.06636,49.92,100355.07,1.1923842
2515198662,81.15092,49.92,100354.08,1.1923724
2515222648,80.815346,49.92,100358.08,1.19242
2515234666,81.40194,49.92,100351.08,1.1923368
2515246658,80.897255,49.92,100357.08,1.1924081
2515270731,80.31066,49.93,100364.07,1.1924912
2515282199,81.23547,49.93,100353.07,1.1923605
2515293776,81.15092,49.93,100354.07,1.1923723
2515317706,80.815346,49.93,100358.07,1.1924199
2515330462,80.39522,49.93,100363.07,1.1924793
2515341654,80.98445,49.93,100356.07,1.1923962
2515366596,80.98445,49.93,100356.07,1.1923962
2515378676,81.32002,49.93,100352.07,1.1923486
2515390612,81.23547,49.93,100353.07,1.1923605
2515414630,80.815346,49.92,100358.08,1.19242
2515426644,81.486496,49.92,100350.08,1.1923249
2515438671,80.815346,49.92,100358.08,1.19242
2515461764,80.39522,49.93,100363.07,1.1924793
2515474173,80.64623,49.93,100360.07,1.1924436
2515485794,81.15092,49.93,100354.07,1.1923723
2515509766,81.23283,49.92,100353.08,1.1923605
2515522260,80.815346,49.92,100358.08,1.19242
2515533771,80.47977,49.92,100362.08,1.1924676
2515557796,80.64623,49.93,100360.07,1.1924436
2515570255,80.73079,49.93,100359.07,1.1924318
2515581799,80.98445,49.93,100356.07,1.1923962
2515605726,80.64623,49.92,100360.08,1.1924437
2515618139,80.73079,49.92,100359.08,1.1924318
2515629776,80.98181,49.92,100356.08,1.1923962
2515654653,80.897255,49.92,100357.08,1.1924081
2515666650,81.571045,49.92,100349.07,1.192313
2515678646,81.40194,49.92,100351.08,1.1923368
2515702685,80.98445,49.93,100356.07,1.1923962
2515714663,80.47977,49.93,100362.07,1.1924675
2515726629,81.15092,49.93,100354.07,1.1923723
2515750729,80.98445,49.93,100356.07,1.1923962
2515762662,80.815346,49.93,100358.07,1.1924199
2515774678,81.40194,49.93,100351.07,1.1923367
2515798625,80.64623,49.93,100360.07,1.1924436
2515810637,80.56432,49.93,100361.06,1.1924554
2515821776,81.571045,49.93,100349.06,1.1923128
2515848975,81.23547,49.93,100353.07,1.1923605
2515861661,80.899895,49.93,100357.07,1.192408
2515873873,80.98445,49.93,100356.07,1.1923962
2515898437,81.15092,49.93,100354.07,1.1923723
2515909747,80.228745,49.93,100365.07,1.1925031
2515922191,81.486496,49.93,100350.07,1.1923249
2515946195,80.73079,49.93,100359.07,1.1924318
2515957814,80.73079,49.93,100359.07,1.1924318
2515969890,80.56432,49.93,100361.06,1.1924554
2515994358,81.40194,49.93,100351.07,1.1923367
2516005764,80.899895,49.93,100357.07,1.192408
2516018253,80.815346,49.93,100358.07,1.1924199
2516042282,80.98445,49.93,100356.07,1.1923962
2516053864,80.47977,49.93,100362.07,1.1924675
2516066215,81.32002,49.93,100352.07,1.1923486
2516089901,80.56432,49.92,100361.07,1.1924555
2516103072,81.15092,49.92,100354.08,1.1923724
2516115282,80.47977,49.92,100362.08,1.1924676
2516139615,80.98445,49.93,100356.07,1.1923962
2516151747,81.06901,49.93,100355.06,1.1923841
2516163733,80.56432,49.93,100361.06,1.1924554
2516190697,80.98445,49.93,100356.07,1.1923962
2516202298,80.899895,49.93,100357.07,1.192408
2516214547,80.815346,49.93,100358.07,1.1924199
2516239424,80.31066,49.93,100364.07,1.1924912
2516251244,81.40194,49.93,100351.07,1.1923367
2516263741,80.56432,49.93,100361.06,1.1924554
2516287834,80.815346,49.93,100358.07,1.1924199
2516299593,80.47977,49.93,100362.07,1.1924675
2516311716,80.98445,49.93,100356.07,1.1923962
2516335924,81.15092,49.93,100354.07,1.1923723
2516347788,80.98445,49.93,100356.07,1.1923962
2516359459,80.64623,49.93,100360.07,1.1924436
2516383869,80.56432,49.92,100361.07,1.1924555
2516395733,81.06636,49.92,100355.07,1.1923842
2516407595,80.73079,49.92,100359.08,1.1924318
2516431736,80.06228,49.93,100367.06,1.1925267
2516443596,80.98445,49.93,100356.07,1.1923962
2516455735,80.228745,49.93,100365.07,1.1925031
2516479814,80.228745,49.93,100365.07,1.1925031
2516491752,80.31066,49.93,100364.07,1.1924912
2516504127,81.23547,49.93,100353.07,1.1923605
2516528042,80.31066,49.93,100364.07,1.1924912
2516539606,80.56432,49.93,100361.06,1.1924554
2516551789,80.64623,49.93,100360.07,1.1924436
2516575742,80.31066,49.92,100364.08,1.1924913
2516587619,80.64623,49.92,100360.08,1.1924437
2516599873,80.31066,49.92,100364.08,1.1924913
2516623613,80.228745,49.93,100365.07,1.1925031
2516635751,80.815346,49.93,100358.07,1.1924199
2516647730,80.47977,49.93,100362.07,1.1924675
2516671615,80.228745,49.93,100365.07,1.1925031
2516683589,81.486496,49.93,100350.07,1.1923249
2516695771,79.63951,49.93,100372.07,1.1925862
2516719882,80.815346,49.92,100358.08,1.19242
2516731742,80.05964,49.92,100367.07,1.1925268
2516743731,81.06636,49.92,100355.07,1.1923842
2516767724,80.31066,49.93,100364.07,1.1924912
2516779856,80.47977,49.93,100362.07,1.1924675
2516791511,81.15092,49.93,100354.07,1.1923723
2516815493,80.39522,49.93,100363.07,1.1924793
2516827636,81.15092,49.93,100354.07,1.1923723
2516839628,80.228745,49.93,100365.07,1.1925031
2516863768,80.05964,49.92,100367.07,1.1925268
2516875602,81.571045,49.92,100349.07,1.192313
2516887590,80.226105,49.92,100365.08,1.1925032
2516911606,80.64623,49.93,100360.07,1.1924436
2516923746,80.56432,49.93,100361.06,1.1924554
2516936017,80.73079,49.93,100359.07,1.1924318
2516959836,81.486496,49.93,100350.07,1.1923249
2516971602,79.89317,49.93,100369.07,1.1925505
2516986507,80.56432,49.93,100361.06,1.1924554
2517011483,80.56432,49.93,100361.06,1.1924554
2517023829,79.89317,49.93,100369.07,1.1925505
2517035350,80.73079,49.93,100359.07,1.1924318
2517059593,80.56432,49.92,100361.07,1.1924555
2517072244,80.815346,49.92,100358.08,1.19242
2517083618,80.897255,49.92,100357.08,1.1924081
2517107604,80.64623,49.92,100360.08,1.1924437
2517122249,80.31066,49.92,100364.08,1.1924913
2517134651,80.31066,49.92,100364.08,1.1924913
2517159507,80.228745,49.93,100365.07,1.1925031
2517171221,80.31066,49.93,100364.07,1.1924912
2517186475,80.899895,49.93,100357.07,1.192408
2517211603,79.97508,49.92,100368.08,1.1925389
2517223598,81.31738,49.92,100352.08,1.1923487
2517235788,80.897255,49.92,100357.08,1.1924081
2517259226,80.47977,49.92,100362.08,1.1924676
2517271471,80.47977,49.92,100362.08,1.1924676
2517283751,80.64623,49.92,100360.08,1.1924437
2517307621,80.47977,49.92,100362.08,1.1924676
2517319820,80.47977,49.92,100362.08,1.1924676
2517331377,80.226105,49.92,100365.08,1.1925032
2517355738,80.64623,49.92,100360.08,1.1924437
2517368133,80.31066,49.92,100364.08,1.1924913
2517379772,80.39522,49.92,100363.08,1.1924794
2517403740,79.97773,49.93,100368.07,1.1925387
2517416128,80.39522,49.93,100363.07,1.1924793
2517427618,80.228745,49.93,100365.07,1.1925031
2517451744,79.5576,49.92,100373.07,1.1925981
2517463874,80.815346,49.92,100358.08,1.19242
2517475702,79.80862,49.92,100370.08,1.1925626
2517499590,80.144196,49.92,100366.08,1.192515
2517512287,80.47977,49.92,100362.08,1.1924676
2517523725,80.64623,49.92,100360.08,1.1924437
2517547724,80.47977,49.93,100362.07,1.1924675
2517559831,80.31066,49.93,100364.07,1.1924912
2517571604,80.64623,49.93,100360.07,1.1924436
2517595633,80.98181,49.92,100356.08,1.1923962
2517607849,79.89053,49.92,100369.08,1.1925507
2517619621,81.15092,49.92,100354.08,1.1923724
2517643580,80.899895,49.93,100357.07,1.192408
2517655741,80.98445,49.93,100356.07,1.1923962
2517667736,80.64623,49.93,100360.07,1.1924436
2517691601,80.47977,49.93,100362.07,1.1924675
2517704019,80.64623,49.93,100360.07,1.1924436
2517715720,80.73079,49.93,100359.07,1.1924318
2517739723,81.23283,49.92,100353.08,1.1923605
2517752083,80.39522,49.92,100363.08,1.1924794
2517763628,81.486496,49.92,100350.08,1.1923249
2517787753,80.73079,49.93,100359.07,1.1924318
2517800197,80.228745,49.93,100365.07,1.1925031
2517811743,81.23547,49.93,100353.07,1.1923605
2517835596,80.56432,49.93,100361.06,1.1924554
2517847843,80.06228,49.93,100367.06,1.1925267
2517859597,81.15092,49.93,100354.07,1.1923723
2517883588,80.73079,49.92,100359.08,1.1924318
2517896186,80.226105,49.92,100365.08,1.1925032
2517907623,81.06636,49.92,100355.07,1.1923842
2517931634,80.47977,49.93,100362.07,1.1924675
2517944135,80.56432,49.93,100361.06,1.1924554
2517955778,80.39522,49.93,100363.07,1.1924793
2517979607,80.144196,49.92,100366.08,1.192515
2517991826,80.98181,49.92,100356.08,1.1923962
2518003598,80.98181,49.92,100356.08,1.1923962
2518027717,80.815346,49.93,100358.07,1.1924199
2518039850,80.56432,49.93,100361.06,1.1924554
2518051591,80.899895,49.93,100357.07,1.192408
2518075703,80.64623,49.93,100360.07,1.1924436
2518087732,80.39522,49.93,100363.07,1.1924793
2518099788,80.39522,49.93,100363.07,1.1924793
2518123748,80.73079,49.93,100359.07,1.1924318
2518136363,80.228745,49.93,100365.07,1.1925031
2518147750,80.39522,49.93,100363.07,1.1924793
2518171740,80.64623,49.93,100360.07,1.1924436
2518183866,80.899895,49.93,100357.07,1.192408
2518195603,79.80862,49.93,100370.07,1.1925625
2518219607,80.56432,49.93,100361.06,1.1924554
2518231745,81.15092,49.93,100354.07,1.1923723
2518243775,80.06228,49.93,100367.06,1.1925267
2518267611,80.06228,49.93,100367.06,1.1925267
2518279732,80.47977,49.93,100362.07,1.1924675
2518291758,80.73079,49.93,100359.07,1.1924318
2518315598,80.06228,49.93,100367.06,1.1925267
2518328051,80.64623,49.93,100360.07,1.1924436
2518339155,80.06228,49.93,100367.06,1.1925267
2518366576,80.64623,49.93,100360.07,1.1924436
2518379276,80.815346,49.93,100358.07,1.1924199
2518391537,80.98445,49.93,100356.07,1.1923962
2518415770,80.47977,49.93,100362.07,1.1924675
2518427601,80.56432,49.93,100361.06,1.1924554
2518440202,80.98445,49.93,100356.07,1.1923962
2518464286,81.82207,49.92,100346.08,1.1922774
2518475623,80.31066,49.92,100364.08,1.1924913
2518487626,80.56432,49.92,100361.07,1.1924555
2518511794,80.899895,49.93,100357.07,1.192408
2518523635,80.73079,49.93,100359.07,1.1924318
2518535915,80.39522,49.93,100363.07,1.1924793
2518559716,80.73079,49.93,100359.07,1.1924318
2518571619,80.815346,49.93,100358.07,1.1924199
2518583766,80.64623,49.93,100360.07,1.1924436
2518607598,80.73079,49.92,100359.08,1.1924318
2518619623,80.144196,49.92,100366.08,1.192515
2518631601,80.815346,49.92,100358.08,1.19242
2518655632,81.15092,49.92,100354.08,1.1923724
2518667742,79.89053,49.92,100369.08,1.1925507
2518679744,80.897255,49.92,100357.08,1.1924081
2518703866,80.98445,49.93,100356.07,1.1923962
2518715745,80.31066,49.93,100364.07,1.1924912
2518727621,80.39522,49.93,100363.07,1.1924793
2518751916,80.64623,49.93,100360.07,1.1924436
2518763731,80.144196,49.93,100366.07,1.1925149
2518776308,80.98445,49.93,100356.07,1.1923962
2518802324,81.06901,49.93,100355.06,1.1923841
2518815589,81.23547,49.93,100353.07,1.1923605
2518827606,80.06228,49.93,100367.06,1.1925267
2518851621,80.05964,49.92,100367.07,1.1925268
2518863816,81.40194,49.92,100351.08,1.1923368
2518875722,79.89053,49.92,100369.08,1.1925507
2518899599,80.815346,49.92,100358.08,1.19242
2518911855,81.486496,49.92,100350.08,1.1923249
2518923732,81.06636,49.92,100355.07,1.1923842
2518947626,80.39522,49.93,100363.07,1.1924793
2518959744,80.98445,49.93,100356.07,1.1923962
2518971108,80.31066,49.93,100364.07,1.1924912
2518995625,80.899895,49.93,100357.07,1.192408
2519010129,80.39522,49.93,100363.07,1.1924793
2519022551,80.899895,49.93,100357.07,1.192408
2519047796,80.39522,49.93,100363.07,1.1924793
2519059070,80.31066,49.93,100364.07,1.1924912
2519071470,81.23547,49.93,100353.07,1.1923605
2519095728,81.23283,49.92,100353.08,1.1923605
2519107742,80.897255,49.92,100357.08,1.1924081
2519119595,80.31066,49.92,100364.08,1.1924913
2519143735,80.73079,49.92,100359.08,1.1924318
2519155605,81.23283,49.92,100353.08,1.1923605
2519167861,81.40194,49.92,100351.08,1.1923368
2519191934,80.64623,49.93,100360.07,1.1924436
2519203723,81.06901,49.93,100355.06,1.1923841
2519215624,80.64623,49.93,100360.07,1.1924436
2519239481,80.899895,49.93,100357.07,1.192408
2519251764,80.815346,49.93,100358.07,1.1924199
2519263634,81.32002,49.93,100352.07,1.1923486
2519287754,80.73079,49.92,100359.08,1.1924318
2519299770,80.897255,49.92,100357.08,1.1924081
2519311714,80.815346,49.92,100358.08,1.19242
2519335740,80.47977,49.92,100362.08,1.1924676
2519347258,81.40194,49.92,100351.08,1.1923368
2519359487,80.226105,49.92,100365.08,1.1925032
2519386327,80.899895,49.93,100357.07,1.192408
2519399105,80.899895,49.93,100357.07,1.192408
2519410212,81.06901,49.93,100355.06,1.1923841
2519434258,81.15092,49.93,100354.07,1.1923723
2519447264,81.15092,49.93,100354.07,1.1923723
2519458330,81.32002,49.93,100352.07,1.1923486
2519483339,80.73079,49.93,100359.07,1.1924318
2519496245,81.32002,49.93,100352.07,1.1923486
2519507661,80.899895,49.93,100357.07,1.192408
2519531636,81.486496,49.92,100350.08,1.1923249
2519544273,80.47977,49.92,100362.08,1.1924676
2519556247,81.486496,49.92,100350.08,1.1923249
2519580974,80.815346,49.92,100358.08,1.19242
2519595890,81.06636,49.92,100355.07,1.1923842
2519609863,81.40194,49.92,100351.08,1.1923368
2519633697,80.39522,49.92,100363.08,1.1924794
2519644749,80.56432,49.92,100361.07,1.1924555
2519657685,80.64623,49.92,100360.08,1.1924437
2519681767,80.56432,49.93,100361.06,1.1924554
2519693660,81.40194,49.93,100351.07,1.1923367
2519705809,80.64623,49.93,100360.07,1.1924436
2519729740,80.39522,49.92,100363.08,1.1924794
2519741778,80.98181,49.92,100356.08,1.1923962
2519753659,81.06636,49.92,100355.07,1.1923842
2519777742,80.897255,49.92,100357.08,1.1924081
2519789785,80.897255,49.92,100357.08,1.1924081
2519803839,80.47977,49.92,100362.08,1.1924676
2519828649,81.23547,49.93,100353.07,1.1923605
2519841477,80.64623,49.93,100360.07,1.1924436
2519852884,80.73079,49.93,100359.07,1.1924318
2519877654,81.571045,49.92,100349.07,1.192313
2519889848,80.144196,49.92,100366.08,1.192515
2519901657,81.73751,49.92,100347.08,1.1922892
2519925779,81.15092,49.92,100354.08,1.1923724
2519937748,80.56432,49.92,100361.07,1.1924555
2519948861,81.73751,49.92,100347.08,1.1922892
2519973866,81.486496,49.92,100350.08,1.1923249
2519985423,80.56432,49.92,100361.07,1.1924555
2519996985,81.31738,49.92,100352.08,1.1923487
2520021793,81.15092,49.92,100354.08,1.1923724
2520033779,80.98181,49.92,100356.08,1.1923962
2520044977,81.15092,49.92,100354.08,1.1923724
2520068744,80.64623,49.93,100360.07,1.1924436
2520081333,81.15092,49.93,100354.07,1.1923723
2520092827,81.23547,49.93,100353.07,1.1923605
2520116856,80.64623,49.93,100360.07,1.1924436
2520129429,80.47977,49.93,100362.07,1.1924675
2520140970,81.486496,49.93,100350.07,1.1923249
2520165734,81.486496,49.92,100350.08,1.1923249
2520180047,80.47977,49.92,100362.08,1.1924676
2520193175,80.897255,49.92,100357.08,1.1924081
2520217139,80.39522,49.92,100363.08,1.1924794
2520229053,81.73751,49.92,100347.08,1.1922892
2520241189,80.64623,49.92,100360.08,1.1924437
2520265498,80.64623,49.92,100360.08,1.1924437
2520277820,81.06636,49.92,100355.07,1.1923842
2520289335,80.98181,49.92,100356.08,1.1923962
2520313020,80.73079,49.93,100359.07,1.1924318
2520324824,80.815346,49.93,100358.07,1.1924199
2520337155,80.47977,49.93,100362.07,1.1924675
2520361061,80.226105,49.92,100365.08,1.1925032
2520372657,81.06636,49.92,100355.07,1.1923842
2520388132,81.31738,49.92,100352.08,1.1923487
2520412863,81.40194,49.92,100351.08,1.1923368
2520427737,81.23283,49.92,100353.08,1.1923605
2520441113,80.897255,49.92,100357.08,1.1924081
2520465067,80.47977,49.92,100362.08,1.1924676
2520476702,81.15092,49.92,100354.08,1.1923724
2520489441,80.39522,49.92,100363.08,1.1924794
2520513320,80.98181,49.92,100356.08,1.1923962
2520525019,81.571045,49.92,100349.07,1.192313
2520537395,81.23283,49.92,100353.08,1.1923605
2520561205,81.06636,49.92,100355.07,1.1923842
2520572867,81.15092,49.92,100354.08,1.1923724
2520585344,81.31738,49.92,100352.08,1.1923487
2520609108,81.23547,49.93,100353.07,1.1923605
2520620730,81.571045,49.93,100349.06,1.1923128
2520633121,80.899895,49.93,100357.07,1.192408
2520657074,80.815346,49.92,100358.08,1.19242
2520668821,80.226105,49.92,100365.08,1.1925032
2520681774,80.73079,49.92,100359.08,1.1924318
2520705794,80.98181,49.92,100356.08,1.1923962
2520716938,81.06636,49.92,100355.07,1.1923842
2520729624,81.06636,49.92,100355.07,1.1923842
2520753477,81.73751,49.93,100347.07,1.1922892
2520765033,80.899895,49.93,100357.07,1.192408
2520777142,81.32002,49.93,100352.07,1.1923486
2520803810,80.815346,49.92,100358.08,1.19242
2520817374,81.23283,49.92,100353.08,1.1923605
2520828999,81.486496,49.92,100350.08,1.1923249
2520853652,81.23283,49.92,100353.08,1.1923605
2520865766,80.31066,49.92,100364.08,1.1924913
2520876687,80.897255,49.92,100357.08,1.1924081
2520901052,80.64623,49.93,100360.07,1.1924436
2520913532,80.98445,49.93,100356.07,1.1923962
2520925393,80.64623,49.93,100360.07,1.1924436
2520949762,80.73079,49.92,100359.08,1.1924318
2520961768,80.73079,49.92,100359.08,1.1924318
2520973751,81.23283,49.92,100353.08,1.1923605
2520997681,80.56432,49.92,100361.07,1.1924555
2521010588,81.23283,49.92,100353.08,1.1923605
2521024195,81.31738,49.92,100352.08,1.1923487
2521048274,80.897255,49.92,100357.08,1.1924081
2521060819,80.815346,49.92,100358.08,1.19242
2521073079,81.06636,49.92,100355.07,1.1923842
2521097723,81.06636,49.92,100355.07,1.1923842
2521109778,80.73079,49.92,100359.08,1.1924318
2521121857,81.06636,49.92,100355.07,1.1923842
2521145775,80.899895,49.93,100357.07,1.192408
2521157727,81.23547,49.93,100353.07,1.1923605
2521169459,80.815346,49.93,100358.07,1.1924199
2521193464,80.73079,49.93,100359.07,1.1924318
2521204886,80.899895,49.93,100357.07,1.192408
2521217156,81.06901,49.93,100355.06,1.1923841
2521241076,80.98181,49.92,100356.08,1.1923962
2521253088,81.571045,49.92,100349.07,1.192313
2521265072,81.15092,49.92,100354.08,1.1923724
2521289714,81.06636,49.92,100355.07,1.1923842
2521301068,80.815346,49.92,100358.08,1.19242
2521313134,81.31738,49.92,100352.08,1.1923487
2521337066,80.815346,49.92,100358.08,1.19242
2521349012,81.486496,49.92,100350.08,1.1923249
2521361109,81.486496,49.92,100350.08,1.1923249
2521387823,81.06901,49.93,100355.06,1.1923841
2521401342,80.815346,49.93,100358.07,1.1924199
2521412857,81.06901,49.93,100355.06,1.1923841
2521436842,81.15092,49.92,100354.08,1.1923724
2521449333,81.15092,49.92,100354.08,1.1923724
2521460892,81.06636,49.92,100355.07,1.1923842
2521484883,81.65296,49.92,100348.07,1.192301
2521499814,81.31738,49.92,100352.08,1.1923487
2521512308,81.90398,49.92,100345.08,1.1922655
2521537181,80.897255,49.92,100357.08,1.1924081
2521548989,80.98181,49.92,100356.08,1.1923962
2521561196,80.64623,49.92,100360.08,1.1924437
2521587934,81.15092,49.92,100354.08,1.1923724
2521600637,81.65296,49.92,100348.07,1.192301
2521612990,81.486496,49.92,100350.08,1.1923249
2521636887,81.15092,49.92,100354.08,1.1923724
2521649166,81.40194,49.92,100351.08,1.1923368
2521660862,81.06636,49.92,100355.07,1.1923842
2521685006,80.56432,49.93,100361.06,1.1924554
2521697655,81.571045,49.93,100349.06,1.1923128
2521709769,81.32002,49.93,100352.07,1.1923486
2521732928,81.15092,49.92,100354.08,1.1923724
2521745842,81.73751,49.92,100347.08,1.1922892
2521757784,81.31738,49.92,100352.08,1.1923487
2521781652,81.06636,49.92,100355.07,1.1923842
2521793766,81.15092,49.92,100354.08,1.1923724
2521805758,81.82207,49.92,100346.08,1.1922774
2521832060,80.897255,49.92,100357.08,1.1924081
2521843776,80.98181,49.92,100356.08,1.1923962
2521856974,81.15092,49.92,100354.08,1.1923724
2521881058,81.82207,49.92,100346.08,1.1922774
2521892849,81.571045,49.92,100349.07,1.192313
2521905174,81.486496,49.92,100350.08,1.1923249
2521929344,80.897255,49.92,100357.08,1.1924081
2521940844,81.82207,49.92,100346.08,1.1922774
2521953195,81.23283,49.92,100353.08,1.1923605
2521979779,81.571045,49.93,100349.06,1.1923128
2521992512,82.242195,49.93,100341.07,1.192218
2522003903,81.571045,49.93,100349.06,1.1923128
2522028848,81.98853,49.92,100344.08,1.1922536
2522041645,81.31738,49.92,100352.08,1.1923487
2522052675,81.98853,49.92,100344.08,1.1922536
2522077710,81.906624,49.93,100345.07,1.1922654
2522089868,81.23547,49.93,100353.07,1.1923605
2522100867,82.07309,49.93,100343.07,1.1922417
2522125076,81.40194,49.92,100351.08,1.1923368
2522137495,82.07309,49.92,100343.08,1.1922418
2522148851,81.73751,49.92,100347.08,1.1922892
2522172827,81.73751,49.92,100347.08,1.1922892
2522185508,81.486496,49.92,100350.08,1.1923249
2522196714,81.571045,49.92,100349.07,1.192313
2522220936,82.07309,49.92,100343.08,1.1922418
2522233475,81.571045,49.92,100349.07,1.192313
2522244902,82.40866,49.92,100339.08,1.1921942
2522269773,82.66232,49.92,100336.07,1.1921585
2522281774,81.73751,49.92,100347.08,1.1922892
2522292827,82.15764,49.92,100342.07,1.1922297
2522316817,81.98853,49.93,100344.07,1.1922536
2522329442,82.32675,49.93,100340.07,1.192206
2522341061,82.32675,49.93,100340.07,1.192206
2522365776,81.98853,49.93,100344.07,1.1922536
2522377652,81.82207,49.93,100346.07,1.1922773
2522388901,82.32675,49.93,100340.07,1.192206
2522412651,81.906624,49.93,100345.07,1.1922654
2522425510,82.160286,49.93,100342.06,1.1922297
2522436868,82.160286,49.93,100342.06,1.1922297
2522460886,82.160286,49.93,100342.06,1.1922297
2522473338,82.49322,49.93,100338.07,1.1921823
2522485003,82.07309,49.93,100343.07,1.1922417
2522509014,82.324104,49.92,100340.08,1.1922061
2522521443,82.07309,49.92,100343.08,1.1922418
2522532851,82.57777,49.92,100337.08,1.1921705
2522556889,81.906624,49.93,100345.07,1.1922654
2522569466,82.82879,49.93,100334.07,1.1921347
2522580998,82.40866,49.93,100339.07,1.1921941
2522605784,82.74424,49.93,100335.07,1.1921467
2522617766,82.66232,49.93,100336.06,1.1921585
2522629648,81.82207,49.93,100346.07,1.1922773
2522653767,82.40866,49.93,100339.07,1.1921941
2522665793,81.906624,49.93,100345.07,1.1922654
2522677782,82.49322,49.93,100338.07,1.1921823
2522704277,82.242195,49.92,100341.08,1.192218
2522715800,82.57777,49.92,100337.08,1.1921705
2522729383,82.66232,49.92,100336.07,1.1921585
2522753204,81.98853,49.92,100344.08,1.1922536
2522764992,82.995255,49.92,100332.08,1.192111
2522779847,82.66232,49.92,100336.07,1.1921585
2522805118,82.49322,49.93,100338.07,1.1921823
2522817058,82.913345,49.93,100333.07,1.1921228
2522828719,82.32675,49.93,100340.07,1.192206
2522852657,82.74424,49.92,100335.08,1.1921467
2522865100,83.24892,49.92,100329.08,1.1920754
2522876667,82.74424,49.92,100335.08,1.1921467
2522900856,82.66232,49.92,100336.07,1.1921585
2522913659,81.73751,49.92,100347.08,1.1922892
2522925071,83.33347,49.92,100328.08,1.1920636
2522948913,82.995255,49.92,100332.08,1.192111
2522961652,82.07309,49.92,100343.08,1.1922418
2522973712,82.82879,49.92,100334.08,1.1921349
2522996889,82.995255,49.92,100332.08,1.192111
2523009599,83.584496,49.92,100325.08,1.1920279
2523021802,82.74424,49.92,100335.08,1.1921467
2523045767,83.33347,49.92,100328.08,1.1920636
2523058183,82.242195,49.92,100341.08,1.192218
2523070609,84.17109,49.92,100318.08,1.1919447
2523094670,82.995255,49.92,100332.08,1.192111
2523107067,82.913345,49.92,100333.08,1.1921229
2523118643,82.995255,49.92,100332.08,1.192111
2523142635,82.49322,49.93,100338.07,1.1921823
2523155397,83.33347,49.93,100328.07,1.1920635
2523166632,83.33347,49.93,100328.07,1.1920635
2523193770,83.33347,49.92,100328.08,1.1920636
2523206446,83.24892,49.92,100329.08,1.1920754
2523218924,83.16437,49.92,100330.07,1.1920872
2523242939,82.74424,49.92,100335.08,1.1921467
2523254684,83.41538,49.92,100327.08,1.1920516
2523266822,82.995255,49.92,100332.08,1.192111
2523290808,82.82879,49.93,100334.07,1.1921347
2523302682,83.584496,49.93,100325.07,1.1920278
2523314987,82.9979,49.93,100332.07,1.192111
2523338794,83.07981,49.92,100331.08,1.1920992
2523350687,83.16437,49.92,100330.07,1.1920872
2523362784,83.33347,49.92,100328.08,1.1920636
2523386660,83.7536,49.92,100323.07,1.1920041
2523398685,83.49994,49.92,100326.08,1.1920397
2523410662,83.41538,49.92,100327.08,1.1920516
2523434705,83.92007,49.92,100321.08,1.1919804
2523446700,83.49994,49.92,100326.08,1.1920397
2523458677,83.584496,49.92,100325.08,1.1920279
2523483259,83.92007,49.92,100321.08,1.1919804
2523494673,83.33347,49.92,100328.08,1.1920636
2523507028,84.42211,49.92,100315.08,1.1919091
2523530934,83.41538,49.92,100327.08,1.1920516
2523542681,83.7536,49.92,100323.07,1.1920041
2523555133,83.584496,49.92,100325.08,1.1920279
2523581336,83.41803,49.93,100327.07,1.1920515
2523593975,84.08918,49.93,100319.07,1.1919565
2523605472,83.669044,49.93,100324.06,1.1920158
2523629418,83.669044,49.92,100324.07,1.1920159
2523642326,84.340195,49.92,100316.08,1.191921
2523654340,84.08653,49.92,100319.08,1.1919566
2523679598,83.584496,49.92,100325.08,1.1920279
2523693321,84.00462,49.92,100320.08,1.1919684
2523705733,83.33347,49.92,100328.08,1.1920636
2523730644,83.33347,49.92,100328.08,1.1920636
2523742655,84.255646,49.92,100317.07,1.1919328
2523755126,83.7536,49.92,100323.07,1.1920041
2523781433,83.584496,49.92,100325.08,1.1920279
2523793915,83.83552,49.92,100322.08,1.1919923
2523806492,84.255646,49.92,100317.07,1.1919328
2523830721,83.49994,49.92,100326.08,1.1920397
2523842681,84.255646,49.92,100317.07,1.1919328
2523854708,83.92007,49.92,100321.08,1.1919804
2523878641,83.7536,49.92,100323.07,1.1920041
2523892235,84.00462,49.92,100320.08,1.1919684
2523903591,84.17109,49.92,100318.08,1.1919447
2523926723,84.59122,49.92,100313.08,1.1918854
2523938932,84.42211,49.92,100315.08,1.1919091
2523950685,84.50666,49.92,100314.08,1.1918972
2523974648,84.67577,49.92,100312.08,1.1918734
2523987376,83.83552,49.92,100322.08,1.1919923
2523998726,84.255646,49.92,100317.07,1.1919328
2524022908,83.584496,49.93,100325.07,1.1920278
2524035077,84.255646,49.93,100317.06,1.1919327
2524046676,84.50666,49.93,100314.07,1.1918972
2524070725,83.92007,49.93,100321.07,1.1919802
2524083254,84.17109,49.93,100318.07,1.1919446
2524094652,84.340195,49.93,100316.07,1.1919209
2524121840,84.255646,49.93,100317.06,1.1919327
2524134527,83.669044,49.93,100324.06,1.1920158
2524146677,84.255646,49.93,100317.06,1.1919327
2524173434,84.340195,49.93,100316.07,1.1919209
2524187135,84.50666,49.93,100314.07,1.1918972
2524198603,84.50666,49.93,100314.07,1.1918972
2524222730,84.50666,49.92,100314.08,1.1918972
2524234746,84.59122,49.92,100313.08,1.1918854
2524246682,84.50666,49.92,100314.08,1.1918972
2524270673,84.17109,49.92,100318.08,1.1919447
2524283092,84.08653,49.92,100319.08,1.1919566
2524294725,85.011345,49.92,100308.08,1.1918259
2524318681,84.59122,49.92,100313.08,1.1918854
2524330981,84.255646,49.92,100317.07,1.1919328
2524342320,84.50666,49.92,100314.08,1.1918972
2524369779,84.17109,49.93,100318.07,1.1919446
2524382431,84.76032,49.93,100311.06,1.1918614
2524393827,85.011345,49.93,100308.07,1.1918259
2524418651,84.59122,49.93,100313.07,1.1918852
2524430335,85.011345,49.93,100308.07,1.1918259
2524442750,84.50666,49.93,100314.07,1.1918972
2524467022,84.76032,49.92,100311.07,1.1918615
2524478715,84.67577,49.92,100312.08,1.1918734
2524491057,85.43147,49.92,100303.08,1.1917665
2524514943,84.76032,49.92,100311.07,1.1918615
2524526773,84.59122,49.92,100313.08,1.1918854
2524538970,84.76032,49.92,100311.07,1.1918615
2524563269,85.011345,49.92,100308.08,1.1918259
2524574659,84.67577,49.92,100312.08,1.1918734
2524587131,84.42211,49.92,100315.08,1.1919091
2524611024,85.011345,49.92,100308.08,1.1918259
2524622741,84.50666,49.92,100314.08,1.1918972
2524635108,85.17781,49.92,100306.08,1.1918021
2524658717,84.42211,49.92,100315.08,1.1919091
2524670730,85.011345,49.92,100308.08,1.1918259
2524682749,84.59122,49.92,100313.08,1.1918854
2524706965,85.011345,49.92,100308.08,1.1918259
2524718715,85.011345,49.92,100308.08,1.1918259
2524731057,84.67577,49.92,100312.08,1.1918734
2524755124,84.84224,49.92,100310.08,1.1918497
2524766674,84.76032,49.92,100311.07,1.1918615
2524781629,85.51339,49.92,100302.08,1.1917546
2524806681,85.346924,49.92,100304.08,1.1917784
2524819032,85.0959,49.92,100307.08,1.1918141
2524830781,85.26237,49.92,100305.07,1.1917902
2524854682,85.346924,49.92,100304.08,1.1917784
2524867017,85.682495,49.92,100300.08,1.1917309
2524878570,85.43147,49.92,100303.08,1.1917665
2524902701,85.0959,49.92,100307.08,1.1918141
2524915013,84.926796,49.92,100309.08,1.1918378
2524926691,84.84224,49.92,100310.08,1.1918497
2524950662,85.43147,49.92,100303.08,1.1917665
2524963069,85.59794,49.92,100301.08,1.1917428
2524974707,85.26237,49.92,100305.07,1.1917902
2525001740,85.0959,49.92,100307.08,1.1918141
2525013661,85.17781,49.92,100306.08,1.1918021
2525026000,85.59794,49.92,100301.08,1.1917428
2525051089,85.346924,49.92,100304.08,1.1917784
2525062325,85.346924,49.92,100304.08,1.1917784
2525074784,85.682495,49.92,100300.08,1.1917309
2525098990,84.926796,49.92,100309.08,1.1918378
2525110666,86.018074,49.92,100296.08,1.1916833
2525123094,85.682495,49.92,100300.08,1.1917309
2525146908,85.43147,49.92,100303.08,1.1917665
2525158664,85.51339,49.92,100302.08,1.1917546
2525173198,86.26909,49.92,100293.08,1.1916476
2525198465,85.8516,49.92,100298.07,1.191707
2525210720,85.59794,49.92,100301.08,1.1917428
2525222781,85.93352,49.92,100297.08,1.1916952
2525246657,85.682495,49.92,100300.08,1.1917309
2525259230,85.93352,49.92,100297.08,1.1916952
2525270700,86.18454,49.92,100294.08,1.1916596
2525294602,86.18454,49.92,100294.08,1.1916596
2525307215,85.93352,49.92,100297.08,1.1916952
2525318675,86.10262,49.92,100295.08,1.1916715
2525342726,85.93352,49.92,100297.08,1.1916952
2525355112,85.93352,49.92,100297.08,1.1916952
2525366751,86.10262,49.92,100295.08,1.1916715
2525394276,86.52275,49.92,100290.08,1.191612
2525405680,85.93352,49.92,100297.08,1.1916952
2525418574,85.76705,49.92,100299.07,1.1917188
2525443437,85.8516,49.92,100298.07,1.191707
2525454626,85.682495,49.92,100300.08,1.1917309
2525467109,86.10262,49.92,100295.08,1.1916715
2525490931,86.18454,49.92,100294.08,1.1916596
2525502744,85.93352,49.92,100297.08,1.1916952
2525514978,85.76705,49.92,100299.07,1.1917188
2525538850,85.8516,49.92,100298.07,1.191707
2525550720,86.60467,49.92,100289.08,1.1916002
2525563033,86.60467,49.92,100289.08,1.1916002
2525587114,86.26909,49.92,100293.08,1.1916476
2525598698,86.52275,49.92,100290.08,1.191612
2525611067,86.10262,49.92,100295.08,1.1916715
2525635223,86.356285,49.93,100292.06,1.1916356
2525646673,85.682495,49.93,100300.07,1.1917307
2525658652,86.4382,49.93,100291.07,1.1916238
2525683218,86.4382,49.92,100291.08,1.1916239
2525694742,86.52275,49.92,100290.08,1.191612
2525707107,86.353645,49.92,100292.07,1.1916357
2525730675,86.85833,49.92,100286.07,1.1915644
2525742729,86.10262,49.92,100295.08,1.1916715
2525755233,86.4382,49.92,100291.08,1.1916239
2525779023,87.27846,49.92,100281.08,1.1915051
2525790643,86.85833,49.92,100286.07,1.1915644
2525805373,86.4382,49.92,100291.08,1.1916239
2525830260,87.024796,49.92,100284.08,1.1915407
2525843387,86.4382,49.92,100291.08,1.1916239
2525854630,86.60467,49.92,100289.08,1.1916002
2525878647,86.26909,49.92,100293.08,1.1916476
2525891268,86.94288,49.92,100285.08,1.1915526
2525902772,86.85833,49.92,100286.07,1.1915644
2525929760,86.60467,49.92,100289.08,1.1916002
2525941451,86.52275,49.92,100290.08,1.191612
2525954139,86.77377,49.92,100287.08,1.1915764
2525979525,86.94024,49.91,100285.086,1.1915528
2525992242,86.94024,49.91,100285.086,1.1915528
2526005407,87.52948,49.91,100278.086,1.1914696
2526029373,86.26909,49.92,100293.08,1.1916476
2526041991,86.85833,49.92,100286.07,1.1915644
2526054496,87.109344,49.92,100283.08,1.1915289
2526078710,86.77377,49.92,100287.08,1.1915764
2526091032,86.94288,49.92,100285.08,1.1915526
2526102750,87.109344,49.92,100283.08,1.1915289
2526126672,86.94288,49.92,100285.08,1.1915526
2526139054,87.695946,49.92,100276.08,1.1914457
2526150713,87.363014,49.92,100280.07,1.1914932
2526174648,87.44492,49.92,100279.08,1.1914814
2526187249,87.024796,49.92,100284.08,1.1915407
2526198667,87.363014,49.92,100280.07,1.1914932
2526222635,86.018074,49.93,100296.07,1.1916832
2526235382,87.27846,49.93,100281.07,1.191505
2526246693,87.1939,49.93,100282.07,1.1915169
2526270741,86.85833,49.92,100286.07,1.1915644
2526283064,87.1939,49.92,100282.08,1.191517
2526294626,87.1939,49.92,100282.08,1.191517
2526318663,87.363014,49.92,100280.07,1.1914932
2526331251,86.68922,49.92,100288.08,1.1915883
2526342712,86.60467,49.92,100289.08,1.1916002
2526366478,87.363014,49.92,100280.07,1.1914932
2526381345,87.44492,49.92,100279.08,1.1914814
2526393986,87.44492,49.92,100279.08,1.1914814
2526418784,87.52948,49.92,100278.08,1.1914694
2526430665,87.695946,49.92,100276.08,1.1914457
2526442822,87.52948,49.92,100278.08,1.1914694
2526466662,87.27846,49.92,100281.08,1.1915051
2526479392,87.1939,49.92,100282.08,1.191517
2526490542,87.94961,49.92,100273.07,1.19141
2526514653,87.363014,49.92,100280.07,1.1914932
2526527625,87.44492,49.92,100279.08,1.1914814
2526540192,87.61403,49.92,100277.08,1.1914576
2526564722,87.109344,49.93,100283.07,1.1915288
2526579041,87.52948,49.93,100278.07,1.1914693
2526592413,87.109344,49.93,100283.07,1.1915288
2526616213,87.1939,49.92,100282.08,1.191517
2526628164,87.024796,49.92,100284.08,1.1915407
2526640337,87.52948,49.92,100278.08,1.1914694
2526664538,86.94288,49.92,100285.08,1.1915526
2526676164,87.024796,49.92,100284.08,1.1915407
2526688418,87.695946,49.92,100276.08,1.1914457
2526712668,87.27846,49.92,100281.08,1.1915051
2526723965,87.61403,49.92,100277.08,1.1914576
2526736415,88.03416,49.92,100272.08,1.1913981
2526760287,87.109344,49.92,100283.08,1.1915289
2526772071,88.03416,49.92,100272.08,1.1913981
2526784358,87.024796,49.92,100284.08,1.1915407
2526808525,86.77377,49.92,100287.08,1.1915764
2526820032,88.03416,49.92,100272.08,1.1913981
2526832348,87.61403,49.92,100277.08,1.1914576
2526856248,87.363014,49.92,100280.07,1.1914932
2526868020,88.369736,49.92,100268.08,1.1913506
2526880667,87.363014,49.92,100280.07,1.1914932
2526904728,87.44492,49.92,100279.08,1.1914814
2526916633,87.27846,49.92,100281.08,1.1915051
2526928861,87.61403,49.92,100277.08,1.1914576
2526952643,87.86505,49.92,100274.07,1.1914219
2526964674,87.780495,49.92,100275.08,1.1914338
2526979060,88.20062,49.92,100270.08,1.1913744
2527004228,87.94961,49.92,100273.07,1.19141
2527016735,88.20062,49.92,100270.08,1.1913744
2527028642,87.44492,49.92,100279.08,1.1914814
2527055291,87.61403,49.92,100277.08,1.1914576
2527068035,87.61403,49.92,100277.08,1.1914576
2527080239,87.86505,49.92,100274.07,1.1914219
2527104612,88.62076,49.92,100265.08,1.1913149
2527116664,88.45429,49.92,100267.07,1.1913387
2527128548,87.94961,49.92,100273.07,1.19141
2527152630,88.28518,49.92,100269.08,1.1913625
2527164021,88.87177,49.92,100262.08,1.1912793
2527179021,87.86505,49.92,100274.07,1.1914219
2527204251,88.20062,49.92,100270.08,1.1913744
2527216314,88.20062,49.92,100270.08,1.1913744
2527228183,88.28518,49.92,100269.08,1.1913625
2527252203,87.780495,49.92,100275.08,1.1914338
2527264583,88.11607,49.92,100271.08,1.1913862
2527276672,88.78986,49.92,100263.08,1.1912912
2527300139,89.040886,49.92,100260.08,1.1912556
2527312667,88.45429,49.92,100267.07,1.1913387
2527324683,88.5362,49.92,100266.08,1.1913269
2527348635,88.28518,49.92,100269.08,1.1913625
2527360823,88.20062,49.92,100270.08,1.1913744
2527372640,88.5362,49.92,100266.08,1.1913269
2527400152,88.28518,49.92,100269.08,1.1913625
2527412200,88.87177,49.92,100262.08,1.1912793
2527425008,88.20062,49.92,100270.08,1.1913744
2527448654,87.780495,49.92,100275.08,1.1914338
2527460070,88.5362,49.92,100266.08,1.1913269
2527472390,87.94961,49.92,100273.07,1.19141
2527496658,87.780495,49.92,100275.08,1.1914338
2527508051,88.62076,49.92,100265.08,1.1913149
2527520825,89.2919,49.92,100257.08,1.1912199
2527544843,88.5362,49.92,100266.08,1.1913269
2527556641,88.45429,49.92,100267.07,1.1913387
2527568677,88.70531,49.92,100264.08,1.1913031
2527592694,88.03416,49.93,100272.07,1.191398
2527604625,88.87442,49.93,100262.07,1.1912793
2527616627,88.28518,49.93,100269.07,1.1913624
2527640682,88.28518,49.93,100269.07,1.1913624
2527652165,89.125435,49.93,100259.07,1.1912436
2527664740,88.369736,49.93,100268.07,1.1913506
2527688660,88.03416,49.93,100272.07,1.191398
2527700691,88.28518,49.93,100269.07,1.1913624
2527712668,88.45429,49.93,100267.06,1.1913385
2527737100,88.28518,49.92,100269.08,1.1913625
2527748665,89.125435,49.92,100259.08,1.1912436
2527761002,88.70531,49.92,100264.08,1.1913031
2527784701,88.87442,49.93,100262.07,1.1912793
2527796047,88.53884,49.93,100266.07,1.1913267
2527808582,89.20999,49.93,100258.07,1.1912317
2527832643,88.78986,49.92,100263.08,1.1912912
2527844163,88.20062,49.92,100270.08,1.1913744
2527856217,89.20999,49.92,100258.08,1.1912318
2527880261,89.040886,49.92,100260.08,1.1912556
2527892280,89.54557,49.92,100254.08,1.1911843
2527904561,88.369736,49.92,100268.08,1.1913506
2527928268,88.62076,49.92,100265.08,1.1913149
2527940267,88.95633,49.92,100261.07,1.1912674
2527952422,89.125435,49.92,100259.08,1.1912436
2527978830,88.70531,49.92,100264.08,1.1913031
2527991875,89.37646,49.92,100256.08,1.191208
2528003912,89.2919,49.92,100257.08,1.1912199
2528027856,89.040886,49.92,100260.08,1.1912556
2528040845,89.46101,49.92,100255.07,1.1911961
2528052681,89.20999,49.92,100258.08,1.1912318
2528076754,89.712036,49.92,100252.08,1.1911606
2528088815,89.125435,49.92,100259.08,1.1912436
2528100731,88.45429,49.92,100267.07,1.1913387
2528124323,89.040886,49.92,100260.08,1.1912556
2528136865,89.125435,49.92,100259.08,1.1912436
2528148642,89.46101,49.92,100255.07,1.1911961
2528171933,89.54557,49.92,100254.08,1.1911843
2528184612,90.132164,49.92,100247.08,1.1911011
2528196642,89.040886,49.92,100260.08,1.1912556
2528220694,89.712036,49.92,100252.08,1.1911606
2528234810,89.040886,49.92,100260.08,1.1912556
2528247332,89.2919,49.92,100257.08,1.1912199
2528272657,89.796585,49.93,100251.07,1.1911485
2528284072,88.95633,49.93,100261.06,1.1912673
2528296990,89.20999,49.93,100258.07,1.1912317
2528320654,89.62748,49.92,100253.08,1.1911724
2528332698,89.37646,49.92,100256.08,1.191208
2528344870,89.712036,49.92,100252.08,1.1911606
2528368727,88.78986,49.92,100263.08,1.1912912
2528380654,89.46101,49.92,100255.07,1.1911961
2528392288,89.46101,49.92,100255.07,1.1911961
2528416567,90.04761,49.92,100248.07,1.1911129
2528427939,89.88114,49.92,100250.08,1.1911367
2528440664,90.385826,49.92,100244.08,1.1910654
2528464648,89.37646,49.92,100256.08,1.191208
2528476744,90.29863,49.92,100245.08,1.1910774
2528488664,89.2919,49.92,100257.08,1.1912199
2528512902,89.712036,49.92,100252.08,1.1911606
2528524659,90.132164,49.92,100247.08,1.1911011
2528538946,89.46101,49.92,100255.07,1.1911961
2528564153,89.62748,49.92,100253.08,1.1911724
2528579134,90.29863,49.92,100245.08,1.1910774
2528592339,89.9657,49.92,100249.07,1.1911248
2528616186,89.796585,49.91,100251.086,1.1911488
2528627960,89.712036,49.91,100252.086,1.1911607
2528640637,89.796585,49.91,100251.086,1.1911488
2528664514,89.2919,49.92,100257.08,1.1912199
2528675927,89.88114,49.92,100250.08,1.1911367
2528688179,90.467735,49.92,100243.08,1.1910536
2528713038,90.04761,49.92,100248.07,1.1911129
2528724833,90.55229,49.92,100242.07,1.1910416
2528736684,89.9657,49.92,100249.07,1.1911248
2528760655,90.29863,49.92,100245.08,1.1910774
2528772051,89.62748,49.92,100253.08,1.1911724
2528784625,90.04761,49.92,100248.07,1.1911129
2528808304,90.29863,49.92,100245.08,1.1910774
2528820051,90.21671,49.92,100246.08,1.1910893
2528832325,90.29863,49.92,100245.08,1.1910774
2528856297,90.63685,49.92,100241.08,1.1910298
2528868142,89.9657,49.92,100249.07,1.1911248
2528880257,89.796585,49.92,100251.08,1.1911486
2528904307,89.796585,49.92,100251.08,1.1911486
2528916234,90.88786,49.92,100238.08,1.1909941
2528928591,90.467735,49.92,100243.08,1.1910536
2528952420,90.63685,49.92,100241.08,1.1910298
2528964075,90.88786,49.92,100238.08,1.1909941
2528976214,90.29863,49.92,100245.08,1.1910774
2529000568,90.29863,49.92,100245.08,1.1910774
2529011962,90.21671,49.92,100246.08,1.1910893
2529024681,90.04761,49.92,100248.07,1.1911129
2529048669,90.04761,49.92,100248.07,1.1911129
2529060014,90.63685,49.92,100241.08,1.1910298
2529072285,90.63685,49.92,100241.08,1.1910298
2529096282,90.21671,49.92,100246.08,1.1910893
2529108020,90.385826,49.92,100244.08,1.1910654
2529120522,90.132164,49.92,100247.08,1.1911011
2529144566,90.803314,49.93,100239.07,1.191006
2529156007,90.21671,49.93,100246.07,1.1910892
2529168185,90.63685,49.93,100241.07,1.1910298
2529192293,90.467735,49.92,100243.08,1.1910536
2529204057,90.7214,49.92,100240.08,1.191018
2529216572,90.55229,49.92,100242.07,1.1910416
2529240989,90.97242,49.92,100237.08,1.1909823
2529252704,91.138885,49.92,100235.08,1.1909585
2529264961,90.63685,49.92,100241.08,1.1910298
2529288540,91.05698,49.91,100236.08,1.1909704
2529300032,90.63685,49.91,100241.086,1.1910299
2529313105,91.138885,49.91,100235.086,1.1909586
2529336853,90.88786,49.92,100238.08,1.1909941
2529348706,91.39255,49.92,100232.08,1.1909229
2529360653,90.97242,49.92,100237.08,1.1909823
2529384701,91.138885,49.92,100235.08,1.1909585
2529396005,91.477104,49.92,100231.08,1.190911
2529408274,90.88786,49.92,100238.08,1.1909941
2529432616,90.7214,49.92,100240.08,1.191018
2529444051,91.138885,49.92,100235.08,1.1909585
2529456683,91.477104,49.92,100231.08,1.190911
2529480657,90.88786,49.92,100238.08,1.1909941
2529492669,91.56165,49.92,100230.07,1.190899
2529504735,92.0637,49.92,100224.07,1.1908277
2529529166,91.138885,49.92,100235.08,1.1909585
2529540153,91.138885,49.92,100235.08,1.1909585
2529552835,91.72813,49.92,100228.08,1.1908754
2529578986,91.22344,49.92,100234.08,1.1909467
2529592019,91.64357,49.92,100229.08,1.1908872
2529604097,91.22344,49.92,100234.08,1.1909467
2529628046,91.22344,49.92,100234.08,1.1909467
2529640855,91.56165,49.92,100230.07,1.190899
2529652752,91.97914,49.92,100225.08,1.1908398
2529676722,91.56165,49.92,100230.07,1.190899
2529688847,91.138885,49.92,100235.08,1.1909585
2529700189,91.30799,49.92,100233.08,1.1909348
2529724651,91.22344,49.92,100234.08,1.1909467
2529736742,92.39927,49.92,100220.08,1.1907803
2529748320,91.30799,49.92,100233.08,1.1909348
2529772705,92.2328,49.92,100222.08,1.1908041
2529784658,91.56165,49.92,100230.07,1.190899
2529796650,91.72813,49.92,100228.08,1.1908754
2529820764,91.812675,49.93,100227.07,1.1908634
2529832859,91.64357,49.93,100229.07,1.1908872
2529844714,91.97914,49.93,100225.07,1.1908396
2529868102,91.39255,49.92,100232.08,1.1909229
2529880538,92.148254,49.92,100223.07,1.1908159
2529892699,92.2328,49.92,100222.08,1.1908041
2529916020,92.2328,49.92,100222.08,1.1908041
2529929056,92.148254,49.92,100223.07,1.1908159
