timestamp,states[0],states[1],states[2],states[3],states[4],states[5],states[6],states[7],states[8],states[9],states[10],states[11],states[12],states[13],states[14],states[15],states[16],states[17],states[18],states[19],states[20],states[21],states[22],states[23],n_states,vibe[0],vibe[1],vibe[2],covariances[0],covariances[1],covariances[2],covariances[3],covariances[4],covariances[5],covariances[6],covariances[7],covariances[8],covariances[9],covariances[10],covariances[11],covariances[12],covariances[13],covariances[14],covariances[15],covariances[16],covariances[17],covariances[18],covariances[19],covariances[20],covariances[21],covariances[22],covariances[23],control_mode_flags,pos_horiz_accuracy,pos_vert_accuracy,mag_test_ratio,vel_test_ratio,pos_test_ratio,hgt_test_ratio,tas_test_ratio,hagl_test_ratio,beta_test_ratio,time_slip,gps_check_fail_flags,filter_fault_flags,innovation_check_flags,solution_status_flags,nan_flags,health_flags,timeout_flags,pre_flt_fail
2508752551,0.999481,-0.002127711,0.0232166,-0.02223158,0.0358338,0.032019198,-0.024446212,-3.0224872,1.008983,3.0332587,-0.00018473591,0.0002357381,-6.768558e-06,-0.00040464726,4.4525327e-06,-0.00012665833,0.17739432,0.047532663,0.3565534,0.0,0.0,0.0,0.0,0.0,6.4743e-41,1.1576115e-09,1.0509235e-05,0.00040777403,8.473829e-07,1.2871364e-05,1.0589581e-05,4.198451e-05,0.013397037,0.013394694,0.00906342,0.061067097,0.06106475,0.05567029,1.051715e-11,1.04999585e-11,1.896653e-11,1.7206074e-07,2.2835009e-07,5.000007e-08,0.0,0.0,0.0,0.0,0.0,0.0,0.0,0.0,663,0.34947369,0.23594552,0.0305163,0.02100708,0.012053,0.006171174,0.0,0.0,0.0,0.000197,0,0,0,831,0,0,0,0
2508952539,0.9994843,-0.0018917116,0.023048382,-0.022280958,0.038244635,0.032012973,-0.025456337,-3.0106812,1.0131142,3.0249832,-0.00018471126,0.00023574963,-6.777471e-06,-0.00040464549,4.410001e-06,-0.00012657105,0.17739432,0.047532663,0.3565534,0.0,0.0,0.0,0.0,0.0,6.4743e-41,1.1674063e-09,1.0304071e-05,0.0003177104,8.471194e-07,1.2862489e-05,1.0580825e-05,4.2061867e-05,0.0133463945,0.013344084,0.0090047335,0.060969234,0.06096693,0.055081785,1.0513325e-11,1.0496088e-11,1.8981544e-11,1.7206173e-07,2.2835101e-07,5e-08,0.0,0.0,0.0,0.0,0.0,0.0,0.0,0.0,663,0.3491936,0.23469509,0.021075195,0.024369556,0.010621384,0.013680457,0.0,0.0,0.0,0.000185,0,0,0,831,0,0,0,0
2509152496,0.99948615,-0.002048048,0.02316358,-0.022066457,0.03750544,0.032863252,-0.02492522,-2.99993,1.0247787,3.0313396,-0.00018472469,0.00023574593,-6.803069e-06,-0.00040465454,4.4134576e-06,-0.00012951986,0.17739432,0.047532663,0.3565534,0.0,0.0,0.0,0.0,0.0,6.4743e-41,2.40252e-08,0.0001588512,0.0030500153,8.471535e-07,1.2862919e-05,1.0581671e-05,4.20586e-05,0.013363286,0.013360986,0.009020346,0.06109364,0.061091337,0.055236906,1.0514265e-11,1.04970355e-11,1.8979448e-11,1.7206271e-07,2.2835194e-07,5e-08,0.0,0.0,0.0,0.0,0.0,0.0,0.0,0.0,663,0.34954968,0.23502533,0.0406122,0.011665029,0.013819429,0.0015494011,0.0,0.0,0.0,0.000142,0,0,0,831,0,0,0,0
2509358163,0.9995099,-0.0023553846,0.02178812,-0.022354998,-0.009127744,0.028324094,-0.027768193,-2.991001,1.0371224,3.0326836,-0.00018473502,0.00023572937,-6.7771102e-06,-0.00040467875,4.4153176e-06,-0.00013136814,0.17739432,0.047532663,0.3565534,0.0,0.0,0.0,0.0,0.0,6.4743e-41,2.5609916e-08,0.00014953589,0.0037668375,8.476208e-07,1.2862257e-05,1.0584233e-05,4.2136322e-05,0.013394106,0.013392175,0.009039258,0.061286513,0.06128422,0.0554434,1.0518826e-11,1.0501574e-11,1.899585e-11,1.7206372e-07,2.2835289e-07,5.0000054e-08,0.0,0.0,0.0,0.0,0.0,0.0,0.0,0.0,663,0.35010105,0.23546422,0.028086856,0.021661183,0.013865412,0.023436766,0.0,0.0,0.0,0.000209,0,0,0,831,0,0,0,0
2509558227,0.9994908,-0.00042096077,0.023032637,-0.022081353,0.062321827,0.038764235,-0.020314056,-2.9752212,1.0517056,3.0267708,-0.00018475887,0.00023575718,-6.7822384e-06,-0.00040465037,4.4310445e-06,-0.00013118431,0.17739432,0.047532663,0.3565534,0.0,0.0,0.0,0.0,0.0,6.4743e-41,1.9549393e-08,0.00013791189,0.0033375581,8.448518e-07,1.2866046e-05,1.0583195e-05,4.2131156e-05,0.013399934,0.01339779,0.009054455,0.061402906,0.061400626,0.055601902,1.05191975e-11,1.0502031e-11,1.8993612e-11,1.7206463e-07,2.2835373e-07,5.0000075e-08,0.0,0.0,0.0,0.0,0.0,0.0,0.0,0.0,663,0.35043335,0.23580055,0.010011036,0.013786396,0.01227049,0.0055105384,0.0,0.0,0.0,0.000273,0,0,0,831,0,0,0,0
2509766146,0.9995061,-0.0012263289,0.022244815,-0.022166463,0.038977887,0.053275883,-0.013562354,-2.9684792,1.0636239,3.0593438,-0.00018475177,0.00023572234,-6.749426e-06,-0.00040471493,4.3638174e-06,-0.0001417749,0.17739432,0.047532663,0.3565534,0.0,0.0,0.0,0.0,0.0,6.4743e-41,1.7288853e-07,0.0002884857,0.006469857,8.4576243e-07,1.2869745e-05,1.0589941e-05,4.2148644e-05,0.013472952,0.013470676,0.009023982,0.06186615,0.06186383,0.055243656,1.05236635e-11,1.0506455e-11,1.8995038e-11,1.7206563e-07,2.2835464e-07,5e-08,0.0,0.0,0.0,0.0,0.0,0.0,0.0,0.0,663,0.35175273,0.2350397,0.02397765,0.03249033,0.012877864,0.04206033,0.0,0.0,0.0,0.000192,0,0,0,831,0,0,0,0
2509970171,0.99964625,-0.0077705393,-0.008948093,-0.023811368,0.07146109,0.064361535,0.035487317,-2.9579232,1.074908,3.0864732,-0.00018471426,0.00023570165,-6.830127e-06,-0.0004047282,4.2923707e-06,-0.00014953282,0.17739432,0.047532663,0.3565534,0.0,0.0,0.0,0.0,0.0,6.4743e-41,1.1708972e-06,0.0012334009,0.020123921,8.5834915e-07,1.2687033e-05,1.043393e-05,4.2176893e-05,0.012091856,0.012090094,0.008924931,0.054348823,0.05434719,0.05515687,1.0426488e-11,1.0409048e-11,1.8996226e-11,1.7206659e-07,2.2835547e-07,5e-08,0.0,0.0,0.0,0.0,0.0,0.0,0.0,0.0,663,0.32969078,0.234855,0.009697447,0.03839581,0.012037216,0.013906166,0.0,0.0,0.0,0.000217,0,0,0,831,0,0,0,0
2510174012,0.9990959,-0.016596219,-0.031081738,-0.02379,0.34196153,-0.0244526,-0.5846599,-2.875928,1.0828027,3.0266461,-0.00018474032,0.00023582802,-6.830169e-06,-0.0004035033,4.4308317e-06,-0.0001469927,0.17739432,0.047532663,0.3565534,0.0,0.0,0.0,0.0,0.0,6.4743e-41,1.7432383e-06,0.0014853127,0.023181371,8.8406466e-07,1.2674656e-05,1.04143455e-05,4.2139887e-05,0.012470388,0.012483187,0.008870925,0.054465923,0.05446449,0.054565545,1.0423695e-11,1.0405708e-11,1.8992545e-11,1.7205956e-07,2.283431e-07,5e-08,0.0,0.0,0.0,0.0,0.0,0.0,0.0,0.0,663,0.33004606,0.23359269,0.011853362,0.086210765,0.014344855,0.022230024,0.0,0.0,0.0,4.5e-05,0,0,0,831,0,0,0,0
2510374154,0.9995554,-0.019397082,0.013081267,-0.01848428,0.36681348,-0.03544364,-0.96775323,-2.8038185,1.0780901,2.7871602,-0.0001847408,0.00023583086,-6.8298573e-06,-0.00040348916,4.610314e-06,-0.000126028,0.17739432,0.047532663,0.3565534,0.0,0.0,0.0,0.0,0.0,6.4743e-41,1.898752e-06,0.001653467,0.025838323,8.682003e-07,1.2820032e-05,1.0598163e-05,4.2158368e-05,0.01420249,0.014221904,0.009031605,0.06274251,0.062741995,0.055234194,1.0525872e-11,1.0508103e-11,1.8990306e-11,1.7206047e-07,2.2834405e-07,5e-08,0.0,0.0,0.0,0.0,0.0,0.0,0.0,0.0,663,0.3542379,0.23501956,0.029180748,0.086210765,0.014344855,0.07008675,0.0,0.0,0.0,0.0002,0,0,0,831,0,0,0,0
2510578137,0.9988255,-0.0011844864,0.046692003,-0.0128911305,0.2545259,-0.06657307,-0.9978564,-2.7221558,1.0494045,2.5781345,-0.00018466174,0.00023582678,-6.7725005e-06,-0.00040394676,3.3044798e-06,-0.000121463025,0.17739432,0.047532663,0.3565534,0.0,0.0,0.0,0.0,0.0,6.4743e-41,1.5841777e-06,0.0017126836,0.027294487,8.465246e-07,1.26876e-05,1.035093e-05,4.2126398e-05,0.012674719,0.012681885,0.008932232,0.054821007,0.054821126,0.055150807,1.0415762e-11,1.0396801e-11,1.8990158e-11,1.7202593e-07,2.2828482e-07,5e-08,0.0,0.0,0.0,0.0,0.0,0.0,0.0,0.0,663,0.33112255,0.23484209,0.00408889,0.05336548,0.027001254,0.013208367,0.0,0.0,0.0,0.000183,0,0,0,831,0,0,0,0
2510781993,0.9976649,0.014040794,0.06596642,-0.010768776,0.07352219,-0.016890965,-0.9524135,-2.669904,1.0241275,2.3837602,-0.00018458648,0.00023590348,-6.744567e-06,-0.00040312088,2.1705423e-06,-0.00012178497,0.17739432,0.047532663,0.3565534,0.0,0.0,0.0,0.0,0.0,6.4743e-41,1.1311843e-06,0.0017507181,0.027763743,8.4424283e-07,1.2742998e-05,1.0312191e-05,4.2128315e-05,0.012595368,0.012598815,0.008876598,0.054830648,0.05483121,0.05456529,1.0411603e-11,1.0392617e-11,1.9002471e-11,1.7201229e-07,2.2826201e-07,5e-08,0.0,0.0,0.0,0.0,0.0,0.0,0.0,0.0,663,0.33115232,0.23359215,0.01976345,0.0452846,0.029098542,0.016559923,0.0,0.0,0.0,3.9e-05,0,0,0,831,0,0,0,0
2510982180,0.9979212,0.015976934,0.06170153,-0.009530909,-0.18111928,0.1044305,-0.9208626,-2.6845887,1.023542,2.1954348,-0.00018455918,0.00023584385,-6.7866476e-06,-0.00040388395,1.8386582e-06,-0.00012133744,0.17739432,0.047532663,0.3565534,0.0,0.0,0.0,0.0,0.0,6.4743e-41,1.0821534e-06,0.0021297259,0.029863106,8.3643914e-07,1.2694593e-05,1.0294899e-05,4.2138083e-05,0.012528705,0.012542973,0.008894661,0.05481229,0.054812655,0.05474097,1.04075975e-11,1.0389106e-11,1.8999571e-11,1.720002e-07,2.2824315e-07,5.0000036e-08,0.0,0.0,0.0,0.0,0.0,0.0,0.0,0.0,663,0.3310966,0.23396789,0.029572813,0.06378131,0.026220057,0.04355136,0.0,0.0,0.0,0.000226,0,0,0,831,0,0,0,0
2511182460,0.9987957,0.015390458,0.045550242,-0.009771907,-0.3752822,0.20967469,-0.902824,-2.7361264,1.0313648,2.0286007,-0.00018446281,0.00023583809,-6.7676833e-06,-0.00040395476,5.116733e-07,-0.00012471495,0.17739432,0.047532663,0.3565534,0.0,0.0,0.0,0.0,0.0,6.4743e-41,9.692226e-07,0.001956327,0.028802922,8.222874e-07,1.2608476e-05,1.0285454e-05,4.218133e-05,0.012468788,0.012498371,0.008915223,0.054736458,0.054736372,0.05492209,1.0403022e-11,1.0385411e-11,1.8996136e-11,1.7198909e-07,2.2822694e-07,5e-08,0.0,0.0,0.0,0.0,0.0,0.0,0.0,0.0,663,0.33086678,0.23435462,0.03382101,0.05099132,0.03077853,0.049396448,0.0,0.0,0.0,0.000467,0,0,0,831,0,0,0,0
2511382259,0.99955136,0.008413606,0.026549159,-0.011022528,-0.5043755,0.3097544,-0.8740307,-2.8167415,1.0758079,1.857303,-0.0001844683,0.00023585571,-6.7450874e-06,-0.00040414685,6.7047955e-07,-0.00012780419,0.17739432,0.047532663,0.3565534,0.0,0.0,0.0,0.0,0.0,6.4743e-41,9.478956e-07,0.0021075248,0.03533816,8.2002043e-07,1.253165e-05,1.0270745e-05,4.221132e-05,0.012406669,0.012445576,0.008934645,0.054649953,0.05464992,0.055087965,1.0399165e-11,1.0382649e-11,1.8992224e-11,1.719792e-07,2.2821348e-07,5e-08,0.0,0.0,0.0,0.0,0.0,0.0,0.0,0.0,663,0.3306053,0.23470825,0.03161373,0.026436282,0.030792506,0.0015403444,0.0,0.0,0.0,0.000306,0,0,0,831,0,0,0,0
2511586247,0.9998112,-0.0057780226,0.013082486,-0.013155574,-0.5958947,0.38497853,-0.88587075,-2.9268064,1.1194017,1.6698722,-0.00018432981,0.0002358577,-6.7885185e-06,-0.0004037867,-9.2747416e-07,-0.00012721737,0.17739432,0.047532663,0.3565534,0.0,0.0,0.0,0.0,0.0,6.4743e-41,1.1012916e-06,0.0022336906,0.032658245,8.374534e-07,1.2480109e-05,1.02637e-05,4.2226577e-05,0.012436983,0.012478601,0.00891397,0.054892857,0.054893672,0.054766335,1.0400813e-11,1.0385476e-11,1.8992218e-11,1.7196902e-07,2.2820053e-07,5e-08,0.0,0.0,0.0,0.0,0.0,0.0,0.0,0.0,663,0.3313405,0.23402208,0.020802215,0.07908595,0.034700956,0.012389886,0.0,0.0,0.0,0.000287,0,0,0,831,0,0,0,0
2511789983,0.9994756,-0.029036634,-0.002698755,-0.014079322,-0.6283599,0.40826696,-0.82663465,-3.0632277,1.1909176,1.4852092,-0.0001843304,0.00023574637,-6.7482374e-06,-0.00040474458,-1.2698642e-06,-0.00012435498,0.17739432,0.047532663,0.3565534,0.0,0.0,0.0,0.0,0.0,6.4743e-41,8.8920154e-07,0.0019944073,0.03045601,8.7992663e-07,1.2417699e-05,1.0279783e-05,4.217888e-05,0.012363217,0.012400165,0.008932078,0.054833665,0.05483591,0.054925937,1.0399308e-11,1.0385097e-11,1.8988281e-11,1.7196008e-07,2.2819086e-07,5.0000036e-08,0.0,0.0,0.0,0.0,0.0,0.0,0.0,0.0,663,0.33116397,0.23436283,0.030414032,0.095894255,0.03229048,0.0011502022,0.0,0.0,0.0,2.9e-05,0,0,0,831,0,0,0,0
2511990181,0.99941653,-0.028072102,-0.015576743,-0.0116632935,-0.6077899,0.38121277,-0.76872706,-3.199915,1.2524536,1.3136206,-0.00018427109,0.00023566236,-6.748047e-06,-0.00040482258,-2.1940261e-06,-0.000121073776,0.17739432,0.047532663,0.3565534,0.0,0.0,0.0,0.0,0.0,6.4743e-41,7.105135e-07,0.0018575016,0.028983517,8.788666e-07,1.2415264e-05,1.0262529e-05,4.207611e-05,0.0122919,0.012320275,0.00895029,0.05477694,0.054780867,0.055097133,1.039863e-11,1.0385456e-11,1.897014e-11,1.7195121e-07,2.2818267e-07,5.000007e-08,0.0,0.0,0.0,0.0,0.0,0.0,0.0,0.0,663,0.33099517,0.23472778,0.008577825,0.07453911,0.035083193,0.00733576,0.0,0.0,0.0,0.000207,0,0,0,831,0,0,0,0
2512190015,0.9989548,-0.035999022,-0.026035508,-0.010759129,-0.58673596,0.33225244,-0.6731659,-3.3358862,1.2964523,1.1300076,-0.00018414631,0.00023556984,-6.7314472e-06,-0.00040370403,-3.5462158e-06,-0.00010883363,0.17739432,0.047532663,0.3565534,0.0,0.0,0.0,0.0,0.0,6.4743e-41,6.2837375e-07,0.0018051637,0.025502134,8.996346e-07,1.2405601e-05,1.0267247e-05,4.2027077e-05,0.012200091,0.012221926,0.008970441,0.05472019,0.05472551,0.055271193,1.03990185e-11,1.0386714e-11,1.8967538e-11,1.7194151e-07,2.2817504e-07,5.0000075e-08,0.0,0.0,0.0,0.0,0.0,0.0,0.0,0.0,663,0.33082578,0.23509826,0.027450783,0.078686364,0.03556212,0.011007183,0.0,0.0,0.0,5.8999998e-05,0,0,0,831,0,0,0,0
2512394099,0.99825335,-0.045859247,-0.035191294,-0.012199433,-0.4898876,0.256824,-0.55365324,-3.4503794,1.3344783,0.9686234,-0.00018405246,0.00023555274,-6.686766e-06,-0.00040250202,-4.051422e-06,-9.805139e-05,0.17739432,0.047532663,0.3565534,0.0,0.0,0.0,0.0,0.0,6.4743e-41,5.599011e-07,0.001842664,0.03028628,9.2950546e-07,1.2405639e-05,1.0291502e-05,4.1987198e-05,0.012161328,0.012172134,0.00894461,0.054977957,0.05498414,0.054944836,1.0404803e-11,1.0393146e-11,1.8969451e-11,1.7192994e-07,2.2816589e-07,5.0000033e-08,0.0,0.0,0.0,0.0,0.0,0.0,0.0,0.0,663,0.33160535,0.23440315,0.003955368,0.047101717,0.03694248,0.043728042,0.0,0.0,0.0,0.000101,0,0,0,831,0,0,0,0
2512598012,0.9977106,-0.050365135,-0.043095082,-0.013412857,-0.3740433,0.16005158,-0.3949472,-3.5309646,1.3442142,0.8478954,-0.00018393046,0.00023556958,-6.689746e-06,-0.00040077398,-4.780227e-06,-8.90184e-05,0.17739432,0.047532663,0.3565534,0.0,0.0,0.0,0.0,0.0,6.4743e-41,5.6536425e-07,0.002223492,0.036853198,9.479832e-07,1.2416981e-05,1.0299042e-05,4.2018215e-05,0.012053726,0.012057765,0.008963383,0.054894973,0.05490107,0.05511693,1.0407348e-11,1.039608e-11,1.898219e-11,1.7191546e-07,2.2815367e-07,5.0000065e-08,0.0,0.0,0.0,0.0,0.0,0.0,0.0,0.0,663,0.33135486,0.23476996,0.016326552,0.058351897,0.051580332,0.082331955,0.0,0.0,0.0,5.8e-05,0,0,0,831,0,0,0,0
2512799773,0.9977232,-0.045805577,-0.04762106,-0.013509495,-0.24649578,0.06387922,-0.2788506,-3.6043048,1.3464407,0.7660308,-0.00018387298,0.00023548865,-6.8018353e-06,-0.00040039257,-5.6900235e-06,-8.731108e-05,0.17739432,0.047532663,0.3565534,0.0,0.0,0.0,0.0,0.0,6.4743e-41,5.2185516e-07,0.0021267557,0.03355116,9.412586e-07,1.2453618e-05,1.0290042e-05,4.2031752e-05,0.012045252,0.0120463325,0.008940794,0.05510964,0.05511498,0.05481445,1.0416622e-11,1.0405482e-11,1.8985953e-11,1.718959e-07,2.2813755e-07,5e-08,0.0,0.0,0.0,0.0,0.0,0.0,0.0,0.0,663,0.33200094,0.23412485,0.06294428,0.08161411,0.054486226,0.015297082,0.0,0.0,0.0,0.000219,0,0,0,831,0,0,0,0
2513003719,0.99792194,-0.040581968,-0.04805967,-0.013973869,-0.10839589,-0.006940657,-0.19427869,-3.6413832,1.3443786,0.6803274,-0.00018389882,0.00023545507,-6.7542865e-06,-0.0003986792,-7.6222623e-06,-7.548678e-05,0.17739432,0.047532663,0.3565534,0.0,0.0,0.0,0.0,0.0,6.4743e-41,6.097714e-07,0.0023646546,0.032848503,9.29675e-07,1.247241e-05,1.0280034e-05,4.2033986e-05,0.011979848,0.011983455,0.008952878,0.054890014,0.054894257,0.0548525,1.0417443e-11,1.0406111e-11,1.8979701e-11,1.7187038e-07,2.2811997e-07,5e-08,0.0,0.0,0.0,0.0,0.0,0.0,0.0,0.0,663,0.3313371,0.23420611,0.017428493,0.05499174,0.048628382,0.015546289,0.0,0.0,0.0,0.000165,0,0,0,831,0,0,0,0
2513207608,0.99851066,-0.03323684,-0.04094276,-0.0139850825,0.021298952,-0.054950684,-0.11173687,-3.6644614,1.3294075,0.64374065,-0.00018390812,0.00023535891,-6.826616e-06,-0.0003984017,-8.6452055e-06,-7.5669785e-05,0.17739432,0.047532663,0.3565534,0.0,0.0,0.0,0.0,0.0,6.4743e-41,7.2673095e-07,0.0025201791,0.03847233,9.0700524e-07,1.24843755e-05,1.02848e-05,4.208538e-05,0.012008369,0.012019983,0.009002735,0.05511724,0.05511987,0.055281024,1.042619e-11,1.041447e-11,1.8980753e-11,1.7184148e-07,2.2809894e-07,5.000007e-08,0.0,0.0,0.0,0.0,0.0,0.0,0.0,0.0,663,0.33201975,0.23511916,0.04115455,0.07968218,0.043088485,0.018904636,0.0,0.0,0.0,4.1e-05,0,0,0,831,0,0,0,0
2513411618,0.99912024,-0.023715874,-0.03162889,-0.014001217,0.11343942,-0.06949717,-0.080014445,-3.658534,1.3085926,0.596594,-0.00018391755,0.00023530556,-6.8311583e-06,-0.000397098,-1.0168226e-05,-6.8470894e-05,0.17739432,0.047532663,0.3565534,0.0,0.0,0.0,0.0,0.0,6.4743e-41,9.4661726e-07,0.0026473303,0.038970932,8.804844e-07,1.2494156e-05,1.0285435e-05,4.2115687e-05,0.01201153,0.012031485,0.009024944,0.055066507,0.055067647,0.05544438,1.0430977e-11,1.04187e-11,1.8977249e-11,1.7180933e-07,2.2807406e-07,5.000007e-08,0.0,0.0,0.0,0.0,0.0,0.0,0.0,0.0,663,0.33186466,0.2354663,0.02535393,0.04354615,0.040421207,0.0986817,0.0,0.0,0.0,6.4e-05,0,0,0,831,0,0,0,0
2513611611,0.9995782,-0.016924549,-0.018227337,-0.014995827,0.16098629,-0.049934085,-0.097772956,-3.63534,1.2931488,0.58266604,-0.00018395536,0.0002352718,-6.8204426e-06,-0.0003975609,-1.0786971e-05,-7.0725946e-05,0.17739432,0.047532663,0.3565534,0.0,0.0,0.0,0.0,0.0,6.4743e-41,1.151897e-06,0.0027521825,0.044232354,8.615922e-07,1.2497844e-05,1.0294681e-05,4.213512e-05,0.012040489,0.0120644765,0.008973639,0.055004768,0.055005018,0.05483544,1.0434639e-11,1.0421699e-11,1.8973701e-11,1.7177248e-07,2.2804561e-07,5e-08,0.0,0.0,0.0,0.0,0.0,0.0,0.0,0.0,663,0.33167723,0.23416968,0.066834815,0.056593224,0.037127256,0.012608751,0.0,0.0,0.0,3.1e-05,0,0,0,831,0,0,0,0
2513815706,0.99966973,-0.018591067,-0.007914352,-0.01588048,0.17183268,-0.024187021,-0.07729539,-3.6091902,1.2808818,0.5406697,-0.00018397083,0.00023522023,-6.8275963e-06,-0.0003970529,-1.1556287e-05,-6.656775e-05,0.17739432,0.047532663,0.3565534,0.0,0.0,0.0,0.0,0.0,6.4743e-41,1.0935076e-06,0.0026874985,0.04489309,8.621096e-07,1.2506439e-05,1.0317534e-05,4.2152024e-05,0.01210134,0.0121252015,0.009025163,0.055271875,0.0552719,0.055272464,1.0442033e-11,1.0428447e-11,1.8974409e-11,1.7173426e-07,2.2801592e-07,5.000007e-08,0.0,0.0,0.0,0.0,0.0,0.0,0.0,0.0,663,0.33248124,0.23510097,0.02179064,0.049594477,0.03188411,0.008561271,0.0,0.0,0.0,0.000152,0,0,0,831,0,0,0,0
2514015728,0.999558,-0.023886234,-0.004925505,-0.01700461,0.15800539,-0.007906496,-0.050617673,-3.592583,1.2848971,0.5240589,-0.00018404967,0.00023512729,-6.868436e-06,-0.00039665095,-1.3265887e-05,-6.615529e-05,0.17739432,0.047532663,0.3565534,0.0,0.0,0.0,0.0,0.0,6.4743e-41,1.0912764e-06,0.0029869822,0.044178724,8.730155e-07,1.251173e-05,1.0338187e-05,4.2212905e-05,0.01211007,0.012130325,0.008976328,0.05524314,0.055243492,0.054693244,1.0445479e-11,1.04312115e-11,1.8985997e-11,1.716897e-07,2.2797988e-07,5e-08,0.0,0.0,0.0,0.0,0.0,0.0,0.0,0.0,663,0.3323953,0.23386587,0.004672852,0.08397039,0.02705365,0.022766022,0.0,0.0,0.0,0.000159,0,0,0,831,0,0,0,0
2514219616,0.9993138,-0.030913867,-0.0097498465,-0.017927134,0.12838218,-0.039308056,-0.0071190917,-3.576986,1.2862699,0.50304484,-0.000184111,0.00023505917,-6.8770705e-06,-0.0003957482,-1.4999071e-05,-6.229828e-05,0.17739432,0.047532663,0.3565534,0.0,0.0,0.0,0.0,0.0,6.4743e-41,1.02277e-06,0.0030614252,0.04795916,8.895314e-07,1.2516315e-05,1.0361942e-05,4.2109223e-05,0.012110204,0.012123584,0.009000508,0.055217955,0.055218898,0.054881938,1.0448576e-11,1.0433689e-11,1.8968077e-11,1.7164359e-07,2.2794208e-07,5.0000036e-08,0.0,0.0,0.0,0.0,0.0,0.0,0.0,0.0,663,0.33232042,0.23426895,0.0056710504,0.06404042,0.020811943,0.025937283,0.0,0.0,0.0,5.8999998e-05,0,0,0,831,0,0,0,0
2514419611,0.99909174,-0.03166805,-0.021293992,-0.018963091,0.15083078,-0.07409287,0.06298908,-3.5656915,1.2822033,0.5094168,-0.0001841646,0.00023497781,-6.9674643e-06,-0.00039532827,-1.6267659e-05,-6.2941894e-05,0.17739432,0.047532663,0.3565534,0.0,0.0,0.0,0.0,0.0,6.4743e-41,9.1645734e-07,0.0030109829,0.046006825,8.974992e-07,1.2539902e-05,1.0369928e-05,4.2088635e-05,0.012088339,0.012100899,0.009024146,0.055144012,0.05514556,0.055079952,1.04504825e-11,1.04349775e-11,1.8965357e-11,1.7159324e-07,2.2790068e-07,5.000007e-08,0.0,0.0,0.0,0.0,0.0,0.0,0.0,0.0,663,0.33209875,0.23469119,0.037140857,0.055203486,0.015054388,0.045353346,0.0,0.0,0.0,5.1e-05,0,0,0,831,0,0,0,0
2514623617,0.99896944,-0.030923849,-0.026237966,-0.020379264,0.19932693,-0.119406626,0.058692683,-3.5508175,1.2726341,0.5093446,-0.00018423844,0.00023488088,-6.9751186e-06,-0.00039427166,-1.7985853e-05,-6.0728893e-05,0.17739432,0.047532663,0.3565534,0.0,0.0,0.0,0.0,0.0,6.4743e-41,8.447423e-07,0.0029743523,0.048991133,9.010321e-07,1.2569524e-05,1.03831835e-05,4.2016763e-05,0.0121626835,0.012175441,0.0090057505,0.05535192,0.055354122,0.054801665,1.0456185e-11,1.044005e-11,1.8952112e-11,1.7153667e-07,2.2785468e-07,5.0000036e-08,0.0,0.0,0.0,0.0,0.0,0.0,0.0,0.0,663,0.33272517,0.23409756,0.048391026,0.06281236,0.019107312,0.0222626,0.0,0.0,0.0,5.7e-05,0,0,0,831,0,0,0,0
2514827565,0.99932396,-0.024708573,-0.018053295,-0.02037913,0.22976342,-0.12873505,0.019973721,-3.529351,1.2672393,0.50152105,-0.00018435212,0.00023477289,-6.982829e-06,-0.00039290704,-2.0316835e-05,-5.7024132e-05,0.17739432,0.047532663,0.3565534,0.0,0.0,0.0,0.0,0.0,6.4743e-41,9.56418e-07,0.0029948198,0.04630242,8.845974e-07,1.2585949e-05,1.0385893e-05,4.2026877e-05,0.012188284,0.01220063,0.00902653,0.0552194,0.055222277,0.054989208,1.0456504e-11,1.0439646e-11,1.8949462e-11,1.7148065e-07,2.2781045e-07,5.0000036e-08,0.0,0.0,0.0,0.0,0.0,0.0,0.0,0.0,663,0.33232766,0.23449777,0.06433375,0.08526258,0.022343889,0.004476509,0.0,0.0,0.0,1.1e-05,0,0,0,831,0,0,0,0
2515031832,0.99943805,-0.023887826,-0.012951978,-0.01962904,0.2556652,-0.1307396,0.042645767,-3.4929245,1.2600929,0.51430833,-0.00018446434,0.00023471277,-6.9879598e-06,-0.0003934994,-2.1109134e-05,-5.9876336e-05,0.17739432,0.047532663,0.3565534,0.0,0.0,0.0,0.0,0.0,6.4743e-41,8.994985e-07,0.0029345707,0.044587463,8.8003645e-07,1.2606398e-05,1.0404848e-05,4.2045533e-05,0.012256799,0.012268616,0.00907428,0.0554518,0.055455424,0.05543843,1.0462618e-11,1.0445038e-11,1.8951125e-11,1.7142261e-07,2.2776602e-07,5.000007e-08,0.0,0.0,0.0,0.0,0.0,0.0,0.0,0.0,663,0.33302736,0.23545367,0.0066753766,0.079886205,0.022196911,0.014225558,0.0,0.0,0.0,0.000231,0,0,0,831,0,0,0,0
2515231714,0.9992792,-0.028996922,-0.0142878145,-0.019903556,0.25171462,-0.1353348,0.107196234,-3.4574966,1.2477779,0.53207016,-0.00018453201,0.00023465148,-6.9571215e-06,-0.00039348443,-2.1683665e-05,-6.120737e-05,0.17739432,0.047532663,0.3565534,0.0,0.0,0.0,0.0,0.0,6.4743e-41,7.258851e-07,0.0024189146,0.0400135,8.9096756e-07,1.2613254e-05,1.0423847e-05,4.195088e-05,0.012242511,0.012250917,0.009022276,0.05536005,0.0553641,0.054853186,1.0464379e-11,1.0446143e-11,1.893431e-11,1.7135696e-07,2.2771569e-07,5e-08,0.0,0.0,0.0,0.0,0.0,0.0,0.0,0.0,663,0.33275238,0.23420757,0.03265661,0.04144183,0.019806258,0.024333978,0.0,0.0,0.0,0.00016,0,0,0,831,0,0,0,0
2515431624,0.99914277,-0.033371132,-0.014487678,-0.019757153,0.2438984,-0.13584857,0.1127016,-3.4268262,1.2422941,0.56041604,-0.00018463485,0.00023455743,-6.9320945e-06,-0.00039405865,-2.1921009e-05,-6.5105465e-05,0.17739432,0.047532663,0.3565534,0.0,0.0,0.0,0.0,0.0,6.4743e-41,6.399364e-07,0.0020985971,0.0327104,9.000257e-07,1.2617834e-05,1.0440678e-05,4.1937186e-05,0.012250669,0.012255727,0.009044533,0.055211768,0.055216096,0.05503811,1.0464591e-11,1.0445731e-11,1.8932701e-11,1.7129283e-07,2.2766703e-07,5.0000036e-08,0.0,0.0,0.0,0.0,0.0,0.0,0.0,0.0,663,0.3323069,0.23460202,0.033816554,0.06668334,0.019822558,0.03622632,0.0,0.0,0.0,6.9e-05,0,0,0,831,0,0,0,0
2515635617,0.9990199,-0.036710218,-0.014423468,-0.020089755,0.2614781,-0.16961452,0.12324852,-3.3903003,1.2364951,0.580954,-0.00018475781,0.00023449087,-6.951358e-06,-0.0003936487,-2.335404e-05,-6.46486e-05,0.17739432,0.047532663,0.3565534,0.0,0.0,0.0,0.0,0.0,6.4743e-41,6.630555e-07,0.0021151914,0.032160677,9.080725e-07,1.262366e-05,1.0455694e-05,4.184647e-05,0.012254644,0.012256989,0.009064878,0.055053577,0.055057887,0.055232815,1.04645945e-11,1.0445163e-11,1.8916745e-11,1.7122697e-07,2.2761702e-07,5.0000075e-08,0.0,0.0,0.0,0.0,0.0,0.0,0.0,0.0,663,0.33183047,0.23501663,0.071346015,0.08223833,0.019680878,0.034139194,0.0,0.0,0.0,6.3e-05,0,0,0,831,0,0,0,0
2515835804,0.99921,-0.031529553,-0.0056304485,-0.02353097,0.23742507,-0.21165083,0.07127202,-3.352039,1.2176886,0.603024,-0.00018485339,0.00023443096,-6.9414705e-06,-0.00039384555,-2.379136e-05,-6.6546156e-05,0.17739432,0.047532663,0.3565534,0.0,0.0,0.0,0.0,0.0,6.4743e-41,5.7691966e-07,0.0020062455,0.030203424,9.0057034e-07,1.2642132e-05,1.0451101e-05,4.176889e-05,0.012270194,0.0122658275,0.00901305,0.054784257,0.05478814,0.05467608,1.0461896e-11,1.0441936e-11,1.890107e-11,1.7115514e-07,2.2756487e-07,5e-08,0.0,0.0,0.0,0.0,0.0,0.0,0.0,0.0,663,0.33101723,0.23382917,0.013311518,0.06001148,0.019128522,0.06553334,0.0,0.0,0.0,0.00025,0,0,0,831,0,0,0,0
2516039734,0.9992325,-0.029570205,-0.0083252825,-0.024305701,0.20906162,-0.23516645,0.07151374,-3.3157835,1.1879836,0.6177792,-0.00018492954,0.00023439107,-6.947688e-06,-0.00039428557,-2.3898436e-05,-6.847142e-05,0.17739432,0.047532663,0.3565534,0.0,0.0,0.0,0.0,0.0,6.4743e-41,5.082018e-07,0.00201453,0.030622998,8.987139e-07,1.2662986e-05,1.0459421e-05,4.17896e-05,0.012332135,0.012323789,0.009064915,0.054900352,0.054903124,0.055152368,1.0465315e-11,1.0444937e-11,1.8904477e-11,1.7108674e-07,2.2751635e-07,5.0000036e-08,0.0,0.0,0.0,0.0,0.0,0.0,0.0,0.0,663,0.33136606,0.23484541,0.013069717,0.045493264,0.019881336,0.0006152422,0.0,0.0,0.0,0.00018,0,0,0,831,0,0,0,0
2516241493,0.9992608,-0.026308568,-0.0153604755,-0.023452004,0.19565056,-0.25543475,0.09218155,-3.287806,1.1636075,0.64739025,-0.00018504664,0.00023433052,-6.978786e-06,-0.00039545406,-2.3549865e-05,-7.381202e-05,0.17739432,0.047532663,0.3565534,0.0,0.0,0.0,0.0,0.0,6.4743e-41,4.958565e-07,0.0020740964,0.030742064,8.930015e-07,1.2681571e-05,1.0459387e-05,4.1791845e-05,0.012339446,0.012328877,0.00908448,0.054762825,0.054764166,0.05534144,1.0465482e-11,1.0444792e-11,1.8903802e-11,1.7101699e-07,2.2746697e-07,5.000007e-08,0.0,0.0,0.0,0.0,0.0,0.0,0.0,0.0,663,0.33094862,0.23524761,0.0066278316,0.07688955,0.022869453,0.040033597,0.0,0.0,0.0,0.000333,0,0,0,831,0,0,0,0
2516445366,0.9992518,-0.022823052,-0.020032275,-0.02395256,0.22649421,-0.28620765,0.09534709,-3.2609553,1.1307775,0.660129,-0.00018515052,0.0002342404,-6.9713715e-06,-0.00039417812,-2.47426e-05,-7.163539e-05,0.17739432,0.047532663,0.3565534,0.0,0.0,0.0,0.0,0.0,6.4743e-41,5.1154547e-07,0.0020948986,0.030572962,8.8926026e-07,1.2703956e-05,1.0462641e-05,4.1732303e-05,0.012374519,0.012363264,0.009054417,0.05478595,0.054785714,0.05496168,1.0466146e-11,1.0445235e-11,1.8891017e-11,1.709403e-07,2.2741297e-07,5e-08,0.0,0.0,0.0,0.0,0.0,0.0,0.0,0.0,663,0.33101612,0.23443907,0.021437394,0.061521247,0.026498344,0.017447092,0.0,0.0,0.0,0.0002,0,0,0,831,0,0,0,0
2516649364,0.9995262,-0.0084672505,-0.011588758,-0.027230462,0.22329016,-0.2872659,-0.010964099,-3.2266326,1.0924327,0.6808634,-0.0001852292,0.00023418538,-6.9625034e-06,-0.00039538337,-2.394351e-05,-7.692942e-05,0.17739432,0.047532663,0.3565534,0.0,0.0,0.0,0.0,0.0,6.4743e-41,8.5581416e-07,0.0025986193,0.036637776,8.6821143e-07,1.2733339e-05,1.0460722e-05,4.181145e-05,0.012447465,0.012435984,0.009070328,0.054649796,0.05464803,0.055145912,1.0464767e-11,1.0443622e-11,1.8905356e-11,1.7086907e-07,2.2736621e-07,5.0000036e-08,0.0,0.0,0.0,0.0,0.0,0.0,0.0,0.0,663,0.33060223,0.23483166,0.03599967,0.0423461,0.027682545,0.061778102,0.0,0.0,0.0,0.00021,0,0,0,831,0,0,0,0
2516849335,0.9995664,-0.0034677032,-0.0030887031,-0.029078927,0.21333921,-0.24155681,-0.08485544,-3.1888225,1.0631136,0.7042987,-0.00018533024,0.00023415459,-6.9759485e-06,-0.00039840568,-2.1627726e-05,-8.8028704e-05,0.17739432,0.047532663,0.3565534,0.0,0.0,0.0,0.0,0.0,6.4743e-41,9.600237e-07,0.0032251,0.045739684,8.633528e-07,1.274312e-05,1.0460105e-05,4.1801883e-05,0.0124766035,0.01246802,0.009084367,0.054455064,0.054451995,0.055336475,1.0460652e-11,1.0439414e-11,1.890488e-11,1.7079779e-07,2.2732243e-07,5.0000075e-08,0.0,0.0,0.0,0.0,0.0,0.0,0.0,0.0,663,0.33001068,0.23523706,0.01716364,0.056968704,0.031092135,0.0466521,0.0,0.0,0.0,0.000173,0,0,0,831,0,0,0,0
2517053208,0.9995987,-0.00412672,-0.0016170719,-0.027978048,0.188755,-0.18404855,-0.103239916,-3.1556313,1.0390201,0.69757515,-0.00018541566,0.00023409944,-6.9577e-06,-0.0003992632,-2.0803081e-05,-9.180984e-05,0.17739432,0.047532663,0.3565534,0.0,0.0,0.0,0.0,0.0,6.4743e-41,9.458094e-07,0.003513988,0.048615396,8.615443e-07,1.2751377e-05,1.04661685e-05,4.1747204e-05,0.012548345,0.012542373,0.009058996,0.054672908,0.054668646,0.05504562,1.0462661e-11,1.0441489e-11,1.8894178e-11,1.7072126e-07,2.2727657e-07,5.0000036e-08,0.0,0.0,0.0,0.0,0.0,0.0,0.0,0.0,663,0.33066833,0.23461802,0.01537413,0.04570219,0.029026086,0.07514088,0.0,0.0,0.0,5.4e-05,0,0,0,831,0,0,0,0
2517257184,0.99967664,-0.003007147,-0.001447168,-0.025209803,0.16292043,-0.10716567,-0.1038734,-3.1289172,1.0324885,0.7176522,-0.00018551694,0.00023405146,-6.8733166e-06,-0.00040280292,-1.7877675e-05,-0.00010453647,0.17739432,0.047532663,0.3565534,0.0,0.0,0.0,0.0,0.0,6.4743e-41,7.9498017e-07,0.0031176405,0.044655927,8.5366514e-07,1.2752816e-05,1.0464619e-05,4.16764e-05,0.012559437,0.012555212,0.009078537,0.0546197,0.054614745,0.055251025,1.0460336e-11,1.0439407e-11,1.887958e-11,1.7065081e-07,2.2723576e-07,5.0000075e-08,0.0,0.0,0.0,0.0,0.0,0.0,0.0,0.0,663,0.33050635,0.23505537,0.07035591,0.056179125,0.030363927,0.0011479217,0.0,0.0,0.0,2.8e-05,0,0,0,831,0,0,0,0
2517457347,0.9996892,-0.0046085967,-0.008771117,-0.022874717,0.15597153,-0.020668197,-0.109967485,-3.1056178,1.0443374,0.7201181,-0.00018562192,0.00023399708,-6.9195644e-06,-0.0004048741,-1.579187e-05,-0.000112610935,0.17739432,0.047532663,0.3565534,0.0,0.0,0.0,0.0,0.0,6.4743e-41,8.285962e-07,0.0030626731,0.0443817,8.530597e-07,1.2745497e-05,1.0460249e-05,4.16849e-05,0.012569517,0.01256478,0.009095339,0.054566253,0.054561008,0.0554369,1.0457791e-11,1.04371945e-11,1.8879249e-11,1.7058126e-07,2.2719578e-07,5.000007e-08,0.0,0.0,0.0,0.0,0.0,0.0,0.0,0.0,663,0.33034414,0.23545042,0.01442306,0.06301687,0.029051136,0.03235094,0.0,0.0,0.0,0.000185,0,0,0,831,0,0,0,0
2517657372,0.9997059,-0.006841033,-0.00916226,-0.021386143,0.15821062,0.053873915,-0.14373998,-3.0860374,1.0659809,0.7483467,-0.00018569664,0.00023391287,-6.8519444e-06,-0.00040975062,-1.158437e-05,-0.00012946887,0.17739432,0.047532663,0.3565534,0.0,0.0,0.0,0.0,0.0,6.4743e-41,1.0632187e-06,0.0031069499,0.042128365,8.5371664e-07,1.2739323e-05,1.0456698e-05,4.1764943e-05,0.012610251,0.012603168,0.009041445,0.054547455,0.054542307,0.054865286,1.0455826e-11,1.0435644e-11,1.8893227e-11,1.705067e-07,2.2715368e-07,5e-08,0.0,0.0,0.0,0.0,0.0,0.0,0.0,0.0,663,0.3302874,0.2342334,0.03005714,0.06785705,0.02806915,0.08040065,0.0,0.0,0.0,0.000218,0,0,0,831,0,0,0,0
2517861369,0.9994546,-0.023322605,-0.013219752,-0.019285357,0.18415074,0.09171147,-0.097594835,-3.053058,1.1041323,0.74314666,-0.00018579226,0.00023387693,-6.8862378e-06,-0.00041137674,-9.849832e-06,-0.00013588033,0.17739432,0.047532663,0.3565534,0.0,0.0,0.0,0.0,0.0,6.4743e-41,1.2988166e-06,0.0029416813,0.039569996,8.8000235e-07,1.2707582e-05,1.0462075e-05,4.170369e-05,0.012604033,0.012595335,0.009088117,0.054696735,0.054691818,0.05533116,1.0453968e-11,1.0434311e-11,1.8881893e-11,1.7044042e-07,2.271165e-07,5.000007e-08,0.0,0.0,0.0,0.0,0.0,0.0,0.0,0.0,663,0.3307394,0.23522577,0.0027277407,0.057263926,0.02413633,0.021698909,0.0,0.0,0.0,0.000202,0,0,0,831,0,0,0,0
2518065370,0.99917275,-0.035127405,-0.011127541,-0.01721132,0.22368193,0.09405038,-0.07638187,-3.0197258,1.1442606,0.750636,-0.0001858872,0.00023381518,-6.8528557e-06,-0.000413435,-7.681289e-06,-0.00014400382,0.17739432,0.047532663,0.3565534,0.0,0.0,0.0,0.0,0.0,6.4743e-41,9.882292e-07,0.0025149276,0.03650985,9.007756e-07,1.2680026e-05,1.0476841e-05,4.176557e-05,0.012592518,0.012584654,0.00903596,0.0546671,0.0546624,0.05477478,1.0451952e-11,1.04327874e-11,1.8895661e-11,1.703709e-07,2.2707749e-07,5e-08,0.0,0.0,0.0,0.0,0.0,0.0,0.0,0.0,663,0.33065012,0.23404013,0.0032921003,0.058682807,0.021264764,0.055027038,0.0,0.0,0.0,0.000217,0,0,0,831,0,0,0,0
2518269377,0.9991951,-0.035538796,-0.009579556,-0.01594669,0.25882947,0.046976764,-0.083699025,-2.9773028,1.1730108,0.7473911,-0.00018595552,0.00023375827,-6.8172294e-06,-0.0004144921,-6.382237e-06,-0.00014812138,0.17739432,0.047532663,0.3565534,0.0,0.0,0.0,0.0,0.0,6.4743e-41,1.0902207e-06,0.0029138436,0.040801767,8.996686e-07,1.2684571e-05,1.0483536e-05,4.178579e-05,0.012670373,0.012666266,0.009086847,0.055031825,0.055027254,0.05525844,1.045584e-11,1.043718e-11,1.8898872e-11,1.7031007e-07,2.2704323e-07,5.000007e-08,0.0,0.0,0.0,0.0,0.0,0.0,0.0,0.0,663,0.33175153,0.23507114,0.04036239,0.047488637,0.01631669,0.03817992,0.0,0.0,0.0,0.000211,0,0,0,831,0,0,0,0
2518469352,0.99918026,-0.037440483,-0.0052937614,-0.01446183,0.2648036,-0.008021726,-0.118339755,-2.9302714,1.189283,0.75960386,-0.00018601747,0.00023370878,-6.8283116e-06,-0.0004169439,-4.133859e-06,-0.00015689772,0.17739432,0.047532663,0.3565534,0.0,0.0,0.0,0.0,0.0,6.4743e-41,1.164946e-06,0.0027999585,0.038954932,9.014889e-07,1.2675594e-05,1.0482386e-05,4.178032e-05,0.012685987,0.012685389,0.009035846,0.05501133,0.055006996,0.054715537,1.0453291e-11,1.0435094e-11,1.8897986e-11,1.702471e-07,2.2700726e-07,5e-08,0.0,0.0,0.0,0.0,0.0,0.0,0.0,0.0,663,0.3316901,0.23391353,0.041672837,0.042913068,0.009931462,0.036963046,0.0,0.0,0.0,0.000178,0,0,0,831,0,0,0,0
2518669307,0.9990866,-0.04039512,0.002697955,-0.0136721255,0.2689237,-0.062258746,-0.13568148,-2.8830764,1.1981496,0.74338454,-0.0001861065,0.00023364897,-6.8234053e-06,-0.00041750434,-3.071635e-06,-0.00015930797,0.17739432,0.047532663,0.3565534,0.0,0.0,0.0,0.0,0.0,6.4743e-41,1.042881e-06,0.0027293637,0.038576793,9.070318e-07,1.2665457e-05,1.0480776e-05,4.1767667e-05,0.012672326,0.012674205,0.009052874,0.054942746,0.054938797,0.05491157,1.0449618e-11,1.0431894e-11,1.8897092e-11,1.7019246e-07,2.2697546e-07,5e-08,0.0,0.0,0.0,0.0,0.0,0.0,0.0,0.0,663,0.33148384,0.23433217,0.079959586,0.06568622,0.008525466,0.004806751,0.0,0.0,0.0,0.000145,0,0,0,831,0,0,0,0
2518873099,0.99914765,-0.037667014,0.009485778,-0.013968509,0.22665249,-0.11192914,-0.1407378,-2.8377788,1.1887832,0.7400223,-0.00018614785,0.0002336057,-6.8284394e-06,-0.00041967237,-1.1322516e-06,-0.00016764317,0.17739432,0.047532663,0.3565534,0.0,0.0,0.0,0.0,0.0,6.4743e-41,8.8491504e-07,0.0025809049,0.03785842,9.01694e-07,1.2668628e-05,1.0464426e-05,4.191919e-05,0.012643764,0.0126484465,0.009070652,0.054830767,0.05482732,0.055106867,1.04452445e-11,1.0427978e-11,1.8925509e-11,1.7014139e-07,2.2694472e-07,5.0000036e-08,0.0,0.0,0.0,0.0,0.0,0.0,0.0,0.0,663,0.33114663,0.23474851,0.0073801433,0.038111605,0.008039093,0.0159873,0.0,0.0,0.0,-6.4e-05,0,0,0,831,0,0,0,0
2519077301,0.9991628,-0.03536908,0.014199379,-0.014873949,0.17696182,-0.1577205,-0.14755629,-2.7953525,1.1653519,0.71744245,-0.00018618332,0.00023358331,-6.8639765e-06,-0.0004199541,-6.3680994e-07,-0.00016821976,0.17739432,0.047532663,0.3565534,0.0,0.0,0.0,0.0,0.0,6.4743e-41,7.439657e-07,0.002554814,0.039366663,8.985739e-07,1.2681211e-05,1.0460005e-05,4.185645e-05,0.012702935,0.012711258,0.009048106,0.05514167,0.055138897,0.05482344,1.0448226e-11,1.0431496e-11,1.8913556e-11,1.7008934e-07,2.269124e-07,5e-08,0.0,0.0,0.0,0.0,0.0,0.0,0.0,0.0,663,0.3320852,0.23414406,0.0014906179,0.031927977,0.010765494,0.06854167,0.0,0.0,0.0,0.000135,0,0,0,831,0,0,0,0
2519281297,0.9992221,-0.032891676,0.014858432,-0.015896114,0.12287766,-0.19290528,-0.14897078,-2.7712514,1.1429373,0.6975763,-0.00018626779,0.00023352512,-6.8456834e-06,-0.0004204858,1.6539923e-07,-0.00016979621,0.17739432,0.047532663,0.3565534,0.0,0.0,0.0,0.0,0.0,6.4743e-41,5.935243e-07,0.0022621031,0.035129167,8.946758e-07,1.2678834e-05,1.0448128e-05,4.185588e-05,0.012688199,0.012700604,0.009065544,0.055088885,0.055087,0.055014517,1.0445976e-11,1.0429853e-11,1.8912271e-11,1.7004575e-07,2.268838e-07,5e-08,0.0,0.0,0.0,0.0,0.0,0.0,0.0,0.0,663,0.33192754,0.23455174,0.039879736,0.06875586,0.01015568,0.0072100325,0.0,0.0,0.0,0.000123,0,0,0,831,0,0,0,0
2519481188,0.99935424,-0.029536277,0.012386121,-0.016291006,0.06949036,-0.21274224,-0.1391932,-2.7544844,1.1059895,0.6600656,-0.00018629956,0.00023349833,-6.91522e-06,-0.0004198369,2.2655486e-08,-0.00016696783,0.17739432,0.047532663,0.3565534,0.0,0.0,0.0,0.0,0.0,6.4743e-41,4.6413314e-07,0.0019252348,0.029902475,8.8777625e-07,1.2673052e-05,1.0436091e-05,4.1861218e-05,0.01266169,0.01267915,0.009083411,0.055026744,0.055026013,0.05520131,1.04437205e-11,1.04282815e-11,1.8910807e-11,1.7000579e-07,2.2685661e-07,5.0000036e-08,0.0,0.0,0.0,0.0,0.0,0.0,0.0,0.0,663,0.33174202,0.23494959,0.027907394,0.031168323,0.011641758,0.0035444407,0.0,0.0,0.0,3.1e-05,0,0,0,831,0,0,0,0
2519683030,0.9994405,-0.027713923,0.00854642,-0.016662305,0.030196715,-0.23356922,-0.105700955,-2.741208,1.0579394,0.6184583,-0.00018629366,0.00023350984,-6.961424e-06,-0.00041865523,-8.5925467e-07,-0.00016175013,0.17739432,0.047532663,0.3565534,0.0,0.0,0.0,0.0,0.0,6.4743e-41,4.5064544e-07,0.0021748547,0.03351767,8.8398735e-07,1.26617515e-05,1.0425837e-05,4.1863987e-05,0.0126098925,0.012631434,0.009102528,0.054933712,0.054934416,0.05539512,1.0440746e-11,1.0426079e-11,1.8909025e-11,1.6996938e-07,2.2683123e-07,5.000007e-08,0.0,0.0,0.0,0.0,0.0,0.0,0.0,0.0,663,0.3314636,0.23536168,0.0054882024,0.010259184,0.011332892,0.041985136,0.0,0.0,0.0,0.000277,0,0,0,831,0,0,0,0
2519883021,0.999551,-0.02370284,0.0071807727,-0.016866408,-0.010333997,-0.2474911,-0.10369785,-2.7479124,1.0102541,0.5924133,-0.0001863136,0.00023345025,-6.956471e-06,-0.00041849018,-1.069647e-06,-0.00015949327,0.17739432,0.047532663,0.3565534,0.0,0.0,0.0,0.0,0.0,6.4743e-41,4.484371e-07,0.0021454291,0.030278744,8.761981e-07,1.26582745e-05,1.0413692e-05,4.1944873e-05,0.012582198,0.012607332,0.009121743,0.054849636,0.054851998,0.055626456,1.0441376e-11,1.0427527e-11,1.8926373e-11,1.6993629e-07,2.2680717e-07,5.000007e-08,0.0,0.0,0.0,0.0,0.0,0.0,0.0,0.0,663,0.33121237,0.23585261,0.00979901,0.04887368,0.008266818,0.047598243,0.0,0.0,0.0,0.000261,0,0,0,831,0,0,0,0
2520083044,0.99961776,-0.021153001,0.0042370716,-0.01729195,-0.029431334,-0.25609127,-0.06270521,-2.7555666,0.96430737,0.5839526,-0.00018634924,0.00023342248,-6.9165576e-06,-0.0004190461,-6.172761e-07,-0.00016117543,0.17739432,0.047532663,0.3565534,0.0,0.0,0.0,0.0,0.0,6.4743e-41,4.5875962e-07,0.0021255568,0.030356193,8.7165597e-07,1.2654966e-05,1.0408143e-05,4.1866508e-05,0.012556878,0.012582871,0.009065635,0.05483311,0.05483734,0.05503497,1.0441204e-11,1.0428196e-11,1.8909901e-11,1.6990354e-07,2.2678275e-07,5e-08,0.0,0.0,0.0,0.0,0.0,0.0,0.0,0.0,663,0.33116528,0.23459533,0.007851143,0.03229499,0.006482569,0.050844386,0.0,0.0,0.0,0.000273,0,0,0,831,0,0,0,0
2520286976,0.99963725,-0.019322256,0.0050092554,-0.018084075,-0.047887083,-0.23747292,-0.04680565,-2.7737665,0.9159706,0.5673494,-0.00018637383,0.0002333602,-6.9027237e-06,-0.00041868596,-9.742715e-07,-0.00015857175,0.17739432,0.047532663,0.3565534,0.0,0.0,0.0,0.0,0.0,6.4743e-41,5.8554934e-07,0.0023901484,0.03485811,8.694572e-07,1.26621235e-05,1.0411274e-05,4.1960127e-05,0.012600661,0.012627378,0.009115202,0.055114288,0.055120666,0.055492587,1.0445275e-11,1.0433093e-11,1.8926761e-11,1.6987778e-07,2.2676247e-07,5.000007e-08,0.0,0.0,0.0,0.0,0.0,0.0,0.0,0.0,663,0.3320165,0.23556864,0.039782394,0.04636579,0.0036204027,0.0014358058,0.0,0.0,0.0,0.000222,0,0,0,831,0,0,0,0
2520490970,0.9997006,-0.0119651975,0.011138026,-0.018210793,-0.08584642,-0.21722543,-0.040379006,-2.792041,0.8729905,0.5628183,-0.00018639749,0.00023333919,-6.8596364e-06,-0.00041903605,-6.575315e-07,-0.00016079214,0.17739432,0.047532663,0.3565534,0.0,0.0,0.0,0.0,0.0,6.4743e-41,6.099602e-07,0.0024570248,0.03874969,8.574715e-07,1.2676145e-05,1.04042165e-05,4.1949414e-05,0.012586517,0.012615883,0.009131649,0.055051282,0.055059683,0.055663113,1.0444208e-11,1.0432888e-11,1.8924359e-11,1.6985477e-07,2.267432e-07,5.000007e-08,0.0,0.0,0.0,0.0,0.0,0.0,0.0,0.0,663,0.33182973,0.23593031,0.013926271,0.020541584,0.0043299263,0.010412589,0.0,0.0,0.0,0.000215,0,0,0,831,0,0,0,0
2520694943,0.9998097,-0.0067804726,0.006551838,-0.017083112,-0.12176237,-0.16702478,-0.007222373,-2.8189113,0.8386364,0.55320793,-0.0001864348,0.00023331941,-6.808726e-06,-0.00041881914,-7.565875e-07,-0.00015994375,0.17739432,0.047532663,0.3565534,0.0,0.0,0.0,0.0,0.0,6.4743e-41,5.5221216e-07,0.002338343,0.03462096,8.469983e-07,1.2682531e-05,1.041002e-05,4.1970514e-05,0.012622624,0.012653116,0.009102879,0.055331588,0.05534248,0.055323046,1.0448294e-11,1.0437879e-11,1.892594e-11,1.6983238e-07,2.2672398e-07,5e-08,0.0,0.0,0.0,0.0,0.0,0.0,0.0,0.0,663,0.33267713,0.23520851,0.06553702,0.030004403,0.0047091395,0.060522202,0.0,0.0,0.0,0.00019,0,0,0,831,0,0,0,0
2520894921,0.9998362,-0.0082191,-7.3232244e-05,-0.016127912,-0.15453109,-0.12226302,0.015283349,-2.8558831,0.8085038,0.5462698,-0.00018643451,0.00023327785,-6.825141e-06,-0.0004184959,-1.1444987e-06,-0.00015716781,0.17739432,0.047532663,0.3565534,0.0,0.0,0.0,0.0,0.0,6.4743e-41,6.1107033e-07,0.0023789168,0.035822112,8.4787035e-07,1.2668996e-05,1.040489e-05,4.1967513e-05,0.0125780525,0.012607463,0.009116732,0.05518523,0.055198062,0.05547636,1.0445493e-11,1.0436031e-11,1.8923165e-11,1.6981504e-07,2.2670802e-07,5.0000036e-08,0.0,0.0,0.0,0.0,0.0,0.0,0.0,0.0,663,0.3322398,0.2355342,0.018881196,0.028048094,0.005955094,0.008985808,0.0,0.0,0.0,0.000167,0,0,0,831,0,0,0,0
2521098947,0.99963754,-0.015685445,-0.011602343,-0.018553106,-0.143738,-0.1030025,-0.060055856,-2.8951187,0.78579074,0.54480195,-0.00018644315,0.00023323753,-6.7297296e-06,-0.00041845368,-1.1926268e-06,-0.00015696483,0.17739432,0.047532663,0.3565534,0.0,0.0,0.0,0.0,0.0,6.4743e-41,6.6993556e-07,0.0022073071,0.031733777,8.649742e-07,1.2656077e-05,1.040486e-05,4.195458e-05,0.012632061,0.012655313,0.009133905,0.05515647,0.055170998,0.05564395,1.044614e-11,1.043761e-11,1.8920327e-11,1.6980009e-07,2.266937e-07,5.000007e-08,0.0,0.0,0.0,0.0,0.0,0.0,0.0,0.0,663,0.3321558,0.2358897,0.043912776,0.02416286,0.009194453,0.00069099216,0.0,0.0,0.0,0.000194,0,0,0,831,0,0,0,0
2521303083,0.999395,-0.020358577,-0.01707074,-0.022447715,-0.088177286,-0.11480782,-0.5124497,-2.9260962,0.7609255,0.49933928,-0.00018643425,0.00023320984,-6.6864195e-06,-0.00041906026,-6.537206e-07,-0.00016044798,0.17739432,0.047532663,0.3565534,0.0,0.0,0.0,0.0,0.0,6.4743e-41,6.238698e-07,0.0019522358,0.027764183,8.812173e-07,1.2648301e-05,1.0404491e-05,4.1955456e-05,0.012970289,0.012987474,0.009106043,0.05541946,0.05543503,0.055306967,1.0448259e-11,1.0440641e-11,1.8921788e-11,1.6978456e-07,2.2667669e-07,5e-08,0.0,0.0,0.0,0.0,0.0,0.0,0.0,0.0,663,0.33294818,0.23517433,0.0073398575,0.01615118,0.010002279,0.004105687,0.0,0.0,0.0,0.000329,0,0,0,831,0,0,0,0
2521506959,0.999392,-0.020085013,-0.013801003,-0.024936209,-0.045028448,-0.12925102,-0.96406704,-2.9647954,0.75932854,0.35434604,-0.00018656804,0.00023305933,-6.702806e-06,-0.00042088347,1.6682529e-06,-0.0001631961,0.17739432,0.047532663,0.3565534,0.0,0.0,0.0,0.0,0.0,6.4743e-41,6.2185023e-07,0.0019716874,0.027320229,8.84726e-07,1.2621095e-05,1.0384308e-05,4.194416e-05,0.013239513,0.013256462,0.009123394,0.05537763,0.055393115,0.05546398,1.0443323e-11,1.04365145e-11,1.8919361e-11,1.6976387e-07,2.2664744e-07,5.0000036e-08,0.0,0.0,0.0,0.0,0.0,0.0,0.0,0.0,663,0.33282238,0.23550792,0.030139815,0.107104085,0.011407455,0.0095578525,0.0,0.0,0.0,0.000205,0,0,0,831,0,0,0,0
2521706992,0.9993776,-0.018240921,-0.012399701,-0.02753305,-0.017718958,-0.14206511,-1.1228348,-2.9733872,0.7376672,0.14954396,-0.00018659836,0.00023305659,-6.726202e-06,-0.00042090993,2.551207e-06,-0.00016547965,0.17739432,0.047532663,0.3565534,0.0,0.0,0.0,0.0,0.0,6.4743e-41,5.9854943e-07,0.0019438448,0.026027746,8.8657544e-07,1.2586893e-05,1.0353424e-05,4.1933894e-05,0.013293171,0.013309252,0.009142026,0.055347756,0.055362716,0.0556296,1.0436964e-11,1.0430878e-11,1.8917383e-11,1.6973566e-07,2.2660377e-07,5.0000036e-08,0.0,0.0,0.0,0.0,0.0,0.0,0.0,0.0,663,0.33273184,0.23585927,0.010116003,0.02476252,0.013365307,0.0036109216,0.0,0.0,0.0,0.000206,0,0,0,831,0,0,0,0
2521907071,0.99929124,-0.019409081,-0.011147257,-0.030268675,0.017610047,-0.1546737,-1.1736399,-2.9647124,0.71199083,-0.05046202,-0.00018662305,0.00023311857,-6.7707383e-06,-0.00042075443,4.0814066e-06,-0.00017538019,0.17739432,0.047532663,0.3565534,0.0,0.0,0.0,0.0,0.0,6.4743e-41,5.981177e-07,0.0020661827,0.025851138,8.948936e-07,1.25408005e-05,1.0318902e-05,4.18437e-05,0.013248154,0.013261895,0.009156602,0.055247836,0.055262,0.05577923,1.0428718e-11,1.0423296e-11,1.890112e-11,1.6970627e-07,2.2655752e-07,5.000007e-08,0.0,0.0,0.0,0.0,0.0,0.0,0.0,0.0,663,0.33243018,0.23617627,0.053374235,0.0514869,0.007940015,0.03216923,0.0,0.0,0.0,0.000317,0,0,0,831,0,0,0,0
2522110906,0.9993745,-0.013819219,-0.009949764,-0.030995263,0.03597487,-0.15636463,-1.1995742,-2.954992,0.6796168,-0.2599732,-0.00018662732,0.00023315118,-6.735772e-06,-0.00042140528,5.465065e-06,-0.00018724546,0.17739432,0.047532663,0.3565534,0.0,0.0,0.0,0.0,0.0,6.4743e-41,5.890567e-07,0.0023253139,0.03130015,8.863741e-07,1.2519007e-05,1.0293102e-05,4.1786232e-05,0.0132850455,0.013296813,0.009128388,0.05561975,0.05563337,0.05542725,1.0428576e-11,1.0423749e-11,1.8889444e-11,1.6967785e-07,2.2651307e-07,5e-08,0.0,0.0,0.0,0.0,0.0,0.0,0.0,0.0,663,0.33354628,0.23542993,0.02962285,0.027921928,0.0043317135,0.003913185,0.0,0.0,0.0,0.000146,0,0,0,831,0,0,0,0
2522314898,0.9995232,-0.008269613,-0.009931132,-0.028041866,0.055539124,-0.117415525,-1.2195823,-2.9477239,0.651349,-0.47829756,-0.00018662613,0.00023314441,-6.7681035e-06,-0.000422201,6.1872156e-06,-0.00019618354,0.17739432,0.047532663,0.3565534,0.0,0.0,0.0,0.0,0.0,6.4743e-41,5.6929383e-07,0.0020814561,0.03165601,8.7063216e-07,1.249017e-05,1.0262869e-05,4.1868854e-05,0.013252912,0.01326088,0.009143909,0.055645615,0.055658385,0.05557508,1.0424591e-11,1.0420317e-11,1.8902947e-11,1.6965244e-07,2.2647293e-07,5.0000036e-08,0.0,0.0,0.0,0.0,0.0,0.0,0.0,0.0,663,0.33362255,0.23574367,0.036207948,0.03996875,0.004793354,0.00818865,0.0,0.0,0.0,0.000144,0,0,0,831,0,0,0,0
2522518808,0.99965686,-0.00277005,-0.012459254,-0.022875126,0.094458476,-0.04519818,-1.2418116,-2.946486,0.64685875,-0.7108148,-0.00018670261,0.00023305723,-6.774732e-06,-0.00042382098,8.5695365e-06,-0.00020163078,0.17739432,0.047532663,0.3565534,0.0,0.0,0.0,0.0,0.0,6.4743e-41,5.194408e-07,0.0018677532,0.031391922,8.5274775e-07,1.2465741e-05,1.0238243e-05,4.1896143e-05,0.013255551,0.013257453,0.009116432,0.055892915,0.055904485,0.055237472,1.04232985e-11,1.0419576e-11,1.8905847e-11,1.6962925e-07,2.2643651e-07,5e-08,0.0,0.0,0.0,0.0,0.0,0.0,0.0,0.0,663,0.3343612,0.23502654,0.044132654,0.06268213,0.0080948705,0.007693969,0.0,0.0,0.0,4.1e-05,0,0,0,831,0,0,0,0
2522718917,0.99968684,-0.0032466522,-0.013187656,-0.021017162,0.14536864,0.022236696,-1.2369349,-2.9370327,0.65374327,-0.9411834,-0.00018675074,0.00023298697,-6.797948e-06,-0.00042512597,1.0209893e-05,-0.0002053912,0.17739432,0.047532663,0.3565534,0.0,0.0,0.0,0.0,0.0,6.4743e-41,8.1322145e-07,0.002152851,0.035195485,8.505528e-07,1.2430154e-05,1.0210955e-05,4.1894426e-05,0.01320559,0.013201235,0.009135652,0.05590062,0.055910356,0.055409957,1.0420619e-11,1.0417434e-11,1.8904224e-11,1.696084e-07,2.2640303e-07,5.0000036e-08,0.0,0.0,0.0,0.0,0.0,0.0,0.0,0.0,663,0.3343815,0.2353932,0.1072836,0.043294583,0.012420255,0.021377461,0.0,0.0,0.0,0.000163,0,0,0,831,0,0,0,0
2522922777,0.9996984,-0.008697834,-0.0058166157,-0.022219384,0.14523123,0.08268635,-1.2646831,-2.9177246,0.6736124,-1.1758983,-0.00018679965,0.00023294221,-6.834826e-06,-0.00042592763,1.1588985e-05,-0.00020997036,0.17739432,0.047532663,0.3565534,0.0,0.0,0.0,0.0,0.0,6.4743e-41,8.880266e-07,0.0021711667,0.032650143,8.593633e-07,1.2385791e-05,1.0186995e-05,4.1889023e-05,0.013176892,0.013167366,0.0091558155,0.0558897,0.0558973,0.055590894,1.0418439e-11,1.0415791e-11,1.8902274e-11,1.6959004e-07,2.2637343e-07,5.000004e-08,0.0,0.0,0.0,0.0,0.0,0.0,0.0,0.0,663,0.33434564,0.23577721,0.0020236485,0.03894094,0.012623154,0.0366102,0.0,0.0,0.0,2.3e-05,0,0,0,831,0,0,0,0
2523124524,0.9995968,-0.0143225975,-0.001245713,-0.024486935,0.1367154,0.12135312,-1.2427694,-2.9039032,0.7020023,-1.4203204,-0.00018684205,0.00023286427,-6.825059e-06,-0.0004268754,1.2662921e-05,-0.00020965944,0.17739432,0.047532663,0.3565534,0.0,0.0,0.0,0.0,0.0,6.4743e-41,8.035383e-07,0.0022453421,0.032771274,8.7230654e-07,1.2345778e-05,1.0166389e-05,4.1953444e-05,0.013110913,0.013097788,0.009172606,0.055872723,0.05587806,0.05575457,1.0416752e-11,1.041466e-11,1.8914561e-11,1.6957448e-07,2.2634832e-07,5.000007e-08,0.0,0.0,0.0,0.0,0.0,0.0,0.0,0.0,663,0.33429146,0.23612405,8.957642e-05,0.04759295,0.014426949,0.024229849,0.0,0.0,0.0,0.00017,0,0,0,831,0,0,0,0
2523328540,0.99946105,-0.020440368,-0.002890187,-0.02552433,0.11655296,0.16411693,-1.2188952,-2.8828518,0.7489862,-1.6653404,-0.0001869302,0.00023284073,-6.852214e-06,-0.00042711972,1.4207572e-05,-0.00021144288,0.17739432,0.047532663,0.3565534,0.0,0.0,0.0,0.0,0.0,6.4743e-41,7.009929e-07,0.0021477994,0.032243513,8.855996e-07,1.2315509e-05,1.015926e-05,4.1961313e-05,0.013121149,0.013105178,0.00914985,0.056244656,0.056247722,0.05548452,1.0423792e-11,1.04222785e-11,1.8920022e-11,1.6956183e-07,2.263281e-07,5.0000036e-08,0.0,0.0,0.0,0.0,0.0,0.0,0.0,0.0,663,0.33539885,0.23555152,0.008095466,0.06644926,0.014423653,0.015569829,0.0,0.0,0.0,0.000184,0,0,0,831,0,0,0,0
2523532706,0.99934095,-0.026291724,-0.005158772,-0.024493663,0.12917936,0.18210544,-1.224184,-2.8734825,0.79875565,-1.9042104,-0.0001870071,0.00023276616,-6.796794e-06,-0.00042775378,1.5525071e-05,-0.00021040849,0.17739432,0.047532663,0.3565534,0.0,0.0,0.0,0.0,0.0,6.4743e-41,6.7967363e-07,0.0023033163,0.032022078,8.947582e-07,1.2278834e-05,1.0148239e-05,4.194781e-05,0.0130708115,0.013055387,0.009164242,0.056178104,0.056179132,0.055637952,1.042303e-11,1.042211e-11,1.8917602e-11,1.695514e-07,2.263112e-07,5.0000036e-08,0.0,0.0,0.0,0.0,0.0,0.0,0.0,0.0,663,0.3351973,0.23587698,0.0037649607,0.06507303,0.0136313895,0.025505992,0.0,0.0,0.0,0.000352,0,0,0,831,0,0,0,0
2523732639,0.9991696,-0.032819293,-0.01167625,-0.021135805,0.17423584,0.15160848,-1.225648,-2.8459668,0.8363036,-2.1596272,-0.0001870182,0.0002327657,-6.802052e-06,-0.00042763547,1.5576526e-05,-0.00020658837,0.17739432,0.047532663,0.3565534,0.0,0.0,0.0,0.0,0.0,6.4743e-41,6.7700256e-07,0.0022306016,0.029419204,9.0315365e-07,1.2243765e-05,1.01417e-05,4.193255e-05,0.013015079,0.013005002,0.009179752,0.056115527,0.056114707,0.055800352,1.04226966e-11,1.0422355e-11,1.8915326e-11,1.6954235e-07,2.2629632e-07,5.000007e-08,0.0,0.0,0.0,0.0,0.0,0.0,0.0,0.0,663,0.33500782,0.23622099,0.05108624,0.023062121,0.007475827,0.0090925805,0.0,0.0,0.0,0.000271,0,0,0,831,0,0,0,0
2523932627,0.99881375,-0.039636392,-0.019785734,-0.02021379,0.27973092,0.109672435,-1.2070391,-2.7998242,0.86112815,-2.411241,-0.00018700151,0.00023278799,-6.7880583e-06,-0.00042746504,1.5266549e-05,-0.00020410604,0.17739432,0.047532663,0.3565534,0.0,0.0,0.0,0.0,0.0,6.4743e-41,6.2196307e-07,0.0020134319,0.027705083,9.189785e-07,1.2214549e-05,1.0139434e-05,4.190552e-05,0.012952616,0.012950403,0.009194841,0.056054827,0.056052644,0.055962645,1.0422945e-11,1.042312e-11,1.8913216e-11,1.6953523e-07,2.2628429e-07,5.000007e-08,0.0,0.0,0.0,0.0,0.0,0.0,0.0,0.0,663,0.33482453,0.23656425,0.012888986,0.02258484,0.0074286656,0.034285326,0.0,0.0,0.0,0.000267,0,0,0,831,0,0,0,0
2524136570,0.9986044,-0.045496844,-0.017396886,-0.020414308,0.41604906,0.057339482,-1.1254274,-2.73447,0.88411593,-2.6632824,-0.0001870256,0.0002327624,-6.844987e-06,-0.00042755948,1.5291595e-05,-0.00019978036,0.17739432,0.047532663,0.3565534,0.0,0.0,0.0,0.0,0.0,6.4743e-41,6.2243316e-07,0.0017400709,0.024616186,9.322734e-07,1.2188214e-05,1.015105e-05,4.2061634e-05,0.012913531,0.012924279,0.009164776,0.05631745,0.056314483,0.05561689,1.0428005e-11,1.0428606e-11,1.8944615e-11,1.6953003e-07,2.2627529e-07,5.0000036e-08,0.0,0.0,0.0,0.0,0.0,0.0,0.0,0.0,663,0.3356068,0.23583233,0.009549117,0.03829811,0.0065717287,0.041668106,0.0,0.0,0.0,0.000186,0,0,0,831,0,0,0,0
2524340394,0.998404,-0.05166806,-0.01130939,-0.01980101,0.52239245,-0.04290515,-1.0237982,-2.6490989,0.8977017,-2.861279,-0.00018708989,0.0002327148,-6.852562e-06,-0.00042791085,1.5773408e-05,-0.0002017312,0.17739432,0.047532663,0.3565534,0.0,0.0,0.0,0.0,0.0,6.4743e-41,7.7632944e-07,0.0016856272,0.024074964,9.4477997e-07,1.2158379e-05,1.0165676e-05,4.2115786e-05,0.012828995,0.012853116,0.009180448,0.056287214,0.056284837,0.05577657,1.0430635e-11,1.04315e-11,1.8956703e-11,1.6952646e-07,2.2626931e-07,5.0000036e-08,0.0,0.0,0.0,0.0,0.0,0.0,0.0,0.0,663,0.3355176,0.23617063,0.0080021145,0.06750336,0.0058165956,0.007901303,0.0,0.0,0.0,4e-05,0,0,0,831,0,0,0,0
2524544377,0.99893844,-0.039540324,0.0076763523,-0.022352317,0.5878767,-0.12471337,-0.9903504,-2.5302598,0.89092606,-3.0637414,-0.00018715543,0.00023272763,-6.85138e-06,-0.00042793213,1.5820206e-05,-0.00020186242,0.17739432,0.047532663,0.3565534,0.0,0.0,0.0,0.0,0.0,6.4743e-41,8.351524e-07,0.0015938471,0.022500394,9.188901e-07,1.2190626e-05,1.0135515e-05,4.215322e-05,0.01284565,0.012874232,0.009224293,0.05655509,0.056554794,0.056202985,1.0437139e-11,1.0438078e-11,1.8957861e-11,1.6952373e-07,2.2626524e-07,5.000011e-08,0.0,0.0,0.0,0.0,0.0,0.0,0.0,0.0,663,0.33631814,0.2370717,0.004057236,0.04742236,0.0067775217,0.022595858,0.0,0.0,0.0,2.3e-05,0,0,0,831,0,0,0,0
2524744577,0.9988618,-0.025321163,0.030424867,-0.026616126,0.5581113,-0.21647392,-1.088155,-2.40598,0.8527092,-3.2852576,-0.00018714335,0.00023277671,-6.81064e-06,-0.00042810358,1.5611642e-05,-0.00019680004,0.17739432,0.047532663,0.3565534,0.0,0.0,0.0,0.0,0.0,6.4743e-41,1.0294455e-06,0.0016359014,0.022948692,9.043346e-07,1.2251268e-05,1.0098933e-05,4.2128275e-05,0.012890929,0.012908208,0.0091599375,0.056510273,0.056512557,0.055553082,1.0439778e-11,1.044063e-11,1.8955105e-11,1.6952103e-07,2.2626108e-07,5e-08,0.0,0.0,0.0,0.0,0.0,0.0,0.0,0.0,663,0.33618867,0.23569702,0.06895569,0.04240676,0.003861784,0.01336447,0.0,0.0,0.0,0.000223,0,0,0,831,0,0,0,0
2524944415,0.9981737,-0.019875064,0.049234804,-0.028814288,0.45177725,-0.23354305,-1.1120169,-2.2912157,0.8080623,-3.4988303,-0.00018714559,0.00023285886,-6.8751824e-06,-0.000428562,1.5602027e-05,-0.00019764289,0.17739432,0.047532663,0.3565534,0.0,0.0,0.0,0.0,0.0,6.4743e-41,8.897703e-07,0.0016625279,0.023933727,9.1245494e-07,1.23088985e-05,1.0076611e-05,4.206754e-05,0.012893179,0.012897435,0.009170574,0.05649212,0.056496233,0.055698376,1.04419026e-11,1.0442664e-11,1.895276e-11,1.6951809e-07,2.2625888e-07,5.0000036e-08,0.0,0.0,0.0,0.0,0.0,0.0,0.0,0.0,663,0.3361374,0.23600504,0.08030045,0.062862426,0.0008981948,0.025459582,0.0,0.0,0.0,6.1e-05,0,0,0,831,0,0,0,0
2525148556,0.9977454,-0.01675408,0.057804238,-0.029700354,0.28918102,-0.23041812,-1.1225476,-2.2036803,0.76424557,-3.739171,-0.00018716822,0.00023292025,-6.8616446e-06,-0.00042843126,1.5292859e-05,-0.00019361834,0.17739432,0.047532663,0.3565534,0.0,0.0,0.0,0.0,0.0,6.4743e-41,7.139668e-07,0.0015646386,0.0224668,9.1719147e-07,1.2342959e-05,1.00655e-05,4.2107396e-05,0.012897502,0.012896407,0.009182597,0.056533802,0.056538332,0.055856988,1.04449565e-11,1.0445685e-11,1.8965501e-11,1.6951505e-07,2.2625704e-07,5.0000075e-08,0.0,0.0,0.0,0.0,0.0,0.0,0.0,0.0,663,0.33626202,0.23634084,0.018395728,0.042976703,0.008965763,0.035601057,0.0,0.0,0.0,0.000189,0,0,0,831,0,0,0,0
2525352586,0.9978648,-0.014676254,0.05629494,-0.029687056,0.10707739,-0.22092724,-1.0887698,-2.1549435,0.7254103,-3.985335,-0.0001872231,0.00023294345,-6.852124e-06,-0.00042848563,1.5023508e-05,-0.00018764098,0.17739432,0.047532663,0.3565534,0.0,0.0,0.0,0.0,0.0,6.4743e-41,6.6979766e-07,0.0015772117,0.022980437,9.1210075e-07,1.2344429e-05,1.007246e-05,4.204986e-05,0.012931623,0.012938074,0.00914826,0.056893118,0.056896962,0.055497307,1.0451748e-11,1.0452554e-11,1.895256e-11,1.695114e-07,2.2625515e-07,5e-08,0.0,0.0,0.0,0.0,0.0,0.0,0.0,0.0,663,0.33732784,0.23557867,0.019311499,0.03915257,0.010925797,0.055565223,0.0,0.0,0.0,0.000232,0,0,0,831,0,0,0,0
2525556549,0.99841946,-0.0052182055,0.04720172,-0.030054908,-0.03290933,-0.18082917,-1.0956371,-2.136939,0.68911105,-4.238531,-0.00018724936,0.00023298516,-6.9072244e-06,-0.0004289862,1.468729e-05,-0.00017582055,0.17739432,0.047532663,0.3565534,0.0,0.0,0.0,0.0,0.0,6.4743e-41,6.8149075e-07,0.0015501404,0.022528104,8.900613e-07,1.2327599e-05,1.0076934e-05,4.2078136e-05,0.012920449,0.012941535,0.0091613075,0.056878865,0.056881823,0.05564899,1.04534775e-11,1.0454503e-11,1.8950544e-11,1.695066e-07,2.2625234e-07,5.0000036e-08,0.0,0.0,0.0,0.0,0.0,0.0,0.0,0.0,663,0.3372843,0.23590039,0.0086527895,0.022955123,0.013824108,0.056354783,0.0,0.0,0.0,0.000163,0,0,0,831,0,0,0,0
2525756586,0.99873513,0.009626338,0.03863148,-0.030709835,-0.14706615,-0.08549226,-1.186286,-2.146246,0.66624093,-4.4814706,-0.00018726721,0.00023301665,-6.9547214e-06,-0.0004289926,1.4478141e-05,-0.00017170656,0.17739432,0.047532663,0.3565534,0.0,0.0,0.0,0.0,0.0,6.4743e-41,6.305435e-07,0.0016423572,0.023435436,8.6613517e-07,1.2324089e-05,1.0089757e-05,4.2088795e-05,0.012978883,0.013014219,0.009172784,0.056911197,0.056913882,0.055783533,1.0455794e-11,1.0457143e-11,1.894816e-11,1.6950113e-07,2.2624964e-07,5.0000036e-08,0.0,0.0,0.0,0.0,0.0,0.0,0.0,0.0,663,0.33737972,0.23618537,0.00050997705,0.014059335,0.01568784,0.044459835,0.0,0.0,0.0,0.000233,0,0,0,831,0,0,0,0
2525960488,0.99897027,0.0014130257,0.03414527,-0.02984288,-0.23817298,0.027035987,-1.2175194,-2.1767452,0.66298676,-4.7672,-0.00018728625,0.0002330451,-6.9855582e-06,-0.0004295512,1.4260677e-05,-0.00016052452,0.17739432,0.047532663,0.3565534,0.0,0.0,0.0,0.0,0.0,6.4743e-41,5.8721133e-07,0.0016106117,0.022601148,8.7147106e-07,1.2304287e-05,1.0091579e-05,4.203741e-05,0.013011563,0.013055125,0.009140326,0.057108805,0.057112284,0.055426218,1.0457745e-11,1.0459595e-11,1.8934401e-11,1.6949447e-07,2.2624717e-07,5e-08,0.0,0.0,0.0,0.0,0.0,0.0,0.0,0.0,663,0.3379661,0.23542774,0.011922593,0.01614566,0.019778285,0.05718706,0.0,0.0,0.0,0.000129,0,0,0,831,0,0,0,0
2526164415,0.99923307,-0.009754671,0.02630601,-0.02731533,-0.29018778,0.07324113,-1.1969113,-2.220065,0.66677517,-5.03675,-0.00018724923,0.0002330758,-6.9870334e-06,-0.00043029455,1.4264592e-05,-0.00015184049,0.17739432,0.047532663,0.3565534,0.0,0.0,0.0,0.0,0.0,6.4743e-41,5.510374e-07,0.0015861086,0.022967057,8.777686e-07,1.2273541e-05,1.009963e-05,4.2044765e-05,0.012993076,0.013038809,0.0091556525,0.057109483,0.05711457,0.055575114,1.04588595e-11,1.0461321e-11,1.8931268e-11,1.6948711e-07,2.2624455e-07,5e-08,0.0,0.0,0.0,0.0,0.0,0.0,0.0,0.0,663,0.3379705,0.23574375,0.045747563,0.030218385,0.017717822,0.03829243,0.0,0.0,0.0,6.1e-05,0,0,0,831,0,0,0,0
2526364516,0.9992079,-0.016807977,0.024649855,-0.02633174,-0.32401636,0.091777876,-1.2180166,-2.2633245,0.67516506,-5.3202014,-0.00018721064,0.00023315963,-7.013766e-06,-0.00043150247,1.4035172e-05,-0.00014009846,0.17739432,0.047532663,0.3565534,0.0,0.0,0.0,0.0,0.0,6.4743e-41,4.8614106e-07,0.0015462147,0.02158042,8.868251e-07,1.2262139e-05,1.0109515e-05,4.2109026e-05,0.012998649,0.0130447475,0.009169827,0.057110555,0.05711794,0.05571873,1.046001e-11,1.0463134e-11,1.8942684e-11,1.69478e-07,2.2624091e-07,5.0000036e-08,0.0,0.0,0.0,0.0,0.0,0.0,0.0,0.0,663,0.33797705,0.23604815,0.026377093,0.048590932,0.019816162,0.019248437,0.0,0.0,0.0,0.000162,0,0,0,831,0,0,0,0
