timestamp,rollspeed,pitchspeed,yawspeed,q[0],q[1],q[2],q[3],delta_q_reset[0],delta_q_reset[1],delta_q_reset[2],delta_q_reset[3],quat_reset_counter
2508752551,0.005729396,-0.0046458244,0.0010631708,0.9994839,-0.0019145595,0.023106273,-0.022239016,1.0,0.0,0.0,0.0,0
2508876503,-0.0045092683,0.004211815,0.001020065,0.9994856,-0.0019968248,0.02309817,-0.022160066,1.0,0.0,0.0,0.0,0
2508920372,-0.0031345524,0.0033361632,-0.0005793201,0.9994849,-0.0020967112,0.023153313,-0.0221249,1.0,0.0,0.0,0.0,0
2508960537,-0.003453035,0.00043427944,-0.0012579218,0.99948466,-0.0021585217,0.023174679,-0.022110038,1.0,0.0,0.0,0.0,0
2509004324,0.09760312,0.007858876,-0.023874007,0.99948263,-0.0020592147,0.023167875,-0.02221471,1.0,0.0,0.0,0.0,0
2509044325,-0.0097442325,-0.01022608,-0.011947197,0.99948686,-0.0020603393,0.023007434,-0.022191714,1.0,0.0,0.0,0.0,0
2509088349,0.061805256,0.06717735,-0.0088759605,0.9994796,-0.001967415,0.02292977,-0.022602595,1.0,0.0,0.0,0.0,0
2509128335,-0.042450294,-0.026718486,0.054343313,0.999509,-0.002151747,0.022317618,-0.021889308,1.0,0.0,0.0,0.0,0
2509172527,0.009648212,-0.046423405,-0.050974753,0.99951166,-0.0021472645,0.021702608,-0.022381818,1.0,0.0,0.0,0.0,0
2509214133,-0.01587854,-0.0012760684,-0.053401787,0.9995026,-0.0023848373,0.022139717,-0.022331981,1.0,0.0,0.0,0.0,0
2509254133,0.024750156,0.035493582,0.058703087,0.9995051,-0.002410415,0.022427935,-0.02192977,1.0,0.0,0.0,0.0,0
2509298172,0.01552752,0.0016326904,0.00027863972,0.9994948,-0.0016667343,0.022893919,-0.021985399,1.0,0.0,0.0,0.0,0
2509338219,0.020594025,0.021687727,-0.0042132875,0.9994826,-0.0010062713,0.02331401,-0.022140905,1.0,0.0,0.0,0.0,0
2509382025,0.001965372,-0.040095016,-0.0076697557,0.99949026,-0.00049268163,0.023061592,-0.022071894,1.0,0.0,0.0,0.0,0
2509422023,-0.00017039292,-0.022854388,0.003700967,0.9994962,-0.00029782148,0.022812748,-0.022068396,1.0,0.0,0.0,0.0,0
2509466182,-0.0119192805,-0.046140328,-0.0027873428,0.9995067,-0.00032839391,0.02224109,-0.022174899,1.0,0.0,0.0,0.0,0
2509506231,0.00075340644,-0.01702481,-0.004047226,0.99951255,-0.0005621016,0.021958593,-0.02218634,1.0,0.0,0.0,0.0,0
2509550156,-0.0060176756,0.008306216,0.010242556,0.99951255,-0.00094109966,0.022011207,-0.022123376,1.0,0.0,0.0,0.0,0
2509590115,0.009968438,0.0050407555,0.0066701537,0.9995083,-0.0011839821,0.022207277,-0.022102324,1.0,0.0,0.0,0.0,0
2509634132,0.022278573,-0.007473603,0.0040167207,0.9995064,-0.0012294009,0.02244529,-0.021947786,1.0,0.0,0.0,0.0,0
2509674127,-0.00021385774,-0.06942121,-0.013497481,0.9995208,-0.0014058237,0.021822616,-0.021912733,1.0,0.0,0.0,0.0,0
2509718024,-0.055230886,-0.1998414,-0.058827877,0.9996024,-0.0023546536,0.017314276,-0.022132285,1.0,0.0,0.0,0.0,0
2509766146,-0.10707561,-0.43257064,-0.023398716,0.9997104,-0.0049151075,0.005042389,-0.023016097,1.0,0.0,0.0,0.0,0
2509810011,-0.277456,-1.1252367,0.029707998,0.99959815,-0.00860057,-0.012380537,-0.024005577,1.0,0.0,0.0,0.0,0
2509854119,0.12670353,-0.35757008,-0.14936732,0.9992466,-0.011687808,-0.027344383,-0.024937192,1.0,0.0,0.0,0.0,0
2509894140,0.41870075,0.14342995,-0.07823736,0.9990415,-0.013257567,-0.03310476,-0.025384624,1.0,0.0,0.0,0.0,0
2509938156,-0.111424185,0.22266908,-0.011636721,0.99906015,-0.01428711,-0.03216028,-0.025306942,1.0,0.0,0.0,0.0,0
2509982302,-0.078260854,0.050352193,0.025237817,0.9991182,-0.014856836,-0.030761095,-0.024413977,1.0,0.0,0.0,0.0,0
2510022015,-0.30219123,0.02615832,-0.043651957,0.9991172,-0.0177829,-0.029888272,-0.02356456,1.0,0.0,0.0,0.0,0
2510061995,0.0302656,0.6295178,0.015079024,0.9992386,-0.020181784,-0.024549672,-0.022633485,1.0,0.0,0.0,0.0,0
2510106198,-0.15547226,0.37512842,0.14762747,0.999444,-0.021810012,-0.013378803,-0.021379843,1.0,0.0,0.0,0.0,0
2510146183,-0.26442397,0.24746093,0.117006965,0.99955165,-0.02218811,-0.0008368309,-0.020089949,1.0,0.0,0.0,0.0,0
2510190161,0.1753964,0.14739698,0.058495168,0.99956846,-0.019904958,0.010600066,-0.018829314,1.0,0.0,0.0,0.0,0
2510230120,0.4841827,0.606884,-0.021915937,0.9995244,-0.017558238,0.018089147,-0.017761063,1.0,0.0,0.0,0.0,0
2510274171,0.6160264,0.5994588,0.023137257,0.99944943,-0.013859806,0.02530343,-0.016385224,1.0,0.0,0.0,0.0,0
2510314112,0.1856667,0.35792527,0.0066328705,0.99931335,-0.009535534,0.032369416,-0.015303543,1.0,0.0,0.0,0.0,0
2510358128,0.1929163,0.23745339,-0.024984904,0.99908984,-0.005108285,0.039897423,-0.014199699,1.0,0.0,0.0,0.0,0
2510398136,0.34185988,0.2535187,-0.026867803,0.9988819,-0.0018739484,0.045372676,-0.013143397,1.0,0.0,0.0,0.0,0
2510442173,0.46004665,0.2516626,0.05165813,0.9986233,0.0024284872,0.05094227,-0.012268927,1.0,0.0,0.0,0.0,0
2510482231,0.07126858,0.094374225,0.029332014,0.9983237,0.005804226,0.056381464,-0.011722004,1.0,0.0,0.0,0.0,0
2510526166,0.316263,0.33440173,-0.030885672,0.99801517,0.009271866,0.06125041,-0.011320487,1.0,0.0,0.0,0.0,0
2510566194,0.30015194,0.23921145,0.028062869,0.9978244,0.0117384605,0.06393912,-0.010984817,1.0,0.0,0.0,0.0,0
2510610031,-0.17063485,-0.19578478,0.07029418,0.9976566,0.014215456,0.06607841,-0.010632552,1.0,0.0,0.0,0.0,0
2510650187,0.06696324,0.06283232,0.016438484,0.99752474,0.01605291,0.06767074,-0.010371972,1.0,0.0,0.0,0.0,0
2510693976,-0.12890291,-0.13301507,0.035054144,0.9975703,0.015754577,0.067126215,-0.0099731125,1.0,0.0,0.0,0.0,0
2510734155,-0.05123055,0.13189265,-0.017338743,0.99762636,0.01609096,0.06622001,-0.009876677,1.0,0.0,0.0,0.0,0
2510778176,-0.20739734,-0.15873048,0.04976929,0.99778277,0.016410496,0.06378048,-0.009613738,1.0,0.0,0.0,0.0,0
2510818212,-0.26755497,-0.26241988,0.03571556,0.9979533,0.016207565,0.061120503,-0.009534633,1.0,0.0,0.0,0.0,0
2510862017,0.50434434,0.41484293,-0.18521608,0.9980934,0.016386198,0.058714967,-0.009681028,1.0,0.0,0.0,0.0,0
2510902288,0.16986308,-0.13876355,0.03925434,0.9983099,0.016259158,0.054993104,-0.009427792,1.0,0.0,0.0,0.0,0
2510946175,-0.16939077,-0.19407697,0.06498432,0.99851555,0.016102696,0.05115775,-0.009499699,1.0,0.0,0.0,0.0,0
2510986016,0.123132996,-0.22206496,0.018255709,0.99870163,0.015826954,0.04744023,-0.009692192,1.0,0.0,0.0,0.0,0
2511030020,-0.10819185,-0.38451624,-0.015444303,0.99891526,0.015018621,0.042956773,-0.009874681,1.0,0.0,0.0,0.0,0
2511070115,0.22516304,-0.07949591,-0.0880643,0.99907076,0.014645859,0.039237034,-0.010181191,1.0,0.0,0.0,0.0,0
2511114149,0.07764812,-0.19553456,0.0008529656,0.9992501,0.013102816,0.03492718,-0.010382601,1.0,0.0,0.0,0.0,0
2511158068,-0.002939865,-0.10715373,0.036518566,0.99939555,0.011222856,0.031153709,-0.010584695,1.0,0.0,0.0,0.0,0
2511198182,0.3362292,0.10499755,-0.0066572204,0.99949586,0.009795095,0.028132508,-0.010991708,1.0,0.0,0.0,0.0,0
2511238129,0.41384462,0.107209675,-0.18456674,0.9995843,0.00809352,0.02517305,-0.011492521,1.0,0.0,0.0,0.0,0
2511282216,-0.1805379,-0.414926,0.024140228,0.9996896,0.0052166213,0.021403594,-0.01163338,1.0,0.0,0.0,0.0,0
2511321991,-0.19781712,-0.34809098,0.02892119,0.9997482,0.0029143214,0.01870904,-0.012048724,1.0,0.0,0.0,0.0,0
2511362024,-0.3991919,-0.47087115,0.08359645,0.9997882,9.251987e-06,0.016427578,-0.01240006,1.0,0.0,0.0,0.0,0
2511402010,0.08498087,0.089256145,-0.084227294,0.99980575,-0.0033886046,0.014394121,-0.013034933,1.0,0.0,0.0,0.0,0
2511442198,-0.34553987,-0.17147613,-0.08109362,0.9998092,-0.009165443,0.010776178,-0.013471041,1.0,0.0,0.0,0.0,0
2511486023,0.10085149,0.07725853,-0.09905562,0.9997595,-0.0150431255,0.00768442,-0.013990311,1.0,0.0,0.0,0.0,0
2511526176,-0.64502686,-0.45711294,0.11291206,0.9996683,-0.021237442,0.003927244,-0.014035938,1.0,0.0,0.0,0.0,0
2511570002,-0.41304412,-0.24987541,0.0341914,0.999562,-0.025996763,0.00025480802,-0.01413757,1.0,0.0,0.0,0.0,0
2511614117,-0.11776825,-0.05833005,0.0134565495,0.99948937,-0.02855317,-0.0026475335,-0.0141016105,1.0,0.0,0.0,0.0,0
2511658079,-0.28998584,-0.30232957,0.06389273,0.9994419,-0.029971449,-0.0054807942,-0.013698036,1.0,0.0,0.0,0.0,0
2511698162,0.01329946,-0.02289652,0.030226944,0.9994469,-0.029493298,-0.007664567,-0.013311724,1.0,0.0,0.0,0.0,0
2511742094,-0.016740631,-0.08489667,-0.028421873,0.9994498,-0.02870642,-0.010630155,-0.012776686,1.0,0.0,0.0,0.0,0
2511782272,0.037479512,0.07205407,0.023842355,0.9994539,-0.027824163,-0.013033313,-0.012159766,1.0,0.0,0.0,0.0,0
2511826013,0.006619381,-0.050406076,0.0994317,0.9994127,-0.02802275,-0.016006356,-0.0115251355,1.0,0.0,0.0,0.0,0
2511866148,-0.09777052,-0.19550562,-0.029265175,0.99934024,-0.029053247,-0.01864462,-0.011289742,1.0,0.0,0.0,0.0,0
2511910127,-0.21845181,-0.101529405,-0.037689302,0.9992495,-0.03051481,-0.021147627,-0.011055277,1.0,0.0,0.0,0.0,0
2511950257,-0.3556319,-0.31917372,-0.0335935,0.99913627,-0.032544598,-0.023446908,-0.010855827,1.0,0.0,0.0,0.0,0
2511994018,0.036128815,0.14209254,-0.06003042,0.99903494,-0.03451383,-0.0248987,-0.010868426,1.0,0.0,0.0,0.0,0
2512034082,0.28011847,0.2505365,-0.04320108,0.99892,-0.03633071,-0.026820652,-0.010938658,1.0,0.0,0.0,0.0,0
2512078003,-0.48504975,-0.25860727,0.113412544,0.9987382,-0.0392739,-0.029316988,-0.010957743,1.0,0.0,0.0,0.0,0
2512118104,-0.16724388,-0.02713278,-0.041115664,0.99862206,-0.040791195,-0.030995414,-0.011377239,1.0,0.0,0.0,0.0,0
2512162097,0.024960913,-0.05276425,0.026644865,0.9984797,-0.042763617,-0.03277081,-0.01165242,1.0,0.0,0.0,0.0,0
2512202088,-0.024310336,-0.1135364,0.01598562,0.99833304,-0.044679094,-0.034524687,-0.011959689,1.0,0.0,0.0,0.0,0
2512242226,-0.10755597,-0.21387626,0.07911848,0.9981895,-0.04636257,-0.036329117,-0.012182933,1.0,0.0,0.0,0.0,0
2512286176,-0.29271045,-0.3627995,0.037265524,0.99802184,-0.04804118,-0.038550116,-0.012589212,1.0,0.0,0.0,0.0,0
2512330106,-0.114699356,-0.17965853,-0.04737054,0.9978897,-0.04932585,-0.040184315,-0.012974841,1.0,0.0,0.0,0.0,0
2512370095,0.32353562,0.12839204,-0.08996906,0.99784076,-0.04952446,-0.041045055,-0.013282324,1.0,0.0,0.0,0.0,0
2512414170,0.10591466,-0.28953022,0.04419139,0.9977324,-0.050006,-0.043045305,-0.013292574,1.0,0.0,0.0,0.0,0
2512454024,0.13860303,0.11341695,-0.025264632,0.99772775,-0.04974884,-0.04337917,-0.013516347,1.0,0.0,0.0,0.0,0
2512498114,-0.09720718,-0.1642413,0.036728047,0.9977004,-0.049312625,-0.044479717,-0.013554722,1.0,0.0,0.0,0.0,0
2512538187,-0.5705881,-0.43081015,0.100359805,0.997672,-0.048806723,-0.045658503,-0.013556888,1.0,0.0,0.0,0.0,0
2512582024,0.5374034,0.50193274,-0.094178826,0.9977771,-0.04639983,-0.045789722,-0.01382668,1.0,0.0,0.0,0.0,0
2512622177,0.08986786,-0.1488464,0.040700167,0.99774474,-0.045572255,-0.047317777,-0.013769911,1.0,0.0,0.0,0.0,0
2512663778,0.22495073,0.14638555,-0.16543518,0.9977476,-0.04473219,-0.04796742,-0.014070776,1.0,0.0,0.0,0.0,0
2512707617,-0.015767327,0.056934785,-0.0346389,0.9977401,-0.044125326,-0.04868235,-0.01405951,1.0,0.0,0.0,0.0,0
2512747830,0.06886815,0.21481575,0.005819389,0.99778676,-0.042942706,-0.04878529,-0.014055206,1.0,0.0,0.0,0.0,0
2512791744,-0.4229814,-0.29940405,0.09650358,0.9978239,-0.04196937,-0.04888465,-0.0140181165,1.0,0.0,0.0,0.0,0
2512831579,-0.5550228,-0.37865776,0.13485388,0.99791956,-0.04054487,-0.04811704,-0.014054722,1.0,0.0,0.0,0.0,0
2512875602,0.083904885,0.11636002,0.011276012,0.9980827,-0.038417906,-0.046391778,-0.014241859,1.0,0.0,0.0,0.0,0
2512915622,0.5107295,0.30109563,-0.04476189,0.99819154,-0.037067138,-0.045117635,-0.014290814,1.0,0.0,0.0,0.0,0
2512959604,0.26191154,0.29049107,-0.054711554,0.99830097,-0.03603052,-0.043515887,-0.014263442,1.0,0.0,0.0,0.0,0
2512999621,0.23784229,0.1741701,-0.043052044,0.99841183,-0.034582634,-0.04214116,-0.014215353,1.0,0.0,0.0,0.0,0
2513043615,0.4411921,0.45730674,-0.0072739436,0.9985675,-0.032372992,-0.040198836,-0.014109439,1.0,0.0,0.0,0.0,0
2513083598,0.13367406,0.07373596,-0.0083012255,0.9986783,-0.030355241,-0.03903168,-0.0140299015,1.0,0.0,0.0,0.0,0
2513127712,0.18359457,0.28681386,-0.011791581,0.9988516,-0.027630264,-0.036534198,-0.014046405,1.0,0.0,0.0,0.0,0
2513167613,-0.28948516,-0.2503055,0.017187782,0.99892807,-0.026372496,-0.035379995,-0.013983328,1.0,0.0,0.0,0.0,0
2513211746,-0.014384558,0.1615172,0.0032232185,0.9990648,-0.024375828,-0.032826863,-0.014065988,1.0,0.0,0.0,0.0,0
2513251586,0.4084463,0.15869989,-0.0770802,0.9991759,-0.022682987,-0.03052109,-0.014193833,1.0,0.0,0.0,0.0,0
2513295759,-0.11972497,-0.069530524,-0.1202437,0.99927485,-0.021476727,-0.027941335,-0.014422198,1.0,0.0,0.0,0.0,0
2513335602,0.05791339,0.09173323,-0.01295495,0.9993681,-0.02007366,-0.025515331,-0.014475759,1.0,0.0,0.0,0.0,0
2513379719,0.692377,0.60428005,-0.10480071,0.99948823,-0.017922794,-0.021985658,-0.014790892,1.0,0.0,0.0,0.0,0
2513419578,0.25218582,0.23186943,-0.019219201,0.9995554,-0.01719119,-0.01926645,-0.014914783,1.0,0.0,0.0,0.0,0
2513463862,-0.11117514,-0.05047547,0.07836589,0.99960726,-0.016817586,-0.016617998,-0.015044613,1.0,0.0,0.0,0.0,0
2513503799,0.2837453,0.3962561,-0.03207458,0.9996536,-0.016165698,-0.0140597345,-0.01529094,1.0,0.0,0.0,0.0,0
2513547757,-0.07823373,0.13419116,-0.062720746,0.9996646,-0.016828887,-0.012146452,-0.015492984,1.0,0.0,0.0,0.0,0
2513587625,-0.32212925,-0.21173526,0.041299324,0.99966615,-0.017733714,-0.0105247125,-0.015571793,1.0,0.0,0.0,0.0,0
2513631739,-0.001749916,0.025126265,0.00809385,0.9996698,-0.01831972,-0.008694971,-0.015783384,1.0,0.0,0.0,0.0,0
2513675612,-0.4615663,-0.4127805,0.07752389,0.99964654,-0.019772025,-0.007789398,-0.015974961,1.0,0.0,0.0,0.0,0
2513719765,0.0063726753,-0.09046002,0.0038003228,0.999638,-0.020463202,-0.0062144133,-0.016329756,1.0,0.0,0.0,0.0,0
2513763768,-0.22525169,-0.25949958,0.00527702,0.99960464,-0.021989867,-0.005684475,-0.01657361,1.0,0.0,0.0,0.0,0
2513803606,-0.012631889,0.17745441,-0.09568911,0.9995827,-0.022874482,-0.0051184003,-0.016882721,1.0,0.0,0.0,0.0,0
2513847754,0.19591357,0.15253448,0.007848749,0.99955344,-0.023998985,-0.0050956295,-0.017060645,1.0,0.0,0.0,0.0,0
2513887763,0.24490386,0.2845486,0.014915634,0.9995131,-0.025456581,-0.0052937027,-0.017255018,1.0,0.0,0.0,0.0,0
2513931752,-0.20882663,-0.018506093,-0.041525725,0.99943405,-0.027980741,-0.006602755,-0.017467227,1.0,0.0,0.0,0.0,0
2513971622,-0.8302876,-0.65656215,0.08044343,0.9993634,-0.029895058,-0.008513299,-0.017509582,1.0,0.0,0.0,0.0,0
2514015728,-0.05957137,0.011496887,-0.072557,0.99933517,-0.030460231,-0.009063881,-0.017870123,1.0,0.0,0.0,0.0,0
2514055768,0.30843577,0.14856195,-0.07407525,0.99929124,-0.03137852,-0.010426328,-0.017994825,1.0,0.0,0.0,0.0,0
2514099745,0.12991187,0.069521755,-0.11058348,0.99923176,-0.03223025,-0.012721351,-0.018314067,1.0,0.0,0.0,0.0,0
2514139788,-0.5660622,-0.508633,0.014375985,0.9991713,-0.032854695,-0.015495854,-0.018358704,1.0,0.0,0.0,0.0,0
2514179591,-0.3964937,-0.25272918,0.05382803,0.99915797,-0.032175183,-0.017445525,-0.018547012,1.0,0.0,0.0,0.0,0
2514223776,-0.060903557,-0.118755914,-0.103246585,0.9991298,-0.031546425,-0.019473633,-0.019114388,1.0,0.0,0.0,0.0,0
2514263649,-0.19200262,-0.3485427,0.06436612,0.99909043,-0.031082481,-0.021821475,-0.019393453,1.0,0.0,0.0,0.0,0
2514303749,-0.21136093,-0.33228454,0.06608822,0.9990601,-0.030688822,-0.023335923,-0.019813808,1.0,0.0,0.0,0.0,0
2514343618,0.20029993,0.15989573,-0.037719004,0.9990392,-0.030349065,-0.024226157,-0.020317817,1.0,0.0,0.0,0.0,0
2514383586,-0.18627246,0.0010878108,-0.070105106,0.9989792,-0.031191964,-0.02534662,-0.020622576,1.0,0.0,0.0,0.0,0
2514423586,-0.16574112,-0.117072895,0.0055795563,0.9989472,-0.031385668,-0.026382796,-0.020573705,1.0,0.0,0.0,0.0,0
2514467548,0.35887712,0.45127946,-0.103845,0.99900013,-0.030170405,-0.025656242,-0.020742526,1.0,0.0,0.0,0.0,0
2514507623,-0.43787384,-0.34660655,0.09982684,0.9990076,-0.03004231,-0.025725983,-0.020480651,1.0,0.0,0.0,0.0,0
2514551636,0.50144583,0.5223167,-0.063236676,0.99912107,-0.027839653,-0.023614122,-0.020602679,1.0,0.0,0.0,0.0,0
2514591729,0.18268533,-0.07295915,-0.027343914,0.99917626,-0.026932418,-0.022410579,-0.020477787,1.0,0.0,0.0,0.0,0
2514635571,-0.16010045,-0.05087023,-0.041316267,0.9992609,-0.025647506,-0.019985573,-0.020507568,1.0,0.0,0.0,0.0,0
2514675715,-0.32882127,-0.29725742,0.011971246,0.99931306,-0.025247294,-0.018010268,-0.020287946,1.0,0.0,0.0,0.0,0
2514719581,0.6816791,0.48881644,-0.15898426,0.99938875,-0.023926739,-0.015323286,-0.020369558,1.0,0.0,0.0,0.0,0
2514759885,-0.48716658,-0.19582425,0.025524393,0.9993915,-0.024564037,-0.014672978,-0.01995417,1.0,0.0,0.0,0.0,0
2514803551,-0.2945042,-0.028272277,0.05235195,0.9994218,-0.023959477,-0.01390253,-0.019717202,1.0,0.0,0.0,0.0,0
2514843620,0.19743422,0.37051523,-0.07880023,0.99944204,-0.023554642,-0.013115323,-0.019718964,1.0,0.0,0.0,0.0,0
2514887662,-0.07439361,0.073282495,-0.08854936,0.99942803,-0.024189025,-0.01301103,-0.01973064,1.0,0.0,0.0,0.0,0
2514927721,0.010442554,-0.019321766,-0.02107463,0.99941015,-0.024968917,-0.01292744,-0.019719932,1.0,0.0,0.0,0.0,0
2514971637,0.4699546,0.3965629,-0.044794433,0.99938816,-0.02586273,-0.012797396,-0.019765543,1.0,0.0,0.0,0.0,0
2515011705,0.17650266,-0.09380729,-0.056336317,0.99932677,-0.027632095,-0.013829122,-0.019780925,1.0,0.0,0.0,0.0,0
2515055712,-0.2760971,-0.31480175,0.0044754655,0.99927413,-0.029064473,-0.014686531,-0.01977276,1.0,0.0,0.0,0.0,0
2515095699,-0.08156789,-0.10848577,0.032820728,0.99925303,-0.029690702,-0.014769286,-0.019844737,1.0,0.0,0.0,0.0,0
2515139786,-0.16093867,-0.20327047,-0.029942578,0.99920875,-0.030844033,-0.015288957,-0.019919451,1.0,0.0,0.0,0.0,0
2515179738,0.12379398,0.054160558,-0.023678908,0.9991926,-0.03145923,-0.015089057,-0.019918816,1.0,0.0,0.0,0.0,0
2515223777,0.2238485,0.104038715,-0.03853701,0.9991575,-0.032597657,-0.015137859,-0.019810727,1.0,0.0,0.0,0.0,0
2515263486,-0.10664891,0.1750333,-0.033999532,0.9991347,-0.033588856,-0.014674841,-0.019651648,1.0,0.0,0.0,0.0,0
2515307768,-0.17069158,0.004533017,-0.040770587,0.99909323,-0.03452943,-0.01545727,-0.019530289,1.0,0.0,0.0,0.0,0
2515347759,-0.17478451,0.06449165,0.029044118,0.9990608,-0.03530188,-0.015840406,-0.01950289,1.0,0.0,0.0,0.0,0
2515391776,0.21640374,0.16281587,0.005424938,0.99904066,-0.035871893,-0.015614649,-0.0196756,1.0,0.0,0.0,0.0,0
2515431624,-0.46662244,-0.31184605,0.02038666,0.9989934,-0.03711173,-0.015541721,-0.019839022,1.0,0.0,0.0,0.0,0
2515475701,-0.065205514,0.20646632,-0.009213292,0.9990305,-0.036556263,-0.013708914,-0.02034427,1.0,0.0,0.0,0.0,0
2515515742,-0.06779598,0.10917838,-0.06397395,0.99905396,-0.036105987,-0.012081258,-0.021017978,1.0,0.0,0.0,0.0,0
2515559768,-0.25341204,-0.191368,0.043101396,0.999098,-0.03517512,-0.009849054,-0.0216578,1.0,0.0,0.0,0.0,0
2515599750,-0.080884665,0.267594,-0.07773746,0.9991508,-0.03363671,-0.0076229167,-0.022540536,1.0,0.0,0.0,0.0,0
2515643761,-0.070659466,0.08315634,-0.043250058,0.99918437,-0.032434918,-0.006348679,-0.023199927,1.0,0.0,0.0,0.0,0
2515683747,-0.041812338,-0.03994844,0.0118244495,0.9992074,-0.031491883,-0.0055574025,-0.02370472,1.0,0.0,0.0,0.0,0
2515727791,0.3150674,0.16061373,-0.08131847,0.9992283,-0.030486275,-0.004911726,-0.024274208,1.0,0.0,0.0,0.0,0
2515767714,0.14328048,-0.056867942,-0.029808706,0.9992195,-0.030515006,-0.005422852,-0.024495093,1.0,0.0,0.0,0.0,0
2515811718,0.048357725,-0.22172089,-0.036368992,0.99921125,-0.030513646,-0.006517071,-0.024562782,1.0,0.0,0.0,0.0,0
2515851738,0.095324755,0.10812956,0.0014108152,0.99922514,-0.029960455,-0.0072857686,-0.024460584,1.0,0.0,0.0,0.0,0
2515895740,-0.1162921,-0.20662366,0.02633007,0.9992251,-0.029735036,-0.008860136,-0.024218582,1.0,0.0,0.0,0.0,0
2515935718,-0.39489442,-0.37613863,0.09177658,0.99922246,-0.029580534,-0.0103083085,-0.02394273,1.0,0.0,0.0,0.0,0
2515979534,-0.026709257,-0.021300191,0.07167819,0.9992424,-0.028474547,-0.011736032,-0.023793349,1.0,0.0,0.0,0.0,0
2516019743,0.12141744,0.030797383,-0.015822567,0.9992518,-0.02746945,-0.013312012,-0.023754045,1.0,0.0,0.0,0.0,0
2516063642,-0.256522,-0.18906248,0.10723251,0.9992398,-0.02721318,-0.015136026,-0.023458324,1.0,0.0,0.0,0.0,0
2516105389,-0.10968235,-0.012751956,0.07675979,0.99923337,-0.02675134,-0.01651304,-0.023332274,1.0,0.0,0.0,0.0,0
2516145215,-0.23449296,-0.24998027,-0.0073989457,0.9992194,-0.02618559,-0.018274408,-0.023259329,1.0,0.0,0.0,0.0,0
2516189344,-0.29986715,-0.19630644,0.039709706,0.9992136,-0.025527323,-0.019364065,-0.023358712,1.0,0.0,0.0,0.0,0
2516229320,-0.087442756,-0.10918284,0.031044263,0.9992218,-0.024479678,-0.020002209,-0.02359352,1.0,0.0,0.0,0.0,0
2516273186,0.3952519,0.3786615,-0.052271675,0.9992631,-0.022725103,-0.01943391,-0.024069017,1.0,0.0,0.0,0.0,0
2516313350,0.025556542,0.113411374,0.0002091492,0.9993055,-0.02101457,-0.018541694,-0.024559835,1.0,0.0,0.0,0.0,0
2516357315,0.27444085,0.3301587,0.021519024,0.9993868,-0.017477162,-0.01683974,-0.025238542,1.0,0.0,0.0,0.0,0
2516397378,-0.10186975,0.064537205,-0.048312183,0.9994262,-0.01495278,-0.015807066,-0.025960842,1.0,0.0,0.0,0.0,0
2516441306,-0.09639002,-0.28437653,0.06984447,0.9994838,-0.011786544,-0.013674044,-0.026577583,1.0,0.0,0.0,0.0,0
2516481334,0.2858385,0.16395542,-0.10813779,0.9995265,-0.008109035,-0.011437324,-0.027392728,1.0,0.0,0.0,0.0,0
2516525355,-0.16225742,0.15409257,0.06288326,0.999548,-0.0057883575,-0.009704386,-0.027859306,1.0,0.0,0.0,0.0,0
2516565379,0.58678234,0.75568765,0.025727507,0.9995676,-0.0036129823,-0.0069697453,-0.02833629,1.0,0.0,0.0,0.0,0
2516609310,-0.54818743,-0.20430382,0.15151814,0.9995662,-0.0042415443,-0.0057373294,-0.028576743,1.0,0.0,0.0,0.0,0
2516649364,-0.35745427,-0.43826333,0.14665063,0.99956745,-0.00399561,-0.0047446988,-0.02874786,1.0,0.0,0.0,0.0,0
2516693361,0.48979115,0.3038931,-0.13384853,0.9995658,-0.0037348273,-0.002851436,-0.029090948,1.0,0.0,0.0,0.0,0
2516733383,-0.2844718,-0.33397907,0.079735875,0.99956876,-0.005016553,-0.0022989924,-0.028844243,1.0,0.0,0.0,0.0,0
2516777205,0.24000517,0.32658848,-0.14266951,0.9995703,-0.0046308045,-0.0012331442,-0.028917853,1.0,0.0,0.0,0.0,0
2516817351,-0.04790856,-0.0467358,-0.07338239,0.99957913,-0.00521865,-0.0017850348,-0.028484471,1.0,0.0,0.0,0.0,0
2516857225,-0.80926013,-0.7739912,0.20200989,0.9995915,-0.0057593123,-0.002561855,-0.027875584,1.0,0.0,0.0,0.0,0
2516901453,0.07018839,-0.0072390866,-0.061187703,0.9996049,-0.0042244243,-0.0017777656,-0.027733285,1.0,0.0,0.0,0.0,0
2516945390,0.5583953,0.5596667,0.003508325,0.9996232,-0.003123742,-0.0011370003,-0.027248101,1.0,0.0,0.0,0.0,0
2516985410,0.50564945,0.16724898,-0.075758755,0.999636,-0.0030947444,-0.0011956508,-0.026775673,1.0,0.0,0.0,0.0,0
2517029369,0.34754443,0.055224795,0.054568406,0.99966055,-0.0032039175,-0.0008236691,-0.025846474,1.0,0.0,0.0,0.0,0
2517069447,0.22368675,0.037476175,0.09141351,0.9996774,-0.0031612124,-0.0012581093,-0.025169754,1.0,0.0,0.0,0.0,0
2517113313,-0.27928367,-0.41193146,0.16710438,0.99969286,-0.0037483468,-0.0026270137,-0.024355642,1.0,0.0,0.0,0.0,0
2517153226,-0.39013463,-0.28405076,0.102521904,0.9997035,-0.0037518607,-0.0035147474,-0.023801442,1.0,0.0,0.0,0.0,0
2517197379,-0.49392787,-0.43280092,0.11538338,0.9997035,-0.0041218447,-0.0058713765,-0.023268849,1.0,0.0,0.0,0.0,0
2517237446,0.16549438,0.32906702,-0.03632139,0.99969876,-0.0039896076,-0.0071562235,-0.023135152,1.0,0.0,0.0,0.0,0
2517281340,-0.6238468,-0.31806108,0.041202888,0.99968135,-0.005721141,-0.009208337,-0.022796307,1.0,0.0,0.0,0.0,0
2517321385,0.18685359,0.34361896,-0.016502902,0.9996827,-0.005330751,-0.009413197,-0.022745151,1.0,0.0,0.0,0.0,0
2517365373,0.1923105,0.45910627,-0.17836456,0.99967855,-0.005744012,-0.009835708,-0.022653064,1.0,0.0,0.0,0.0,0
2517405405,-0.33839163,-0.199413,0.056775615,0.99968135,-0.006411483,-0.010485431,-0.0220511,1.0,0.0,0.0,0.0,0
2517449219,0.8763053,0.76784235,-0.014763568,0.9997079,-0.005630399,-0.009031107,-0.021705752,1.0,0.0,0.0,0.0,0
2517489367,0.3256262,-0.037898794,0.00068987446,0.99970883,-0.0064323903,-0.009445853,-0.021256326,1.0,0.0,0.0,0.0,0
2517529324,0.33702722,0.37189123,-0.16033457,0.9997132,-0.0070338435,-0.009088368,-0.021010647,1.0,0.0,0.0,0.0,0
2517573423,0.025960274,-0.070792794,-0.0035780265,0.9996906,-0.0097668655,-0.010374672,-0.020391798,1.0,0.0,0.0,0.0,0
2517617312,-0.83014584,-0.66136736,0.020522743,0.99962026,-0.014713925,-0.011897988,-0.020033147,1.0,0.0,0.0,0.0,0
2517657372,-0.20673093,-0.04540244,0.013198324,0.999544,-0.019234326,-0.012550035,-0.019608723,1.0,0.0,0.0,0.0,0
2517697329,-0.33468115,-0.14090854,0.045354277,0.9994291,-0.024228565,-0.013630982,-0.019203704,1.0,0.0,0.0,0.0,0
2517741477,0.36313415,0.46284997,-0.033417102,0.9993408,-0.028246831,-0.013051888,-0.018702932,1.0,0.0,0.0,0.0,0
2517785331,-0.6557423,-0.46769917,0.07384364,0.9992129,-0.032799363,-0.013048463,-0.018100929,1.0,0.0,0.0,0.0,0
2517825350,-0.4456092,-0.2389508,0.03095868,0.99915886,-0.03483203,-0.012365224,-0.017760139,1.0,0.0,0.0,0.0,0
2517869310,-0.17697297,-0.42202824,0.049276583,0.9991429,-0.03553562,-0.012245613,-0.01734832,1.0,0.0,0.0,0.0,0
2517909465,0.12409912,0.04084917,0.008178412,0.999152,-0.0356707,-0.011386063,-0.017127953,1.0,0.0,0.0,0.0,0
2517953337,-0.081647135,-0.13545112,0.062455777,0.9991342,-0.03642803,-0.011028044,-0.016803341,1.0,0.0,0.0,0.0,0
2517993401,0.026014857,-0.12360487,0.020781642,0.9991408,-0.036443196,-0.010801101,-0.01652243,1.0,0.0,0.0,0.0,0
2518033222,0.08836229,-0.28657997,0.098440535,0.9991758,-0.035689075,-0.010605531,-0.01617537,1.0,0.0,0.0,0.0,0
2518077433,-0.18166618,-0.21084192,0.097989544,0.9991837,-0.03573912,-0.010168448,-0.01585009,1.0,0.0,0.0,0.0,0
2518121376,0.4135735,0.3876251,0.02581649,0.9992022,-0.035605334,-0.009165297,-0.015595421,1.0,0.0,0.0,0.0,0
2518161335,0.52183807,0.4925451,-0.11019027,0.9992214,-0.035299007,-0.008444741,-0.015472048,1.0,0.0,0.0,0.0,0
2518201205,0.5601824,0.40104088,0.015030432,0.9992292,-0.035402887,-0.007908295,-0.015005592,1.0,0.0,0.0,0.0,0
2518245369,-0.42610157,-0.265144,0.075323515,0.99918765,-0.036811553,-0.007356877,-0.014658502,1.0,0.0,0.0,0.0,0
2518285350,-0.10285681,0.11226703,-0.067784026,0.9991907,-0.037043102,-0.0057176915,-0.014597484,1.0,0.0,0.0,0.0,0
2518325180,-0.1771727,0.18885642,0.01520963,0.9991918,-0.03732698,-0.0042564995,-0.014291641,1.0,0.0,0.0,0.0,0
2518365223,0.1654625,0.18811174,-0.09455996,0.9991845,-0.037664786,-0.002999496,-0.014237984,1.0,0.0,0.0,0.0,0
2518409148,0.28754362,0.48330796,-0.06798275,0.99915516,-0.038623065,-0.0008001191,-0.014026571,1.0,0.0,0.0,0.0,0
2518449347,0.37036568,0.43298668,-0.012321572,0.9991357,-0.039224636,0.0009398702,-0.013728792,1.0,0.0,0.0,0.0,0
2518493200,-0.25902855,0.02789717,0.02312699,0.99908376,-0.040467195,0.002560684,-0.013693574,1.0,0.0,0.0,0.0,0
2518533378,0.03458685,0.2548462,-0.05552796,0.99908984,-0.04015736,0.004367713,-0.013706219,1.0,0.0,0.0,0.0,0
2518573282,0.039201304,0.008618226,0.008180007,0.99908775,-0.040036537,0.0057679275,-0.013697587,1.0,0.0,0.0,0.0,0
2518613207,-0.03900705,-0.2790796,-0.02687474,0.99909747,-0.039601944,0.0069023245,-0.013724913,1.0,0.0,0.0,0.0,0
2518657382,0.6797542,0.5787776,-0.04473604,0.99914604,-0.03788768,0.0088814655,-0.0138925295,1.0,0.0,0.0,0.0,0
2518697223,0.2724543,0.008178093,-0.029701628,0.99914896,-0.03771357,0.009244369,-0.013921323,1.0,0.0,0.0,0.0,0
2518741311,-0.24808237,0.090689026,-0.02527346,0.99913985,-0.037687387,0.010070109,-0.014072819,1.0,0.0,0.0,0.0,0
2518781331,-0.27801466,-0.2590809,0.05478467,0.9991437,-0.037381683,0.01065886,-0.014175647,1.0,0.0,0.0,0.0,0
2518825207,0.3083101,0.39175838,-0.0057811295,0.9991523,-0.036466748,0.012460681,-0.014476636,1.0,0.0,0.0,0.0,0
2518865216,0.69043875,0.544664,-0.14489648,0.99916613,-0.03555699,0.013515186,-0.014834292,1.0,0.0,0.0,0.0,0
2518909324,0.110623844,0.30648407,-0.06644169,0.9991584,-0.035476796,0.014125777,-0.014983992,1.0,0.0,0.0,0.0,0
2518949366,-0.049172133,0.002040822,-0.044462908,0.9991693,-0.035123702,0.014035787,-0.015165662,1.0,0.0,0.0,0.0,0
2518993221,0.23927325,0.25845537,-0.059826266,0.9991975,-0.033934563,0.014568542,-0.015511724,1.0,0.0,0.0,0.0,0
2519033211,0.08707232,0.02204676,0.008775002,0.9992117,-0.03357212,0.014336878,-0.015605402,1.0,0.0,0.0,0.0,0
2519077301,-0.39255232,-0.2566483,0.061171215,0.99920946,-0.03356259,0.01435145,-0.01574675,1.0,0.0,0.0,0.0,0
2519117298,0.16574235,0.107571274,0.0070665423,0.9992374,-0.032445367,0.014713144,-0.015983114,1.0,0.0,0.0,0.0,0
2519161393,-0.043822803,-0.044309765,0.040950403,0.99925286,-0.03201803,0.014448316,-0.016121866,1.0,0.0,0.0,0.0,0
2519201287,-0.010193743,0.0050138254,-0.017730678,0.9992796,-0.03130167,0.013974526,-0.01628598,1.0,0.0,0.0,0.0,0
2519245279,0.19731054,0.03057754,-0.043796986,0.99931854,-0.030135963,0.013492123,-0.01649808,1.0,0.0,0.0,0.0,0
2519285293,-0.20900844,-0.34566975,0.06735659,0.99933726,-0.029969433,0.012538946,-0.016420847,1.0,0.0,0.0,0.0,0
2519329287,-0.008204948,-0.098991826,-0.022312978,0.9993576,-0.029601976,0.011560449,-0.016568251,1.0,0.0,0.0,0.0,0
2519369216,-0.0737607,-0.22554411,0.10182713,0.9993678,-0.029660473,0.010482607,-0.016568217,1.0,0.0,0.0,0.0,0
2519413332,0.0733298,0.051747322,0.049850456,0.99938136,-0.0292439,0.010007832,-0.016778983,1.0,0.0,0.0,0.0,0
2519453196,0.042033695,-0.02892558,0.027606577,0.9994056,-0.028576288,0.009233053,-0.016928265,1.0,0.0,0.0,0.0,0
2519497363,0.55435824,0.39198303,-0.117917545,0.9994381,-0.027321763,0.009176426,-0.017113162,1.0,0.0,0.0,0.0,0
2519537347,0.082738936,-0.07023537,-0.018633677,0.99946,-0.026715787,0.008692038,-0.01704775,1.0,0.0,0.0,0.0,0
2519578973,0.14842299,-0.14278913,-0.07398867,0.99948394,-0.025954103,0.008301714,-0.017016847,1.0,0.0,0.0,0.0,0
2519618780,-0.5508687,-0.6104801,0.08829617,0.99948895,-0.026132738,0.0074454257,-0.016838135,1.0,0.0,0.0,0.0,0
2519662976,0.2963887,0.07071703,0.061330877,0.99952745,-0.024708476,0.0071676606,-0.016820313,1.0,0.0,0.0,0.0,0
2519703035,0.32404584,-0.03817882,-0.020988327,0.999548,-0.023829425,0.006932754,-0.016973332,1.0,0.0,0.0,0.0,0
2519743038,0.22842768,-0.15569758,-0.03540412,0.999571,-0.023035293,0.0064257192,-0.016911974,1.0,0.0,0.0,0.0,0
2519786814,0.01361375,-0.17132673,-0.09483105,0.9995937,-0.022256117,0.005511174,-0.016938299,1.0,0.0,0.0,0.0,0
2519830932,0.34410253,0.23648943,-0.07024282,0.99961925,-0.021103423,0.005249482,-0.016988495,1.0,0.0,0.0,0.0,0
2519870794,0.11606816,0.0073958784,0.036177576,0.9996222,-0.021165755,0.004618347,-0.016915472,1.0,0.0,0.0,0.0,0
2519910762,0.26908225,0.08059176,-0.09095822,0.9996184,-0.021212863,0.0041521275,-0.017200967,1.0,0.0,0.0,0.0,0
2519954825,-0.025231862,0.035177466,-0.027869692,0.9996174,-0.021263126,0.0035212326,-0.017340677,1.0,0.0,0.0,0.0,0
2519998965,0.17502175,0.12660767,-0.029133985,0.9996202,-0.020933159,0.003494617,-0.01758197,1.0,0.0,0.0,0.0,0
2520038771,-0.24582554,-0.3845643,0.13727301,0.99961513,-0.021189902,0.0034678215,-0.017569121,1.0,0.0,0.0,0.0,0
2520083044,-0.059383743,-0.09087996,0.029760066,0.99962586,-0.020315163,0.0039617517,-0.017880755,1.0,0.0,0.0,0.0,0
2520122810,0.033840664,-0.24044555,-0.046855323,0.99964005,-0.019335253,0.004427303,-0.018069986,1.0,0.0,0.0,0.0,0
2520166955,0.6650935,0.69845045,-0.13847302,0.99965996,-0.017260352,0.0065665185,-0.018415721,1.0,0.0,0.0,0.0,0
2520207032,0.16460569,0.0044328235,0.071690425,0.99967325,-0.016445003,0.00721072,-0.01819144,1.0,0.0,0.0,0.0,0
2520250781,0.0665776,0.31445062,0.036177453,0.9996809,-0.01474631,0.0093821725,-0.018244077,1.0,0.0,0.0,0.0,0
2520290946,-0.023837218,-0.35242403,0.038095016,0.9996958,-0.013268751,0.010183409,-0.018126097,1.0,0.0,0.0,0.0,0
2520334905,0.4790491,0.283078,0.023320053,0.9997104,-0.011102064,0.011410326,-0.01804885,1.0,0.0,0.0,0.0,0
2520374818,0.2927,-0.091454566,-0.108585574,0.9997268,-0.010379184,0.010864451,-0.017911134,1.0,0.0,0.0,0.0,0
2520418801,0.10021288,0.03517121,-0.079953425,0.999751,-0.008962716,0.010291924,-0.017660495,1.0,0.0,0.0,0.0,0
2520458774,-0.2998738,-0.5429277,0.11415426,0.9997816,-0.0083762575,0.008434785,-0.01718952,1.0,0.0,0.0,0.0,0
2520503136,0.5697947,0.38172394,0.06529492,0.9998035,-0.006888971,0.0076590884,-0.016942032,1.0,0.0,0.0,0.0,0
2520543016,0.1688871,-0.16865312,0.03986654,0.99981743,-0.006838415,0.005969004,-0.016811145,1.0,0.0,0.0,0.0,0
2520587063,0.22218543,0.08003799,-0.11170512,0.99982744,-0.0067370813,0.0046186354,-0.016690368,1.0,0.0,0.0,0.0,0
2520626950,-0.083831236,-0.2534817,0.06793738,0.9998387,-0.0071534845,0.0028603473,-0.016226575,1.0,0.0,0.0,0.0,0
2520670938,-0.13322997,-0.06538,0.01853543,0.9998429,-0.0072568413,0.0014840763,-0.016106037,1.0,0.0,0.0,0.0,0
2520714954,-0.15836379,0.058076985,0.09288413,0.99984014,-0.007993336,0.0003801808,-0.015991613,1.0,0.0,0.0,0.0,0
2520754981,0.26821348,0.3442603,-0.09306769,0.9998354,-0.008024451,-0.00033243693,-0.016276583,1.0,0.0,0.0,0.0,0
2520798950,-0.017098423,-0.059869602,-0.013081923,0.99981564,-0.009436897,-0.0024725487,-0.016541043,1.0,0.0,0.0,0.0,0
2520838947,-0.102773815,-0.013170708,0.035084173,0.99978167,-0.011387348,-0.004630443,-0.016899789,1.0,0.0,0.0,0.0,0
2520882955,-0.1288952,-0.358111,-0.10015915,0.9997193,-0.013556753,-0.0081265895,-0.017651662,1.0,0.0,0.0,0.0,0
2520923036,0.106864706,-0.25221065,-0.038083345,0.9996528,-0.015247188,-0.011373318,-0.01823701,1.0,0.0,0.0,0.0,0
2520963032,-0.24388443,-0.41720212,0.009948866,0.99956876,-0.017095583,-0.014587063,-0.018903643,1.0,0.0,0.0,0.0,0
2521006950,-0.46346742,-0.25416782,-0.013939351,0.9994948,-0.018336054,-0.01661877,-0.01994545,1.0,0.0,0.0,0.0,0
2521050920,0.26414093,-0.09945925,-0.05016645,0.9994534,-0.018806739,-0.017544212,-0.020773765,1.0,0.0,0.0,0.0,0
2521090824,0.046714533,-0.08709717,0.031730507,0.99942255,-0.01955557,-0.017772412,-0.021362886,1.0,0.0,0.0,0.0,0
2521134966,-0.078148544,0.050912283,-0.050333194,0.9993989,-0.020356683,-0.01714149,-0.022220224,1.0,0.0,0.0,0.0,0
2521174834,-0.26552922,-0.094515964,-0.024337951,0.9993802,-0.021211127,-0.016506616,-0.022739684,1.0,0.0,0.0,0.0,0
2521218917,-0.021052934,-0.010554317,-0.021662746,0.9993934,-0.020786906,-0.015306277,-0.023378175,1.0,0.0,0.0,0.0,0
2521258806,-0.12626575,-0.04160698,-0.045293182,0.99938816,-0.020865334,-0.014783972,-0.02386122,1.0,0.0,0.0,0.0,0
2521303083,0.059344515,-0.1533955,0.0052793045,0.999386,-0.020650249,-0.014443199,-0.0243449,1.0,0.0,0.0,0.0,0
2521343061,0.38888142,0.17520154,-0.0828457,0.9993972,-0.019864095,-0.01375844,-0.024929814,1.0,0.0,0.0,0.0,0
2521387024,-0.07193083,0.15807882,-0.08687412,0.9993869,-0.01982307,-0.013437319,-0.025543038,1.0,0.0,0.0,0.0,0
2521427050,0.39745733,0.32275867,-0.10737934,0.99939996,-0.018760743,-0.012859668,-0.026126457,1.0,0.0,0.0,0.0,0
2521470862,-0.101906344,0.10397841,-0.039027426,0.9993883,-0.018877089,-0.012530581,-0.026643028,1.0,0.0,0.0,0.0,0
2521511284,-0.44643304,-0.13385345,0.08048596,0.9993751,-0.018930798,-0.012554689,-0.02708045,1.0,0.0,0.0,0.0,0
2521554817,-0.08588097,0.1389182,-0.054609537,0.99936277,-0.018744927,-0.011997835,-0.027905453,1.0,0.0,0.0,0.0,0
2521594910,-0.019681826,0.012106137,0.072915226,0.9993451,-0.01903884,-0.011895613,-0.028379494,1.0,0.0,0.0,0.0,0
2521638974,0.37821597,0.29132697,-0.05065907,0.99932516,-0.019184731,-0.011496273,-0.029140668,1.0,0.0,0.0,0.0,0
2521678955,-0.31155068,-0.18889105,0.053627275,0.9992956,-0.019906353,-0.011659826,-0.029600793,1.0,0.0,0.0,0.0,0
2521723030,-0.05730914,0.16229114,0.021843974,0.9992957,-0.019427985,-0.010820081,-0.0302275,1.0,0.0,0.0,0.0,0
2521762959,0.0709334,0.16991225,-0.06920068,0.9992894,-0.019116612,-0.010486111,-0.030746004,1.0,0.0,0.0,0.0,0
2521807021,0.27651027,0.15561561,-0.014823764,0.99930584,-0.017987765,-0.010091184,-0.031025307,1.0,0.0,0.0,0.0,0
2521846977,-0.005316658,0.26223847,-0.0992865,0.99932164,-0.016889995,-0.009746087,-0.031241503,1.0,0.0,0.0,0.0,0
2521890883,-0.1137128,0.029180937,-0.11365422,0.9993428,-0.015482619,-0.00974413,-0.031294666,1.0,0.0,0.0,0.0,0
2521930917,-0.008589121,-0.04110383,0.070820585,0.99936587,-0.014585271,-0.0100150155,-0.030899884,1.0,0.0,0.0,0.0,0
2521974821,-0.10718261,0.1470995,0.015819848,0.9993939,-0.013092891,-0.009807253,-0.030728443,1.0,0.0,0.0,0.0,0
2522015088,0.41326353,0.3751044,-0.012083075,0.99943006,-0.011178517,-0.009595663,-0.030374648,1.0,0.0,0.0,0.0,0
2522058896,-0.20882349,-0.14204387,0.035218894,0.99945205,-0.010468042,-0.009943269,-0.029785683,1.0,0.0,0.0,0.0,0
2522098812,-0.3775913,-0.32725412,0.18756904,0.9994834,-0.00968493,-0.010159067,-0.028911645,1.0,0.0,0.0,0.0,0
2522142994,-0.031994678,0.011736529,0.048425216,0.9995219,-0.008285127,-0.009911568,-0.028091362,1.0,0.0,0.0,0.0,0
2522182972,0.30776873,0.17589177,0.028714601,0.9995557,-0.0070803454,-0.0102163255,-0.027092002,1.0,0.0,0.0,0.0,0
2522223027,-0.117714465,-0.3536482,0.06691772,0.9995773,-0.006863786,-0.011248634,-0.025918577,1.0,0.0,0.0,0.0,0
2522266911,0.16589645,0.25853467,0.040674906,0.9996135,-0.00556778,-0.011253261,-0.024803018,1.0,0.0,0.0,0.0,0
2522307011,0.22459914,0.037445404,-0.034259178,0.9996319,-0.0042933566,-0.012208044,-0.023846852,1.0,0.0,0.0,0.0,0
2522350822,-0.011692328,0.109047286,-0.01751183,0.9996538,-0.0028894006,-0.012583381,-0.022925131,1.0,0.0,0.0,0.0,0
2522390906,-0.055533033,0.022576174,0.079398826,0.99966663,-0.0017412982,-0.0131650185,-0.022141527,1.0,0.0,0.0,0.0,0
2522434764,-0.06719819,0.0047031846,0.0975624,0.99967766,-0.0008505103,-0.013387734,-0.021556327,1.0,0.0,0.0,0.0,0
2522474773,0.11457265,0.27178714,-0.12430341,0.9996815,-0.00061506534,-0.013276267,-0.021458887,1.0,0.0,0.0,0.0,0
2522518808,-0.38505754,-0.19040722,0.027224772,0.99968576,-0.0020217001,-0.013324753,-0.0211357,1.0,0.0,0.0,0.0,0
2522558916,-0.45569193,-0.198021,0.15370087,0.99968886,-0.003541202,-0.01285694,-0.021082792,1.0,0.0,0.0,0.0,0
2522602910,0.15549818,0.122257374,-0.03793199,0.99969655,-0.004569719,-0.011336023,-0.021391012,1.0,0.0,0.0,0.0,0
2522642916,0.056684792,0.23330927,-0.066606365,0.9997025,-0.005718926,-0.009806345,-0.021588016,1.0,0.0,0.0,0.0,0
2522686879,0.42701864,0.4146664,-0.058103424,0.9997076,-0.0066125253,-0.008192104,-0.021774335,1.0,0.0,0.0,0.0,0
2522730907,-0.22282241,-0.3364491,0.0022226176,0.99969333,-0.008683564,-0.007244754,-0.022029465,1.0,0.0,0.0,0.0,0
2522770776,-0.22650352,-0.1801212,0.055562325,0.9996847,-0.009897458,-0.005595476,-0.022390103,1.0,0.0,0.0,0.0,0
2522814801,-0.26460317,-0.08318949,-0.067247994,0.99966204,-0.011284718,-0.0045970893,-0.022964247,1.0,0.0,0.0,0.0,0
2522854805,0.12477344,0.26338178,0.047128394,0.9996498,-0.012012496,-0.003367052,-0.023341117,1.0,0.0,0.0,0.0,0
2522894792,-0.10481419,0.022336874,-0.034957584,0.99961966,-0.013554098,-0.0025828828,-0.023880128,1.0,0.0,0.0,0.0,0
2522934901,0.1090311,0.16458616,-0.05012185,0.9996043,-0.014039204,-0.0015638252,-0.024326352,1.0,0.0,0.0,0.0,0
2522974914,0.27652228,0.14228663,-0.080619894,0.99958694,-0.014634087,-0.0011177964,-0.024708109,1.0,0.0,0.0,0.0,0
2523015646,-0.41517547,-0.21861443,0.06385723,0.99955827,-0.016185248,-0.001535263,-0.024879508,1.0,0.0,0.0,0.0,0
2523059798,-0.14337039,-0.08317661,0.01232089,0.9995337,-0.017195081,-0.0021383485,-0.025143588,1.0,0.0,0.0,0.0,0
2523100529,-0.25873506,-0.45594594,0.12738918,0.99950457,-0.018553348,-0.0030837096,-0.025236053,1.0,0.0,0.0,0.0,0
2523144632,-0.11601381,0.070320055,0.025260145,0.9994712,-0.020043865,-0.0030331048,-0.025426952,1.0,0.0,0.0,0.0,0
2523184520,-0.25275376,-0.02442263,-0.03983424,0.999436,-0.021603353,-0.003257369,-0.025501652,1.0,0.0,0.0,0.0,0
2523228548,0.04848768,0.055630174,-0.03627741,0.9994101,-0.022851821,-0.0030772008,-0.02545412,1.0,0.0,0.0,0.0,0
2523268605,-0.01054108,-0.15058815,0.028234938,0.99939203,-0.023838336,-0.0034938215,-0.025200928,1.0,0.0,0.0,0.0,0
2523312598,0.20499471,0.2456476,-0.024761358,0.99937624,-0.024668938,-0.004038461,-0.02494417,1.0,0.0,0.0,0.0,0
2523352598,-0.4163727,-0.1467209,0.051304188,0.9993382,-0.026425969,-0.005313671,-0.024428638,1.0,0.0,0.0,0.0,0
2523396635,0.17925622,0.19855548,-0.031450007,0.9993341,-0.026875976,-0.0062218937,-0.023885274,1.0,0.0,0.0,0.0,0
2523436590,0.49444366,0.20168804,-0.09074848,0.99932694,-0.027335605,-0.007591633,-0.023255205,1.0,0.0,0.0,0.0,0
2523480574,-0.27892002,-0.13612841,0.055104777,0.99927896,-0.029375559,-0.009023259,-0.022300545,1.0,0.0,0.0,0.0,0
2523520582,-0.33801386,-0.23764579,0.15916763,0.99923193,-0.03104405,-0.010372707,-0.021549318,1.0,0.0,0.0,0.0,0
2523564542,-0.059191823,-0.030752443,0.013847239,0.99916416,-0.033014167,-0.011769804,-0.02103657,1.0,0.0,0.0,0.0,0
2523604836,-0.27562082,-0.0042648036,0.028823208,0.9990842,-0.035110187,-0.013231566,-0.020567209,1.0,0.0,0.0,0.0,0
2523648518,0.15311305,-0.13607982,0.08238941,0.9990086,-0.03662734,-0.015379988,-0.020096729,1.0,0.0,0.0,0.0,0
2523688531,-0.08985147,-0.35618845,0.0639358,0.99892235,-0.03829979,-0.017014857,-0.019947574,1.0,0.0,0.0,0.0,0
2523732639,-0.29956096,-0.42345452,0.004817028,0.99883604,-0.03951971,-0.019098783,-0.020001594,1.0,0.0,0.0,0.0,0
2523772619,-0.018834429,-0.10546899,0.055031393,0.99880815,-0.03967682,-0.020144666,-0.02005618,1.0,0.0,0.0,0.0,0
2523816560,-0.02372181,0.059231628,0.054218996,0.9987321,-0.041160166,-0.020780748,-0.020204721,1.0,0.0,0.0,0.0,0
2523856569,0.054917485,0.18639377,-0.044469148,0.99868137,-0.04238865,-0.02053609,-0.02042554,1.0,0.0,0.0,0.0,0
2523900582,0.13198142,0.029623019,-0.029028837,0.99865174,-0.043508198,-0.01954603,-0.020488646,1.0,0.0,0.0,0.0,0
2523940593,-0.26255888,-0.30181938,0.041071974,0.998607,-0.045021385,-0.018380089,-0.020479912,1.0,0.0,0.0,0.0,0
2523984518,-0.025002085,-0.047457375,-0.044231858,0.9985675,-0.046284612,-0.017267488,-0.02055712,1.0,0.0,0.0,0.0,0
2524024560,-0.30036256,0.015681745,0.009179487,0.9985207,-0.047735564,-0.0161045,-0.020456882,1.0,0.0,0.0,0.0,0
2524068561,0.0029957127,0.24785796,-0.030075174,0.9984684,-0.049205154,-0.014947819,-0.020402884,1.0,0.0,0.0,0.0,0
2524108613,-0.22421683,-0.1306492,0.0057256115,0.99837965,-0.051216606,-0.014537741,-0.020090468,1.0,0.0,0.0,0.0,0
2524152610,0.05757712,0.17029537,-0.049240936,0.99837816,-0.051822186,-0.012534799,-0.019964682,1.0,0.0,0.0,0.0,0
2524196574,0.05993896,0.23753642,0.02047466,0.9984223,-0.051553458,-0.009680842,-0.020033719,1.0,0.0,0.0,0.0,0
2524240318,-0.06245038,-0.036585283,0.04319951,0.99847686,-0.050851632,-0.0071082744,-0.020191597,1.0,0.0,0.0,0.0,0
2524284583,0.2302319,0.32591477,0.026267273,0.99860257,-0.048500534,-0.0028783332,-0.020796178,1.0,0.0,0.0,0.0,0
2524328412,0.050803393,-0.020465966,-0.032881517,0.99877,-0.04466414,0.0019363175,-0.02144462,1.0,0.0,0.0,0.0,0
2524368748,0.4141689,0.25829756,-0.02019707,0.9989189,-0.040283404,0.006828222,-0.022177212,1.0,0.0,0.0,0.0,0
2524408528,0.0373969,0.35812303,-0.052014027,0.9990043,-0.03649303,0.011514296,-0.022937758,1.0,0.0,0.0,0.0,0
2524452573,-0.11000471,0.08416247,0.009427926,0.99906397,-0.032091975,0.016589439,-0.023792954,1.0,0.0,0.0,0.0,0
2524492662,0.20295294,0.38651818,-0.075043775,0.99905616,-0.028701855,0.02112087,-0.024838673,1.0,0.0,0.0,0.0,0
2524536605,0.2190746,0.26651493,-0.0066236034,0.99898535,-0.026729435,0.02551275,-0.025746329,1.0,0.0,0.0,0.0,0
2524576560,0.18093282,0.23664707,0.07233063,0.9988616,-0.025352005,0.030488236,-0.026520228,1.0,0.0,0.0,0.0,0
2524620530,0.15236765,0.47249344,-0.030506436,0.99867976,-0.024136437,0.036140725,-0.027389102,1.0,0.0,0.0,0.0,0
2524664417,0.095286004,0.32812214,0.03053024,0.99850243,-0.022874571,0.04112091,-0.027905554,1.0,0.0,0.0,0.0,0
2524704543,-0.015705861,0.16758557,0.07341423,0.9983544,-0.021628402,0.04491869,-0.028340254,1.0,0.0,0.0,0.0,0
2524744577,0.19298123,0.2668564,-0.038279537,0.9982197,-0.020436961,0.048079234,-0.028778523,1.0,0.0,0.0,0.0,0
2524788565,0.08236404,-0.031344455,-0.051767398,0.99812967,-0.019639863,0.050057616,-0.029083101,1.0,0.0,0.0,0.0,0
2524828596,-0.25954553,-0.27284595,0.045181945,0.9980715,-0.019046124,0.051383868,-0.029161572,1.0,0.0,0.0,0.0,0
2524872586,0.24926805,-0.009600295,0.0069820127,0.9980033,-0.017829198,0.052991252,-0.02938337,1.0,0.0,0.0,0.0,0
2524912568,-0.0842929,-0.18426307,0.02485354,0.9979072,-0.017621366,0.054794505,-0.029467382,1.0,0.0,0.0,0.0,0
2524956602,-0.32450652,-0.16273107,-0.036316283,0.99780655,-0.017499404,0.05653619,-0.02965759,1.0,0.0,0.0,0.0,0
2525000678,-0.36853763,-0.034898885,0.021402938,0.9976992,-0.01724482,0.058479484,-0.029648446,1.0,0.0,0.0,0.0,0
2525040600,0.07025382,0.2121489,-0.0402069,0.9976144,-0.016640441,0.060024474,-0.029761689,1.0,0.0,0.0,0.0,0
2525080508,-0.1438363,-0.14680935,0.03188352,0.99762505,-0.017031603,0.059834447,-0.029565305,1.0,0.0,0.0,0.0,0
2525124569,-0.033855446,-0.14792383,0.033148456,0.9977056,-0.016548079,0.058621332,-0.029554872,1.0,0.0,0.0,0.0,0
2525164544,0.13635717,-0.078493446,-0.06713208,0.99780715,-0.015724538,0.05702831,-0.02969026,1.0,0.0,0.0,0.0,0
2525208894,-0.062515676,-0.30518857,-0.00484419,0.99797297,-0.015004623,0.054303836,-0.029598573,1.0,0.0,0.0,0.0,0
2525252607,0.12590997,-0.067430764,-0.00586162,0.99812067,-0.013192865,0.05194609,-0.02971353,1.0,0.0,0.0,0.0,0
2525292603,0.06302611,-0.0861149,0.004312044,0.9982363,-0.011234114,0.050091565,-0.029815333,1.0,0.0,0.0,0.0,0
2525332646,-0.3268977,-0.21361923,-0.056917608,0.99831593,-0.009552692,0.04871232,-0.030018447,1.0,0.0,0.0,0.0,0
2525376579,0.0033415724,-0.053687744,-0.024513751,0.9983917,-0.006208135,0.04757838,-0.030195056,1.0,0.0,0.0,0.0,0
2525416920,0.12165986,-0.15800492,-0.010993503,0.99846846,-0.002278798,0.04619752,-0.03035367,1.0,0.0,0.0,0.0,0
2525460579,0.23606332,-0.18265127,0.07921426,0.99854153,0.0022567282,0.044537954,-0.03043439,1.0,0.0,0.0,0.0,0
2525500589,0.39005393,0.01476174,-0.003259289,0.99858975,0.0055851797,0.042977344,-0.03066422,1.0,0.0,0.0,0.0,0
2525544530,0.23729135,0.1008107,-0.04089134,0.998664,0.008327761,0.040626045,-0.030826567,1.0,0.0,0.0,0.0,0
2525584518,-0.036281697,0.0683863,0.018440815,0.99872845,0.0095876865,0.038677163,-0.030881973,1.0,0.0,0.0,0.0,0
2525624550,-0.23585603,-0.002496183,0.0135148475,0.99880886,0.008904544,0.03680814,-0.030770004,1.0,0.0,0.0,0.0,0
2525668500,-0.14652671,-0.20231333,-0.078924805,0.9988771,0.007423291,0.03525983,-0.030761544,1.0,0.0,0.0,0.0,0
2525708555,-0.24038255,-0.19223894,-0.029822923,0.99892294,0.005464966,0.034516953,-0.030523045,1.0,0.0,0.0,0.0,0
2525752644,0.024676597,0.059020836,-0.056702387,0.9989387,0.0035489108,0.03440878,-0.030414963,1.0,0.0,0.0,0.0,0
2525792580,0.13801967,0.07662065,0.0408102,0.9989646,0.0013776924,0.03418714,-0.02998539,1.0,0.0,0.0,0.0,0
2525836487,-0.119180575,-0.042024318,-0.006093021,0.9990139,-0.0015421777,0.033018466,-0.029643275,1.0,0.0,0.0,0.0,0
2525876500,0.20532146,0.035213113,-0.017261645,0.99907625,-0.0032684407,0.031368054,-0.029189143,1.0,0.0,0.0,0.0,0
2525920533,-0.056124605,0.08537231,0.069742,0.9991405,-0.0057234187,0.029588586,-0.028462294,1.0,0.0,0.0,0.0,0
2525960488,0.07280727,0.12819202,0.023029864,0.9992018,-0.008028031,0.027545175,-0.027797949,1.0,0.0,0.0,0.0,0
2526000516,-0.2084175,-0.13471496,0.020982347,0.9992365,-0.01048653,0.025965609,-0.0272465,1.0,0.0,0.0,0.0,0
2526040888,-0.15007666,0.002595622,0.06778542,0.9992441,-0.012494146,0.025320068,-0.026720652,1.0,0.0,0.0,0.0,0
2526084411,-0.20246908,-0.13526757,-0.016096698,0.99924237,-0.014620137,0.024537249,-0.026438907,1.0,0.0,0.0,0.0,0
2526124490,0.18707702,0.10113615,-0.05213335,0.99922717,-0.01540541,0.024761518,-0.026357563,1.0,0.0,0.0,0.0,0
2526168574,-0.12808067,-0.041341126,0.010156951,0.9992093,-0.016658006,0.024688063,-0.026343262,1.0,0.0,0.0,0.0,0
2526208549,0.24820618,0.02567145,-0.07986014,0.9992035,-0.017085705,0.024395721,-0.02655778,1.0,0.0,0.0,0.0,0
2526252563,0.04517535,0.07892859,-0.021919293,0.9992166,-0.017677525,0.02337934,-0.026593624,1.0,0.0,0.0,0.0,0
2526292543,-0.16266176,-0.1838879,-0.043847114,0.99925184,-0.01807414,0.021510156,-0.026580203,1.0,0.0,0.0,0.0,0
2526336612,-0.012516858,-0.09783952,-0.039280828,0.99929404,-0.0184502,0.019228142,-0.026483504,1.0,0.0,0.0,0.0,0
2526376540,-0.11394448,-0.23462628,0.05760123,0.9993431,-0.018491281,0.016826669,-0.026238078,1.0,0.0,0.0,0.0,0
2526420547,-0.08982493,-0.36949867,0.03799129,0.99939704,-0.017972782,0.014313004,-0.026035724,1.0,0.0,0.0,0.0,0
2526460495,-0.35578436,-0.34632477,0.07277582,0.999425,-0.017788671,0.013006154,-0.025770003,1.0,0.0,0.0,0.0,0
2526505444,-0.13424242,0.028800009,0.0009787761,0.99945664,-0.016757665,0.012476262,-0.025497928,1.0,0.0,0.0,0.0,0
2526546305,-0.35948354,-0.15838076,0.060572945,0.9994773,-0.016700948,0.011921707,-0.024980178,1.0,0.0,0.0,0.0,0
2526586221,0.028658293,0.070788756,-0.021342386,0.9994993,-0.015956877,0.012206185,-0.02444422,1.0,0.0,0.0,0.0,0
2526630164,-0.30371186,-0.100522846,0.027052961,0.99951655,-0.016521005,0.011695875,-0.023599224,1.0,0.0,0.0,0.0,0
2526670023,-0.11238771,-0.06348421,0.012904639,0.9995347,-0.016841494,0.011180283,-0.02284384,1.0,0.0,0.0,0.0,0
2526714199,0.34671775,0.33052307,-0.06984114,0.999545,-0.01689748,0.0112803755,-0.022297326,1.0,0.0,0.0,0.0,0
2526754117,-0.074822135,-0.04184535,0.026338995,0.9995392,-0.018214498,0.010684861,-0.021809034,1.0,0.0,0.0,0.0,0
2526798308,-0.028496476,0.07385665,-0.042881012,0.99952817,-0.01887959,0.010855733,-0.021658814,1.0,0.0,0.0,0.0,0
2526838036,-0.02105124,-0.07085952,0.073100716,0.9995192,-0.019456176,0.011183187,-0.021396164,1.0,0.0,0.0,0.0,0
2526882189,-0.0816593,0.035585888,0.071175806,0.999511,-0.01933967,0.012044448,-0.0214194,1.0,0.0,0.0,0.0,0
2526922201,-0.050498895,0.070471324,0.041276354,0.99951565,-0.018894872,0.012398962,-0.021395639,1.0,0.0,0.0,0.0,0
2526966175,-0.5755294,-0.5422915,0.121678375,0.9995125,-0.019569248,0.011969312,-0.021177478,1.0,0.0,0.0,0.0,0
2527006146,-0.4389398,-0.4056968,0.0043912698,0.9995058,-0.01995666,0.011983655,-0.021124762,1.0,0.0,0.0,0.0,0
2527050125,-0.0028114468,-0.17972709,0.09052701,0.9995113,-0.020434221,0.011391355,-0.020732632,1.0,0.0,0.0,0.0,0
2527090053,0.27346936,0.037952684,0.016746646,0.9995079,-0.021238279,0.010698683,-0.020457812,1.0,0.0,0.0,0.0,0
2527134129,0.028951645,-0.028769715,-0.00019506493,0.99949956,-0.022603106,0.009372074,-0.020049931,1.0,0.0,0.0,0.0,0
2527174113,0.13632494,-0.0070163384,-0.0519984,0.99949735,-0.02366653,0.007911905,-0.019555248,1.0,0.0,0.0,0.0,0
2527218217,-0.06342378,-0.07357558,0.028531268,0.9994764,-0.025541827,0.006390156,-0.018811561,1.0,0.0,0.0,0.0,0
2527257978,-0.38214278,-0.097133145,0.047301557,0.999437,-0.027935684,0.0048796446,-0.017933961,1.0,0.0,0.0,0.0,0
2527302291,0.15561981,0.042843595,0.086088665,0.99942464,-0.029259365,0.0034626115,-0.016805176,1.0,0.0,0.0,0.0,0
2527342015,0.4013055,0.0039834734,0.11461572,0.9994566,-0.02901197,0.0016377108,-0.015562088,1.0,0.0,0.0,0.0,0
2527382213,0.32144699,-0.12956847,0.074181065,0.9995098,-0.027844768,5.5862707e-05,-0.0143152,1.0,0.0,0.0,0.0,0
2527426219,-0.3489101,-0.2978229,0.032091636,0.9995561,-0.026740944,-0.001050362,-0.013097388,1.0,0.0,0.0,0.0,0
2527466174,0.045902606,-0.21870522,0.01693015,0.99964005,-0.02383081,-0.0020563647,-0.01214938,1.0,0.0,0.0,0.0,0
2527506211,0.38845247,0.09845145,0.015458239,0.9997155,-0.02082572,-0.0024251742,-0.011372927,1.0,0.0,0.0,0.0,0
2527550161,-0.21035285,-0.06131905,-0.081842646,0.9997168,-0.021037804,-0.001963822,-0.010947193,1.0,0.0,0.0,0.0,0
2527590171,0.19557676,0.36165926,-0.0274594,0.9996921,-0.022400098,-0.00093463983,-0.0106324935,1.0,0.0,0.0,0.0,0
2527634157,-0.18762507,-0.11263197,0.0010124719,0.9996242,-0.025337126,-0.0006023631,-0.010454112,1.0,0.0,0.0,0.0,0
2527674136,0.07811316,0.08638812,-0.023918707,0.99955106,-0.028053105,0.0009951,-0.010481412,1.0,0.0,0.0,0.0,0
2527718168,-0.23744704,0.13759866,-0.011472849,0.99941826,-0.03232017,0.0028341776,-0.010517113,1.0,0.0,0.0,0.0,0
2527758020,-0.23593698,0.14677122,0.022018451,0.9993391,-0.03441373,0.0046906355,-0.010728005,1.0,0.0,0.0,0.0,0
2527802213,0.1981536,0.11789607,0.10163788,0.9992945,-0.035243694,0.006711736,-0.011114424,1.0,0.0,0.0,0.0,0
2527842280,0.2538146,0.24654295,0.037282184,0.99924636,-0.036016814,0.00839154,-0.011794658,1.0,0.0,0.0,0.0,0
2527886162,-0.14399406,0.21920648,-0.027081849,0.9991569,-0.037709344,0.010238858,-0.012598131,1.0,0.0,0.0,0.0,0
2527926015,0.14608647,0.42290705,-0.059409108,0.9990981,-0.038683612,0.011437871,-0.013259586,1.0,0.0,0.0,0.0,0
2527970134,0.14227152,0.20036574,0.01000176,0.99904984,-0.039421663,0.0123022925,-0.013929767,1.0,0.0,0.0,0.0,0
2528010126,0.11503764,0.04826189,0.029155238,0.9990051,-0.039916452,0.0135131935,-0.014589496,1.0,0.0,0.0,0.0,0
2528054154,0.020201592,0.30231982,-0.0044398457,0.9989641,-0.039478533,0.016510025,-0.015484843,1.0,0.0,0.0,0.0,0
2528094012,-0.027249895,0.12871641,-0.0634191,0.9989809,-0.03729634,0.01945972,-0.016363392,1.0,0.0,0.0,0.0,0
2528138204,0.3640638,0.3870183,-0.039476935,0.99905884,-0.031399727,0.024385948,-0.017344842,1.0,0.0,0.0,0.0,0
2528178120,0.4755346,0.48646796,-0.07312236,0.99906826,-0.025900828,0.029291902,-0.018268047,1.0,0.0,0.0,0.0,0
2528222194,0.5056574,0.39780208,-0.18375522,0.99902904,-0.02070136,0.033791117,-0.019251874,1.0,0.0,0.0,0.0,0
2528262190,0.2937269,0.23266758,-0.028258843,0.9989576,-0.018268764,0.03684676,-0.019810341,1.0,0.0,0.0,0.0,0
2528306169,-0.0017855931,0.35162923,-0.06262301,0.9988258,-0.017793655,0.04010644,-0.02054161,1.0,0.0,0.0,0.0,0
2528346206,-0.13559163,0.2160456,-0.06488522,0.9987577,-0.019185172,0.040892832,-0.02104285,1.0,0.0,0.0,0.0,0
2528390125,-0.12666786,-0.15598589,0.01821395,0.9987107,-0.020153843,0.041300878,-0.021566322,1.0,0.0,0.0,0.0,0
2528430114,-0.028983716,-0.0496576,-0.033242602,0.9986694,-0.02100717,0.04153237,-0.022206556,1.0,0.0,0.0,0.0,0
2528473996,-0.37056094,-0.12987463,-0.02088651,0.998671,-0.022182418,0.040578112,-0.022753125,1.0,0.0,0.0,0.0,0
2528514165,0.027598321,-0.030800173,-0.066484176,0.9986862,-0.022737691,0.0396109,-0.023236617,1.0,0.0,0.0,0.0,0
2528554129,0.015538129,-0.13521089,0.04636349,0.99868375,-0.024147227,0.03871456,-0.02342857,1.0,0.0,0.0,0.0,0
2528598190,-0.019106964,-0.088750854,-0.070968896,0.9986925,-0.026001157,0.03704132,-0.023777045,1.0,0.0,0.0,0.0,0
2528642213,0.088658415,0.06699579,0.06327232,0.99871856,-0.027331134,0.035340477,-0.023777826,1.0,0.0,0.0,0.0,0
2528682190,0.13972165,-0.10420755,0.060527135,0.998788,-0.027880369,0.03289183,-0.023737324,1.0,0.0,0.0,0.0,0
2528726222,0.2753198,-0.04298651,-0.03237698,0.99889237,-0.028369613,0.029219832,-0.023568181,1.0,0.0,0.0,0.0,0
2528766186,-0.028340785,-0.29600623,-0.0261408,0.99898916,-0.028636726,0.025579432,-0.023373578,1.0,0.0,0.0,0.0,0
2528805936,0.19279091,-0.08256562,-0.093635716,0.9990978,-0.027782755,0.022111617,-0.02329685,1.0,0.0,0.0,0.0,0
2528846237,-0.13445124,-0.036341134,-0.010720619,0.99919254,-0.027520398,0.018142631,-0.022973873,1.0,0.0,0.0,0.0,0
2528890003,-0.112098664,-0.34368932,-0.040325776,0.9992856,-0.026808478,0.013788723,-0.022790875,1.0,0.0,0.0,0.0,0
2528934122,-0.2771198,-0.21307091,-0.043115895,0.9993367,-0.026376404,0.01043633,-0.022840384,1.0,0.0,0.0,0.0,0
2528973930,0.043723125,-0.07422513,0.09098057,0.99936795,-0.0260543,0.008275934,-0.02272739,1.0,0.0,0.0,0.0,0
2529014150,0.16447137,-0.041968323,-0.03406455,0.999369,-0.026229503,0.0069976174,-0.022905102,1.0,0.0,0.0,0.0,0
2529053891,-0.35068372,-0.21561575,-0.038143825,0.99932903,-0.027819136,0.0061227004,-0.023026677,1.0,0.0,0.0,0.0,0
2529098160,-0.3574612,-0.17391789,0.039943665,0.99926186,-0.029720832,0.006702434,-0.023400797,1.0,0.0,0.0,0.0,0
2529138084,0.0068748947,-0.0064059906,-0.051370118,0.9992413,-0.029548043,0.007788662,-0.024149267,1.0,0.0,0.0,0.0,0
2529182269,0.20705129,0.21706083,-0.03832194,0.9992264,-0.028962484,0.0090657845,-0.025014792,1.0,0.0,0.0,0.0,0
2529222003,-0.19456318,-0.07750892,0.017831575,0.9991977,-0.029037489,0.010387503,-0.02555131,1.0,0.0,0.0,0.0,0
2529266173,-0.36869663,-0.4324829,0.060612973,0.9991686,-0.029037364,0.012030652,-0.025969274,1.0,0.0,0.0,0.0,0
2529306020,-0.09441096,0.06394675,-0.015988022,0.999085,-0.030382697,0.014629043,-0.026310533,1.0,0.0,0.0,0.0,0
2529350215,0.19195144,0.22132023,-0.05259192,0.9989688,-0.033081263,0.016472895,-0.02637515,1.0,0.0,0.0,0.0,0
2529390016,-0.062635906,0.037262022,-0.022948394,0.9988513,-0.0362282,0.01711246,-0.026285473,1.0,0.0,0.0,0.0,0
2529434140,-0.12789118,0.0042619817,0.0114526665,0.9987469,-0.03923716,0.016793994,-0.026137289,1.0,0.0,0.0,0.0,0
2529473985,-0.23692194,-0.14201328,0.0016605072,0.99868536,-0.041335292,0.015627533,-0.025975157,1.0,0.0,0.0,0.0,0
2529518253,-0.28747022,-0.184745,0.053232238,0.9986881,-0.04189843,0.014028423,-0.025881503,1.0,0.0,0.0,0.0,0
2529558022,0.08823155,0.146605,-0.036973897,0.9987407,-0.041023377,0.012478155,-0.026045889,1.0,0.0,0.0,0.0,0
2529602121,0.0414335,0.0020626206,-0.03611329,0.9987778,-0.040554855,0.010605946,-0.026190175,1.0,0.0,0.0,0.0,0
2529642119,0.24868707,-0.12336207,0.035379764,0.99885887,-0.039005555,0.008418066,-0.02624359,1.0,0.0,0.0,0.0,0
2529686141,0.3938981,-0.11190353,0.010223196,0.99898636,-0.035997316,0.0065024393,-0.026235893,1.0,0.0,0.0,0.0,0
2529726136,0.015681129,-0.43238312,0.063139826,0.9990532,-0.03455817,0.0048938147,-0.025971644,1.0,0.0,0.0,0.0,0
2529770106,-0.24966769,-0.37915623,0.0074810004,0.999069,-0.03457382,0.0031132696,-0.02561787,1.0,0.0,0.0,0.0,0
2529810118,0.17179534,0.03935481,0.012991776,0.9990913,-0.034397453,0.0017468588,-0.025107093,1.0,0.0,0.0,0.0,0
2529854085,0.25306225,0.2085833,-0.067469224,0.99909234,-0.0346942,-0.0007747546,-0.024704501,1.0,0.0,0.0,0.0,0
2529894095,-0.1920136,-0.13978225,0.016851297,0.9990478,-0.036004525,-0.0040346244,-0.024307432,1.0,0.0,0.0,0.0,0
2529934813,0.023840718,-0.13862588,0.049360137,0.9990272,-0.036211025,-0.007047074,-0.02416249,1.0,0.0,0.0,0.0,0
2529975596,0.2534899,-0.1096104,0.1277384,0.9991077,-0.033255767,-0.010178389,-0.023961978,1.0,0.0,0.0,0.0,0
2530015609,0.4830238,-0.09221083,0.03425532,0.99920225,-0.029008534,-0.013770719,-0.023744978,1.0,0.0,0.0,0.0,0
2530059767,0.4843419,-0.14567666,0.03260251,0.99927473,-0.024411205,-0.017629711,-0.023307482,1.0,0.0,0.0,0.0,0
2530099712,0.35206985,-0.22252218,0.040162213,0.99933326,-0.019864444,-0.020708336,-0.022575999,1.0,0.0,0.0,0.0,0
2530139738,0.1363088,-0.090449356,0.035633318,0.9993406,-0.016089529,-0.024419442,-0.021523565,1.0,0.0,0.0,0.0,0
2530183724,0.244723,-0.08823924,0.04515466,0.99925303,-0.013923597,-0.02978396,-0.020308929,1.0,0.0,0.0,0.0,0
2530223730,0.20851359,-0.03929726,-0.033088885,0.9991062,-0.013429034,-0.035209786,-0.019150004,1.0,0.0,0.0,0.0,0
2530267622,0.18626106,-0.45161858,0.0971431,0.99892044,-0.012859178,-0.04099068,-0.017677337,1.0,0.0,0.0,0.0,0
2530307795,-0.005836334,-0.057757452,-0.13071437,0.9987765,-0.012121815,-0.04495969,-0.01665234,1.0,0.0,0.0,0.0,0
2530351742,-0.3843799,-0.61078787,0.11484168,0.99853575,-0.012827747,-0.05026522,-0.015336018,1.0,0.0,0.0,0.0,0
2530391733,0.600471,0.34467995,-0.15651356,0.99842286,-0.012758573,-0.052629728,-0.014801968,1.0,0.0,0.0,0.0,0
2530435600,-0.5240396,-0.35767263,0.0013877274,0.9981852,-0.016270688,-0.05618307,-0.014320299,1.0,0.0,0.0,0.0,0
2530475729,-0.083713055,-0.021420954,0.10235215,0.9979881,-0.019305756,-0.058751952,-0.01398028,1.0,0.0,0.0,0.0,0
2530519622,-0.02144203,0.021701507,0.10829229,0.9976988,-0.024082249,-0.06182975,-0.013944583,1.0,0.0,0.0,0.0,0
2530559730,-0.08409126,-0.091634326,0.12291824,0.9974338,-0.028578436,-0.06409967,-0.014161035,1.0,0.0,0.0,0.0,0
2530603732,-0.4115491,-0.23451117,0.08910107,0.9971853,-0.031786587,-0.066425525,-0.014102035,1.0,0.0,0.0,0.0,0
2530643734,-0.049579546,0.117656186,0.057098866,0.99707985,-0.032242965,-0.06785945,-0.013686,1.0,0.0,0.0,0.0,0
2530687753,-0.03463006,-0.008670663,0.15196595,0.9970218,-0.033605475,-0.06819813,-0.01293083,1.0,0.0,0.0,0.0,0
2530727746,0.12364738,0.096857235,-0.024259305,0.9971036,-0.035525974,-0.06603629,-0.012716327,1.0,0.0,0.0,0.0,0
2530771757,-0.044196222,0.608129,0.013943938,0.99732625,-0.03791273,-0.061217166,-0.012466365,1.0,0.0,0.0,0.0,0
2530811755,-0.37401012,0.31151867,-0.041037817,0.9974944,-0.04098921,-0.056329135,-0.012324263,1.0,0.0,0.0,0.0,0
2530855594,-0.23432681,0.07059994,0.086537726,0.997693,-0.04530684,-0.049065825,-0.012190914,1.0,0.0,0.0,0.0,0
2530895718,-0.4209874,0.201628,0.115538776,0.9978529,-0.049601115,-0.041029632,-0.012082558,1.0,0.0,0.0,0.0,0
2530939761,0.15494338,0.6673039,-0.028147878,0.9980047,-0.052969176,-0.032108057,-0.012247419,1.0,0.0,0.0,0.0,0
2530979745,-0.28821152,0.3460311,-0.15496866,0.9979763,-0.05689905,-0.025518693,-0.012440765,1.0,0.0,0.0,0.0,0
2531023623,-0.294527,0.3283377,0.012820534,0.9979387,-0.060426056,-0.017740833,-0.012348589,1.0,0.0,0.0,0.0,0
