timestamp,gyro_rad[0],gyro_rad[1],gyro_rad[2],gyro_integral_dt,accelerometer_timestamp_relative,accelerometer_m_s2[0],accelerometer_m_s2[1],accelerometer_m_s2[2],accelerometer_integral_dt
2508751674,-0.01734564,0.024799807,0.00021772225,4000,0,0.41953516,0.06720234,-9.886604,4000
2508855675,-0.029882064,0.03258442,0.0022237455,4001,0,0.41876605,0.07223933,-9.798016,4001
2508859716,-0.027974976,0.032061737,0.0024313054,4041,0,0.4308864,0.079882085,-9.794505,4041
2508863685,-0.027967332,0.031651855,0.0026639528,3969,0,0.42050406,0.07525171,-9.821802,3969
2508867674,-0.029153043,0.031837136,0.002563667,3989,0,0.3983035,0.07968808,-9.809979,3989
2508871674,-0.028507587,0.034818515,0.0014383466,4000,0,0.40165824,0.05926242,-9.800483,4000
2508875674,-0.027562745,0.033635214,0.00017491903,4000,0,0.40813306,0.042085007,-9.802819,4000
2508879674,-0.028936291,0.032592446,0.0010547289,4000,0,0.4078778,0.05902226,-9.851738,4000
2508883675,-0.030532505,0.033222616,0.0013745229,4001,0,0.40979132,0.06215155,-9.838225,4001
2508887674,-0.02757721,0.03062454,-0.0015050046,3999,0,0.41239297,0.047071945,-9.8193445,3999
2508891674,-0.027019668,0.03152265,0.001584075,4000,0,0.40399563,0.05789707,-9.83677,4000
2508895674,-0.027751993,0.033673115,0.0037902263,4000,0,0.40319985,0.06904921,-9.826831,4000
2508899674,-0.026810164,0.03226147,0.000933137,4000,0,0.4098431,0.052666005,-9.833352,4000
2508903674,-0.026066892,0.03130121,0.00094062305,4000,0,0.3858041,0.047968637,-9.817614,4000
2508907679,-0.028203512,0.028959965,0.0010005428,4005,0,0.39188716,0.057786636,-9.80427,4005
2508911684,-0.026058177,0.029728528,0.002245836,4005,0,0.39795288,0.060697343,-9.795592,4005
2508915675,-0.026912775,0.032908395,0.0018853848,3991,0,0.40457016,0.047143076,-9.781034,3991
2508919674,-0.026190316,0.032762554,-0.0014252916,3999,0,0.41230175,0.05148646,-9.771684,3999
2508923676,-0.027762542,0.030355683,0.00181782,4002,0,0.42874932,0.08156084,-9.747642,4002
2508927682,-0.025851192,0.032576147,0.0008148516,4006,0,0.42988613,0.07646418,-9.7752285,4006
2508931674,-0.02703115,0.033416666,6.576466e-05,3992,0,0.42334992,0.06864424,-9.779,3992
2508935674,-0.025776254,0.031933837,0.0005038098,4000,0,0.40427807,0.071204185,-9.805058,4000
2508939674,-0.026498392,0.030966632,-0.00022218174,4000,0,0.39640123,0.07932129,-9.840694,4000
2508943678,-0.026498852,0.028951373,0.00022866255,4004,0,0.40656632,0.07130217,-9.834493,4004
2508947697,-0.025672764,0.027431736,-0.0016626792,4019,0,0.397887,0.0631728,-9.834252,4019
2508951674,-0.024993947,0.029074686,0.0013869802,3977,0,0.4029103,0.06987913,-9.825248,3977
2508955681,-0.023620585,0.03001786,-1.8643834e-05,4007,0,0.4079656,0.060063854,-9.821988,4007
2508959674,-0.026510423,0.029862754,-0.0021039492,3993,0,0.41236997,0.075356044,-9.83918,3993
2508963674,-0.026951866,0.029748982,-0.0033927336,4000,0,0.41280025,0.07573171,-9.82608,4000
2508967717,-0.023924205,0.025435591,0.0020252438,4043,0,0.3532959,-0.001573692,-9.893552,4043
2508971675,-0.018733056,0.04123589,-0.0007358932,3958,0,0.4026152,-0.2459417,-9.6906595,3958
2508975674,-0.044467114,0.014475829,-0.015562426,3999,0,0.42982423,0.61726683,-10.0033655,3999
2508979674,-0.017103832,0.02610028,0.026370298,4000,0,0.17187141,0.87197584,-9.876663,4000
2508983680,0.04142788,0.03947071,-0.018698653,4006,0,0.15167566,-1.8814409,-9.980255,4006
2508987673,-0.11324981,0.028503055,-0.008356521,3993,0,0.5854616,0.23260215,-9.564675,3993
2508991674,0.0080097485,0.02509346,0.005110729,4001,0,0.9811334,1.6660203,-9.148495,4001
2508995674,0.036590207,0.022459563,-0.020985313,4000,0,0.19692732,-1.116776,-10.47969,4000
2508999674,-0.11818344,0.031818006,0.0018276414,4000,0,0.24364342,1.6798778,-10.186884,4000
2509003674,0.07454221,0.03728898,-0.02471781,4000,0,0.74612105,0.1485533,-9.289523,4000
2509007702,-0.029105144,0.039048236,-0.0090660695,4028,0,1.208679,-2.2008073,-10.69219,4028
2509011674,-0.08369613,-0.032846585,-0.005461466,3972,0,0.26998675,0.8563868,-9.00959,3972
2509015674,0.04632832,0.086508006,-0.0122792125,4000,0,0.23190445,0.21038097,-9.442178,4000
2509019674,-0.031017464,-0.0010433006,0.028262442,4000,0,-0.29879558,-0.15024473,-10.303255,4000
2509023674,-0.050260313,0.054068394,-0.024005806,4000,0,0.7046485,0.011243593,-10.005339,4000
2509027674,-0.002744979,-0.033791248,0.042419218,4000,0,0.5268434,0.26331753,-10.055927,4000
2509031674,0.033613548,0.056816004,-0.021065848,4000,0,0.6980749,-2.0409584,-9.525936,4000
2509035674,-0.10388741,-0.0030229741,0.019953554,4000,0,0.9153222,0.3128971,-9.076816,4000
2509039674,0.023777286,0.028623218,0.00025974828,4000,0,0.25395855,0.61099476,-9.84864,4000
2509043674,-0.03280655,0.01920584,-0.0127919465,4000,0,-0.111271024,0.3273829,-10.592971,4000
2509047674,-0.04598982,0.035468537,-0.01769107,4000,0,0.034888905,2.2103624,-10.152057,4000
2509051685,0.012637333,-0.0132251205,-0.023682298,4011,0,-0.66501516,0.8165198,-9.657231,4011
2509055718,-0.02895966,0.0141865015,-0.05303027,4033,0,-1.0580773,-0.31448767,-8.77042,4033
2509059673,-0.0015722269,0.028043741,-0.040775623,3955,0,-0.9081346,-0.3543004,-10.3804655,3955
2509063674,-0.020027049,0.035030104,-0.040476248,4001,0,-0.05636307,-0.9752946,-10.242808,4001
2509067674,-0.04278827,0.007282442,-0.0236693,4000,0,-0.28643525,-0.62112993,-9.927685,4000
2509071675,-0.022591352,0.025940074,-0.01786009,4001,0,0.9874919,0.33909088,-9.824364,4001
2509075674,0.031407952,0.024366003,-0.010981433,3999,0,0.24863455,-1.2799718,-9.1492405,3999
2509079676,-0.034494154,0.111185275,-0.017656976,4002,0,2.6393201,-1.1723032,-10.756527,4002
2509083675,-0.088387094,-0.07747023,0.04224328,3999,0,2.0628195,0.9081622,-8.667953,3999
2509087674,0.038741507,0.09661136,-0.009725543,3999,0,2.020798,0.39098305,-10.492114,3999
2509091676,-0.11183195,-0.046535123,0.024767723,4002,0,2.6092038,1.3967319,-9.243306,4002
2509095690,0.016549636,-0.009754917,0.023561338,4014,0,1.1206118,1.3826927,-8.664275,4014
2509099674,0.0342666,-0.0048986,0.036362555,3984,0,1.262965,-2.0550313,-10.010557,3984
2509103674,-0.055118416,0.039577223,-0.02667713,4000,0,-0.04101812,-2.263466,-10.697142,4000
2509107674,-0.10704075,-0.026274828,0.041207433,4000,0,0.5329496,1.1627274,-10.1012335,4000
2509111674,0.02665199,0.004013278,0.06176737,4000,0,-0.42878744,1.1942878,-10.097268,4000
2509115709,-0.04328752,0.0056666816,0.019604515,4035,0,0.41892087,0.10113084,-9.970902,4035
2509119674,-0.11711008,-0.030091034,0.08161543,3965,0,-0.23172362,4.112112,-8.289964,3965
2509123674,0.0975909,0.050913338,0.02782627,4000,0,-0.5151256,1.1431068,-10.348922,4000
2509127674,-0.06551544,0.0027171874,0.053495478,4000,0,-1.0260218,-1.3009712,-10.420958,4000
2509131681,-0.056215268,0.011636262,0.051305383,4007,0,-0.85568446,0.55722785,-9.8248625,4007
2509135690,0.049600933,0.03006665,0.0351741,4009,0,-0.7339,-1.6804825,-9.998155,4009
2509139674,-0.09865362,0.022854125,0.018124102,3984,0,0.33170137,-0.715485,-9.582498,3984
2509143674,-0.050095066,0.013063623,0.0118096545,4000,0,1.445538,2.3892446,-9.113648,4000
2509147674,0.026791764,0.02277764,-0.030962812,4000,0,2.0415995,1.6666942,-9.660679,4000
2509151674,-0.058054224,0.013245121,-0.04652217,4000,0,2.4499779,1.6908003,-9.762289,4000
2509155720,-0.015171889,-0.011244515,-0.049080715,4046,0,2.1193912,1.9451668,-9.629288,4046
2509159674,0.056322116,-0.020511104,-0.07278927,3954,0,0.80868554,-1.2498991,-10.273393,3954
2509163674,-0.05134115,-0.021153018,-0.069054104,4000,0,-0.6312994,-2.4700391,-10.174139,4000
2509167674,-0.029826002,-0.026106955,-0.05603491,4000,0,-1.9660187,-2.355334,-9.605028,4000
2509171680,-0.013419262,-0.016988132,-0.051824328,4006,0,-3.2444925,-3.1026735,-10.1906,4006
2509176488,-0.08705017,0.017368274,-0.018184451,4808,0,-3.632435,-1.5737761,-10.277999,4808
2509181280,-0.0539507,0.036770497,0.01114277,4792,0,-2.6012464,0.0614938,-10.230595,4792
2509185273,-0.022498827,0.058057915,0.020446455,3993,0,-1.6970866,0.058734037,-10.720576,3993
2509189274,-0.051347293,0.07677798,0.034036722,4001,0,-0.5765219,0.06083878,-10.3307705,4001
2509193274,-0.026448835,0.06623267,0.046353918,4000,0,0.09721158,-0.40528733,-9.265367,4000
2509197274,0.005922759,0.06107148,0.021470025,4000,0,0.5287663,-1.7124879,-9.210053,4000
2509201274,-0.037035327,0.06406961,4.210189e-05,4000,0,0.90054786,-1.2219368,-9.269007,4000
2509205274,-0.009645282,0.06378088,-0.008297927,4000,0,1.8211873,-0.2492715,-9.199891,4000
2509209276,-0.015513601,0.03703129,-0.04019369,4002,0,2.998034,0.22743215,-9.142868,4002
2509213280,-0.0389473,0.028160732,-0.05424952,4004,0,3.52734,1.82385,-9.471431,4004
2509217274,-0.014485774,0.03638861,-0.05477415,3994,0,4.21802,2.213975,-9.54074,3994
2509221274,-0.015010019,0.02391661,-0.056525223,4000,0,4.3860426,1.3547232,-9.913395,4000
2509225273,-0.024332307,0.046713676,-0.035814125,3999,0,4.1085157,0.4282675,-10.229732,3999
2509229274,-0.016676862,0.07085166,-0.009375974,4001,0,3.7745955,-0.7767405,-10.128302,4001
2509233274,-0.03427887,0.04311226,0.020342605,4000,0,3.0636015,-1.5511472,-10.314041,4000
2509237274,-0.0477972,0.026195265,0.051728047,4000,0,1.5886865,-1.0152832,-10.839887,4000
2509241273,-0.0442461,0.058676902,0.07212001,3999,0,0.31469557,0.21475883,-10.033965,3999
2509245273,-0.026275601,0.04196665,0.07066803,4000,0,-0.42449695,1.6258445,-9.285428,4000
2509249274,-0.03263038,0.025385726,0.07355492,4001,0,-1.2049168,3.484741,-9.724448,4001
2509253281,0.001680221,0.06493175,0.057857364,4007,0,-1.3354908,4.3995504,-10.056961,4007
2509257279,0.024425052,0.056131054,0.034052555,3998,0,-0.80962634,3.3990302,-9.535668,3998
2509261273,0.028292242,0.040132914,0.0110928975,3994,0,-0.3903739,1.9666177,-9.196075,3994
2509265274,0.0345068,0.050683904,0.0051062503,4001,0,-0.34074128,0.3238181,-9.154515,4001
2509269274,0.029751485,0.075996555,-0.008727535,4000,0,-0.19738327,-1.3872468,-9.224869,4000
2509273280,0.011232542,0.064348266,-0.01138214,4006,0,-0.44041514,-1.7287085,-9.526668,4006
2509277312,0.0019629227,0.052338146,-0.006977112,4032,0,-0.8258934,-1.3935852,-9.698355,4032
2509281273,-0.008006097,0.07445708,-0.013256894,3961,0,-0.85897833,-0.92296207,-9.98015,3961
2509285273,-0.02454858,0.034615472,-0.016363682,4000,0,-0.8318165,-0.016433025,-9.466322,4000
2509289279,0.01138126,0.042062417,-0.013229928,4006,0,-0.8487906,0.15587626,-9.766875,4006
2509293282,0.009553094,0.042799782,-0.008007917,4003,0,-0.5727257,-0.50819486,-10.674015,4003
2509297280,-0.0075436733,0.031072564,-0.00056884973,3998,0,-0.61862606,-1.1095047,-10.204707,3998
2509301275,0.021436857,0.024197122,0.003867496,3995,0,-0.67594796,-1.6348928,-10.278127,3995
2509305274,0.03000395,0.027067548,0.012288333,3999,0,-1.228132,-2.1317055,-10.659283,3999
2509309274,0.0034125634,0.053115644,0.00041034582,4000,0,-1.4984862,-1.628519,-10.693541,4000
2509313307,-0.01803909,0.04002833,0.0068182256,4033,0,-1.9069376,-0.3285983,-9.655359,4033
2509317300,0.022809913,0.07824305,-0.0044678524,3993,0,-1.880793,0.4603087,-9.9798975,3993
2509321287,-0.006339566,0.06845863,-0.022205962,3987,0,-0.9688816,0.9501374,-10.009668,3987
2509325280,-0.012570128,0.06794143,-0.021474633,3993,0,-0.013327408,1.3630527,-9.06768,3993
2509329274,0.030027322,0.054250773,-0.025572708,3994,0,1.4406502,0.3870188,-8.838944,3994
2509333274,0.026245808,0.0473507,-0.024176586,4000,0,2.3109877,-0.7700513,-9.425062,4000
2509337275,-0.0024782333,0.05112888,-0.0050597023,4001,0,2.9712121,-1.220191,-9.753025,4001
2509341275,0.0023579916,0.015397197,0.0064577595,4000,0,2.9764152,-1.387229,-9.62165,4000
2509345274,0.016681323,-0.00019746294,0.012935108,3999,0,2.331051,-0.9264344,-9.584608,3999
2509349274,0.015164191,0.03421577,0.019842945,4000,0,2.079153,-0.16331676,-9.627274,4000
2509353274,0.00026194777,0.009964561,0.019013377,4000,0,1.8020412,0.6761451,-9.328202,4000
2509357274,0.014421835,0.03861552,0.008519609,4000,0,1.5448316,1.0823982,-9.844012,4000
2509361274,0.0054774983,0.05123892,0.008079186,4000,0,1.6947675,0.96784556,-10.450938,4000
2509365274,-0.004512119,0.020980673,-0.0027975156,4000,0,1.6563832,0.37005278,-9.702955,4000
2509369274,-0.0016807407,-0.0034450681,-0.010689751,4000,0,1.1194766,-0.35352048,-9.559782,4000
2509373274,-0.019990074,0.020274516,-0.0115132,4000,0,0.7256545,-0.36912632,-9.648331,4000
2509377300,-0.0041252444,0.025282238,-0.008943672,4026,0,0.58077586,-0.15801542,-9.892262,4026
2509381274,-0.021066412,-0.010705978,-0.008513545,3974,0,0.23999806,0.3755697,-9.864591,3974
2509385287,-0.0044857906,0.020835225,0.0006054993,4013,0,0.0978071,1.5050803,-10.060882,4013
2509389274,0.026492601,0.029142419,-0.004237249,3987,0,0.68738997,1.6779543,-9.962506,3987
2509393273,0.01059733,0.015024842,-0.004850742,3999,0,0.7148113,1.1617571,-9.99723,3999
2509397274,-0.0093870545,0.039696477,-0.00017695414,4001,0,0.8732943,1.1420362,-10.298504,4001
2509401274,0.018391535,0.04321501,0.00013111447,4000,0,0.84265685,0.014649185,-9.867565,4000
2509405303,-0.020749038,0.009584844,-0.006015865,4029,0,0.5822471,-0.9671738,-9.564326,4029
2509409274,-0.058030535,0.0027300057,0.0012760827,3971,0,0.023247886,-0.19466652,-9.187105,3971
2509413273,-0.019383345,0.0065000583,0.0033141552,3999,0,-0.24131791,-0.1531852,-9.444527,3999
2509417274,-0.05295917,-0.0018782092,0.003418099,4001,0,-0.49014977,0.34325966,-9.859519,4001
2509421274,-0.023205265,0.006538664,0.002855885,4000,0,-0.23396656,1.4377058,-9.819544,4000
2509425317,0.014550041,-0.008010547,0.004880988,4043,0,-0.14050972,1.0237441,-10.044893,4043
2509429274,0.0026135398,-0.0008154813,-0.0045278724,3957,0,-0.102898896,0.29887897,-10.157569,3957
2509433274,-0.011005621,0.000558881,-0.0048297206,4000,0,-0.18798935,0.05694924,-9.88071,4000
2509437274,0.01264271,0.012823187,-0.0037800868,4000,0,-0.48170653,-0.7542363,-9.689728,4000
2509441274,-0.0185563,0.006612747,-0.011126555,4000,0,-0.7798063,-1.4336671,-9.807141,4000
2509445273,-0.05235866,0.01264003,-0.005917882,3999,0,-1.0358989,-0.9052601,-9.681443,3999
2509449274,-0.050923605,0.010123907,-0.007942689,4001,0,-0.9791326,-0.72783524,-9.505734,4001
2509453274,-0.079975955,-0.0093636075,-0.006276836,4000,0,-0.9523896,0.03849187,-9.690493,4000
2509457274,-0.039283924,0.007858126,-0.0069335387,4000,0,-0.6264932,0.72417283,-9.948964,4000
2509461323,-0.007278652,0.021902822,-0.011429503,4049,0,0.038261756,0.035956696,-9.969381,4049
2509465292,-0.034957506,-0.016743012,-0.0036322102,3969,0,0.4778157,-0.28991124,-10.148772,3969
2509469274,-0.009818249,0.013789604,0.0024491793,3982,0,0.7086739,-0.32953703,-10.198517,3982
2509473274,0.0110813705,0.020131694,0.0044831373,4000,0,0.8825252,-1.1871808,-9.908834,4000
2509477274,-0.031910446,0.008314638,0.0006579068,4000,0,0.98186016,-1.1789012,-9.549563,4000
2509481274,-0.043900594,0.011361335,0.008487308,4000,0,0.7078161,-0.40623385,-9.676865,4000
2509485273,-0.04179381,0.034726202,0.00240459,3999,0,0.7566475,-0.17614856,-9.737458,3999
2509489274,-0.07807568,0.008220874,-0.0023848757,4001,0,0.8593334,0.4501035,-9.480648,4001
2509493274,-0.05181794,0.019753337,-0.001307817,4000,0,0.9240697,1.0258803,-9.695422,4000
2509497280,-0.016626174,0.024716059,-0.015101509,4006,0,1.2407573,0.22352411,-10.483883,4006
2509501274,-0.06122673,-0.0027915796,-0.010357432,3994,0,1.1799017,-0.05933022,-10.294289,3994
2509505280,-0.022287706,0.012376221,-0.0048928275,4006,0,0.9618377,-0.15742147,-9.654816,4006
2509509273,-0.0067198235,0.020733263,-0.004926213,3993,0,0.9766421,-0.8407818,-9.566211,3993
2509513288,-0.032213815,0.012160132,0.0040208814,4015,0,0.6816056,-0.625445,-9.497756,4015
2509517280,-0.02909395,0.028837625,-0.00015216907,3992,0,0.55541325,-0.21822159,-9.901688,3992
2509521278,-0.053612653,0.043282505,0.0043888153,3998,0,0.5993212,0.5192057,-9.762111,3998
2509525274,-0.045336124,0.030265765,0.001855102,3996,0,0.80428964,0.9450202,-9.446694,3996
2509529275,-0.04184805,0.021981727,-0.006793777,4001,0,0.7800398,0.78168607,-10.606329,4001
2509533293,-0.07077896,0.047588266,-0.0014803422,4018,0,0.90857613,0.9792193,-10.536496,4018
2509537280,-0.040432584,0.033008084,0.0013457522,3987,0,1.021395,0.49498978,-9.100922,3987
2509541274,-0.030628143,0.02538525,0.00350674,3994,0,0.8408075,-0.27204478,-9.490917,3994
2509545282,-0.066683844,0.045229245,0.007343531,4008,0,0.8456119,0.007898218,-9.814001,4008
2509549275,-0.029060684,0.0377097,0.00939668,3993,0,0.7897778,0.32699215,-9.849717,3993
2509553292,-0.015225566,0.029151201,0.0069595245,4017,0,0.65520084,0.35396463,-9.7887,4017
2509557274,-0.030767666,0.022691801,0.008760729,3982,0,0.43586385,0.8712315,-10.005037,3982
2509561274,-0.01860475,0.034565758,-0.00084850163,4000,0,0.15558843,0.71434844,-10.401474,4000
2509565274,-0.05453235,0.029500218,-0.0064787753,4000,0,-0.30053788,0.5138085,-9.508728,4000
2509569274,-0.0351219,0.03756677,-0.0118689835,4000,0,-0.5156889,0.18882373,-9.307171,4000
2509573324,-0.033195663,0.05532297,-0.006716149,4050,0,-0.7319446,-0.5121673,-9.979081,4050
2509577274,-0.05787249,0.05871362,-0.012091442,3950,0,-0.53133565,-0.9468454,-9.912717,3950
2509581274,-0.07528745,0.04622312,0.003390366,4000,0,-0.39503762,-0.33923265,-10.033172,4000
2509585274,-0.022490932,0.04041618,0.013023054,4000,0,-0.09429108,0.1327279,-10.145117,4000
2509589274,-0.0130767645,0.034444284,0.005824,4000,0,-0.02110843,-0.011636008,-10.053784,4000
2509593278,-0.05251777,0.033929158,0.0073938896,4004,0,0.19343157,0.6450699,-9.726056,4004
2509597274,-0.023911867,0.029907117,0.014566917,3996,0,0.03163559,0.784313,-9.200527,3996
2509601274,0.011849372,0.065163925,0.0047655026,4000,0,-0.004277965,0.050734926,-10.109074,4000
2509605274,-0.017552666,0.06451163,0.0011615352,4000,0,0.3399026,-0.45655188,-10.428753,4000
2509609281,-0.043929942,0.05378713,0.003217906,4007,0,0.5879162,-0.6970147,-9.934934,4007
2509613310,-0.04047738,0.04132859,0.0051836884,4029,0,0.70236987,-0.53823555,-9.548695,4029
2509617274,-0.002893333,0.046584256,0.00041631094,3964,0,0.57634366,-0.85213745,-9.684304,3964
2509621274,-0.052675262,0.03565455,0.0040300894,4000,0,0.6216923,-0.712182,-9.854643,4000
2509625274,-0.06386287,0.01338714,0.014889431,4000,0,0.058278702,0.14035729,-9.248016,4000
2509629329,0.005104714,0.033507217,0.009605647,4055,0,-0.17965221,-0.020281883,-9.799583,4055
2509633274,-0.00076899584,0.021932816,0.0031713531,3945,0,-0.32973838,-0.6540173,-10.729852,3945
2509637274,-0.06312011,0.032786444,0.00035121795,4000,0,-0.17462179,-0.02756373,-9.622899,4000
2509641274,-0.012245281,0.021717908,0.005549564,4000,0,0.2718853,0.76442504,-9.126849,4000
2509645274,0.027372204,0.025199046,-0.010235256,4000,0,0.734669,0.12956633,-10.358622,4000
2509649280,-0.076792255,0.036980547,0.0028554124,4006,0,1.2975695,0.82064813,-9.467872,4006
2509653274,-0.0044355453,0.025615469,0.008621146,3994,0,2.1724598,0.77514565,-9.517755,3994
2509657274,0.01789682,-0.02104114,0.010590728,4000,0,1.5329432,-1.3457241,-10.913501,4000
2509661274,-0.0899258,0.046650168,-0.0062294765,4000,0,1.307898,-1.1274102,-10.165909,4000
2509665274,-0.056128155,-0.10329416,0.016201694,4000,0,0.3131307,0.0059194528,-10.049447,4000
2509669274,-0.032759845,-0.04538292,-0.005674684,4000,0,-1.6052384,-0.11344481,-9.5001545,4000
2509673274,-0.023263976,-0.040011518,-0.0143437255,4000,0,-0.86798745,-0.16090955,-8.611479,4000
2509677274,-0.043170508,-0.09781911,-0.014831827,4000,0,0.1883047,1.1270221,-10.280692,4000
2509681274,-0.056238964,-0.10105293,0.024447,4000,0,1.2144481,2.5134392,-9.754681,4000
2509685274,-0.01792516,-0.03273953,-0.01367281,4000,0,2.3157163,0.7236492,-11.805293,4000
2509689274,-0.1345766,-0.22223665,0.031260822,4000,0,2.7784615,0.7807456,-8.206735,4000
2509693274,0.05915478,-0.18880424,-0.041015893,4000,0,0.5342933,-0.6699171,-10.686706,4000
2509697274,-0.021937806,-0.18350008,-0.023071121,4000,0,-0.67919236,-1.6787422,-11.605016,4000
2509701299,-0.15004194,-0.15312958,-0.021687198,4025,0,-1.2365147,-1.628132,-7.511366,4025
2509705274,-0.0973261,-0.23017314,-0.0065300777,3975,0,-2.7993386,-0.330812,-8.484641,3975
2509709274,-0.06689428,-0.34166995,-0.046698213,4000,0,-2.1041572,1.6543863,-9.904873,4000
2509713323,-0.06959198,-0.22104904,0.039453115,4049,0,-2.280609,2.6198916,-10.502918,4049
2509717274,-0.07828319,-0.17042911,-0.05967175,3951,0,3.7837973,0.47735825,-11.951516,3951
2509721275,-0.16028185,-0.5333975,-0.04311741,4001,0,4.8392143,1.0054363,-7.545399,4001
2509725275,0.049458537,-0.29405165,-0.025622422,4000,0,1.589371,0.22241375,-10.001673,4000
2509729275,-0.090105645,-0.41442904,-0.03989548,4000,0,0.72141963,-3.8845081,-8.484551,4000
2509733274,-0.26006904,-0.43270326,-0.019190887,3999,0,-2.1844282,1.1564478,-10.470338,3999
2509737274,0.081002094,-0.36014348,-0.03830794,4000,0,-2.0467198,0.82768047,-11.55672,4000
2509741301,-0.08966332,-0.55572927,-0.061414395,4027,0,-1.8954606,-3.8453066,-9.494465,4027
2509745274,-0.31729865,-0.4456272,-0.0042234208,3973,0,-1.8431457,3.3114836,-9.708245,3973
2509749274,-0.07566541,-0.58356667,-0.05869568,4000,0,0.35869646,3.4488032,-9.046696,4000
2509765274,-0.13013053,-0.40315518,-0.024240967,3994,0,-1.5305938,0.8686045,-13.609553,3994
2509769283,-0.054020453,-0.8431153,-0.09849235,4009,0,2.1559544,-1.2180226,-6.7666974,4009
2509773274,-0.18090189,-0.53139,-0.065856434,3991,0,-4.3192453,-2.8284523,-11.224461,3991
2509777274,-0.29654056,-0.88089585,0.059323393,4000,0,0.07673817,4.5913424,-7.5876484,4000
2509781281,0.09189178,-0.52839863,-0.2016573,4007,0,-2.4208617,-2.4934819,-7.549193,4007
2509785274,-0.40270692,-0.8645617,0.09915873,3993,0,3.351395,4.7657943,-10.5683365,3993
2509789274,-0.07800334,-0.6344467,-0.15342146,4000,0,0.4797548,2.0205913,-7.5742307,4000
2509793274,-0.17315349,-0.85803765,-0.008016847,4000,0,3.512905,-1.2988424,-10.200613,4000
2509797323,-0.23237284,-0.6623792,-0.09901321,4049,0,0.8989676,0.4510179,-7.3699875,4049
2509801274,-0.13335194,-0.9751111,-0.037314996,3951,0,2.8384397,-1.5262681,-8.823577,3951
2509805274,-0.13179871,-0.55566305,-0.07029267,4000,0,-2.3389351,-1.2577192,-14.266373,4000
2509809274,-0.3005116,-1.0958157,0.028868381,4000,0,3.2961147,-0.5548158,-4.767138,4000
2509813274,0.06831842,-0.48702222,-0.14684354,4000,0,-3.3835602,-0.39693826,-17.831072,4000
2509817274,-0.5716585,-1.2231394,0.10021,4000,0,2.1344302,2.896341,-2.8985116,4000
2509821274,0.34793606,-0.22627637,-0.19469453,4000,0,-2.2575963,1.9583898,-21.527998,4000
2509825274,-0.6069714,-1.1096046,0.07949672,4000,0,6.951135,-1.3713236,-4.996136,4000
2509829292,0.24797589,-0.31463438,-0.12763268,4018,0,1.5671043,0.32326755,-23.313812,4018
2509833282,-0.6877136,-1.1298349,0.057389393,3990,0,5.8618836,-0.8143678,-2.7779262,3990
2509837274,0.35440388,-0.30426255,-0.121260464,3992,0,-0.36859733,-0.41120684,-20.02469,3992
2509841274,-0.6026856,-0.92921484,0.019906644,4000,0,1.8924642,-3.201815,-5.987672,4000
2509845274,0.11326167,-0.27941003,-0.08962183,4000,0,-0.58762443,1.3251595,-22.331669,4000
2509849312,-0.3885451,-0.8555563,0.05500321,4038,0,2.8057194,0.14216892,-6.054892,4038
2509853281,0.10364636,-0.32814667,-0.15021212,3969,0,0.25141993,-0.10324827,-20.925673,3969
2509857274,-0.25479758,-0.4872185,0.09614848,3993,0,3.8890307,0.96628624,-10.410795,3993
2509861273,-0.26450095,-0.48534116,-0.116072446,3999,0,5.962764,0.60663974,-11.759397,3999
2509865274,0.15243515,-0.32259163,0.043559957,4001,0,2.853968,1.4357657,-15.43515,4001
2509869280,-0.28300318,-0.40689412,-0.0952152,4006,0,4.3294754,-3.5675735,-11.535459,4006
2509873287,-0.010225747,-0.0821947,-0.04957444,4007,0,3.7114165,-0.710597,-18.521942,4007
2509877274,-0.3544226,-0.48036355,0.0981837,3987,0,3.0638483,1.3628049,-10.31332,3987
2509881323,0.19789653,-0.19664083,-0.18890435,4049,0,1.0994271,-4.184848,-13.860484,4049
2509885274,-0.31013104,-0.050979957,0.0573746,3951,0,0.7657619,0.24215746,-14.213473,3951
2509889287,-0.22646749,-0.2615207,-0.00987007,4013,0,4.7625203,3.258718,-10.591354,4013
2509893280,0.39564198,0.17285548,-0.079083905,3993,0,2.6034143,-2.3043177,-18.9905,3993
2509897277,-0.46648574,-0.25155765,0.020545559,3997,0,5.228805,-2.172262,-10.567097,3997
2509901283,0.035684157,0.1106693,0.0038450474,4006,0,2.95385,4.0312777,-17.27248,4006
2509905274,-0.06781097,-0.17013204,0.029080573,3991,0,2.7488422,-1.5852984,-6.803392,3991
2509909273,0.29600474,0.34525615,-0.15158644,3999,0,0.68409234,-4.928087,-20.88647,3999
2509913274,-0.6895013,-0.2531862,0.20774728,4001,0,3.186493,3.4364624,-6.2687,4001
2509917286,0.44273204,0.32104847,-0.14624034,4012,0,-2.5773253,0.39959136,-16.322826,4012
2509921274,-0.059805375,0.040959727,0.018342094,3988,0,-0.17209128,-4.9308195,-11.957998,3988
2509925274,-0.3565076,0.23484182,0.0661623,4000,0,1.4557055,2.2160764,-10.889457,4000
2509929274,0.25346202,0.1187437,-0.0045612706,4000,0,2.4287386,2.6230853,-15.079812,4000
2509933274,-0.03206095,0.030780481,0.019923465,4000,0,-0.75626373,-5.9605002,-7.83078,4000
2509937309,-0.1344844,0.25209674,-0.012488998,4035,0,1.8107108,1.4873255,-15.780361,4035
2509941274,0.07571723,0.24729268,0.09075864,3965,0,0.6923935,2.9229243,-10.80873,3965
2509945274,-0.05856936,-0.17387256,0.029767714,4000,0,-1.4400214,-4.7646866,-8.394717,4000
2509949274,0.1789404,0.4484529,-0.09949561,4000,0,-3.0863402,-0.9106899,-16.108278,4000
2509953274,-0.43816885,-0.13910855,0.24368775,4000,0,-1.2600235,4.4793677,-7.3044777,4000
2509957292,0.44747385,0.3216163,-0.12279606,4018,0,-2.821978,-3.5266883,-15.8573265,4018
2509961274,-0.35504958,0.00019804105,0.041176964,3982,0,-2.937362,-2.181077,-10.986019,3982
2509965330,-0.19667758,-0.039751492,0.15913655,4056,0,-1.6601417,5.61561,-12.572048,4056
2509969274,0.31320888,0.36750355,-0.07920068,3944,0,-2.5252047,-1.5748602,-17.35239,3944
2509973274,-0.38780102,-0.2115906,0.098188385,4000,0,-1.2641287,-3.060009,-8.726448,4000
2509977297,-0.015026924,0.11640813,0.060452282,4023,0,-2.893701,5.1081786,-18.095453,4023
2509981274,-0.10132045,0.07977699,0.02438514,3977,0,-4.6675634,0.5463124,-12.666551,3977
2509985299,0.046305913,0.076576725,0.024626978,4025,0,-2.016543,-2.9050581,-15.489668,4025
2509989274,-0.395426,-0.09983834,0.0899799,3975,0,-4.5430646,3.3944268,-13.157024,3975
2509993274,-0.056993213,0.10795032,0.042775284,4000,0,-5.281033,3.1690204,-14.234525,4000
2509997304,0.13095208,0.21247596,0.030287791,4030,0,-3.015492,-2.4993954,-16.74444,4030
2510001274,-0.7194385,-0.27357438,0.08538518,3970,0,-1.7111788,2.1303985,-6.965261,3970
2510005280,0.29736793,0.37470505,0.03398045,4006,0,-5.4281893,5.1434336,-20.592503,4006
2510009274,-0.40879086,0.033431847,0.047218196,3994,0,-1.8866264,-2.002011,-9.838331,3994
2510013274,-0.20978025,0.034875285,0.037512805,4000,0,-0.81628174,1.7899228,-11.279374,4000
2510017273,-0.057401028,0.15911068,0.11324669,3999,0,-4.441252,4.680274,-14.533905,3999
2510021274,-0.32525125,0.055583593,-0.044503473,4001,0,-2.7821717,-1.4302914,-11.23388,4001
2510025274,0.047113717,0.31290266,0.124065354,4000,0,-0.68586993,1.1066041,-12.769222,4000
2510029274,-0.5448459,-0.19573759,0.09531299,4000,0,-2.1105568,3.1216695,-7.4311976,4000
2510033274,0.27317467,0.5195104,-0.08421128,4000,0,-2.9307408,-0.5639988,-21.282764,4000
2510037330,-0.47259045,0.1541177,0.17912291,4056,0,1.1288605,-0.018437808,-5.817629,4056
2510041275,-0.21553458,0.13785915,0.026813058,3945,0,0.5585438,3.0034685,-13.375148,3945
2510045274,0.08974392,0.4101277,-0.008991335,3999,0,-2.605063,-1.270921,-16.631496,3999
2510049323,-0.4548146,0.26845965,0.10248347,4049,0,2.3752015,-0.12178033,-9.624219,4049
2510053274,-0.0016213763,0.4195569,0.035492677,3951,0,0.32150072,1.5645044,-12.581535,3951
2510057274,-0.19362399,0.240936,0.046975795,4000,0,-0.65958947,-1.2162987,-13.393836,4000
2510061274,0.0072035925,0.6589458,0.014224396,4000,0,0.34757364,-0.5774422,-16.497747,4000
2510065275,-0.3454822,0.21370961,0.13062142,4001,0,2.85986,0.36212477,-5.53119,4001
2510069286,0.09015602,0.5163795,0.014727747,4011,0,0.11483854,0.15161444,-18.049873,4011
2510073274,-0.16911623,0.60334784,0.028455045,3988,0,0.7255052,-1.1277214,-12.482773,3988
2510077283,-0.22840157,0.3593197,0.13455741,4009,0,4.6017017,1.0856968,-8.056734,4009
2510081284,0.11165985,0.6563406,-0.015614079,4001,0,0.14067309,-0.35984787,-13.329757,4001
2510085294,-0.21041566,0.5919332,0.05693563,4010,0,1.029001,-0.5796207,-13.992376,4010
2510089274,-0.048553158,0.6372136,0.08312818,3980,0,3.058039,0.3998624,-10.5804615,3980
2510093274,-0.05859826,0.5268943,0.030679524,4000,0,0.48691723,-1.5218419,-9.551814,4000
2510097280,-0.11576337,0.57136685,0.09449356,4006,0,0.67793673,0.19544825,-15.257793,4006
2510101273,-0.020885065,0.7909154,0.033681378,3993,0,0.7671785,-0.29433417,-12.391785,3993
2510105317,-0.17853506,0.40455762,0.14676961,4044,0,2.4382825,0.014183,-7.140963,4044
2510109274,0.10475844,0.7383256,-0.015211876,3957,0,-0.6725374,-0.35870308,-13.959809,3957
2510113274,-0.09749156,0.7674149,0.11909483,4000,0,0.32272387,0.3909509,-15.235509,4000
2510117280,-0.23088628,0.49881792,0.1151354,4006,0,3.1441758,0.28718865,-6.2893023,4006
2510121274,0.24668029,0.81713665,-0.022918528,3994,0,-1.3734087,-0.35369232,-14.144169,3994
2510125292,-0.25320783,0.5707031,0.15269537,4018,0,-0.39593884,-0.51855725,-11.983933,4018
2510129274,-0.079077825,0.7726101,0.04253358,3982,0,0.49735653,0.44249246,-10.826394,3982
2510133330,0.119445436,0.61704135,0.10132575,4056,0,-0.46208447,-0.25772527,-8.003903,4056
2510137280,-0.11683069,0.53278637,0.029185105,3950,0,-2.0342035,-1.4992859,-11.513208,3950
2510141274,0.050498668,0.958125,0.120722875,3994,0,-1.2234272,1.545771,-16.406826,3994
2510145309,-0.28748858,0.2768922,0.116154015,4035,0,2.6142237,0.5866769,-2.4503999,4035
2510149274,0.40866435,0.79280305,-0.021480177,3965,0,-2.427,-0.39522266,-15.365962,3965
2510153274,-0.29940966,0.54195887,0.1304992,4000,0,-0.75229555,-0.21960613,-9.049251,4000
2510157274,0.018095683,0.6959358,0.09190849,4000,0,1.5078195,3.1014993,-11.26638,4000
2510161274,0.23597826,0.5258118,0.049268313,4000,0,-0.6825623,-1.1243836,-6.9195356,4000
2510165290,-0.09523539,0.39791632,0.015303849,4016,0,-2.4184625,-1.8112205,-11.773776,4016
2510173287,-0.1631108,0.22355545,0.08516187,4014,0,1.2236983,1.0659178,-3.440734,4014
2510177274,0.48984423,0.65405226,-0.021229008,3987,0,-3.3373907,-2.0944462,-14.436684,3987
2510181274,-0.28235647,0.39835015,0.11495758,4000,0,-2.424545,0.84830695,-9.418886,4000
2510185310,0.17258793,0.74203056,0.10095769,4036,0,0.9701783,4.4904094,-13.571893,4036
2510189274,0.15232664,0.1768464,0.05764224,3964,0,1.1352675,-1.1603622,-3.696223,3964
2510193274,0.15414591,0.46530893,-0.015975827,4000,0,-2.4385972,-1.1670034,-14.812245,4000
2510197274,-0.10870735,0.54419273,0.16583332,4000,0,-0.67091197,3.2702944,-10.615402,4000
2510201274,0.09538677,0.39666042,0.041331287,4000,0,1.8086773,1.5381469,-7.4969406,4000
2510205274,0.34935716,0.29145685,0.04446916,4000,0,-1.4971756,-3.0421002,-10.271894,4000
2510209281,-0.29556715,0.2910277,0.049520325,4007,0,-3.1395602,0.85120124,-10.755477,4007
2510213274,0.27260223,0.63026905,0.13114358,3993,0,0.03983735,4.057908,-12.999287,3993
2510217323,-0.066766456,0.08685469,0.051460292,4049,0,2.4650974,-1.514195,-2.8128657,4049
2510221274,0.37267163,0.42869887,-0.015940635,3951,0,-2.0518923,-1.344974,-16.554123,3951
2510225274,-0.36473402,0.29015234,0.17936581,4000,0,0.19866689,3.0332832,-6.9820585,4000
2510229280,0.46111175,0.63633484,-0.022767438,4006,0,2.287545,1.9864742,-14.795733,4006
2510233276,-0.037416484,-0.033466537,0.1469768,3996,0,2.21494,-3.7760887,-4.3229384,3996
2510237274,0.08339417,0.43666318,-0.032937262,3998,0,-2.315691,0.47504768,-16.482832,3998
2510241274,0.052649572,0.4423261,0.17546228,4000,0,0.8083872,2.9385412,-7.4766283,4000
2510245282,0.17402887,0.34752008,0.028955111,4008,0,2.5278237,-1.6233866,-8.628618,4008
2510249280,0.2675624,0.33285698,0.030106476,3998,0,-0.39155656,-2.787419,-12.29383,3998
2510253274,-0.30421087,0.24569064,0.13597439,3994,0,-0.1998578,2.5159962,-8.447848,3994
2510257274,0.5669424,0.7247784,0.014588614,4000,0,2.0601745,1.7428391,-14.021305,4000
2510261274,-0.121905975,0.018880533,0.12556882,4000,0,3.3447688,-3.5935698,-3.9397666,4000
2510265274,0.3674687,0.549336,-0.0102783935,4000,0,-1.2052919,0.08760853,-17.206568,4000
2510269274,-0.13094895,0.25903264,0.13759956,4000,0,0.82004446,2.5800638,-3.0297785,4000
2510273313,0.59295535,0.6289098,0.02228702,4039,0,1.4797716,-0.8358157,-14.629121,4039
2510277274,-0.031004816,0.15817368,0.075323194,3961,0,0.38988847,-3.1798315,-6.6927466,3961
2510281274,0.13725294,0.42908823,0.080825,4000,0,-1.178868,2.687819,-14.837196,4000
2510285273,0.36584517,0.48117226,0.045096826,3999,0,0.33713588,0.5487182,-6.6617475,3999
2510289274,0.17154853,0.42425975,0.061782252,4001,0,1.53754,-2.076297,-12.864609,4001
2510293275,0.16201374,0.31752512,0.082640685,4001,0,0.16325256,0.2027094,-9.264958,4001
2510297274,0.15006804,0.41863188,0.037711363,3999,0,-0.5063619,1.7711183,-8.952743,3999
2510301326,0.42710486,0.47887573,0.08693854,4052,0,0.43210605,-0.8152199,-10.444742,4052
2510305274,-0.008737729,0.40391308,0.04009772,3948,0,0.34260207,-0.658077,-10.984794,3948
2510309276,0.312189,0.36393926,0.11910693,4002,0,-0.2214782,1.751709,-10.862015,4002
2510313295,0.16259453,0.38737792,0.005780158,4019,0,-1.4466187,0.12208836,-6.621698,4019
2510317284,0.34416488,0.53159,0.09260165,3989,0,-1.0936623,-0.22587067,-14.383809,3989
2510321293,-0.10456469,0.20783527,0.08520412,4009,0,0.90342367,0.4916363,-5.695914,4009
2510325274,0.53263015,0.5705662,0.023533355,3981,0,-1.3935949,1.0030035,-13.035013,3981
2510329287,-0.11731407,0.1551775,0.07438728,4013,0,-0.5161322,-0.8495177,-5.4145885,4013
2510333291,0.47992012,0.6987046,0.056273125,4004,0,-1.8371942,1.1192489,-17.618656,4004
2510337274,-0.15909982,0.19556181,0.08914613,3983,0,1.416659,0.041688625,-4.9528027,3983
2510341280,0.47010013,0.3859482,0.051402636,4006,0,-1.985944,0.82536143,-10.562591,4006
2510345274,0.019601991,0.35298893,0.047797587,3994,0,-2.3422894,-1.0419248,-10.120201,3994
2510349282,0.067379534,0.4647624,0.06282893,4008,0,-0.50138664,1.9742368,-11.466941,4008
2510353276,0.17898375,0.29988784,0.090175875,3994,0,0.9922899,-0.13089862,-6.8871574,3994
2510357287,0.1698432,0.26690733,-0.025837926,4011,0,-2.5089273,-1.2252636,-10.019174,4011
2510361282,0.04110935,0.40240124,0.13470702,3995,0,-0.0068927105,1.4417245,-11.973642,3995
2510365282,0.1455226,0.43528822,0.017677767,4000,0,-0.4981245,0.83897865,-9.879247,4000
2510369274,0.116097786,0.08481209,0.13345826,3992,0,2.3818905,-0.7637166,-5.691266,3992
2510373274,0.21948053,0.40786546,-0.061418846,4000,0,-4.0418077,-0.794974,-12.9971895,4000
2510377274,-0.054328773,0.2717306,0.16246694,4000,0,0.34793392,2.042396,-9.625245,4000
2510381274,0.28932703,0.41478455,0.007631487,4000,0,0.20770693,-1.2072241,-8.6656685,4000
2510385323,0.05558048,0.029980822,0.091894835,4049,0,0.77610236,-0.8713763,-7.7428703,4049
2510389274,0.21972977,0.49372333,-0.023019455,3951,0,-3.3111336,-0.40760377,-14.170291,3951
2510393274,-0.025814194,0.24485785,0.16054256,4000,0,2.5708256,1.6116307,-6.299946,4000
2510397273,0.318786,0.2829742,-0.027719725,3999,0,0.95,-1.5749475,-10.568619,3999
2510401294,0.06887238,0.16417764,0.10149871,4021,0,0.42491657,-0.5184684,-9.218113,4021
2510405274,0.14325453,0.4433488,0.015085468,3980,0,-0.9924004,0.81954384,-13.373164,3980
2510409274,0.08616623,0.17717813,0.090631515,4000,0,2.7485435,0.45682222,-4.5668607,4000
2510413274,0.35247463,0.31789035,0.012704367,4000,0,-0.6754767,-0.61885005,-12.776803,4000
2510417274,0.09777341,0.2908973,0.0385323,4000,0,-0.30524492,-0.93120736,-9.624051,4000
2510421312,0.11293639,0.3800247,0.05547184,4038,0,0.7400484,0.68029743,-10.981409,4038
2510425274,0.20626803,0.18943162,0.048858915,3962,0,1.0913846,0.18028837,-6.66961,3962
2510429274,0.2034886,0.34365556,0.02619849,4000,0,0.17297399,-0.6094355,-11.788261,4000
2510433273,0.18821664,0.320746,0.058918722,3999,0,1.1948836,-0.61034155,-10.412678,3999
2510437274,-0.060788777,0.23522493,0.031237442,4001,0,1.8468254,1.705554,-6.739082,4001
2510441303,0.43697274,0.28111804,0.05080861,4029,0,-0.2967561,1.0902907,-10.936766,4029
2510445274,0.0132385325,0.3643862,0.0091838185,3971,0,0.5860391,-0.99992263,-8.144974,3971
2510449274,0.35118428,0.36339185,0.063195996,4000,0,1.6342263,0.3649323,-13.458781,4000
2510453280,-0.19408128,0.074283525,0.04215083,4006,0,0.0015131764,0.851785,-3.8480117,4006
2510457274,0.6052581,0.5001555,0.0051833326,3994,0,-1.8209553,0.8391738,-15.914461,3994
2510461287,-0.1293,0.30871096,0.05974118,4013,0,1.457314,-1.877523,-4.9544945,4013
2510465274,0.3316974,0.36739674,0.023478476,3987,0,1.3320568,0.9726362,-15.126294,3987
2510469323,-0.10760606,0.07408349,0.06286316,4049,0,-0.77820444,2.1102302,-4.140625,4049
2510473280,0.5245223,0.5688925,-0.019316703,3957,0,-1.4040319,0.76154566,-14.069544,3957
2510477274,-0.026960434,0.309529,0.07170384,3994,0,2.513658,-1.3889194,-7.1934342,3994
2510481273,0.048193198,0.12383131,0.028485805,3999,0,0.8664661,2.3800852,-10.597732,3999
2510485278,0.31775233,0.33402264,0.052742682,4005,0,-3.2916462,1.7725366,-9.339301,4005
2510489274,0.09054712,0.3425585,-0.032852184,3996,0,0.4497413,-1.6520289,-8.572475,3996
2510493280,0.23115623,0.36679658,0.079071775,4006,0,0.45236123,0.20687468,-12.470716,4006
2510497274,-0.17161348,-0.03951229,0.01860401,3994,0,-0.20711812,1.7541728,-5.896762,3994
2510501274,0.47729474,0.5210743,0.025659833,4000,0,-3.520706,0.7997282,-12.989771,4000
2510505274,-0.15043513,0.08886019,0.014742257,4000,0,1.4745958,-1.381284,-4.887882,4000
2510509275,0.27520242,0.37481278,0.04291702,4001,0,-0.36711836,1.9886699,-15.047113,4001
2510513274,-0.12668817,-0.018241562,0.07866853,3999,0,0.04556983,1.0455269,-4.9039726,3999
2510517274,0.36841968,0.49068338,-0.07446574,4000,0,-2.6562877,-0.7637062,-14.56518,4000
2510521274,-0.17026241,-0.03631844,0.107133865,4000,0,1.9343516,0.19951802,-4.553268,4000
2510525285,0.2931863,0.36386046,-0.031732257,4011,0,-1.346329,0.53327316,-14.232622,4011
2510529280,-0.06720687,0.041029043,0.10432153,3995,0,-0.2733095,-0.5210808,-5.5091085,3995
2510533285,0.22780618,0.38963813,-0.08252274,4005,0,-1.2944039,-0.21075653,-12.573547,4005
2510537274,-0.018012928,0.0071871034,0.082067676,3989,0,0.5794336,0.51565874,-6.7293463,3989
2510541273,0.15285414,0.27114335,0.025413996,3999,0,-0.27560997,0.1303863,-12.680485,3999
2510545274,0.06903771,0.083316445,0.020365627,4001,0,-0.027940698,-0.86579716,-7.631205,4001
2510549284,0.07163711,0.23911414,-0.010010555,4010,0,-0.29313278,0.31331238,-10.365907,4010
2510553323,0.12757577,0.00836732,0.029052991,4039,0,0.7038143,-0.25981307,-6.766325,4039
2510557274,0.15683363,0.32132822,0.05084789,3951,0,-1.1527785,-0.457189,-14.248412,3951
2510561277,-0.023246601,0.034027666,-0.017182862,4003,0,1.5043216,-0.9747073,-6.0099154,4003
2510565280,0.27707446,0.26867124,0.02721619,4003,0,-1.4157885,0.9015928,-13.395862,4003
2510569317,-0.11630423,-0.07689439,0.027041083,4037,0,1.1857153,-1.0372515,-4.2174573,4037
2510573274,0.40595546,0.43085653,0.033606987,3957,0,-1.5164235,0.6559279,-17.211609,3957
2510577274,-0.2165702,-0.06164888,0.0055457223,4000,0,2.4966552,-0.8737572,-2.4603882,4000
2510581274,0.42939684,0.2784574,0.00030910285,4000,0,-0.61815524,0.68635565,-14.778402,4000
2510585294,-0.17867641,-0.034236684,0.06960838,4020,0,0.8538664,-0.42633885,-5.5118246,4020
2510589299,0.36205196,0.40426013,-0.039158303,4005,0,-1.3113588,0.34028766,-15.848537,4005
2510593291,-0.14476997,-0.08381294,0.0809605,3992,0,3.8426974,-0.9940907,-2.8555446,3992
2510597274,0.32742918,0.23670791,-0.055629678,3983,0,-1.9685453,0.333211,-13.863734,3983
2510601273,-0.1266452,0.010317901,0.0944202,3999,0,0.19206643,0.7206517,-6.4349413,3999
2510605280,0.42302713,0.48448908,-0.046125922,4007,0,-0.5824943,0.45787004,-14.390609,4007
2510609314,-0.19370344,-0.16632448,0.069448434,4034,0,3.9467156,-0.7623441,-4.348654,4034
2510613274,0.27556393,0.19418314,-0.023592552,3960,0,-2.6808467,1.2131473,-14.331636,3960
2510617274,-0.10441798,0.04826861,0.0794389,4000,0,0.07051656,1.2531964,-6.039196,4000
2510621274,0.39140248,0.42759976,-0.06959114,4000,0,0.38362908,-0.34859717,-14.7821865,4000
2510625275,-0.29249495,-0.27033067,0.12441465,4001,0,3.396166,-0.21298876,-2.6532874,4001
2510629274,0.3396775,0.3232869,-0.07785721,3999,0,-4.2846937,1.5851196,-17.435457,3999
2510633274,-0.16804816,-0.04254998,0.12113196,4000,0,1.0726049,0.34119463,-2.7774942,4000
2510637311,0.27010846,0.37639108,-0.077870965,4037,0,0.16049305,0.006213584,-16.180147,4037
2510641274,-0.19964588,-0.26408228,0.09604486,3963,0,2.632047,0.119217694,-3.4581459,3963
2510645274,0.116575755,0.21877533,-0.00858874,4000,0,-4.0419436,1.9316022,-14.551063,4000
2510649273,0.04389317,0.09229459,0.015591606,3999,0,1.4886994,0.46782237,-6.904235,3999
2510653283,-0.05528989,0.07885545,-0.0019316913,4010,0,0.84341013,0.093817376,-10.77538,4010
2510657286,0.08493153,-0.078050114,0.06262655,4003,0,0.7385005,0.565109,-9.089358,4003
2510661274,-0.19644958,0.060844544,-0.037365254,3988,0,-2.7721415,0.29934862,-9.450674,3988
2510665274,0.20980379,0.07507766,0.06502443,4000,0,1.2762699,1.6129601,-11.132339,4000
2510669274,-0.19786675,-0.062492423,-0.0378876,4000,0,-0.15043908,-1.73191,-6.984547,4000
2510673274,0.10349816,0.023376074,0.063577235,4000,0,0.13237283,0.6200676,-13.556016,4000
2510677306,-0.2511061,-0.017913768,0.0048375507,4032,0,-1.457227,0.6091516,-6.000682,4032
2510681274,0.23458482,0.11638445,-0.018003635,3968,0,0.8629299,1.1950171,-12.759359,3968
2510685274,-0.16979043,-0.18455808,0.057488132,4000,0,0.06040889,-2.5071359,-6.1901817,4000
2510689274,-0.014340337,0.14811867,-0.0018269366,4000,0,0.54398763,1.2722737,-14.910868,4000
2510693299,-0.15197358,-0.103552066,0.034207508,4025,0,-0.6754109,1.3673882,-6.1422734,4025
2510697293,0.12982495,-0.06488204,-0.020984583,3994,0,0.8795987,-0.68290377,-9.294525,3994
2510701274,0.054336697,0.13833681,0.015029503,3981,0,-1.4116496,-2.3218007,-11.870245,3981
2510705274,-0.3910901,-0.1909215,0.054012634,4000,0,1.4461641,1.8300666,-9.081195,4000
2510709275,0.33944952,0.18142712,-0.01495273,4001,0,-1.5673343,0.81083286,-8.630735,4001
2510713274,-0.1657453,-0.30532598,-0.0023611377,3999,0,1.6313167,-2.9698179,-8.493587,3999
2510717328,0.08521315,0.22164,0.011734721,4054,0,-2.4778972,0.37705475,-13.748282,4054
2510721324,-0.23700792,-0.13228576,0.06601461,3996,0,2.90023,1.9151597,-7.8846383,3996
2510725284,0.26705566,-0.04679527,-0.061534517,3960,0,-1.335204,-1.2381841,-7.368662,3960
2510729274,-0.0645413,-0.120573595,0.03500872,3990,0,0.3125677,-1.4272228,-12.057085,3990
2510733274,-0.07430177,0.16135629,-0.0181844,4000,0,-1.9379538,1.3404835,-11.436466,4000
2510737297,-0.0110722035,-0.12619299,0.100516915,4023,0,3.4498959,1.1176943,-7.424391,4023
2510741274,0.15141031,-0.14959975,-0.09991886,3977,0,-1.9939075,-2.2591076,-8.900862,3977
2510745274,-0.1136116,-0.08085192,0.07640121,4000,0,-0.5081193,0.60074806,-12.6354065,4000
2510749274,-0.028268753,0.17621602,-0.0123143885,4000,0,-0.121051416,1.2269862,-8.957725,4000
2510753274,0.04846076,-0.21774906,0.035699166,4000,0,2.5192237,0.359781,-7.5751257,4000
2510757298,0.0770317,-0.13366613,-0.036477968,4024,0,-2.048587,-1.4538491,-9.756406,4024
2510761276,-0.09925872,0.029185032,0.041700304,3978,0,-0.36066118,1.859242,-12.755746,3978
2510765274,0.0073377592,0.014609056,0.004130065,3998,0,1.0271354,0.34053385,-7.1925173,3998
2510769274,0.046397876,-0.26048696,0.021945776,4000,0,1.4019743,0.53982824,-8.598039,4000
2510773277,0.06642428,-0.013149159,-0.01979432,4003,0,-2.6348548,-1.1609674,-11.9931135,4003
2510777291,-0.23045877,-0.12925774,0.04892665,4014,0,0.4819962,1.9001251,-9.350787,4014
2510781274,0.14955217,0.05656621,-0.0074499287,3983,0,0.63982815,0.8518124,-8.870274,3983
2510785274,-0.08552482,-0.3045904,-0.024240835,4000,0,1.0454811,-0.12841508,-9.093768,4000
2510789274,0.065230325,0.07226416,0.057545986,4000,0,-2.6010983,0.29552585,-11.53813,4000
2510793274,-0.21030714,-0.099856146,-0.04984026,4000,0,1.9975255,1.4034796,-9.471878,4000
2510797274,0.12966411,-0.13170359,0.043948285,4000,0,-0.53960735,1.206511,-7.927922,4000
2510801274,-0.07890347,-0.09708178,-0.016597793,4000,0,0.30645052,-0.55643606,-10.485617,4000
2510805311,0.037540622,-0.044589743,0.011695566,4037,0,-0.108665295,-0.12003744,-11.006511,4037
2510809280,-0.32148233,-0.24849181,0.023166783,3969,0,0.5546987,1.6470718,-8.349443,3969
2510813274,0.28969586,-0.0018236741,-0.018461386,3994,0,-0.72538406,1.4158635,-10.014438,3994
2510817274,-0.29061794,-0.2329449,0.03486955,4000,0,0.8599489,-1.9180906,-8.606082,4000
2510821279,0.14932084,0.07693863,-0.004489077,4005,0,0.08725111,1.3915131,-13.340102,4005
2510825310,-0.45175222,-0.43879882,0.020376626,4031,0,0.072034456,1.4734378,-5.091079,4031
2510829294,0.50912046,0.2592993,-0.013786031,3984,0,-1.6953408,0.44316575,-13.40138,3984
2510833274,-0.502667,-0.3256526,0.018319454,3980,0,2.836741,-2.6696413,-7.086002,3980
2510837274,0.19766024,0.046248525,-0.011506773,4000,0,-1.1574833,2.3835638,-14.253189,4000
2510841274,-0.36971247,-0.48582482,0.06887295,4000,0,-0.023966694,0.5176404,-2.4858284,4000
2510845311,0.48664308,0.4199416,-0.12838386,4037,0,-1.6130475,-1.3402718,-16.949783,4037
2510849280,-0.62780017,-0.52682114,0.16602585,3969,0,3.7433088,-0.30526084,-3.8324792,3969
2510853274,0.3999952,0.21275847,-0.14885382,3994,0,-2.4786186,2.1408675,-16.614721,3994
2510857274,-0.4174528,-0.56129503,0.16826239,4000,0,0.3322349,-0.5405402,-0.70208216,4000
2510861274,0.4812809,0.44431853,-0.18606217,4000,0,-1.1054066,-1.2871404,-19.136812,4000
2510865314,-0.58671564,-0.5105821,0.1869385,4040,0,3.4063509,0.99395,-3.4822361,4040
2510869274,0.3460402,-0.036901798,-0.10798038,3960,0,-2.260513,0.26792675,-12.554738,3960
2510873274,-0.119207546,-0.09980381,0.046321493,4000,0,-0.93426,-1.1649877,-7.2127104,4000
2510877273,-0.021778429,0.009358821,-0.057519242,3999,0,0.7093224,-0.23550627,-12.51996,3999
2510881274,0.010303185,-0.21129599,0.077277355,4001,0,1.4857632,1.6810188,-8.412615,4001
2510885283,-0.03148786,-0.27919632,-0.017115915,4009,0,-2.7046463,-1.3203888,-8.563189,4009
2510889323,0.0643802,0.05772462,-0.053314768,4040,0,0.2962301,0.21636525,-11.220536,4040
2510893274,-0.047350377,-0.08216427,0.058350302,3951,0,-0.056693673,1.4255195,-9.704904,3951
2510897274,-0.030439248,-0.29428607,-0.027313014,4000,0,2.3815129,-0.6540629,-7.995396,4000
2510901286,0.14679919,-0.109287284,0.038406685,4012,0,-3.3518045,-0.20702712,-11.577235,4012
2510905275,-0.24537314,-0.16638689,-0.071529806,3989,0,0.9678828,0.2426618,-8.279816,3989
2510909275,0.31698772,0.05487378,0.043803584,4000,0,0.17718807,1.3682569,-11.723701,4000
2510913279,-0.34883478,-0.44470376,0.029313384,4004,0,1.8018162,-1.3124357,-5.3424296,4004
2510917274,0.36689308,0.08580573,-0.07103513,3995,0,-4.318055,1.0061885,-15.512122,3995
2510921281,-0.40492442,-0.26305646,0.061050605,4007,0,2.6679966,0.5100683,-4.3027472,4007
2510925273,0.3661628,0.02374442,-0.08035978,3992,0,-0.6044235,1.1608448,-14.53124,3992
2510929274,-0.37649587,-0.4255954,0.11092225,4001,0,0.92877483,-0.9783047,-4.770487,4001
2510933279,0.3359536,0.13061479,-0.11534939,4005,0,-2.8545988,0.90032905,-15.002023,4005
2510937281,-0.3524261,-0.31123057,0.07268495,4002,0,3.397986,0.81186944,-4.831407,4002
2510941280,0.23226179,-0.10864526,-0.058896694,3999,0,-1.5940331,0.30927098,-12.577711,3999
2510945292,-0.19245474,-0.16460067,0.06413763,4012,0,0.43678954,0.018218553,-8.139679,4012
2510949274,0.10300249,-0.02103646,-0.092920296,3982,0,-1.4871325,0.4583604,-12.054647,3982
2510953291,-0.23266286,-0.33576158,0.09078693,4017,0,3.064489,1.5646783,-6.112299,4017
2510957274,0.18750454,-0.02905829,-0.116647355,3983,0,-3.4613109,-0.2883148,-13.862003,3983
2510961280,-0.2638416,-0.2666663,0.13798653,4006,0,1.790524,-0.20056953,-5.586204,4006
2510965274,0.1919711,0.11207765,-0.15913108,3994,0,-0.47793698,0.48054105,-15.047708,3994
2510969274,-0.3955634,-0.5488714,0.13829452,4000,0,2.1282828,1.491012,-3.5549061,4000
2510973317,0.3160941,0.13284688,-0.12841843,4043,0,-3.4188921,-0.62783086,-15.241468,4043
2510977274,-0.2633687,-0.18010305,0.08935912,3957,0,2.8372607,-0.339433,-6.8735623,3957
2510981274,-0.08538441,-0.23766342,-0.05686063,4000,0,0.50357795,1.5801739,-11.000663,4000
2510985274,0.100071326,-0.19259499,0.01740768,4000,0,-1.3655661,0.60842633,-8.988825,4000
2510989274,-0.19190869,-0.12348301,-0.039349962,4000,0,-0.9911971,-1.3895093,-9.29793,4000
2510993286,0.18114021,0.025207628,0.027429946,4012,0,2.3120914,1.3508693,-12.832766,4012
2510997274,-0.4308441,-0.47701666,-0.022264574,3988,0,-0.20714977,0.35554826,-5.06779,3988
2511001274,0.38505843,0.021313054,-0.0090615675,4000,0,-1.8181552,-0.28046376,-14.573818,4000
2511005274,-0.42672047,-0.20058851,-0.008292766,4000,0,0.7413692,-1.2818305,-5.3049073,4000
2511009274,0.2320898,-0.04220745,0.01671943,4000,0,1.9876714,2.8929572,-15.481071,4000
2511013302,-0.27349162,-0.46811554,0.0035004972,4028,0,-1.3888329,-1.9108634,-2.569905,4028
2511017274,0.18476492,0.08099655,-0.08248399,3972,0,-1.1588142,0.36010662,-17.206135,3972
2511021274,-0.31903845,-0.26124632,0.05888438,4000,0,0.81608427,1.0508574,-3.7800825,4000
2511025274,0.16847031,-0.119940326,-0.011455247,4000,0,1.6303267,1.2901626,-14.705256,4000
2511029305,-0.13125408,-0.35504583,-0.016289195,4031,0,-2.3500485,-2.9964042,-5.604078,4031
2511033304,-0.09118379,-0.063476816,-0.04129497,3999,0,0.22503284,1.5247885,-13.801016,3999
2511037273,-0.025954952,-0.11344636,0.044166856,3969,0,0.46612915,1.9628989,-5.610438,3969
2511041274,0.062327214,-0.25232404,-0.025903631,4001,0,1.7327284,-2.202129,-13.004903,4001
2511045274,-0.1614835,-0.24941027,-0.019808799,4000,0,-3.0080595,-0.8717484,-8.690777,4000
2511049274,-0.153567,-0.076350935,-0.02230764,4000,0,1.4525353,2.9170032,-10.911255,4000
2511053280,0.11777513,-0.18851924,0.02615307,4006,0,-0.008012061,0.5614032,-7.172721,4006
2511057323,-0.05583361,-0.22896498,-0.021390697,4043,0,0.42534834,-2.2754207,-13.217382,4043
2511061278,-0.15886584,-0.17633572,-0.065327145,3955,0,-2.0385332,0.6723691,-8.974116,3955
2511065274,-0.123885274,-0.17243885,0.07470398,3996,0,1.69834,2.992686,-8.425137,3996
2511069274,0.20210044,-0.05002499,-0.08890971,4000,0,-0.9288798,-1.5174538,-10.756387,4000
2511073280,-0.26477832,-0.324924,0.046047933,4006,0,0.87820005,-1.1622275,-11.578117,4006
2511077279,-0.045371424,0.0010820692,-0.08150805,3999,0,-1.3708031,1.4962217,-8.399304,3999
2511081278,-0.118340865,-0.3342909,0.08728504,3999,0,1.8718076,2.2850518,-8.360263,3999
2511085273,0.111350335,-0.032738265,-0.10286542,3995,0,-2.5228353,-2.1799235,-12.011108,3995
2511089274,-0.19209751,-0.1855711,0.045902662,4001,0,1.9506584,0.4510063,-11.139796,4001
2511093280,-0.18904649,-0.116050355,-0.07452536,4006,0,-0.66490805,0.92079663,-6.9347067,4006
2511097274,0.061912227,-0.28006864,0.07862549,3994,0,-0.50552434,2.29403,-10.754004,3994
2511101277,-0.05963704,0.020851202,-0.12357463,4003,0,-1.848194,-2.6926994,-11.873503,4003
2511105274,-0.17375794,-0.25027305,0.085508,3997,0,3.168111,1.1556388,-8.678548,3997
2511109274,-0.17858961,-0.1739615,-0.0680572,4000,0,-1.3678331,0.86160266,-8.658119,4000
2511113297,0.054585695,-0.16606374,5.472889e-06,4023,0,-1.8131785,1.8291069,-11.816991,4023
2511117274,-0.08285853,0.04878264,-0.02377958,3977,0,0.6483545,-1.9848678,-9.509605,3977
2511121285,-0.11602151,-0.25033683,-0.029000118,4011,0,2.406899,0.5757243,-10.257083,4011
2511125274,-0.30006576,-0.3013068,0.03926657,3989,0,-1.7596362,1.9824172,-7.0404897,3989
2511129282,0.25458103,0.036052607,-0.07338899,4008,0,-2.7426279,0.48999736,-13.731632,4008
2511133280,-0.34616297,-0.123430476,0.0109071825,3998,0,3.432395,-2.3867667,-6.581806,3998
2511137274,-0.01449116,-0.27440158,-0.005634261,3994,0,0.5539395,1.8076192,-12.705209,3994
2511141302,-0.27073222,-0.2012171,-0.0050566965,4028,0,-3.287688,1.235192,-6.7679005,4028
2511145274,0.21321388,0.09979366,-0.08850844,3972,0,0.4119245,-0.25401476,-13.500462,3972
2511149274,-0.31848663,-0.20978937,0.058103908,4000,0,2.558821,-1.1172694,-5.98394,4000
2511153274,-0.15652551,-0.3226389,-0.038472246,4000,0,-0.1124228,2.2763937,-13.175158,4000
2511157274,-0.026003223,-0.07768182,0.035672296,4000,0,-3.3165908,0.35955817,-7.861176,4000
2511161315,-0.12740527,-0.06345611,-0.12553622,4041,0,2.0032227,-0.7743817,-10.834597,4041
2511165280,-0.05878365,-0.15527062,0.07416629,3965,0,1.548088,0.37150216,-10.05931,3965
2511169274,-0.3663772,-0.39762133,-0.00081615284,3994,0,-1.3862221,0.7402804,-8.771531,3994
2511173274,0.2717127,0.19230548,-0.090549804,4000,0,-1.8259163,-0.32135642,-12.623782,4000
2511177276,-0.534085,-0.38343444,0.017600369,4002,0,3.225189,0.018127717,-4.6390915,4002
2511181313,0.318509,0.088361405,-0.005698541,4037,0,-0.56079495,1.2891207,-16.077978,4037
2511185280,-0.5594524,-0.41726646,-0.016120156,3967,0,-0.5671777,-1.5654429,-5.2494807,3967
2511189274,0.29567084,0.22266024,-0.04693681,3994,0,-0.5429766,1.8760467,-14.225177,3994
2511193274,-0.4760411,-0.45490947,-0.0138594955,4000,0,2.598916,0.15591635,-3.715168,4000
2511197289,0.31317765,0.13446929,-0.00750295,4015,0,-2.3369386,-0.029545138,-17.345234,4015
2511201274,-0.5460571,-0.41515484,0.011469653,3985,0,0.8205094,-1.1682314,-4.1120977,3985
2511205280,0.24813867,0.28236914,-0.10579836,4006,0,-0.67547536,2.4662483,-14.452921,4006
2511209274,-0.397878,-0.58466876,0.09232925,3994,0,2.1559181,-0.14583597,-2.372977,3994
2511213274,0.33431977,0.35025233,-0.14699535,4000,0,-3.472597,-1.2948341,-21.310196,4000
2511217274,-0.7188004,-0.5834827,0.1287058,4000,0,3.1574292,1.0480292,0.835078,4000
2511221274,0.4861386,0.37676835,-0.18920185,4000,0,-1.5470479,2.0778458,-17.719496,4000
2511225323,-0.5455276,-0.6247275,0.1419244,4049,0,0.77614003,-0.9124968,-1.63589,4049
2511229274,0.35337156,0.3838859,-0.17981675,3951,0,-2.5810225,-0.64678,-22.485044,3951
2511233274,-0.6444467,-0.512441,0.1597021,4000,0,3.2596066,2.0746062,2.7942553,4000
2511237274,0.3907927,0.13668184,-0.18541214,4000,0,-1.4422354,0.70371056,-17.933968,4000
2511241274,-0.4035586,-0.36767614,0.10533134,4000,0,-1.4273516,-1.24978,-4.4080124,4000
2511245278,0.01753617,0.21291174,-0.1026494,4004,0,-0.066530354,0.92717093,-17.841595,4004
2511249286,-0.23975553,-0.41890386,0.06246299,4008,0,2.8235042,1.220631,0.33724067,4008
2511253274,0.0042812196,-0.06657053,-0.07918013,3988,0,-2.678124,0.4017538,-16.687449,3988
2511257274,-0.12581201,-0.10998723,-0.023310352,4000,0,-1.1932868,-0.526667,-8.353439,4000
2511261274,-0.26246214,0.010941115,0.04917463,4000,0,1.6451489,1.2466875,-11.136398,4000
2511265274,-0.0006407587,-0.28789252,-0.0798217,4000,0,1.4728502,0.5030729,-5.809116,4000
2511269303,-0.21699543,-0.12514715,0.0095968675,4029,0,-3.1298785,0.55904895,-14.2515,4029
2511273274,-0.0536346,0.00227206,-0.051105358,3971,0,0.35951495,0.08590973,-8.200806,3971
2511277274,-0.17187369,-0.04378646,-0.016037583,4000,0,1.6184188,0.22873291,-11.091221,4000
2511281277,-0.20358942,-0.38545427,0.0232933,4003,0,0.120263554,0.9239939,-6.6274257,4003
2511285274,-0.012862865,0.057730827,-0.08112009,3997,0,-3.33137,0.4560668,-15.342403,3997
2511289322,-0.23674853,-0.13520132,0.014882868,4048,0,2.8731177,-0.5283254,-4.5855713,4048
2511293273,-0.07131109,-0.123177856,0.0019017601,3951,0,-0.29869163,1.1826019,-13.247123,3951
2511297280,-0.19845106,-0.1950902,-0.0552489,4007,0,-0.15141915,0.26254618,-8.018131,4007
2511301274,-0.07424911,-0.019699434,-0.00418229,3994,0,-1.6479084,0.5289174,-12.913194,3994
2511305274,-0.13455641,-0.092934534,-0.05706887,4000,0,2.4348214,-1.1985404,-5.822304,4000
2511309298,-0.19901726,-0.17459993,0.04332577,4024,0,-0.5294433,2.0693564,-13.4146185,4024
2511313274,-0.07688521,-0.13018519,-0.05158927,3976,0,-0.5959078,-0.5707742,-7.8591695,3976
2511317280,-0.124734476,0.062091216,-0.07395573,4006,0,-0.1775298,0.06393083,-11.50495,4006
2511321274,-0.22086965,-0.31861803,0.028075451,3994,0,1.6268954,0.4937124,-6.753265,3994
2511325274,-0.0056313733,0.1100939,-0.012322444,4000,0,-2.812253,1.9295917,-15.144077,4000
2511329302,-0.2828277,-0.21208756,-0.049934976,4028,0,2.6875715,-1.7189219,-5.2077985,4028
2511333274,-0.036810756,0.018433684,-0.052749768,3972,0,-0.9820266,0.90339583,-11.953131,3972
2511337280,-0.27668032,-0.2921944,0.053479485,4006,0,0.6011829,1.3107088,-6.815195,4006
2511341274,0.030833215,0.18626057,-0.099994734,3994,0,-2.326351,-0.43797493,-15.524006,3994
2511345274,-0.3256091,-0.2479161,0.049695786,4000,0,3.8264465,-0.6627714,-3.743347,4000
2511349290,-0.124401525,-0.10105104,-0.11991196,4016,0,-1.9175631,1.4427994,-13.517222,4016
2511353274,-0.16865,-0.19407119,0.112020664,3984,0,-0.7080253,1.2850376,-6.468559,3984
2511357299,-0.046342377,0.3053982,-0.1676911,4025,0,-1.3570276,-1.3998854,-16.112223,4025
2511361274,-0.42224473,-0.44139788,0.082751706,3975,0,4.7813506,0.95453566,-0.74536186,3975
2511365274,-0.008961436,0.004832213,-0.10671189,4000,0,-4.4061513,1.6505587,-16.515427,4000
2511369274,-0.241031,-0.108362906,0.05420726,4000,0,-0.56784946,-0.33513257,-6.192882,4000
2511373274,-0.1731783,0.17113864,-0.104510374,4000,0,1.4847797,-0.727516,-14.856593,4000
2511381273,-0.15675628,-0.09224001,-0.05183172,3994,0,-3.710711,0.577984,-14.33296,3994
2511385274,-0.09710514,0.07567612,-0.010062782,4001,0,-0.60631114,-0.5553128,-9.19161,4001
2511389274,-0.50575376,-0.06721246,-0.059513267,4000,0,2.4316165,0.11799438,-8.440421,4000
2511393275,0.026934475,-0.3073593,-0.0013496759,4001,0,0.35835722,1.8196414,-8.529952,4001
2511397287,-0.49768022,-0.12837961,-0.014174649,4012,0,-3.6952076,-0.6610373,-10.259947,4012
2511401275,0.06192709,0.11873194,-0.08506972,3988,0,0.8230409,0.9005273,-12.659469,3988
2511405273,-0.61530006,-0.25457093,0.054999016,3998,0,2.2284074,0.04012895,-4.303455,3998
2511409280,0.047438864,-0.21613936,-0.11080129,4007,0,-1.0830839,0.5209831,-12.68043,4007
2511413274,-0.5668788,-0.06955803,0.0492851,3994,0,-2.106234,0.05530121,-8.982921,3994
2511417295,-0.03996909,-0.0020801742,-0.103042744,4021,0,1.0375664,0.60899407,-9.109213,4021
2511421274,-0.36550587,-0.19636191,0.010058307,3979,0,1.8688741,-0.56291777,-9.56105,3979
2511425274,-0.40581393,-0.35238418,-0.02140642,4000,0,-2.0640745,0.75867474,-8.669431,4000
2511429280,-0.13419995,0.10299963,-0.04127113,4006,0,-1.0620675,0.70638967,-13.047499,4006
2511433276,-0.3867111,-0.21968625,-0.0370039,3996,0,1.8962952,-0.59329,-4.511137,3996
2511437314,-0.25575146,-0.20120563,0.011159089,4038,0,1.1772134,0.8248464,-12.341612,4038
2511441274,-0.3685939,-0.14200003,-0.08193539,3960,0,-2.2884624,-0.072894804,-9.009498,3960
2511445274,-0.27820453,-0.108184405,0.046075705,4000,0,0.56534946,0.7834894,-9.09965,4000
2511449280,-0.1821716,-0.030720858,-0.13794518,4006,0,0.8686344,-1.3015853,-9.345827,4006
2511453274,-0.5383289,-0.35182396,0.09851686,3994,0,1.0853182,1.8684037,-9.707515,3994
2511457282,-0.14419293,0.009789109,-0.13055319,4008,0,-2.6721597,-0.7276985,-10.298131,4008
2511461274,-0.33584464,-0.110127814,0.011234185,3992,0,1.2255656,0.45389706,-8.741232,3992
2511465274,-0.40769726,-0.22470288,-0.039548676,4000,0,0.7204759,0.13711609,-7.926529,4000
2511469274,-0.12533619,0.012735825,-0.035764184,4000,0,-1.4125128,1.1423793,-13.93239,4000
2511473274,-0.59663105,-0.30481544,0.015466103,4000,0,0.7426276,-0.92328686,-3.1206028,4000
2511477276,0.10660387,0.13873774,-0.11066867,4002,0,-0.88062257,1.1669748,-15.84733,4002
2511481274,-0.7412097,-0.3967047,0.07326157,3998,0,1.4908179,0.32955128,-3.4202073,3998
2511485274,0.07779732,0.10673498,-0.09989989,4000,0,-1.3545804,0.7689867,-16.281971,4000
2511489274,-0.58844054,-0.29086944,0.037955683,4000,0,0.60807484,-0.37425634,-2.2731845,4000
2511493297,-0.0931143,-0.1078248,-0.08879353,4023,0,-0.30944467,1.53888,-14.379892,4023
2511497300,-0.16559932,0.1748752,0.0333583,4003,0,-1.4274253,0.47062176,-9.615159,4003
2511501275,-0.6310474,-0.5014117,-0.050270997,3975,0,1.5900782,-0.60330063,-6.832477,3975
2511505280,0.025496392,0.15589531,0.00023697165,4005,0,-1.3464679,1.0826457,-10.558124,4005
2511509274,-0.8777994,-0.6590005,0.0058718245,3994,0,1.5699288,0.34285122,-3.7381582,3994
2511513274,0.35814887,0.44023195,-0.070612244,4000,0,-2.3462002,0.7527464,-16.974524,4000
