timestamp,counter,esc_count,esc_connectiontype,_padding0[0],_padding0[1],_padding0[2],_padding0[3],esc[0].timestamp,esc[0].esc_errorcount,esc[0].esc_rpm,esc[0].esc_voltage,esc[0].esc_current,esc[0].esc_temperature,esc[0].esc_setpoint,esc[0].esc_setpoint_raw,esc[0].esc_address,esc[0].esc_version,esc[0].esc_state,esc[0].esc_vendor,esc[0]._padding0[0],esc[0]._padding0[1],esc[0]._padding0[2],esc[0]._padding0[3],esc[0]._padding0[4],esc[0]._padding0[5],esc[0]._padding0[6],esc[1].timestamp,esc[1].esc_errorcount,esc[1].esc_rpm,esc[1].esc_voltage,esc[1].esc_current,esc[1].esc_temperature,esc[1].esc_setpoint,esc[1].esc_setpoint_raw,esc[1].esc_address,esc[1].esc_version,esc[1].esc_state,esc[1].esc_vendor,esc[1]._padding0[0],esc[1]._padding0[1],esc[1]._padding0[2],esc[1]._padding0[3],esc[1]._padding0[4],esc[1]._padding0[5],esc[1]._padding0[6],esc[2].timestamp,esc[2].esc_errorcount,esc[2].esc_rpm,esc[2].esc_voltage,esc[2].esc_current,esc[2].esc_temperature,esc[2].esc_setpoint,esc[2].esc_setpoint_raw,esc[2].esc_address,esc[2].esc_version,esc[2].esc_state,esc[2].esc_vendor,esc[2]._padding0[0],esc[2]._padding0[1],esc[2]._padding0[2],esc[2]._padding0[3],esc[2]._padding0[4],esc[2]._padding0[5],esc[2]._padding0[6],esc[3].timestamp,esc[3].esc_errorcount,esc[3].esc_rpm,esc[3].esc_voltage,esc[3].esc_current,esc[3].esc_temperature,esc[3].esc_setpoint,esc[3].esc_setpoint_raw,esc[3].esc_address,esc[3].esc_version,esc[3].esc_state,esc[3].esc_vendor,esc[3]._padding0[0],esc[3]._padding0[1],esc[3]._padding0[2],esc[3]._padding0[3],esc[3]._padding0[4],esc[3]._padding0[5],esc[3]._padding0[6],esc[4].timestamp,esc[4].esc_errorcount,esc[4].esc_rpm,esc[4].esc_voltage,esc[4].esc_current,esc[4].esc_temperature,esc[4].esc_setpoint,esc[4].esc_setpoint_raw,esc[4].esc_address,esc[4].esc_version,esc[4].esc_state,esc[4].esc_vendor,esc[4]._padding0[0],esc[4]._padding0[1],esc[4]._padding0[2],esc[4]._padding0[3],esc[4]._padding0[4],esc[4]._padding0[5],esc[4]._padding0[6],esc[5].timestamp,esc[5].esc_errorcount,esc[5].esc_rpm,esc[5].esc_voltage,esc[5].esc_current,esc[5].esc_temperature,esc[5].esc_setpoint,esc[5].esc_setpoint_raw,esc[5].esc_address,esc[5].esc_version,esc[5].esc_state,esc[5].esc_vendor,esc[5]._padding0[0],esc[5]._padding0[1],esc[5]._padding0[2],esc[5]._padding0[3],esc[5]._padding0[4],esc[5]._padding0[5],esc[5]._padding0[6],esc[6].timestamp,esc[6].esc_errorcount,esc[6].esc_rpm,esc[6].esc_voltage,esc[6].esc_current,esc[6].esc_temperature,esc[6].esc_setpoint,esc[6].esc_setpoint_raw,esc[6].esc_address,esc[6].esc_version,esc[6].esc_state,esc[6].esc_vendor,esc[6]._padding0[0],esc[6]._padding0[1],esc[6]._padding0[2],esc[6]._padding0[3],esc[6]._padding0[4],esc[6]._padding0[5],esc[6]._padding0[6],esc[7].timestamp,esc[7].esc_errorcount,esc[7].esc_rpm,esc[7].esc_voltage,esc[7].esc_current,esc[7].esc_temperature,esc[7].esc_setpoint,esc[7].esc_setpoint_raw,esc[7].esc_address,esc[7].esc_version,esc[7].esc_state,esc[7].esc_vendor,esc[7]._padding0[0],esc[7]._padding0[1],esc[7]._padding0[2],esc[7]._padding0[3],esc[7]._padding0[4],esc[7]._padding0[5],esc[7]._padding0[6]
2508705962,34103,8,4,0,0,0,0,0,0,0,24.890625,-0.4,21.0,0.0,0,1,0,80,0,0,0,0,0,0,0,0,0,0,0,25.078125,-0.2,22.0,0.0,0,2,0,64,0,0,0,0,0,0,0,0,0,0,0,25.203125,-0.5,20.0,0.0,0,3,0,64,0,0,0,0,0,0,0,0,0,0,0,25.0625,0.3,18.0,0.0,0,4,0,64,0,0,0,0,0,0,0,0,0,0,0,24.96875,0.0,22.0,0.0,0,5,0,64,0,0,0,0,0,0,0,0,0,0,0,24.890625,0.1,19.0,0.0,0,6,0,64,0,0,0,0,0,0,0,0,0,0,0,25.0,-0.5,21.0,0.0,0,7,0,64,0,0,0,0,0,0,0,0,0,0,0,25.0,0.0,21.0,0.0,0,8,0,80,0,0,0,0,0,0,0,0
2508877353,34146,8,4,0,0,0,0,0,0,0,24.890625,-0.3,20.0,0.0,0,1,0,64,0,0,0,0,0,0,0,0,0,0,0,25.078125,-0.3,21.0,0.0,0,2,0,64,0,0,0,0,0,0,0,0,0,0,0,25.203125,-0.3,20.0,0.0,0,3,0,64,0,0,0,0,0,0,0,0,0,0,0,25.078125,0.1,18.0,0.0,0,4,0,64,0,0,0,0,0,0,0,0,0,0,0,24.984375,0.1,22.0,0.0,0,5,0,64,0,0,0,0,0,0,0,0,0,0,0,24.890625,0.1,19.0,0.0,0,6,0,64,0,0,0,0,0,0,0,0,0,0,0,25.0,0.0,20.0,0.0,0,7,0,64,0,0,0,0,0,0,0,0,0,0,0,25.0,-0.1,21.0,0.0,0,8,0,64,0,0,0,0,0,0,0,0
2508918720,34156,8,4,0,0,0,0,0,0,0,25.140625,-0.1,20.0,0.0,0,1,0,64,0,0,0,0,0,0,0,0,0,0,0,25.078125,-0.4,21.0,0.0,0,2,0,64,0,0,0,0,0,0,0,0,0,0,0,25.203125,0.0,20.0,0.0,0,3,0,64,0,0,0,0,0,0,0,0,0,0,0,25.078125,0.0,17.0,0.0,0,4,0,64,0,0,0,0,0,0,0,0,0,0,0,24.984375,0.3,22.0,0.0,0,5,0,64,0,0,0,0,0,0,0,0,0,0,0,24.890625,-0.1,19.0,0.0,0,6,0,64,0,0,0,0,0,0,0,0,0,0,0,25.0,-0.1,20.0,0.0,0,7,0,64,0,0,0,0,0,0,0,0,0,0,0,25.0,0.1,21.0,0.0,0,8,0,64,0,0,0,0,0,0,0,0
2508961937,34167,8,4,0,0,0,0,0,0,0,24.890625,-0.5,20.0,0.0,0,1,0,64,0,0,0,0,0,0,0,0,0,0,0,25.0625,0.2,21.0,0.0,0,2,0,64,0,0,0,0,0,0,0,0,0,0,0,25.234375,0.3,20.0,0.0,0,3,0,64,0,0,0,0,0,0,0,0,0,0,0,25.0625,0.2,17.0,0.0,0,4,0,64,0,0,0,0,0,0,0,0,0,0,0,24.984375,0.2,21.0,0.0,0,5,0,64,0,0,0,0,0,0,0,0,0,0,0,24.890625,0.1,18.0,0.0,0,6,0,64,0,0,0,0,0,0,0,0,0,0,0,25.0,-0.4,20.0,0.0,0,7,0,64,0,0,0,0,0,0,0,0,0,0,0,25.0,0.4,21.0,0.0,0,8,0,64,0,0,0,0,0,0,0,0
2509002607,34177,8,4,0,0,0,0,0,0,0,24.796875,1.7,20.0,0.0,0,1,0,64,0,0,0,0,0,0,0,0,0,0,0,25.0625,0.1,21.0,0.0,0,2,0,64,0,0,0,0,0,0,0,0,0,0,318,25.203125,19.800001,19.0,0.0,0,3,0,64,0,0,0,0,0,0,0,0,0,0,437,25.0625,7.3,17.0,0.0,0,4,0,64,0,0,0,0,0,0,0,0,0,0,459,24.953125,7.1,21.0,0.0,0,5,0,64,0,0,0,0,0,0,0,0,0,0,351,24.90625,29.0,18.0,0.0,0,6,0,64,0,0,0,0,0,0,0,0,0,0,0,24.953125,0.6,20.0,0.0,0,7,0,64,0,0,0,0,0,0,0,0,0,0,0,25.0,0.1,21.0,0.0,0,8,0,64,0,0,0,0,0,0,0,0
2509045363,34188,8,4,0,0,0,0,0,0,329,24.84375,21.9,20.0,0.0,0,1,0,64,0,0,0,0,0,0,0,0,0,0,470,25.0,5.0,21.0,0.0,0,2,0,64,0,0,0,0,0,0,0,0,0,0,357,25.21875,23.0,19.0,0.0,0,3,0,64,0,0,0,0,0,0,0,0,0,0,334,25.09375,21.7,17.0,0.0,0,4,0,64,0,0,0,0,0,0,0,0,0,0,522,24.84375,2.0,21.0,0.0,0,5,0,64,0,0,0,0,0,0,0,0,0,0,458,24.875,1.9,18.0,0.0,0,6,0,64,0,0,0,0,0,0,0,0,0,0,432,25.046875,21.4,20.0,0.0,0,7,0,64,0,0,0,0,0,0,0,0,0,0,422,24.921875,5.7000003,20.0,0.0,0,8,0,64,0,0,0,0,0,0,0,0
2509085871,34198,8,4,0,0,0,0,0,0,350,24.890625,28.800001,20.0,0.0,0,1,0,64,0,0,0,0,0,0,0,0,0,0,222,25.015625,46.4,21.0,0.0,0,2,0,64,0,0,0,0,0,0,0,0,0,0,465,25.171875,14.1,19.0,0.0,0,3,0,64,0,0,0,0,0,0,0,0,0,0,497,25.03125,10.3,17.0,0.0,0,4,0,64,0,0,0,0,0,0,0,0,0,0,277,25.0625,44.7,21.0,0.0,0,5,0,64,0,0,0,0,0,0,0,0,0,0,474,24.84375,9.8,18.0,0.0,0,6,0,64,0,0,0,0,0,0,0,0,0,0,465,24.921875,3.1000001,20.0,0.0,0,7,0,64,0,0,0,0,0,0,0,0,0,0,438,24.984375,10.2,20.0,0.0,0,8,0,64,0,0,0,0,0,0,0,0
2509125705,34208,8,4,0,0,0,0,0,0,421,24.84375,16.1,20.0,0.0,0,1,0,64,0,0,0,0,0,0,0,0,0,0,494,25.03125,7.5,21.0,0.0,0,2,0,64,0,0,0,0,0,0,0,0,0,0,482,25.203125,16.300001,19.0,0.0,0,3,0,64,0,0,0,0,0,0,0,0,0,0,483,25.046875,17.4,17.0,0.0,0,4,0,64,0,0,0,0,0,0,0,0,0,0,498,24.9375,10.8,21.0,0.0,0,5,0,64,0,0,0,0,0,0,0,0,0,0,468,24.9375,18.0,18.0,0.0,0,6,0,64,0,0,0,0,0,0,0,0,0,0,494,24.953125,11.900001,19.0,0.0,0,7,0,64,0,0,0,0,0,0,0,0,0,0,436,25.0,3.7,20.0,0.0,0,8,0,64,0,0,0,0,0,0,0,0
2509165393,34218,8,4,0,0,0,0,0,0,498,24.890625,16.6,20.0,0.0,0,1,0,64,0,0,0,0,0,0,0,0,0,0,533,25.078125,12.1,20.0,0.0,0,2,0,64,0,0,0,0,0,0,0,0,0,0,548,25.140625,10.2,19.0,0.0,0,3,0,64,0,0,0,0,0,0,0,0,0,0,551,25.03125,11.2,17.0,0.0,0,4,0,64,0,0,0,0,0,0,0,0,0,0,536,25.0,13.7,21.0,0.0,0,5,0,64,0,0,0,0,0,0,0,0,0,0,536,24.90625,11.2,18.0,0.0,0,6,0,64,0,0,0,0,0,0,0,0,0,0,502,25.015625,15.0,19.0,0.0,0,7,0,64,0,0,0,0,0,0,0,0,0,0,426,24.984375,11.0,20.0,0.0,0,8,0,64,0,0,0,0,0,0,0,0
2509206783,34228,8,4,0,0,0,0,0,0,616,24.859375,3.4,19.0,0.0,0,1,0,64,0,0,0,0,0,0,0,0,0,0,652,25.0625,1.2,20.0,0.0,0,2,0,64,0,0,0,0,0,0,0,0,0,0,671,25.15625,2.6000001,19.0,0.0,0,3,0,64,0,0,0,0,0,0,0,0,0,0,695,25.046875,1.1,17.0,0.0,0,4,0,64,0,0,0,0,0,0,0,0,0,0,553,25.0,16.800001,21.0,0.0,0,5,0,64,0,0,0,0,0,0,0,0,0,0,648,24.875,0.5,18.0,0.0,0,6,0,64,0,0,0,0,0,0,0,0,0,0,597,24.984375,5.6,19.0,0.0,0,7,0,64,0,0,0,0,0,0,0,0,0,0,448,25.0,14.5,20.0,0.0,0,8,0,64,0,0,0,0,0,0,0,0
2509247288,34238,8,4,0,0,0,0,0,0,684,24.875,0.8,19.0,0.0,0,1,0,64,0,0,0,0,0,0,0,0,0,0,701,25.0625,0.0,20.0,0.0,0,2,0,64,0,0,0,0,0,0,0,0,0,0,690,25.171875,4.1,19.0,0.0,0,3,0,64,0,0,0,0,0,0,0,0,0,0,709,25.09375,3.6000001,16.0,0.0,0,4,0,64,0,0,0,0,0,0,0,0,0,0,744,24.953125,-0.3,21.0,0.0,0,5,0,64,0,0,0,0,0,0,0,0,0,0,706,24.890625,2.6000001,18.0,0.0,0,6,0,64,0,0,0,0,0,0,0,0,0,0,656,25.0,3.2,19.0,0.0,0,7,0,64,0,0,0,0,0,0,0,0,0,0,476,25.03125,14.7,20.0,0.0,0,8,0,64,0,0,0,0,0,0,0,0
2509291840,34249,8,4,0,0,0,0,0,0,703,24.875,4.9,19.0,0.0,0,1,0,64,0,0,0,0,0,0,0,0,0,0,700,25.0625,3.8,20.0,0.0,0,2,0,64,0,0,0,0,0,0,0,0,0,0,720,25.203125,4.3,19.0,0.0,0,3,0,64,0,0,0,0,0,0,0,0,0,0,717,25.0625,6.2000003,16.0,0.0,0,4,0,64,0,0,0,0,0,0,0,0,0,0,762,24.953125,1.3000001,20.0,0.0,0,5,0,0,0,0,0,0,0,0,0,0,0,0,706,24.890625,4.8,18.0,0.0,0,6,0,64,0,0,0,0,0,0,0,0,0,0,712,25.0,3.8,19.0,0.0,0,7,0,64,0,0,0,0,0,0,0,0,0,0,650,24.984375,0.3,20.0,0.0,0,8,0,64,0,0,0,0,0,0,0,0
2509335471,34260,8,4,0,0,0,0,0,0,741,24.875,4.3,19.0,0.0,0,1,0,64,0,0,0,0,0,0,0,0,0,0,741,25.09375,6.1,20.0,0.0,0,2,0,64,0,0,0,0,0,0,0,0,0,0,773,25.203125,5.3,18.0,0.0,0,3,0,0,0,0,0,0,0,0,0,0,0,0,785,25.0625,4.7000003,16.0,0.0,0,4,0,0,0,0,0,0,0,0,0,0,0,0,764,24.96875,4.2000003,20.0,0.0,0,5,0,0,0,0,0,0,0,0,0,0,0,0,747,24.875,4.7000003,17.0,0.0,0,6,0,64,0,0,0,0,0,0,0,0,0,0,722,25.0,6.3,19.0,0.0,0,7,0,64,0,0,0,0,0,0,0,0,0,0,662,25.0,2.3,20.0,0.0,0,8,0,64,0,0,0,0,0,0,0,0
2509375811,34270,8,4,0,0,0,0,0,0,767,24.859375,5.2000003,19.0,0.0,0,1,0,0,0,0,0,0,0,0,0,0,0,0,781,25.0625,5.3,20.0,0.0,0,2,0,0,0,0,0,0,0,0,0,0,0,0,803,25.1875,5.5,18.0,0.0,0,3,0,0,0,0,0,0,0,0,0,0,0,0,814,25.0625,5.1,16.0,0.0,0,4,0,0,0,0,0,0,0,0,0,0,0,0,820,24.96875,4.7000003,20.0,0.0,0,5,0,0,0,0,0,0,0,0,0,0,0,0,807,24.90625,5.5,17.0,0.0,0,6,0,0,0,0,0,0,0,0,0,0,0,0,747,25.0,6.8,19.0,0.0,0,7,0,64,0,0,0,0,0,0,0,0,0,0,680,24.984375,4.2000003,20.0,0.0,0,8,0,64,0,0,0,0,0,0,0,0
2509415112,34280,8,4,0,0,0,0,0,0,796,24.875,5.2000003,19.0,0.0,0,1,0,0,0,0,0,0,0,0,0,0,0,0,814,25.0625,5.0,20.0,0.0,0,2,0,0,0,0,0,0,0,0,0,0,0,0,840,25.1875,4.9,18.0,0.0,0,3,0,0,0,0,0,0,0,0,0,0,0,0,849,25.109375,5.1,16.0,0.0,0,4,0,0,0,0,0,0,0,0,0,0,0,0,856,24.96875,4.4,20.0,0.0,0,5,0,0,0,0,0,0,0,0,0,0,0,0,843,24.90625,5.2000003,17.0,0.0,0,6,0,0,0,0,0,0,0,0,0,0,0,0,827,25.0,4.5,19.0,0.0,0,7,0,0,0,0,0,0,0,0,0,0,0,0,726,25.0,5.8,20.0,0.0,0,8,0,64,0,0,0,0,0,0,0,0
2509459888,34291,8,4,0,0,0,0,0,0,860,24.890625,5.3,19.0,0.0,0,1,0,0,0,0,0,0,0,0,0,0,0,0,872,25.078125,5.5,20.0,0.0,0,2,0,0,0,0,0,0,0,0,0,0,0,0,902,25.1875,5.0,18.0,0.0,0,3,0,0,0,0,0,0,0,0,0,0,0,0,881,25.0625,5.1,16.0,0.0,0,4,0,0,0,0,0,0,0,0,0,0,0,0,875,24.96875,5.5,20.0,0.0,0,5,0,0,0,0,0,0,0,0,0,0,0,0,872,24.875,4.3,17.0,0.0,0,6,0,0,0,0,0,0,0,0,0,0,0,0,855,25.0,5.7000003,19.0,0.0,0,7,0,0,0,0,0,0,0,0,0,0,0,0,763,25.0,5.3,19.0,0.0,0,8,0,0,0,0,0,0,0,0,0,0
2509503566,34302,8,4,0,0,0,0,0,0,892,24.890625,5.2000003,19.0,0.0,0,1,0,0,0,0,0,0,0,0,0,0,0,0,906,25.0625,5.1,20.0,0.0,0,2,0,0,0,0,0,0,0,0,0,0,0,0,933,25.1875,4.5,18.0,0.0,0,3,0,0,0,0,0,0,0,0,0,0,0,0,939,25.0625,5.7000003,16.0,0.0,0,4,0,0,0,0,0,0,0,0,0,0,0,0,943,24.953125,5.0,20.0,0.0,0,5,0,0,0,0,0,0,0,0,0,0,0,0,934,24.90625,5.1,17.0,0.0,0,6,0,0,0,0,0,0,0,0,0,0,0,0,883,25.0,5.3,19.0,0.0,0,7,0,0,0,0,0,0,0,0,0,0,0,0,797,24.984375,5.4,19.0,0.0,0,8,0,0,0,0,0,0,0,0,0,0
2509542809,34312,8,4,0,0,0,0,0,0,915,24.875,5.9,19.0,0.0,0,1,0,0,0,0,0,0,0,0,0,0,0,0,933,25.0625,5.1,20.0,0.0,0,2,0,0,0,0,0,0,0,0,0,0,0,0,964,25.1875,5.2000003,18.0,0.0,0,3,0,0,0,0,0,0,0,0,0,0,0,0,967,25.046875,5.4,16.0,0.0,0,4,0,0,0,0,0,0,0,0,0,0,0,0,978,24.96875,5.0,20.0,0.0,0,5,0,0,0,0,0,0,0,0,0,0,0,0,962,24.90625,5.9,17.0,0.0,0,6,0,0,0,0,0,0,0,0,0,0,0,0,943,25.0,5.2000003,18.0,0.0,0,7,0,0,0,0,0,0,0,0,0,0,0,0,856,25.0,5.3,19.0,0.0,0,8,0,0,0,0,0,0,0,0,0,0
2509587800,34323,8,4,0,0,0,0,0,0,979,24.859375,5.7000003,19.0,0.0,0,1,0,0,0,0,0,0,0,0,0,0,0,0,993,25.0625,5.7000003,19.0,0.0,0,2,0,0,0,0,0,0,0,0,0,0,0,0,1040,25.171875,7.4,18.0,0.0,0,3,0,0,0,0,0,0,0,0,0,0,0,0,1005,25.0625,5.9,16.0,0.0,0,4,0,0,0,0,0,0,0,0,0,0,0,0,1005,24.96875,4.9,20.0,0.0,0,5,0,0,0,0,0,0,0,0,0,0,0,0,992,24.859375,4.9,17.0,0.0,0,6,0,0,0,0,0,0,0,0,0,0,0,0,975,25.0,5.2000003,18.0,0.0,0,7,0,0,0,0,0,0,0,0,0,0,0,0,888,24.984375,4.6,19.0,0.0,0,8,0,0,0,0,0,0,0,0,0,0
2509627088,34333,8,4,0,0,0,0,0,0,1016,24.828125,6.3,19.0,0.0,0,1,0,0,0,0,0,0,0,0,0,0,0,0,1048,25.046875,9.1,19.0,0.0,0,2,0,0,0,0,0,0,0,0,0,0,0,0,1185,25.1875,16.300001,18.0,0.0,0,3,0,0,0,0,0,0,0,0,0,0,0,0,1262,25.0625,27.0,16.0,0.0,0,4,0,0,0,0,0,0,0,0,0,0,0,0,1258,25.0625,23.1,20.0,0.0,0,5,0,0,0,0,0,0,0,0,0,0,0,0,1034,24.90625,7.8,17.0,0.0,0,6,0,0,0,0,0,0,0,0,0,0,0,0,1010,24.984375,5.3,18.0,0.0,0,7,0,0,0,0,0,0,0,0,0,0,0,0,918,24.953125,5.3,19.0,0.0,0,8,0,0,0,0,0,0,0,0,0,0
2509671301,34344,8,4,0,0,0,0,0,0,1114,24.34375,12.2,18.0,0.0,0,1,0,0,0,0,0,0,0,0,0,0,0,0,1217,25.15625,19.4,19.0,0.0,0,2,0,0,0,0,0,0,0,0,0,0,0,0,1528,25.328125,52.8,18.0,0.0,0,3,0,0,0,0,0,0,0,0,0,0,0,0,1679,25.203125,60.100002,16.0,0.0,0,4,0,0,0,0,0,0,0,0,0,0,0,0,1662,25.265625,62.9,20.0,0.0,0,5,0,0,0,0,0,0,0,0,0,0,0,0,1493,24.765625,56.100002,17.0,0.0,0,6,0,0,0,0,0,0,0,0,0,0,0,0,1325,24.875,30.6,18.0,0.0,0,7,0,0,0,0,0,0,0,0,0,0,0,0,982,24.9375,4.7000003,19.0,0.0,0,8,0,0,0,0,0,0,0,0,0,0
2509711155,34354,8,4,0,0,0,0,0,0,1829,24.84375,68.0,18.0,0.0,0,1,0,0,0,0,0,0,0,0,0,0,0,0,2105,24.703125,66.700005,19.0,0.0,0,2,0,0,0,0,0,0,0,0,0,0,0,0,2063,24.8125,62.9,18.0,0.0,0,3,0,0,0,0,0,0,0,0,0,0,0,0,2204,25.359375,60.2,16.0,0.0,0,4,0,0,0,0,0,0,0,0,0,0,0,0,2238,25.0,61.9,20.0,0.0,0,5,0,0,0,0,0,0,0,0,0,0,0,0,2004,24.828125,67.8,17.0,0.0,0,6,0,0,0,0,0,0,0,0,0,0,0,0,1748,24.640625,65.3,18.0,0.0,0,7,0,0,0,0,0,0,0,0,0,0,0,0,1019,24.171875,6.7000003,19.0,0.0,0,8,0,0,0,0,0,0,0,0,0,0
2509751247,34364,8,4,0,0,0,0,0,0,2379,24.59375,65.5,18.0,0.0,0,1,0,0,0,0,0,0,0,0,0,0,0,0,2665,24.390625,67.4,19.0,0.0,0,2,0,0,0,0,0,0,0,0,0,0,0,0,3223,24.28125,61.4,18.0,0.0,0,3,0,0,0,0,0,0,0,0,0,0,0,0,3280,24.625,65.9,15.0,0.0,0,4,0,0,0,0,0,0,0,0,0,0,0,0,2806,25.1875,61.3,20.0,0.0,0,5,0,0,0,0,0,0,0,0,0,0,0,0,2564,25.09375,63.8,17.0,0.0,0,6,0,0,0,0,0,0,0,0,0,0,0,0,2303,24.328125,67.9,18.0,0.0,0,7,0,0,0,0,0,0,0,0,0,0,0,0,1112,24.34375,12.400001,19.0,0.0,0,8,0,0,0,0,0,0,0,0,0,0
2509807226,34378,8,4,0,0,0,0,0,0,3450,24.328125,66.8,18.0,0.0,0,1,0,0,0,0,0,0,0,0,0,0,0,0,3731,24.6875,64.1,19.0,0.0,0,2,0,0,0,0,0,0,0,0,0,0,0,0,3771,24.796875,59.600002,18.0,0.0,0,3,0,0,0,0,0,0,0,0,0,0,0,0,3772,24.71875,59.4,15.0,0.0,0,4,0,0,0,0,0,0,0,0,0,0,0,0,3833,24.53125,40.2,19.0,0.0,0,5,0,0,0,0,0,0,0,0,0,0,0,0,3605,24.53125,66.700005,17.0,0.0,0,6,0,0,0,0,0,0,0,0,0,0,0,0,3398,24.703125,63.9,18.0,0.0,0,7,0,0,0,0,0,0,0,0,0,0,0,0,1815,23.984375,71.8,19.0,0.0,0,8,0,0,0,0,0,0,0,0,0,0
2509852242,34389,8,4,0,0,0,0,0,0,3935,24.703125,67.4,18.0,0.0,0,1,0,0,0,0,0,0,0,0,0,0,0,0,4211,24.25,67.9,19.0,0.0,0,2,0,0,0,0,0,0,0,0,0,0,0,0,4335,24.484375,29.9,18.0,0.0,0,3,0,0,0,0,0,0,0,0,0,0,0,0,4225,24.25,33.100002,15.0,0.0,0,4,0,0,0,0,0,0,0,0,0,0,0,0,4155,24.046875,29.0,19.0,0.0,0,5,0,0,0,0,0,0,0,0,0,0,0,0,4098,24.28125,62.100002,17.0,0.0,0,6,0,0,0,0,0,0,0,0,0,0,0,0,3914,25.015625,65.6,18.0,0.0,0,7,0,0,0,0,0,0,0,0,0,0,0,0,2389,24.265625,66.200005,19.0,0.0,0,8,0,0,0,0,0,0,0,0,0,0
2509895085,34400,8,4,0,0,0,0,0,0,4405,24.46875,70.9,18.0,0.0,0,1,0,0,0,0,0,0,0,0,0,0,0,0,4602,24.328125,49.600002,19.0,0.0,0,2,0,0,0,0,0,0,0,0,0,0,0,0,4422,24.59375,30.2,18.0,0.0,0,3,0,0,0,0,0,0,0,0,0,0,0,0,4313,24.609375,31.9,15.0,0.0,0,4,0,0,0,0,0,0,0,0,0,0,0,0,4230,24.640625,26.6,19.0,0.0,0,5,0,0,0,0,0,0,0,0,0,0,0,0,4581,24.328125,34.0,17.0,0.0,0,6,0,0,0,0,0,0,0,0,0,0,0,0,4636,24.421875,37.8,18.0,0.0,0,7,0,0,0,0,0,0,0,0,0,0,0,0,3451,24.28125,69.5,19.0,0.0,0,8,0,0,0,0,0,0,0,0,0,0
2509935386,34410,8,4,0,0,0,0,0,0,4807,24.703125,34.7,18.0,0.0,0,1,0,0,0,0,0,0,0,0,0,0,0,0,4829,24.796875,25.5,19.0,0.0,0,2,0,0,0,0,0,0,0,0,0,0,0,0,4469,25.0,26.300001,18.0,0.0,0,3,0,0,0,0,0,0,0,0,0,0,0,0,4377,24.53125,27.6,15.0,0.0,0,4,0,0,0,0,0,0,0,0,0,0,0,0,4272,24.625,25.0,19.0,0.0,0,5,0,0,0,0,0,0,0,0,0,0,0,0,4643,24.453125,27.1,17.0,0.0,0,6,0,0,0,0,0,0,0,0,0,0,0,0,4735,24.84375,31.800001,18.0,0.0,0,7,0,0,0,0,0,0,0,0,0,0,0,0,3943,24.96875,67.0,19.0,0.0,0,8,0,0,0,0,0,0,0,0,0,0
2509979823,34421,8,4,0,0,0,0,0,0,4842,24.484375,38.5,18.0,0.0,0,1,0,0,0,0,0,0,0,0,0,0,0,0,4785,24.890625,26.4,19.0,0.0,0,2,0,0,0,0,0,0,0,0,0,0,0,0,4514,24.953125,23.300001,18.0,0.0,0,3,0,0,0,0,0,0,0,0,0,0,0,0,4357,24.78125,15.2,15.0,0.0,0,4,0,0,0,0,0,0,0,0,0,0,0,0,4356,24.890625,24.4,19.0,0.0,0,5,0,0,0,0,0,0,0,0,0,0,0,0,4622,24.40625,23.1,17.0,0.0,0,6,0,0,0,0,0,0,0,0,0,0,0,0,4755,24.453125,31.7,18.0,0.0,0,7,0,0,0,0,0,0,0,0,0,0,0,0,4368,24.546875,53.0,19.0,0.0,0,8,0,0,0,0,0,0,0,0,0,0
2510022791,34432,8,4,0,0,0,0,0,0,4861,24.71875,32.5,18.0,0.0,0,1,0,0,0,0,0,0,0,0,0,0,0,0,4686,24.765625,16.9,19.0,0.0,0,2,0,0,0,0,0,0,0,0,0,0,0,0,4464,24.90625,19.7,18.0,0.0,0,3,0,0,0,0,0,0,0,0,0,0,0,0,4243,24.84375,15.6,15.0,0.0,0,4,0,0,0,0,0,0,0,0,0,0,0,0,4344,24.765625,23.9,19.0,0.0,0,5,0,0,0,0,0,0,0,0,0,0,0,0,4490,24.65625,23.5,17.0,0.0,0,6,0,0,0,0,0,0,0,0,0,0,0,0,4779,24.875,25.2,18.0,0.0,0,7,0,0,0,0,0,0,0,0,0,0,0,0,4660,24.71875,24.4,19.0,0.0,0,8,0,0,0,0,0,0,0,0,0,0
2510063304,34442,8,4,0,0,0,0,0,0,4673,24.796875,18.7,18.0,0.0,0,1,0,0,0,0,0,0,0,0,0,0,0,0,4416,24.71875,15.2,19.0,0.0,0,2,0,0,0,0,0,0,0,0,0,0,0,0,4400,25.0,20.9,18.0,0.0,0,3,0,0,0,0,0,0,0,0,0,0,0,0,4168,24.921875,19.800001,15.0,0.0,0,4,0,0,0,0,0,0,0,0,0,0,0,0,4357,24.53125,25.0,19.0,0.0,0,5,0,0,0,0,0,0,0,0,0,0,0,0,4436,24.828125,22.0,17.0,0.0,0,6,0,0,0,0,0,0,0,0,0,0,0,0,4720,24.796875,22.1,18.0,0.0,0,7,0,0,0,0,0,0,0,0,0,0,0,0,4590,24.75,16.9,19.0,0.0,0,8,0,0,0,0,0,0,0,0,0,0
2510103860,34452,8,4,0,0,0,0,0,0,4522,24.65625,20.0,18.0,0.0,0,1,0,0,0,0,0,0,0,0,0,0,0,0,4281,24.90625,17.300001,19.0,0.0,0,2,0,0,0,0,0,0,0,0,0,0,0,0,4355,25.09375,23.300001,18.0,0.0,0,3,0,0,0,0,0,0,0,0,0,0,0,0,4183,24.84375,23.5,15.0,0.0,0,4,0,0,0,0,0,0,0,0,0,0,0,0,4385,24.9375,26.9,19.0,0.0,0,5,0,0,0,0,0,0,0,0,0,0,0,0,4378,24.765625,20.4,17.0,0.0,0,6,0,0,0,0,0,0,0,0,0,0,0,0,4614,24.78125,19.2,18.0,0.0,0,7,0,0,0,0,0,0,0,0,0,0,0,0,4462,24.578125,13.5,19.0,0.0,0,8,0,0,0,0,0,0,0,0,0,0
2510143383,34462,8,4,0,0,0,0,0,0,4410,24.546875,21.7,18.0,0.0,0,1,0,0,0,0,0,0,0,0,0,0,0,0,4177,24.671875,14.1,19.0,0.0,0,2,0,0,0,0,0,0,0,0,0,0,0,0,4357,25.109375,24.5,18.0,0.0,0,3,0,0,0,0,0,0,0,0,0,0,0,0,4190,24.859375,20.300001,15.0,0.0,0,4,0,0,0,0,0,0,0,0,0,0,0,0,4450,24.875,28.5,19.0,0.0,0,5,0,0,0,0,0,0,0,0,0,0,0,0,4260,24.84375,19.9,17.0,0.0,0,6,0,0,0,0,0,0,0,0,0,0,0,0,4523,24.921875,23.5,18.0,0.0,0,7,0,0,0,0,0,0,0,0,0,0,0,0,4304,24.953125,14.5,19.0,0.0,0,8,0,0,0,0,0,0,0,0,0,0
2510188913,34473,8,4,0,0,0,0,0,0,4313,24.71875,25.7,18.0,0.0,0,1,0,0,0,0,0,0,0,0,0,0,0,0,4093,24.71875,19.2,19.0,0.0,0,2,0,0,0,0,0,0,0,0,0,0,0,0,4355,24.921875,24.1,18.0,0.0,0,3,0,0,0,0,0,0,0,0,0,0,0,0,4147,25.0625,17.9,15.0,0.0,0,4,0,0,0,0,0,0,0,0,0,0,0,0,4460,24.75,22.0,19.0,0.0,0,5,0,0,0,0,0,0,0,0,0,0,0,0,4208,24.53125,16.0,17.0,0.0,0,6,0,0,0,0,0,0,0,0,0,0,0,0,4417,24.84375,21.4,18.0,0.0,0,7,0,0,0,0,0,0,0,0,0,0,0,0,4093,24.765625,15.400001,19.0,0.0,0,8,0,0,0,0,0,0,0,0,0,0
2510230957,34484,8,4,0,0,0,0,0,0,4314,24.546875,27.6,18.0,0.0,0,1,0,0,0,0,0,0,0,0,0,0,0,0,4057,25.125,18.800001,19.0,0.0,0,2,0,0,0,0,0,0,0,0,0,0,0,0,4374,24.90625,20.800001,18.0,0.0,0,3,0,0,0,0,0,0,0,0,0,0,0,0,4076,24.84375,16.2,15.0,0.0,0,4,0,0,0,0,0,0,0,0,0,0,0,0,4428,25.03125,19.2,19.0,0.0,0,5,0,0,0,0,0,0,0,0,0,0,0,0,4105,24.53125,17.0,17.0,0.0,0,6,0,0,0,0,0,0,0,0,0,0,0,0,4347,24.828125,23.2,18.0,0.0,0,7,0,0,0,0,0,0,0,0,0,0,0,0,4048,24.890625,21.4,19.0,0.0,0,8,0,0,0,0,0,0,0,0,0,0
2510272070,34494,8,4,0,0,0,0,0,0,4324,24.59375,26.6,18.0,0.0,0,1,0,0,0,0,0,0,0,0,0,0,0,0,4048,25.09375,20.9,19.0,0.0,0,2,0,0,0,0,0,0,0,0,0,0,0,0,4382,24.890625,23.5,17.0,0.0,0,3,0,0,0,0,0,0,0,0,0,0,0,0,4035,25.21875,19.9,15.0,0.0,0,4,0,0,0,0,0,0,0,0,0,0,0,0,4344,24.703125,26.1,19.0,0.0,0,5,0,0,0,0,0,0,0,0,0,0,0,0,3992,24.625,16.9,16.0,0.0,0,6,0,0,0,0,0,0,0,0,0,0,0,0,4327,24.84375,21.7,18.0,0.0,0,7,0,0,0,0,0,0,0,0,0,0,0,0,4030,24.828125,17.800001,19.0,0.0,0,8,0,0,0,0,0,0,0,0,0,0
2510315719,34505,8,4,0,0,0,0,0,0,4306,24.671875,24.7,18.0,0.0,0,1,0,0,0,0,0,0,0,0,0,0,0,0,4041,24.96875,23.300001,19.0,0.0,0,2,0,0,0,0,0,0,0,0,0,0,0,0,4409,25.109375,26.5,17.0,0.0,0,3,0,0,0,0,0,0,0,0,0,0,0,0,4051,24.921875,25.1,15.0,0.0,0,4,0,0,0,0,0,0,0,0,0,0,0,0,4346,24.984375,23.2,19.0,0.0,0,5,0,0,0,0,0,0,0,0,0,0,0,0,3938,24.640625,16.7,16.0,0.0,0,6,0,0,0,0,0,0,0,0,0,0,0,0,4232,24.71875,20.300001,18.0,0.0,0,7,0,0,0,0,0,0,0,0,0,0,0,0,3925,24.703125,15.0,18.0,0.0,0,8,0,0,0,0,0,0,0,0,0,0
2510358925,34516,8,4,0,0,0,0,0,0,4289,24.453125,22.9,18.0,0.0,0,1,0,0,0,0,0,0,0,0,0,0,0,0,4051,24.984375,18.300001,19.0,0.0,0,2,0,0,0,0,0,0,0,0,0,0,0,0,4482,24.84375,23.7,18.0,0.0,0,3,0,0,0,0,0,0,0,0,0,0,0,0,4079,25.140625,23.5,15.0,0.0,0,4,0,0,0,0,0,0,0,0,0,0,0,0,4358,24.796875,25.5,19.0,0.0,0,5,0,0,0,0,0,0,0,0,0,0,0,0,3905,24.796875,17.9,16.0,0.0,0,6,0,0,0,0,0,0,0,0,0,0,0,0,4186,24.859375,20.1,18.0,0.0,0,7,0,0,0,0,0,0,0,0,0,0,0,0,3856,24.890625,15.7,18.0,0.0,0,8,0,0,0,0,0,0,0,0,0,0
2510399315,34526,8,4,0,0,0,0,0,0,4261,24.78125,24.6,18.0,0.0,0,1,0,0,0,0,0,0,0,0,0,0,0,0,4017,24.765625,20.7,19.0,0.0,0,2,0,0,0,0,0,0,0,0,0,0,0,0,4478,25.046875,23.0,18.0,0.0,0,3,0,0,0,0,0,0,0,0,0,0,0,0,4077,24.84375,22.5,15.0,0.0,0,4,0,0,0,0,0,0,0,0,0,0,0,0,4377,24.859375,23.0,19.0,0.0,0,5,0,0,0,0,0,0,0,0,0,0,0,0,3888,24.703125,18.5,16.0,0.0,0,6,0,0,0,0,0,0,0,0,0,0,0,0,4171,24.640625,23.5,18.0,0.0,0,7,0,0,0,0,0,0,0,0,0,0,0,0,3825,24.703125,16.5,18.0,0.0,0,8,0,0,0,0,0,0,0,0,0,0
2510439020,34536,8,4,0,0,0,0,0,0,4243,24.71875,24.6,18.0,0.0,0,1,0,0,0,0,0,0,0,0,0,0,0,0,4019,24.75,20.9,19.0,0.0,0,2,0,0,0,0,0,0,0,0,0,0,0,0,4494,24.953125,25.4,18.0,0.0,0,3,0,0,0,0,0,0,0,0,0,0,0,0,4073,24.90625,24.2,15.0,0.0,0,4,0,0,0,0,0,0,0,0,0,0,0,0,4381,24.8125,24.800001,19.0,0.0,0,5,0,0,0,0,0,0,0,0,0,0,0,0,3864,24.828125,18.300001,16.0,0.0,0,6,0,0,0,0,0,0,0,0,0,0,0,0,4141,24.671875,19.7,18.0,0.0,0,7,0,0,0,0,0,0,0,0,0,0,0,0,3778,24.71875,16.7,18.0,0.0,0,8,0,0,0,0,0,0,0,0,0,0
2510483550,34547,8,4,0,0,0,0,0,0,4225,24.90625,22.5,18.0,0.0,0,1,0,0,0,0,0,0,0,0,0,0,0,0,4049,24.796875,21.0,19.0,0.0,0,2,0,0,0,0,0,0,0,0,0,0,0,0,4551,24.984375,25.9,18.0,0.0,0,3,0,0,0,0,0,0,0,0,0,0,0,0,4107,25.0625,27.300001,15.0,0.0,0,4,0,0,0,0,0,0,0,0,0,0,0,0,4379,24.765625,25.1,19.0,0.0,0,5,0,0,0,0,0,0,0,0,0,0,0,0,3856,24.734375,18.2,16.0,0.0,0,6,0,0,0,0,0,0,0,0,0,0,0,0,4109,24.625,18.800001,18.0,0.0,0,7,0,0,0,0,0,0,0,0,0,0,0,0,3758,24.75,15.7,18.0,0.0,0,8,0,0,0,0,0,0,0,0,0,0
2510519398,34556,8,4,0,0,0,0,0,0,4203,24.890625,23.7,18.0,0.0,0,1,0,0,0,0,0,0,0,0,0,0,0,0,4064,24.890625,22.7,19.0,0.0,0,2,0,0,0,0,0,0,0,0,0,0,0,0,4568,24.84375,22.1,18.0,0.0,0,3,0,0,0,0,0,0,0,0,0,0,0,0,4169,25.046875,23.1,15.0,0.0,0,4,0,0,0,0,0,0,0,0,0,0,0,0,4386,24.84375,24.800001,19.0,0.0,0,5,0,0,0,0,0,0,0,0,0,0,0,0,3848,24.578125,18.6,16.0,0.0,0,6,0,0,0,0,0,0,0,0,0,0,0,0,4073,24.890625,17.9,18.0,0.0,0,7,0,0,0,0,0,0,0,0,0,0,0,0,3730,24.609375,17.1,18.0,0.0,0,8,0,0,0,0,0,0,0,0,0,0
2510568265,34568,8,4,0,0,0,0,0,0,4189,24.84375,22.9,18.0,0.0,0,1,0,0,0,0,0,0,0,0,0,0,0,0,4075,24.765625,22.0,19.0,0.0,0,2,0,0,0,0,0,0,0,0,0,0,0,0,4567,25.0625,21.5,18.0,0.0,0,3,0,0,0,0,0,0,0,0,0,0,0,0,4161,24.875,23.9,15.0,0.0,0,4,0,0,0,0,0,0,0,0,0,0,0,0,4391,24.671875,24.6,19.0,0.0,0,5,0,0,0,0,0,0,0,0,0,0,0,0,3862,24.625,19.2,16.0,0.0,0,6,0,0,0,0,0,0,0,0,0,0,0,0,4050,24.75,19.1,18.0,0.0,0,7,0,0,0,0,0,0,0,0,0,0,0,0,3726,24.8125,17.6,18.0,0.0,0,8,0,0,0,0,0,0,0,0,0,0
2510607059,34578,8,4,0,0,0,0,0,0,4183,24.734375,23.1,18.0,0.0,0,1,0,0,0,0,0,0,0,0,0,0,0,0,4088,25.046875,21.800001,19.0,0.0,0,2,0,0,0,0,0,0,0,0,0,0,0,0,4564,25.0625,25.2,18.0,0.0,0,3,0,0,0,0,0,0,0,0,0,0,0,0,4197,24.671875,26.0,15.0,0.0,0,4,0,0,0,0,0,0,0,0,0,0,0,0,4382,24.84375,24.9,19.0,0.0,0,5,0,0,0,0,0,0,0,0,0,0,0,0,3851,24.78125,17.2,16.0,0.0,0,6,0,0,0,0,0,0,0,0,0,0,0,0,4027,24.859375,18.300001,18.0,0.0,0,7,0,0,0,0,0,0,0,0,0,0,0,0,3716,24.84375,15.1,18.0,0.0,0,8,0,0,0,0,0,0,0,0,0,0
2510651867,34589,8,4,0,0,0,0,0,0,4175,24.59375,24.800001,18.0,0.0,0,1,0,0,0,0,0,0,0,0,0,0,0,0,4094,24.96875,20.0,19.0,0.0,0,2,0,0,0,0,0,0,0,0,0,0,0,0,4591,24.9375,23.300001,18.0,0.0,0,3,0,0,0,0,0,0,0,0,0,0,0,0,4210,24.875,23.2,15.0,0.0,0,4,0,0,0,0,0,0,0,0,0,0,0,0,4390,24.859375,25.0,19.0,0.0,0,5,0,0,0,0,0,0,0,0,0,0,0,0,3847,24.59375,18.2,16.0,0.0,0,6,0,0,0,0,0,0,0,0,0,0,0,0,4017,24.828125,20.0,18.0,0.0,0,7,0,0,0,0,0,0,0,0,0,0,0,0,3705,24.765625,16.0,18.0,0.0,0,8,0,0,0,0,0,0,0,0,0,0
2510691882,34599,8,4,0,0,0,0,0,0,4175,24.640625,26.300001,18.0,0.0,0,1,0,0,0,0,0,0,0,0,0,0,0,0,4083,24.875,20.300001,19.0,0.0,0,2,0,0,0,0,0,0,0,0,0,0,0,0,4569,24.984375,22.800001,18.0,0.0,0,3,0,0,0,0,0,0,0,0,0,0,0,0,4201,24.796875,20.800001,15.0,0.0,0,4,0,0,0,0,0,0,0,0,0,0,0,0,4380,24.796875,23.0,19.0,0.0,0,5,0,0,0,0,0,0,0,0,0,0,0,0,3852,24.59375,18.800001,16.0,0.0,0,6,0,0,0,0,0,0,0,0,0,0,0,0,4042,24.84375,21.5,18.0,0.0,0,7,0,0,0,0,0,0,0,0,0,0,0,0,3703,24.9375,19.0,18.0,0.0,0,8,0,0,0,0,0,0,0,0,0,0
2510735336,34610,8,4,0,0,0,0,0,0,4189,24.796875,25.4,18.0,0.0,0,1,0,0,0,0,0,0,0,0,0,0,0,0,4080,24.84375,24.1,19.0,0.0,0,2,0,0,0,0,0,0,0,0,0,0,0,0,4541,24.921875,24.7,18.0,0.0,0,3,0,0,0,0,0,0,0,0,0,0,0,0,4170,24.953125,23.300001,15.0,0.0,0,4,0,0,0,0,0,0,0,0,0,0,0,0,4376,24.84375,24.1,19.0,0.0,0,5,0,0,0,0,0,0,0,0,0,0,0,0,3859,24.5625,18.2,16.0,0.0,0,6,0,0,0,0,0,0,0,0,0,0,0,0,4045,24.796875,18.800001,18.0,0.0,0,7,0,0,0,0,0,0,0,0,0,0,0,0,3736,24.671875,16.9,18.0,0.0,0,8,0,0,0,0,0,0,0,0,0,0
2510775074,34620,8,4,0,0,0,0,0,0,4211,24.796875,25.0,18.0,0.0,0,1,0,0,0,0,0,0,0,0,0,0,0,0,4090,25.046875,22.800001,19.0,0.0,0,2,0,0,0,0,0,0,0,0,0,0,0,0,4553,25.0,24.4,18.0,0.0,0,3,0,0,0,0,0,0,0,0,0,0,0,0,4170,24.953125,23.300001,15.0,0.0,0,4,0,0,0,0,0,0,0,0,0,0,0,0,4364,24.921875,23.300001,19.0,0.0,0,5,0,0,0,0,0,0,0,0,0,0,0,0,3845,24.765625,16.300001,16.0,0.0,0,6,0,0,0,0,0,0,0,0,0,0,0,0,4033,24.90625,19.1,18.0,0.0,0,7,0,0,0,0,0,0,0,0,0,0,0,0,3734,24.796875,16.9,18.0,0.0,0,8,0,0,0,0,0,0,0,0,0,0
2510815045,34630,8,4,0,0,0,0,0,0,4205,24.515625,25.7,18.0,0.0,0,1,0,0,0,0,0,0,0,0,0,0,0,0,4098,25.0,21.5,19.0,0.0,0,2,0,0,0,0,0,0,0,0,0,0,0,0,4557,24.90625,23.7,18.0,0.0,0,3,0,0,0,0,0,0,0,0,0,0,0,0,4183,25.203125,24.2,15.0,0.0,0,4,0,0,0,0,0,0,0,0,0,0,0,0,4356,24.765625,23.5,19.0,0.0,0,5,0,0,0,0,0,0,0,0,0,0,0,0,3837,24.671875,18.4,16.0,0.0,0,6,0,0,0,0,0,0,0,0,0,0,0,0,4028,24.765625,20.1,18.0,0.0,0,7,0,0,0,0,0,0,0,0,0,0,0,0,3741,24.8125,18.300001,18.0,0.0,0,8,0,0,0,0,0,0,0,0,0,0
2510862793,34642,8,4,0,0,0,0,0,0,4232,24.484375,23.4,18.0,0.0,0,1,0,0,0,0,0,0,0,0,0,0,0,0,4111,25.03125,22.0,19.0,0.0,0,2,0,0,0,0,0,0,0,0,0,0,0,0,4554,25.265625,23.4,18.0,0.0,0,3,0,0,0,0,0,0,0,0,0,0,0,0,4160,24.703125,24.300001,15.0,0.0,0,4,0,0,0,0,0,0,0,0,0,0,0,0,4351,24.78125,23.4,19.0,0.0,0,5,0,0,0,0,0,0,0,0,0,0,0,0,3834,24.75,18.6,16.0,0.0,0,6,0,0,0,0,0,0,0,0,0,0,0,0,4033,24.71875,19.800001,18.0,0.0,0,7,0,0,0,0,0,0,0,0,0,0,0,0,3758,24.875,18.4,18.0,0.0,0,8,0,0,0,0,0,0,0,0,0,0
2510904203,34652,8,4,0,0,0,0,0,0,4235,24.703125,25.4,18.0,0.0,0,1,0,0,0,0,0,0,0,0,0,0,0,0,4133,24.9375,22.9,19.0,0.0,0,2,0,0,0,0,0,0,0,0,0,0,0,0,4576,25.0,25.800001,18.0,0.0,0,3,0,0,0,0,0,0,0,0,0,0,0,0,4190,25.09375,23.0,15.0,0.0,0,4,0,0,0,0,0,0,0,0,0,0,0,0,4345,24.671875,22.5,19.0,0.0,0,5,0,0,0,0,0,0,0,0,0,0,0,0,3828,24.640625,15.3,16.0,0.0,0,6,0,0,0,0,0,0,0,0,0,0,0,0,4025,24.828125,18.5,18.0,0.0,0,7,0,0,0,0,0,0,0,0,0,0,0,0,3746,24.84375,17.2,18.0,0.0,0,8,0,0,0,0,0,0,0,0,0,0
2510944247,34662,8,4,0,0,0,0,0,0,4253,24.65625,27.7,18.0,0.0,0,1,0,0,0,0,0,0,0,0,0,0,0,0,4167,24.90625,24.1,19.0,0.0,0,2,0,0,0,0,0,0,0,0,0,0,0,0,4585,25.09375,25.800001,18.0,0.0,0,3,0,0,0,0,0,0,0,0,0,0,0,0,4186,24.953125,24.300001,15.0,0.0,0,4,0,0,0,0,0,0,0,0,0,0,0,0,4335,24.875,22.6,19.0,0.0,0,5,0,0,0,0,0,0,0,0,0,0,0,0,3814,24.625,18.2,16.0,0.0,0,6,0,0,0,0,0,0,0,0,0,0,0,0,4002,24.6875,17.9,18.0,0.0,0,7,0,0,0,0,0,0,0,0,0,0,0,0,3755,24.8125,18.5,18.0,0.0,0,8,0,0,0,0,0,0,0,0,0,0
2510987550,34673,8,4,0,0,0,0,0,0,4260,24.625,25.0,18.0,0.0,0,1,0,0,0,0,0,0,0,0,0,0,0,0,4170,24.84375,23.5,19.0,0.0,0,2,0,0,0,0,0,0,0,0,0,0,0,0,4590,25.0625,24.6,18.0,0.0,0,3,0,0,0,0,0,0,0,0,0,0,0,0,4189,24.671875,23.800001,15.0,0.0,0,4,0,0,0,0,0,0,0,0,0,0,0,0,4337,24.71875,23.5,19.0,0.0,0,5,0,0,0,0,0,0,0,0,0,0,0,0,3813,24.6875,17.1,16.0,0.0,0,6,0,0,0,0,0,0,0,0,0,0,0,0,3995,24.703125,19.6,18.0,0.0,0,7,0,0,0,0,0,0,0,0,0,0,0,0,3761,24.84375,17.9,18.0,0.0,0,8,0,0,0,0,0,0,0,0,0,0
2511028261,34683,8,4,0,0,0,0,0,0,4266,24.859375,26.7,18.0,0.0,0,1,0,0,0,0,0,0,0,0,0,0,0,0,4176,24.890625,23.300001,19.0,0.0,0,2,0,0,0,0,0,0,0,0,0,0,0,0,4595,25.0,25.0,18.0,0.0,0,3,0,0,0,0,0,0,0,0,0,0,0,0,4194,24.75,24.7,15.0,0.0,0,4,0,0,0,0,0,0,0,0,0,0,0,0,4340,24.65625,23.6,19.0,0.0,0,5,0,0,0,0,0,0,0,0,0,0,0,0,3812,24.40625,16.300001,16.0,0.0,0,6,0,0,0,0,0,0,0,0,0,0,0,0,3999,24.84375,18.7,18.0,0.0,0,7,0,0,0,0,0,0,0,0,0,0,0,0,3776,24.84375,17.7,18.0,0.0,0,8,0,0,0,0,0,0,0,0,0,0
2511071371,34694,8,4,0,0,0,0,0,0,4284,24.734375,27.1,18.0,0.0,0,1,0,0,0,0,0,0,0,0,0,0,0,0,4197,24.96875,22.2,19.0,0.0,0,2,0,0,0,0,0,0,0,0,0,0,0,0,4597,24.953125,24.6,18.0,0.0,0,3,0,0,0,0,0,0,0,0,0,0,0,0,4183,24.84375,24.5,15.0,0.0,0,4,0,0,0,0,0,0,0,0,0,0,0,0,4324,24.859375,21.6,19.0,0.0,0,5,0,0,0,0,0,0,0,0,0,0,0,0,3811,24.71875,17.2,16.0,0.0,0,6,0,0,0,0,0,0,0,0,0,0,0,0,3996,24.84375,19.5,18.0,0.0,0,7,0,0,0,0,0,0,0,0,0,0,0,0,3782,24.78125,18.6,18.0,0.0,0,8,0,0,0,0,0,0,0,0,0,0
2511112068,34704,8,4,0,0,0,0,0,0,4275,24.625,24.300001,18.0,0.0,0,1,0,0,0,0,0,0,0,0,0,0,0,0,4218,24.90625,22.9,19.0,0.0,0,2,0,0,0,0,0,0,0,0,0,0,0,0,4591,24.921875,24.9,18.0,0.0,0,3,0,0,0,0,0,0,0,0,0,0,0,0,4201,24.765625,25.6,15.0,0.0,0,4,0,0,0,0,0,0,0,0,0,0,0,0,4323,24.765625,23.300001,19.0,0.0,0,5,0,0,0,0,0,0,0,0,0,0,0,0,3814,24.5625,17.9,16.0,0.0,0,6,0,0,0,0,0,0,0,0,0,0,0,0,3978,24.59375,19.1,18.0,0.0,0,7,0,0,0,0,0,0,0,0,0,0,0,0,3781,24.640625,16.7,18.0,0.0,0,8,0,0,0,0,0,0,0,0,0,0
2511156381,34715,8,4,0,0,0,0,0,0,4246,24.796875,24.4,18.0,0.0,0,1,0,0,0,0,0,0,0,0,0,0,0,0,4218,24.78125,21.7,19.0,0.0,0,2,0,0,0,0,0,0,0,0,0,0,0,0,4592,25.046875,25.9,18.0,0.0,0,3,0,0,0,0,0,0,0,0,0,0,0,0,4214,24.796875,26.2,15.0,0.0,0,4,0,0,0,0,0,0,0,0,0,0,0,0,4335,24.984375,22.800001,19.0,0.0,0,5,0,0,0,0,0,0,0,0,0,0,0,0,3820,24.421875,18.0,16.0,0.0,0,6,0,0,0,0,0,0,0,0,0,0,0,0,3976,24.703125,17.800001,18.0,0.0,0,7,0,0,0,0,0,0,0,0,0,0,0,0,3788,24.875,17.0,18.0,0.0,0,8,0,0,0,0,0,0,0,0,0,0
2511197098,34725,8,4,0,0,0,0,0,0,4240,24.796875,25.6,18.0,0.0,0,1,0,0,0,0,0,0,0,0,0,0,0,0,4212,24.875,23.800001,19.0,0.0,0,2,0,0,0,0,0,0,0,0,0,0,0,0,4584,25.0,24.5,18.0,0.0,0,3,0,0,0,0,0,0,0,0,0,0,0,0,4230,24.875,25.2,15.0,0.0,0,4,0,0,0,0,0,0,0,0,0,0,0,0,4336,24.640625,23.1,19.0,0.0,0,5,0,0,0,0,0,0,0,0,0,0,0,0,3828,24.640625,17.5,16.0,0.0,0,6,0,0,0,0,0,0,0,0,0,0,0,0,3981,24.796875,19.2,18.0,0.0,0,7,0,0,0,0,0,0,0,0,0,0,0,0,3789,24.65625,18.800001,18.0,0.0,0,8,0,0,0,0,0,0,0,0,0,0
2511239359,34736,8,4,0,0,0,0,0,0,4237,24.703125,23.800001,18.0,0.0,0,1,0,0,0,0,0,0,0,0,0,0,0,0,4229,24.84375,24.300001,19.0,0.0,0,2,0,0,0,0,0,0,0,0,0,0,0,0,4583,25.03125,26.0,18.0,0.0,0,3,0,0,0,0,0,0,0,0,0,0,0,0,4222,24.9375,27.2,15.0,0.0,0,4,0,0,0,0,0,0,0,0,0,0,0,0,4341,24.796875,22.9,19.0,0.0,0,5,0,0,0,0,0,0,0,0,0,0,0,0,3838,24.515625,16.7,16.0,0.0,0,6,0,0,0,0,0,0,0,0,0,0,0,0,3955,24.671875,17.2,18.0,0.0,0,7,0,0,0,0,0,0,0,0,0,0,0,0,3773,24.640625,17.7,18.0,0.0,0,8,0,0,0,0,0,0,0,0,0,0
2511279345,34746,8,4,0,0,0,0,0,0,4229,24.640625,25.2,18.0,0.0,0,1,0,0,0,0,0,0,0,0,0,0,0,0,4218,24.78125,21.2,19.0,0.0,0,2,0,0,0,0,0,0,0,0,0,0,0,0,4591,24.953125,24.6,18.0,0.0,0,3,0,0,0,0,0,0,0,0,0,0,0,0,4242,24.953125,24.1,15.0,0.0,0,4,0,0,0,0,0,0,0,0,0,0,0,0,4341,24.78125,22.6,19.0,0.0,0,5,0,0,0,0,0,0,0,0,0,0,0,0,3836,24.484375,16.7,16.0,0.0,0,6,0,0,0,0,0,0,0,0,0,0,0,0,3952,24.71875,18.4,18.0,0.0,0,7,0,0,0,0,0,0,0,0,0,0,0,0,3770,24.796875,18.6,18.0,0.0,0,8,0,0,0,0,0,0,0,0,0,0
2511319917,34756,8,4,0,0,0,0,0,0,4214,24.40625,24.800001,18.0,0.0,0,1,0,0,0,0,0,0,0,0,0,0,0,0,4228,25.046875,21.4,19.0,0.0,0,2,0,0,0,0,0,0,0,0,0,0,0,0,4579,25.109375,26.4,18.0,0.0,0,3,0,0,0,0,0,0,0,0,0,0,0,0,4261,24.734375,24.4,15.0,0.0,0,4,0,0,0,0,0,0,0,0,0,0,0,0,4351,24.84375,22.300001,19.0,0.0,0,5,0,0,0,0,0,0,0,0,0,0,0,0,3850,24.671875,17.4,16.0,0.0,0,6,0,0,0,0,0,0,0,0,0,0,0,0,3957,24.546875,19.5,18.0,0.0,0,7,0,0,0,0,0,0,0,0,0,0,0,0,3762,24.765625,19.4,18.0,0.0,0,8,0,0,0,0,0,0,0,0,0,0
2511359052,34766,8,4,0,0,0,0,0,0,4193,24.46875,23.2,18.0,0.0,0,1,0,0,0,0,0,0,0,0,0,0,0,0,4224,25.03125,21.1,19.0,0.0,0,2,0,0,0,0,0,0,0,0,0,0,0,0,4584,24.96875,24.300001,18.0,0.0,0,3,0,0,0,0,0,0,0,0,0,0,0,0,4260,24.9375,25.9,15.0,0.0,0,4,0,0,0,0,0,0,0,0,0,0,0,0,4339,24.8125,23.5,19.0,0.0,0,5,0,0,0,0,0,0,0,0,0,0,0,0,3865,24.546875,18.4,16.0,0.0,0,6,0,0,0,0,0,0,0,0,0,0,0,0,3954,24.90625,17.4,18.0,0.0,0,7,0,0,0,0,0,0,0,0,0,0,0,0,3755,24.4375,17.9,18.0,0.0,0,8,0,0,0,0,0,0,0,0,0,0
2511399118,34776,8,4,0,0,0,0,0,0,4192,24.546875,22.7,18.0,0.0,0,1,0,0,0,0,0,0,0,0,0,0,0,0,4208,25.0,20.1,19.0,0.0,0,2,0,0,0,0,0,0,0,0,0,0,0,0,4573,24.875,23.9,18.0,0.0,0,3,0,0,0,0,0,0,0,0,0,0,0,0,4273,25.0625,25.2,15.0,0.0,0,4,0,0,0,0,0,0,0,0,0,0,0,0,4344,24.453125,23.7,19.0,0.0,0,5,0,0,0,0,0,0,0,0,0,0,0,0,3885,24.4375,21.4,16.0,0.0,0,6,0,0,0,0,0,0,0,0,0,0,0,0,3961,24.828125,21.0,18.0,0.0,0,7,0,0,0,0,0,0,0,0,0,0,0,0,3767,24.53125,21.5,18.0,0.0,0,8,0,0,0,0,0,0,0,0,0,0
2511443861,34787,8,4,0,0,0,0,0,0,4171,24.78125,24.300001,18.0,0.0,0,1,0,0,0,0,0,0,0,0,0,0,0,0,4144,24.65625,19.5,19.0,0.0,0,2,0,0,0,0,0,0,0,0,0,0,0,0,4508,24.703125,22.5,18.0,0.0,0,3,0,0,0,0,0,0,0,0,0,0,0,0,4274,24.890625,22.4,15.0,0.0,0,4,0,0,0,0,0,0,0,0,0,0,0,0,4368,24.765625,23.7,19.0,0.0,0,5,0,0,0,0,0,0,0,0,0,0,0,0,3922,24.671875,23.0,16.0,0.0,0,6,0,0,0,0,0,0,0,0,0,0,0,0,4002,24.734375,24.300001,18.0,0.0,0,7,0,0,0,0,0,0,0,0,0,0,0,0,3813,24.578125,22.4,18.0,0.0,0,8,0,0,0,0,0,0,0,0,0,0
2511483787,34797,8,4,0,0,0,0,0,0,4186,24.6875,24.1,18.0,0.0,0,1,0,0,0,0,0,0,0,0,0,0,0,0,4152,24.8125,21.800001,19.0,0.0,0,2,0,0,0,0,0,0,0,0,0,0,0,0,4480,24.921875,23.6,18.0,0.0,0,3,0,0,0,0,0,0,0,0,0,0,0,0,4240,24.84375,25.4,15.0,0.0,0,4,0,0,0,0,0,0,0,0,0,0,0,0,4375,24.84375,26.300001,19.0,0.0,0,5,0,0,0,0,0,0,0,0,0,0,0,0,3963,24.578125,23.5,16.0,0.0,0,6,0,0,0,0,0,0,0,0,0,0,0,0,4057,25.0,23.5,18.0,0.0,0,7,0,0,0,0,0,0,0,0,0,0,0,0,3845,24.703125,21.7,18.0,0.0,0,8,0,0,0,0,0,0,0,0,0,0
2511524325,34807,8,4,0,0,0,0,0,0,4164,24.6875,25.7,18.0,0.0,0,1,0,0,0,0,0,0,0,0,0,0,0,0,4137,24.640625,21.9,19.0,0.0,0,2,0,0,0,0,0,0,0,0,0,0,0,0,4473,25.109375,25.300001,18.0,0.0,0,3,0,0,0,0,0,0,0,0,0,0,0,0,4242,24.703125,24.5,15.0,0.0,0,4,0,0,0,0,0,0,0,0,0,0,0,0,4398,24.84375,25.5,19.0,0.0,0,5,0,0,0,0,0,0,0,0,0,0,0,0,4021,24.796875,20.1,16.0,0.0,0,6,0,0,0,0,0,0,0,0,0,0,0,0,4119,24.625,25.300001,18.0,0.0,0,7,0,0,0,0,0,0,0,0,0,0,0,0,3869,24.625,20.2,18.0,0.0,0,8,0,0,0,0,0,0,0,0,0,0
2511567273,34818,8,4,0,0,0,0,0,0,4230,24.65625,28.300001,18.0,0.0,0,1,0,0,0,0,0,0,0,0,0,0,0,0,4163,24.765625,23.4,19.0,0.0,0,2,0,0,0,0,0,0,0,0,0,0,0,0,4483,24.984375,26.9,18.0,0.0,0,3,0,0,0,0,0,0,0,0,0,0,0,0,4246,24.625,23.1,15.0,0.0,0,4,0,0,0,0,0,0,0,0,0,0,0,0,4428,24.796875,25.300001,19.0,0.0,0,5,0,0,0,0,0,0,0,0,0,0,0,0,4037,24.703125,19.800001,16.0,0.0,0,6,0,0,0,0,0,0,0,0,0,0,0,0,4165,24.828125,22.9,18.0,0.0,0,7,0,0,0,0,0,0,0,0,0,0,0,0,3899,24.859375,19.7,18.0,0.0,0,8,0,0,0,0,0,0,0,0,0,0
2511615388,34830,8,4,0,0,0,0,0,0,4267,24.6875,26.7,18.0,0.0,0,1,0,0,0,0,0,0,0,0,0,0,0,0,4186,24.75,22.5,19.0,0.0,0,2,0,0,0,0,0,0,0,0,0,0,0,0,4564,24.8125,29.300001,18.0,0.0,0,3,0,0,0,0,0,0,0,0,0,0,0,0,4270,24.84375,25.7,15.0,0.0,0,4,0,0,0,0,0,0,0,0,0,0,0,0,4460,24.703125,26.9,19.0,0.0,0,5,0,0,0,0,0,0,0,0,0,0,0,0,4016,24.53125,17.6,16.0,0.0,0,6,0,0,0,0,0,0,0,0,0,0,0,0,4169,24.609375,20.800001,18.0,0.0,0,7,0,0,0,0,0,0,0,0,0,0,0,0,3907,24.671875,17.2,18.0,0.0,0,8,0,0,0,0,0,0,0,0,0,0
2511654985,34840,8,4,0,0,0,0,0,0,4293,24.84375,27.800001,18.0,0.0,0,1,0,0,0,0,0,0,0,0,0,0,0,0,4209,24.703125,23.9,19.0,0.0,0,2,0,0,0,0,0,0,0,0,0,0,0,0,4613,24.953125,28.300001,18.0,0.0,0,3,0,0,0,0,0,0,0,0,0,0,0,0,4278,24.84375,24.6,15.0,0.0,0,4,0,0,0,0,0,0,0,0,0,0,0,0,4474,24.765625,25.5,19.0,0.0,0,5,0,0,0,0,0,0,0,0,0,0,0,0,3977,24.65625,13.5,16.0,0.0,0,6,0,0,0,0,0,0,0,0,0,0,0,0,4159,24.84375,18.5,18.0,0.0,0,7,0,0,0,0,0,0,0,0,0,0,0,0,3842,24.828125,15.400001,18.0,0.0,0,8,0,0,0,0,0,0,0,0,0,0
2511696544,34850,8,4,0,0,0,0,0,0,4314,24.59375,28.6,18.0,0.0,0,1,0,0,0,0,0,0,0,0,0,0,0,0,4185,24.859375,21.300001,19.0,0.0,0,2,0,0,0,0,0,0,0,0,0,0,0,0,4654,24.96875,27.1,18.0,0.0,0,3,0,0,0,0,0,0,0,0,0,0,0,0,4275,24.796875,23.6,15.0,0.0,0,4,0,0,0,0,0,0,0,0,0,0,0,0,4481,24.8125,23.4,19.0,0.0,0,5,0,0,0,0,0,0,0,0,0,0,0,0,3931,24.796875,12.400001,16.0,0.0,0,6,0,0,0,0,0,0,0,0,0,0,0,0,4142,24.625,18.1,18.0,0.0,0,7,0,0,0,0,0,0,0,0,0,0,0,0,3801,24.71875,16.1,18.0,0.0,0,8,0,0,0,0,0,0,0,0,0,0
2511739934,34861,8,4,0,0,0,0,0,0,4318,24.5,28.5,18.0,0.0,0,1,0,0,0,0,0,0,0,0,0,0,0,0,4196,25.09375,20.7,19.0,0.0,0,2,0,0,0,0,0,0,0,0,0,0,0,0,4710,25.1875,26.7,18.0,0.0,0,3,0,0,0,0,0,0,0,0,0,0,0,0,4228,24.734375,22.6,15.0,0.0,0,4,0,0,0,0,0,0,0,0,0,0,0,0,4458,24.703125,23.6,19.0,0.0,0,5,0,0,0,0,0,0,0,0,0,0,0,0,3881,24.609375,12.8,16.0,0.0,0,6,0,0,0,0,0,0,0,0,0,0,0,0,4116,24.828125,17.800001,18.0,0.0,0,7,0,0,0,0,0,0,0,0,0,0,0,0,3760,24.703125,14.6,18.0,0.0,0,8,0,0,0,0,0,0,0,0,0,0
2511783011,34872,8,4,0,0,0,0,0,0,4330,24.625,28.4,18.0,0.0,0,1,0,0,0,0,0,0,0,0,0,0,0,0,4171,24.921875,20.0,19.0,0.0,0,2,0,0,0,0,0,0,0,0,0,0,0,0,4725,25.046875,28.5,18.0,0.0,0,3,0,0,0,0,0,0,0,0,0,0,0,0,4213,24.734375,22.4,15.0,0.0,0,4,0,0,0,0,0,0,0,0,0,0,0,0,4440,24.625,24.1,19.0,0.0,0,5,0,0,0,0,0,0,0,0,0,0,0,0,3769,24.703125,14.8,16.0,0.0,0,6,0,0,0,0,0,0,0,0,0,0,0,0,4065,24.59375,18.2,18.0,0.0,0,7,0,0,0,0,0,0,0,0,0,0,0,0,3689,24.484375,16.6,18.0,0.0,0,8,0,0,0,0,0,0,0,0,0,0
2511823600,34882,8,4,0,0,0,0,0,0,4320,24.59375,25.300001,18.0,0.0,0,1,0,0,0,0,0,0,0,0,0,0,0,0,4139,24.890625,19.4,19.0,0.0,0,2,0,0,0,0,0,0,0,0,0,0,0,0,4724,25.0,26.2,18.0,0.0,0,3,0,0,0,0,0,0,0,0,0,0,0,0,4179,24.828125,20.1,15.0,0.0,0,4,0,0,0,0,0,0,0,0,0,0,0,0,4428,24.921875,24.0,19.0,0.0,0,5,0,0,0,0,0,0,0,0,0,0,0,0,3737,24.734375,15.400001,16.0,0.0,0,6,0,0,0,0,0,0,0,0,0,0,0,0,4047,24.8125,19.9,18.0,0.0,0,7,0,0,0,0,0,0,0,0,0,0,0,0,3665,24.59375,16.7,18.0,0.0,0,8,0,0,0,0,0,0,0,0,0,0
2511863196,34892,8,4,0,0,0,0,0,0,4308,24.671875,25.2,18.0,0.0,0,1,0,0,0,0,0,0,0,0,0,0,0,0,4113,24.921875,18.4,19.0,0.0,0,2,0,0,0,0,0,0,0,0,0,0,0,0,4687,25.0,23.6,18.0,0.0,0,3,0,0,0,0,0,0,0,0,0,0,0,0,4137,24.671875,23.2,15.0,0.0,0,4,0,0,0,0,0,0,0,0,0,0,0,0,4428,24.75,24.5,19.0,0.0,0,5,0,0,0,0,0,0,0,0,0,0,0,0,3726,24.546875,17.0,16.0,0.0,0,6,0,0,0,0,0,0,0,0,0,0,0,0,4051,24.875,19.6,18.0,0.0,0,7,0,0,0,0,0,0,0,0,0,0,0,0,3661,24.65625,16.300001,18.0,0.0,0,8,0,0,0,0,0,0,0,0,0,0
2511903795,34902,8,4,0,0,0,0,0,0,4297,24.578125,26.2,18.0,0.0,0,1,0,0,0,0,0,0,0,0,0,0,0,0,4099,24.703125,20.6,19.0,0.0,0,2,0,0,0,0,0,0,0,0,0,0,0,0,4674,24.9375,23.6,18.0,0.0,0,3,0,0,0,0,0,0,0,0,0,0,0,0,4139,24.875,22.7,15.0,0.0,0,4,0,0,0,0,0,0,0,0,0,0,0,0,4418,24.9375,22.9,19.0,0.0,0,5,0,0,0,0,0,0,0,0,0,0,0,0,3737,24.484375,17.7,16.0,0.0,0,6,0,0,0,0,0,0,0,0,0,0,0,0,4043,24.5625,20.7,18.0,0.0,0,7,0,0,0,0,0,0,0,0,0,0,0,0,3647,24.546875,17.1,18.0,0.0,0,8,0,0,0,0,0,0,0,0,0,0
2511943114,34912,8,4,0,0,0,0,0,0,4287,24.703125,24.6,18.0,0.0,0,1,0,0,0,0,0,0,0,0,0,0,0,0,4081,24.859375,19.1,19.0,0.0,0,2,0,0,0,0,0,0,0,0,0,0,0,0,4665,24.875,25.2,18.0,0.0,0,3,0,0,0,0,0,0,0,0,0,0,0,0,4126,24.953125,22.7,16.0,0.0,0,4,0,0,0,0,0,0,0,0,0,0,0,0,4412,24.8125,23.2,19.0,0.0,0,5,0,0,0,0,0,0,0,0,0,0,0,0,3732,24.625,17.7,16.0,0.0,0,6,0,0,0,0,0,0,0,0,0,0,0,0,4045,24.640625,21.6,18.0,0.0,0,7,0,0,0,0,0,0,0,0,0,0,0,0,3643,24.640625,17.0,18.0,0.0,0,8,0,0,0,0,0,0,0,0,0,0
2511988037,34923,8,4,0,0,0,0,0,0,4255,24.65625,26.0,18.0,0.0,0,1,0,0,0,0,0,0,0,0,0,0,0,0,4041,24.640625,20.300001,19.0,0.0,0,2,0,0,0,0,0,0,0,0,0,0,0,0,4636,24.890625,26.1,18.0,0.0,0,3,0,0,0,0,0,0,0,0,0,0,0,0,4112,24.84375,22.1,16.0,0.0,0,4,0,0,0,0,0,0,0,0,0,0,0,0,4418,24.84375,25.300001,19.0,0.0,0,5,0,0,0,0,0,0,0,0,0,0,0,0,3737,24.546875,17.9,16.0,0.0,0,6,0,0,0,0,0,0,0,0,0,0,0,0,4039,24.984375,20.9,18.0,0.0,0,7,0,0,0,0,0,0,0,0,0,0,0,0,3643,24.71875,16.4,18.0,0.0,0,8,0,0,0,0,0,0,0,0,0,0
2512030790,34934,8,4,0,0,0,0,0,0,4229,24.640625,24.1,18.0,0.0,0,1,0,0,0,0,0,0,0,0,0,0,0,0,4044,24.703125,20.5,19.0,0.0,0,2,0,0,0,0,0,0,0,0,0,0,0,0,4621,24.75,24.9,18.0,0.0,0,3,0,0,0,0,0,0,0,0,0,0,0,0,4125,24.796875,21.5,16.0,0.0,0,4,0,0,0,0,0,0,0,0,0,0,0,0,4409,24.75,24.7,19.0,0.0,0,5,0,0,0,0,0,0,0,0,0,0,0,0,3752,24.546875,18.1,16.0,0.0,0,6,0,0,0,0,0,0,0,0,0,0,0,0,4040,24.625,20.4,18.0,0.0,0,7,0,0,0,0,0,0,0,0,0,0,0,0,3636,24.671875,17.300001,18.0,0.0,0,8,0,0,0,0,0,0,0,0,0,0
2512071826,34944,8,4,0,0,0,0,0,0,4222,24.859375,25.300001,18.0,0.0,0,1,0,0,0,0,0,0,0,0,0,0,0,0,4047,24.96875,19.7,19.0,0.0,0,2,0,0,0,0,0,0,0,0,0,0,0,0,4608,25.03125,25.1,18.0,0.0,0,3,0,0,0,0,0,0,0,0,0,0,0,0,4122,24.84375,22.5,16.0,0.0,0,4,0,0,0,0,0,0,0,0,0,0,0,0,4399,24.828125,25.7,19.0,0.0,0,5,0,0,0,0,0,0,0,0,0,0,0,0,3759,24.59375,18.300001,16.0,0.0,0,6,0,0,0,0,0,0,0,0,0,0,0,0,4031,24.75,19.1,18.0,0.0,0,7,0,0,0,0,0,0,0,0,0,0,0,0,3648,24.71875,16.2,18.0,0.0,0,8,0,0,0,0,0,0,0,0,0,0
2512110920,34954,8,4,0,0,0,0,0,0,4202,24.890625,24.7,18.0,0.0,0,1,0,0,0,0,0,0,0,0,0,0,0,0,4046,24.84375,19.6,19.0,0.0,0,2,0,0,0,0,0,0,0,0,0,0,0,0,4598,25.140625,25.4,18.0,0.0,0,3,0,0,0,0,0,0,0,0,0,0,0,0,4137,24.84375,22.7,16.0,0.0,0,4,0,0,0,0,0,0,0,0,0,0,0,0,4394,24.828125,25.300001,19.0,0.0,0,5,0,0,0,0,0,0,0,0,0,0,0,0,3771,24.640625,17.5,16.0,0.0,0,6,0,0,0,0,0,0,0,0,0,0,0,0,4028,24.59375,20.5,18.0,0.0,0,7,0,0,0,0,0,0,0,0,0,0,0,0,3651,24.890625,16.5,18.0,0.0,0,8,0,0,0,0,0,0,0,0,0,0
2512155723,34965,8,4,0,0,0,0,0,0,4195,24.8125,23.1,18.0,0.0,0,1,0,0,0,0,0,0,0,0,0,0,0,0,4046,24.875,19.4,19.0,0.0,0,2,0,0,0,0,0,0,0,0,0,0,0,0,4577,25.015625,23.800001,18.0,0.0,0,3,0,0,0,0,0,0,0,0,0,0,0,0,4134,24.90625,22.9,16.0,0.0,0,4,0,0,0,0,0,0,0,0,0,0,0,0,4387,25.0,23.4,19.0,0.0,0,5,0,0,0,0,0,0,0,0,0,0,0,0,3780,24.484375,18.300001,16.0,0.0,0,6,0,0,0,0,0,0,0,0,0,0,0,0,4027,24.75,21.1,18.0,0.0,0,7,0,0,0,0,0,0,0,0,0,0,0,0,3659,24.53125,18.300001,18.0,0.0,0,8,0,0,0,0,0,0,0,0,0,0
2512199059,34976,8,4,0,0,0,0,0,0,4185,24.578125,24.1,18.0,0.0,0,1,0,0,0,0,0,0,0,0,0,0,0,0,4039,24.828125,19.300001,19.0,0.0,0,2,0,0,0,0,0,0,0,0,0,0,0,0,4564,24.984375,23.9,18.0,0.0,0,3,0,0,0,0,0,0,0,0,0,0,0,0,4136,24.953125,23.6,16.0,0.0,0,4,0,0,0,0,0,0,0,0,0,0,0,0,4378,24.78125,24.300001,19.0,0.0,0,5,0,0,0,0,0,0,0,0,0,0,0,0,3801,24.609375,19.7,16.0,0.0,0,6,0,0,0,0,0,0,0,0,0,0,0,0,4021,24.828125,20.1,18.0,0.0,0,7,0,0,0,0,0,0,0,0,0,0,0,0,3668,24.640625,18.1,18.0,0.0,0,8,0,0,0,0,0,0,0,0,0,0
2512240215,34986,8,4,0,0,0,0,0,0,4187,24.65625,25.800001,18.0,0.0,0,1,0,0,0,0,0,0,0,0,0,0,0,0,4045,24.84375,21.6,19.0,0.0,0,2,0,0,0,0,0,0,0,0,0,0,0,0,4553,25.09375,24.4,18.0,0.0,0,3,0,0,0,0,0,0,0,0,0,0,0,0,4142,24.8125,24.1,16.0,0.0,0,4,0,0,0,0,0,0,0,0,0,0,0,0,4378,24.5,24.9,19.0,0.0,0,5,0,0,0,0,0,0,0,0,0,0,0,0,3797,24.6875,18.2,16.0,0.0,0,6,0,0,0,0,0,0,0,0,0,0,0,0,4029,24.796875,19.9,18.0,0.0,0,7,0,0,0,0,0,0,0,0,0,0,0,0,3669,24.734375,17.0,18.0,0.0,0,8,0,0,0,0,0,0,0,0,0,0
2512283548,34997,8,4,0,0,0,0,0,0,4189,24.546875,23.800001,18.0,0.0,0,1,0,0,0,0,0,0,0,0,0,0,0,0,4045,25.0625,19.6,19.0,0.0,0,2,0,0,0,0,0,0,0,0,0,0,0,0,4541,25.09375,23.800001,18.0,0.0,0,3,0,0,0,0,0,0,0,0,0,0,0,0,4131,25.0625,21.6,16.0,0.0,0,4,0,0,0,0,0,0,0,0,0,0,0,0,4375,24.859375,24.5,19.0,0.0,0,5,0,0,0,0,0,0,0,0,0,0,0,0,3795,24.765625,18.2,16.0,0.0,0,6,0,0,0,0,0,0,0,0,0,0,0,0,4029,24.84375,19.5,18.0,0.0,0,7,0,0,0,0,0,0,0,0,0,0,0,0,3681,24.6875,17.300001,18.0,0.0,0,8,0,0,0,0,0,0,0,0,0,0
2512327972,35008,8,4,0,0,0,0,0,0,4190,24.421875,24.2,18.0,0.0,0,1,0,0,0,0,0,0,0,0,0,0,0,0,4036,25.015625,19.800001,19.0,0.0,0,2,0,0,0,0,0,0,0,0,0,0,0,0,4541,24.984375,24.1,18.0,0.0,0,3,0,0,0,0,0,0,0,0,0,0,0,0,4132,24.921875,22.1,16.0,0.0,0,4,0,0,0,0,0,0,0,0,0,0,0,0,4373,24.703125,25.5,19.0,0.0,0,5,0,0,0,0,0,0,0,0,0,0,0,0,3798,24.546875,18.7,16.0,0.0,0,6,0,0,0,0,0,0,0,0,0,0,0,0,4038,24.625,21.7,18.0,0.0,0,7,0,0,0,0,0,0,0,0,0,0,0,0,3682,24.5625,16.1,18.0,0.0,0,8,0,0,0,0,0,0,0,0,0,0
2512366984,35018,8,4,0,0,0,0,0,0,4181,24.40625,24.7,18.0,0.0,0,1,0,0,0,0,0,0,0,0,0,0,0,0,4036,25.015625,19.300001,19.0,0.0,0,2,0,0,0,0,0,0,0,0,0,0,0,0,4542,25.078125,24.0,18.0,0.0,0,3,0,0,0,0,0,0,0,0,0,0,0,0,4128,24.625,25.300001,16.0,0.0,0,4,0,0,0,0,0,0,0,0,0,0,0,0,4375,25.09375,25.9,20.0,0.0,0,5,0,0,0,0,0,0,0,0,0,0,0,0,3794,24.71875,16.5,16.0,0.0,0,6,0,0,0,0,0,0,0,0,0,0,0,0,4038,24.75,20.5,18.0,0.0,0,7,0,0,0,0,0,0,0,0,0,0,0,0,3681,24.96875,16.6,18.0,0.0,0,8,0,0,0,0,0,0,0,0,0,0
2512412636,35029,8,4,0,0,0,0,0,0,4192,24.546875,25.5,18.0,0.0,0,1,0,0,0,0,0,0,0,0,0,0,0,0,4037,24.875,19.6,19.0,0.0,0,2,0,0,0,0,0,0,0,0,0,0,0,0,4555,25.0,25.6,18.0,0.0,0,3,0,0,0,0,0,0,0,0,0,0,0,0,4125,24.96875,22.2,16.0,0.0,0,4,0,0,0,0,0,0,0,0,0,0,0,0,4378,24.765625,25.1,20.0,0.0,0,5,0,0,0,0,0,0,0,0,0,0,0,0,3798,24.578125,17.1,16.0,0.0,0,6,0,0,0,0,0,0,0,0,0,0,0,0,4040,24.625,21.6,18.0,0.0,0,7,0,0,0,0,0,0,0,0,0,0,0,0,3676,24.6875,16.2,18.0,0.0,0,8,0,0,0,0,0,0,0,0,0,0
2512454908,35040,8,4,0,0,0,0,0,0,4207,24.53125,26.1,18.0,0.0,0,1,0,0,0,0,0,0,0,0,0,0,0,0,4045,24.78125,20.1,19.0,0.0,0,2,0,0,0,0,0,0,0,0,0,0,0,0,4566,25.015625,26.1,18.0,0.0,0,3,0,0,0,0,0,0,0,0,0,0,0,0,4133,24.75,21.2,16.0,0.0,0,4,0,0,0,0,0,0,0,0,0,0,0,0,4382,24.703125,26.6,20.0,0.0,0,5,0,0,0,0,0,0,0,0,0,0,0,0,3778,24.25,18.800001,16.0,0.0,0,6,0,0,0,0,0,0,0,0,0,0,0,0,4048,24.796875,19.300001,18.0,0.0,0,7,0,0,0,0,0,0,0,0,0,0,0,0,3670,24.59375,17.2,18.0,0.0,0,8,0,0,0,0,0,0,0,0,0,0
2512495852,35050,8,4,0,0,0,0,0,0,4211,24.578125,25.300001,18.0,0.0,0,1,0,0,0,0,0,0,0,0,0,0,0,0,4055,25.03125,20.2,19.0,0.0,0,2,0,0,0,0,0,0,0,0,0,0,0,0,4576,24.984375,24.1,18.0,0.0,0,3,0,0,0,0,0,0,0,0,0,0,0,0,4140,24.921875,23.2,16.0,0.0,0,4,0,0,0,0,0,0,0,0,0,0,0,0,4390,24.90625,26.5,20.0,0.0,0,5,0,0,0,0,0,0,0,0,0,0,0,0,3769,24.421875,17.7,16.0,0.0,0,6,0,0,0,0,0,0,0,0,0,0,0,0,4037,24.84375,19.4,18.0,0.0,0,7,0,0,0,0,0,0,0,0,0,0,0,0,3657,24.65625,16.300001,18.0,0.0,0,8,0,0,0,0,0,0,0,0,0,0
2512535079,35060,8,4,0,0,0,0,0,0,4222,24.625,26.7,18.0,0.0,0,1,0,0,0,0,0,0,0,0,0,0,0,0,4062,24.78125,22.5,19.0,0.0,0,2,0,0,0,0,0,0,0,0,0,0,0,0,4605,25.046875,26.1,18.0,0.0,0,3,0,0,0,0,0,0,0,0,0,0,0,0,4144,24.8125,23.5,16.0,0.0,0,4,0,0,0,0,0,0,0,0,0,0,0,0,4390,24.875,24.4,20.0,0.0,0,5,0,0,0,0,0,0,0,0,0,0,0,0,3764,24.578125,16.5,16.0,0.0,0,6,0,0,0,0,0,0,0,0,0,0,0,0,4028,24.796875,19.800001,18.0,0.0,0,7,0,0,0,0,0,0,0,0,0,0,0,0,3649,24.578125,17.2,18.0,0.0,0,8,0,0,0,0,0,0,0,0,0,0
2512579863,35071,8,4,0,0,0,0,0,0,4217,24.703125,26.1,18.0,0.0,0,1,0,0,0,0,0,0,0,0,0,0,0,0,4070,24.65625,22.1,19.0,0.0,0,2,0,0,0,0,0,0,0,0,0,0,0,0,4611,24.890625,24.9,18.0,0.0,0,3,0,0,0,0,0,0,0,0,0,0,0,0,4146,24.921875,22.6,16.0,0.0,0,4,0,0,0,0,0,0,0,0,0,0,0,0,4379,24.625,23.4,20.0,0.0,0,5,0,0,0,0,0,0,0,0,0,0,0,0,3748,24.546875,17.9,16.0,0.0,0,6,0,0,0,0,0,0,0,0,0,0,0,0,4022,24.671875,21.2,18.0,0.0,0,7,0,0,0,0,0,0,0,0,0,0,0,0,3660,24.8125,17.1,18.0,0.0,0,8,0,0,0,0,0,0,0,0,0,0
2512623049,35082,8,4,0,0,0,0,0,0,4244,24.546875,25.4,18.0,0.0,0,1,0,0,0,0,0,0,0,0,0,0,0,0,4089,25.09375,21.4,19.0,0.0,0,2,0,0,0,0,0,0,0,0,0,0,0,0,4610,25.109375,25.1,18.0,0.0,0,3,0,0,0,0,0,0,0,0,0,0,0,0,4137,24.828125,23.2,16.0,0.0,0,4,0,0,0,0,0,0,0,0,0,0,0,0,4375,25.015625,23.7,20.0,0.0,0,5,0,0,0,0,0,0,0,0,0,0,0,0,3748,24.609375,17.9,16.0,0.0,0,6,0,0,0,0,0,0,0,0,0,0,0,0,4016,24.71875,19.7,18.0,0.0,0,7,0,0,0,0,0,0,0,0,0,0,0,0,3660,24.46875,17.4,18.0,0.0,0,8,0,0,0,0,0,0,0,0,0,0
2512665072,35092,8,4,0,0,0,0,0,0,4262,24.546875,26.2,18.0,0.0,0,1,0,0,0,0,0,0,0,0,0,0,0,0,4092,24.84375,22.2,19.0,0.0,0,2,0,0,0,0,0,0,0,0,0,0,0,0,4612,24.875,24.4,18.0,0.0,0,3,0,0,0,0,0,0,0,0,0,0,0,0,4134,24.921875,22.5,16.0,0.0,0,4,0,0,0,0,0,0,0,0,0,0,0,0,4366,25.0,23.9,20.0,0.0,0,5,0,0,0,0,0,0,0,0,0,0,0,0,3748,24.6875,17.9,16.0,0.0,0,6,0,0,0,0,0,0,0,0,0,0,0,0,4028,24.953125,21.4,18.0,0.0,0,7,0,0,0,0,0,0,0,0,0,0,0,0,3674,24.796875,17.4,18.0,0.0,0,8,0,0,0,0,0,0,0,0,0,0
2512705980,35102,8,4,0,0,0,0,0,0,4258,24.546875,26.0,18.0,0.0,0,1,0,0,0,0,0,0,0,0,0,0,0,0,4079,24.75,20.5,19.0,0.0,0,2,0,0,0,0,0,0,0,0,0,0,0,0,4611,24.765625,23.5,18.0,0.0,0,3,0,0,0,0,0,0,0,0,0,0,0,0,4131,25.0,20.2,16.0,0.0,0,4,0,0,0,0,0,0,0,0,0,0,0,0,4373,24.84375,25.2,20.0,0.0,0,5,0,0,0,0,0,0,0,0,0,0,0,0,3776,24.71875,17.800001,16.0,0.0,0,6,0,0,0,0,0,0,0,0,0,0,0,0,4032,24.625,20.300001,18.0,0.0,0,7,0,0,0,0,0,0,0,0,0,0,0,0,3680,24.765625,16.9,18.0,0.0,0,8,0,0,0,0,0,0,0,0,0,0
2512748735,35113,8,4,0,0,0,0,0,0,4252,24.765625,26.800001,18.0,0.0,0,1,0,0,0,0,0,0,0,0,0,0,0,0,4095,24.859375,21.4,19.0,0.0,0,2,0,0,0,0,0,0,0,0,0,0,0,0,4613,25.078125,25.6,18.0,0.0,0,3,0,0,0,0,0,0,0,0,0,0,0,0,4138,24.765625,23.2,16.0,0.0,0,4,0,0,0,0,0,0,0,0,0,0,0,0,4373,24.640625,25.6,20.0,0.0,0,5,0,0,0,0,0,0,0,0,0,0,0,0,3761,24.640625,17.2,16.0,0.0,0,6,0,0,0,0,0,0,0,0,0,0,0,0,4039,24.75,20.800001,18.0,0.0,0,7,0,0,0,0,0,0,0,0,0,0,0,0,3686,24.734375,15.8,18.0,0.0,0,8,0,0,0,0,0,0,0,0,0,0
2512789432,35123,8,4,0,0,0,0,0,0,4240,24.703125,25.4,18.0,0.0,0,1,0,0,0,0,0,0,0,0,0,0,0,0,4106,24.8125,21.300001,19.0,0.0,0,2,0,0,0,0,0,0,0,0,0,0,0,0,4628,25.078125,27.1,18.0,0.0,0,3,0,0,0,0,0,0,0,0,0,0,0,0,4148,24.6875,24.5,16.0,0.0,0,4,0,0,0,0,0,0,0,0,0,0,0,0,4376,24.65625,23.800001,20.0,0.0,0,5,0,0,0,0,0,0,0,0,0,0,0,0,3762,24.59375,16.9,16.0,0.0,0,6,0,0,0,0,0,0,0,0,0,0,0,0,4037,24.671875,20.800001,18.0,0.0,0,7,0,0,0,0,0,0,0,0,0,0,0,0,3676,24.53125,17.0,18.0,0.0,0,8,0,0,0,0,0,0,0,0,0,0
2512828941,35133,8,4,0,0,0,0,0,0,4250,24.796875,26.300001,18.0,0.0,0,1,0,0,0,0,0,0,0,0,0,0,0,0,4081,24.84375,19.5,19.0,0.0,0,2,0,0,0,0,0,0,0,0,0,0,0,0,4639,25.078125,25.7,18.0,0.0,0,3,0,0,0,0,0,0,0,0,0,0,0,0,4160,24.859375,22.2,16.0,0.0,0,4,0,0,0,0,0,0,0,0,0,0,0,0,4394,24.703125,26.2,20.0,0.0,0,5,0,0,0,0,0,0,0,0,0,0,0,0,3758,24.671875,16.2,16.0,0.0,0,6,0,0,0,0,0,0,0,0,0,0,0,0,4038,24.734375,18.9,18.0,0.0,0,7,0,0,0,0,0,0,0,0,0,0,0,0,3666,24.765625,15.2,18.0,0.0,0,8,0,0,0,0,0,0,0,0,0,0
2512874023,35144,8,4,0,0,0,0,0,0,4249,24.625,24.9,18.0,0.0,0,1,0,0,0,0,0,0,0,0,0,0,0,0,4084,24.859375,20.1,19.0,0.0,0,2,0,0,0,0,0,0,0,0,0,0,0,0,4641,25.0,26.9,18.0,0.0,0,3,0,0,0,0,0,0,0,0,0,0,0,0,4164,24.78125,23.6,16.0,0.0,0,4,0,0,0,0,0,0,0,0,0,0,0,0,4399,24.96875,24.9,20.0,0.0,0,5,0,0,0,0,0,0,0,0,0,0,0,0,3762,24.765625,17.1,17.0,0.0,0,6,0,0,0,0,0,0,0,0,0,0,0,0,4025,24.984375,18.1,18.0,0.0,0,7,0,0,0,0,0,0,0,0,0,0,0,0,3646,24.515625,16.1,18.0,0.0,0,8,0,0,0,0,0,0,0,0,0,0
2512913817,35154,8,4,0,0,0,0,0,0,4234,24.4375,25.300001,19.0,0.0,0,1,0,0,0,0,0,0,0,0,0,0,0,0,4077,25.015625,20.2,19.0,0.0,0,2,0,0,0,0,0,0,0,0,0,0,0,0,4644,25.09375,24.9,18.0,0.0,0,3,0,0,0,0,0,0,0,0,0,0,0,0,4160,24.859375,21.2,16.0,0.0,0,4,0,0,0,0,0,0,0,0,0,0,0,0,4404,24.90625,24.300001,20.0,0.0,0,5,0,0,0,0,0,0,0,0,0,0,0,0,3767,24.640625,17.800001,17.0,0.0,0,6,0,0,0,0,0,0,0,0,0,0,0,0,4025,24.71875,20.2,18.0,0.0,0,7,0,0,0,0,0,0,0,0,0,0,0,0,3657,24.53125,16.6,19.0,0.0,0,8,0,0,0,0,0,0,0,0,0,0
2512957291,35165,8,4,0,0,0,0,0,0,4234,24.765625,25.5,19.0,0.0,0,1,0,0,0,0,0,0,0,0,0,0,0,0,4084,24.84375,20.300001,19.0,0.0,0,2,0,0,0,0,0,0,0,0,0,0,0,0,4643,25.09375,25.300001,18.0,0.0,0,3,0,0,0,0,0,0,0,0,0,0,0,0,4166,24.9375,23.800001,16.0,0.0,0,4,0,0,0,0,0,0,0,0,0,0,0,0,4417,24.828125,25.0,20.0,0.0,0,5,0,0,0,0,0,0,0,0,0,0,0,0,3777,24.609375,16.800001,17.0,0.0,0,6,0,0,0,0,0,0,0,0,0,0,0,0,4028,24.84375,19.300001,18.0,0.0,0,7,0,0,0,0,0,0,0,0,0,0,0,0,3649,24.703125,15.900001,19.0,0.0,0,8,0,0,0,0,0,0,0,0,0,0
2513001174,35176,8,4,0,0,0,0,0,0,4233,24.78125,25.4,19.0,0.0,0,1,0,0,0,0,0,0,0,0,0,0,0,0,4078,24.625,20.300001,19.0,0.0,0,2,0,0,0,0,0,0,0,0,0,0,0,0,4659,24.828125,26.1,18.0,0.0,0,3,0,0,0,0,0,0,0,0,0,0,0,0,4196,24.84375,25.1,16.0,0.0,0,4,0,0,0,0,0,0,0,0,0,0,0,0,4428,24.796875,22.7,20.0,0.0,0,5,0,0,0,0,0,0,0,0,0,0,0,0,3777,24.40625,15.8,17.0,0.0,0,6,0,0,0,0,0,0,0,0,0,0,0,0,4022,24.84375,18.5,18.0,0.0,0,7,0,0,0,0,0,0,0,0,0,0,0,0,3624,24.6875,15.8,19.0,0.0,0,8,0,0,0,0,0,0,0,0,0,0
2513041664,35186,8,4,0,0,0,0,0,0,4242,24.78125,26.4,19.0,0.0,0,1,0,0,0,0,0,0,0,0,0,0,0,0,4088,24.6875,20.2,19.0,0.0,0,2,0,0,0,0,0,0,0,0,0,0,0,0,4671,24.921875,25.1,18.0,0.0,0,3,0,0,0,0,0,0,0,0,0,0,0,0,4176,24.9375,23.7,16.0,0.0,0,4,0,0,0,0,0,0,0,0,0,0,0,0,4430,24.59375,23.4,20.0,0.0,0,5,0,0,0,0,0,0,0,0,0,0,0,0,3762,24.328125,15.7,17.0,0.0,0,6,0,0,0,0,0,0,0,0,0,0,0,0,4008,24.734375,18.0,18.0,0.0,0,7,0,0,0,0,0,0,0,0,0,0,0,0,3611,24.578125,15.7,19.0,0.0,0,8,0,0,0,0,0,0,0,0,0,0
2513084356,35197,8,4,0,0,0,0,0,0,4237,24.65625,25.5,19.0,0.0,0,1,0,0,0,0,0,0,0,0,0,0,0,0,4100,24.65625,23.0,19.0,0.0,0,2,0,0,0,0,0,0,0,0,0,0,0,0,4696,24.9375,27.0,18.0,0.0,0,3,0,0,0,0,0,0,0,0,0,0,0,0,4180,24.796875,24.0,16.0,0.0,0,4,0,0,0,0,0,0,0,0,0,0,0,0,4429,24.796875,26.300001,20.0,0.0,0,5,0,0,0,0,0,0,0,0,0,0,0,0,3743,24.640625,15.1,17.0,0.0,0,6,0,0,0,0,0,0,0,0,0,0,0,0,3996,24.59375,17.300001,18.0,0.0,0,7,0,0,0,0,0,0,0,0,0,0,0,0,3599,24.6875,15.6,19.0,0.0,0,8,0,0,0,0,0,0,0,0,0,0
2513124953,35207,8,4,0,0,0,0,0,0,4237,24.546875,24.300001,19.0,0.0,0,1,0,0,0,0,0,0,0,0,0,0,0,0,4106,25.0,20.800001,19.0,0.0,0,2,0,0,0,0,0,0,0,0,0,0,0,0,4714,25.140625,26.2,18.0,0.0,0,3,0,0,0,0,0,0,0,0,0,0,0,0,4201,24.84375,23.9,16.0,0.0,0,4,0,0,0,0,0,0,0,0,0,0,0,0,4427,24.890625,23.9,20.0,0.0,0,5,0,0,0,0,0,0,0,0,0,0,0,0,3727,24.65625,14.7,17.0,0.0,0,6,0,0,0,0,0,0,0,0,0,0,0,0,3954,24.609375,17.7,18.0,0.0,0,7,0,0,0,0,0,0,0,0,0,0,0,0,3588,24.796875,14.5,19.0,0.0,0,8,0,0,0,0,0,0,0,0,0,0
2513164630,35217,8,4,0,0,0,0,0,0,4229,24.65625,24.9,19.0,0.0,0,1,0,0,0,0,0,0,0,0,0,0,0,0,4112,25.0,21.5,19.0,0.0,0,2,0,0,0,0,0,0,0,0,0,0,0,0,4719,24.921875,24.6,18.0,0.0,0,3,0,0,0,0,0,0,0,0,0,0,0,0,4216,24.703125,22.9,16.0,0.0,0,4,0,0,0,0,0,0,0,0,0,0,0,0,4428,24.703125,23.0,20.0,0.0,0,5,0,0,0,0,0,0,0,0,0,0,0,0,3719,24.53125,15.3,17.0,0.0,0,6,0,0,0,0,0,0,0,0,0,0,0,0,3935,24.703125,19.2,18.0,0.0,0,7,0,0,0,0,0,0,0,0,0,0,0,0,3565,24.796875,16.300001,19.0,0.0,0,8,0,0,0,0,0,0,0,0,0,0
2513209604,35228,8,4,0,0,0,0,0,0,4228,24.546875,25.0,19.0,0.0,0,1,0,0,0,0,0,0,0,0,0,0,0,0,4105,24.875,20.0,19.0,0.0,0,2,0,0,0,0,0,0,0,0,0,0,0,0,4715,25.15625,24.800001,18.0,0.0,0,3,0,0,0,0,0,0,0,0,0,0,0,0,4224,24.671875,24.6,16.0,0.0,0,4,0,0,0,0,0,0,0,0,0,0,0,0,4426,24.671875,25.4,20.0,0.0,0,5,0,0,0,0,0,0,0,0,0,0,0,0,3715,24.4375,16.7,17.0,0.0,0,6,0,0,0,0,0,0,0,0,0,0,0,0,3942,24.703125,19.2,18.0,0.0,0,7,0,0,0,0,0,0,0,0,0,0,0,0,3561,24.703125,15.1,19.0,0.0,0,8,0,0,0,0,0,0,0,0,0,0
2513252731,35239,8,4,0,0,0,0,0,0,4210,24.734375,22.800001,19.0,0.0,0,1,0,0,0,0,0,0,0,0,0,0,0,0,4099,24.828125,20.6,19.0,0.0,0,2,0,0,0,0,0,0,0,0,0,0,0,0,4717,25.09375,25.9,18.0,0.0,0,3,0,0,0,0,0,0,0,0,0,0,0,0,4239,24.75,25.0,16.0,0.0,0,4,0,0,0,0,0,0,0,0,0,0,0,0,4432,24.734375,25.2,20.0,0.0,0,5,0,0,0,0,0,0,0,0,0,0,0,0,3723,24.546875,14.8,17.0,0.0,0,6,0,0,0,0,0,0,0,0,0,0,0,0,3920,24.53125,18.5,18.0,0.0,0,7,0,0,0,0,0,0,0,0,0,0,0,0,3551,24.625,15.0,19.0,0.0,0,8,0,0,0,0,0,0,0,0,0,0
2513293649,35249,8,4,0,0,0,0,0,0,4179,24.609375,22.800001,19.0,0.0,0,1,0,0,0,0,0,0,0,0,0,0,0,0,4106,24.671875,21.800001,19.0,0.0,0,2,0,0,0,0,0,0,0,0,0,0,0,0,4725,25.046875,25.9,18.0,0.0,0,3,0,0,0,0,0,0,0,0,0,0,0,0,4241,24.84375,24.7,16.0,0.0,0,4,0,0,0,0,0,0,0,0,0,0,0,0,4443,24.78125,22.4,20.0,0.0,0,5,0,0,0,0,0,0,0,0,0,0,0,0,3718,24.625,15.6,17.0,0.0,0,6,0,0,0,0,0,0,0,0,0,0,0,0,3900,24.703125,19.2,18.0,0.0,0,7,0,0,0,0,0,0,0,0,0,0,0,0,3524,24.59375,15.2,19.0,0.0,0,8,0,0,0,0,0,0,0,0,0,0
2513333167,35259,8,4,0,0,0,0,0,0,4183,24.515625,22.0,19.0,0.0,0,1,0,0,0,0,0,0,0,0,0,0,0,0,4108,24.84375,20.9,19.0,0.0,0,2,0,0,0,0,0,0,0,0,0,0,0,0,4732,24.90625,25.800001,18.0,0.0,0,3,0,0,0,0,0,0,0,0,0,0,0,0,4242,24.78125,24.6,16.0,0.0,0,4,0,0,0,0,0,0,0,0,0,0,0,0,4445,24.640625,24.0,20.0,0.0,0,5,0,0,0,0,0,0,0,0,0,0,0,0,3712,24.46875,15.6,17.0,0.0,0,6,0,0,0,0,0,0,0,0,0,0,0,0,3891,24.734375,17.7,18.0,0.0,0,7,0,0,0,0,0,0,0,0,0,0,0,0,3511,24.8125,14.5,19.0,0.0,0,8,0,0,0,0,0,0,0,0,0,0
2513377448,35270,8,4,0,0,0,0,0,0,4162,24.53125,20.800001,19.0,0.0,0,1,0,0,0,0,0,0,0,0,0,0,0,0,4109,24.921875,19.300001,19.0,0.0,0,2,0,0,0,0,0,0,0,0,0,0,0,0,4747,25.0,27.0,18.0,0.0,0,3,0,0,0,0,0,0,0,0,0,0,0,0,4273,24.828125,25.4,16.0,0.0,0,4,0,0,0,0,0,0,0,0,0,0,0,0,4454,24.84375,26.0,20.0,0.0,0,5,0,0,0,0,0,0,0,0,0,0,0,0,3708,24.703125,13.400001,17.0,0.0,0,6,0,0,0,0,0,0,0,0,0,0,0,0,3868,24.65625,16.4,18.0,0.0,0,7,0,0,0,0,0,0,0,0,0,0,0,0,3493,24.59375,13.900001,19.0,0.0,0,8,0,0,0,0,0,0,0,0,0,0
2513420964,35281,8,4,0,0,0,0,0,0,4132,24.640625,21.7,19.0,0.0,0,1,0,0,0,0,0,0,0,0,0,0,0,0,4104,24.84375,19.7,19.0,0.0,0,2,0,0,0,0,0,0,0,0,0,0,0,0,4752,25.15625,27.0,18.0,0.0,0,3,0,0,0,0,0,0,0,0,0,0,0,0,4289,24.734375,26.6,16.0,0.0,0,4,0,0,0,0,0,0,0,0,0,0,0,0,4458,24.703125,24.5,20.0,0.0,0,5,0,0,0,0,0,0,0,0,0,0,0,0,3713,24.5,15.8,17.0,0.0,0,6,0,0,0,0,0,0,0,0,0,0,0,0,3834,24.734375,17.6,18.0,0.0,0,7,0,0,0,0,0,0,0,0,0,0,0,0,3445,24.828125,15.0,19.0,0.0,0,8,0,0,0,0,0,0,0,0,0,0
2513460713,35291,8,4,0,0,0,0,0,0,4112,24.609375,21.1,19.0,0.0,0,1,0,0,0,0,0,0,0,0,0,0,0,0,4086,24.921875,18.800001,19.0,0.0,0,2,0,0,0,0,0,0,0,0,0,0,0,0,4746,24.953125,25.300001,18.0,0.0,0,3,0,0,0,0,0,0,0,0,0,0,0,0,4299,24.78125,23.2,16.0,0.0,0,4,0,0,0,0,0,0,0,0,0,0,0,0,4462,24.84375,23.800001,20.0,0.0,0,5,0,0,0,0,0,0,0,0,0,0,0,0,3710,24.390625,16.1,17.0,0.0,0,6,0,0,0,0,0,0,0,0,0,0,0,0,3826,24.859375,18.2,18.0,0.0,0,7,0,0,0,0,0,0,0,0,0,0,0,0,3423,24.84375,13.2,19.0,0.0,0,8,0,0,0,0,0,0,0,0,0,0
2513505356,35302,8,4,0,0,0,0,0,0,4108,24.515625,22.5,19.0,0.0,0,1,0,0,0,0,0,0,0,0,0,0,0,0,4070,24.984375,20.2,19.0,0.0,0,2,0,0,0,0,0,0,0,0,0,0,0,0,4744,24.921875,25.6,18.0,0.0,0,3,0,0,0,0,0,0,0,0,0,0,0,0,4296,24.90625,23.4,16.0,0.0,0,4,0,0,0,0,0,0,0,0,0,0,0,0,4474,24.765625,24.5,20.0,0.0,0,5,0,0,0,0,0,0,0,0,0,0,0,0,3699,24.59375,16.9,17.0,0.0,0,6,0,0,0,0,0,0,0,0,0,0,0,0,3820,24.640625,17.800001,18.0,0.0,0,7,0,0,0,0,0,0,0,0,0,0,0,0,3417,24.9375,14.7,19.0,0.0,0,8,0,0,0,0,0,0,0,0,0,0
2513541107,35311,8,4,0,0,0,0,0,0,4106,24.703125,21.300001,19.0,0.0,0,1,0,0,0,0,0,0,0,0,0,0,0,0,4059,24.859375,20.2,19.0,0.0,0,2,0,0,0,0,0,0,0,0,0,0,0,0,4729,24.921875,24.5,19.0,0.0,0,3,0,0,0,0,0,0,0,0,0,0,0,0,4289,24.765625,25.0,16.0,0.0,0,4,0,0,0,0,0,0,0,0,0,0,0,0,4471,24.828125,24.9,20.0,0.0,0,5,0,0,0,0,0,0,0,0,0,0,0,0,3707,24.296875,15.1,17.0,0.0,0,6,0,0,0,0,0,0,0,0,0,0,0,0,3828,24.78125,16.7,18.0,0.0,0,7,0,0,0,0,0,0,0,0,0,0,0,0,3406,24.625,15.0,19.0,0.0,0,8,0,0,0,0,0,0,0,0,0,0
2513588868,35323,8,4,0,0,0,0,0,0,4086,24.59375,19.2,19.0,0.0,0,1,0,0,0,0,0,0,0,0,0,0,0,0,4045,24.78125,19.800001,19.0,0.0,0,2,0,0,0,0,0,0,0,0,0,0,0,0,4723,25.0,24.800001,19.0,0.0,0,3,0,0,0,0,0,0,0,0,0,0,0,0,4297,24.890625,24.7,16.0,0.0,0,4,0,0,0,0,0,0,0,0,0,0,0,0,4475,24.84375,24.9,20.0,0.0,0,5,0,0,0,0,0,0,0,0,0,0,0,0,3718,24.625,16.0,17.0,0.0,0,6,0,0,0,0,0,0,0,0,0,0,0,0,3828,24.78125,17.2,18.0,0.0,0,7,0,0,0,0,0,0,0,0,0,0,0,0,3394,24.671875,15.5,19.0,0.0,0,8,0,0,0,0,0,0,0,0,0,0
2513628912,35333,8,4,0,0,0,0,0,0,4080,24.59375,19.6,19.0,0.0,0,1,0,0,0,0,0,0,0,0,0,0,0,0,4035,24.546875,20.800001,19.0,0.0,0,2,0,0,0,0,0,0,0,0,0,0,0,0,4714,25.046875,25.2,19.0,0.0,0,3,0,0,0,0,0,0,0,0,0,0,0,0,4293,24.78125,22.6,16.0,0.0,0,4,0,0,0,0,0,0,0,0,0,0,0,0,4489,24.890625,25.5,20.0,0.0,0,5,0,0,0,0,0,0,0,0,0,0,0,0,3713,24.65625,16.4,17.0,0.0,0,6,0,0,0,0,0,0,0,0,0,0,0,0,3832,24.859375,17.4,18.0,0.0,0,7,0,0,0,0,0,0,0,0,0,0,0,0,3383,24.734375,15.900001,19.0,0.0,0,8,0,0,0,0,0,0,0,0,0,0
2513673297,35344,8,4,0,0,0,0,0,0,4081,24.4375,20.2,19.0,0.0,0,1,0,0,0,0,0,0,0,0,0,0,0,0,4024,24.609375,19.9,19.0,0.0,0,2,0,0,0,0,0,0,0,0,0,0,0,0,4718,24.796875,24.5,19.0,0.0,0,3,0,0,0,0,0,0,0,0,0,0,0,0,4292,24.953125,23.1,16.0,0.0,0,4,0,0,0,0,0,0,0,0,0,0,0,0,4493,24.859375,23.7,20.0,0.0,0,5,0,0,0,0,0,0,0,0,0,0,0,0,3715,24.578125,16.4,17.0,0.0,0,6,0,0,0,0,0,0,0,0,0,0,0,0,3827,24.734375,17.4,18.0,0.0,0,7,0,0,0,0,0,0,0,0,0,0,0,0,3378,24.484375,16.300001,19.0,0.0,0,8,0,0,0,0,0,0,0,0,0,0
2513714318,35354,8,4,0,0,0,0,0,0,4068,24.65625,19.800001,19.0,0.0,0,1,0,0,0,0,0,0,0,0,0,0,0,0,4024,24.921875,18.9,19.0,0.0,0,2,0,0,0,0,0,0,0,0,0,0,0,0,4705,24.921875,24.5,19.0,0.0,0,3,0,0,0,0,0,0,0,0,0,0,0,0,4290,24.6875,24.800001,16.0,0.0,0,4,0,0,0,0,0,0,0,0,0,0,0,0,4490,24.90625,24.2,20.0,0.0,0,5,0,0,0,0,0,0,0,0,0,0,0,0,3720,24.5625,14.6,17.0,0.0,0,6,0,0,0,0,0,0,0,0,0,0,0,0,3832,24.6875,18.4,18.0,0.0,0,7,0,0,0,0,0,0,0,0,0,0,0,0,3393,24.84375,12.7,19.0,0.0,0,8,0,0,0,0,0,0,0,0,0,0
