timestamp,x,y,z,yaw,yawspeed,vx,vy,vz,acc_x,acc_y,acc_z,thrust[0],thrust[1],thrust[2]
2508953732,-3.1337063,0.9726326,0.50802803,-0.04464875,0.0,-0.04540825,-0.056515638,-0.2734,-0.08457504,-0.09558107,-5.2681994,0.0,0.0,0.0
2509057942,-3.1337063,0.9726326,0.50802803,-0.04464875,0.0,-0.051115084,-0.060825434,-0.377667,-0.0572702,-0.1406158,-5.479791,0.0,0.0,0.0
2509157224,-3.1337063,0.9726326,0.50802803,-0.04464875,0.0,-0.056367565,-0.06495743,-0.47690994,-0.16498047,-0.21963218,-5.681215,0.0,0.0,0.0
2509259115,-3.1337063,0.9726326,0.50802803,-0.04464875,0.0,-0.061377466,-0.06941717,-0.5788411,-0.17446457,-0.24330947,-5.8882303,0.0,0.0,0.0
2509363409,-3.1337063,0.9726326,0.50802803,-0.04464875,0.0,-0.06530561,-0.07488165,-0.6831411,-0.18704487,-0.10645605,-6.119685,0.0,0.0,0.0
2509467313,-3.1337063,0.9726326,0.50802803,-0.04464875,0.0,-0.07351933,-0.082365476,-0.7869903,-0.048168402,-0.1365962,-6.3315845,0.0,0.0,0.0
2509566673,-3.1337063,0.9726326,0.50802803,-0.04464875,0.0,-0.07983226,-0.08819371,-0.8864093,-0.16358429,-0.18628676,-6.5429544,0.0,0.0,0.0
2509670687,-3.1337063,0.9726326,0.50802803,-0.04464875,0.0,-0.084534355,-0.09492137,-0.99041134,-0.13805835,-0.13217081,-6.748823,0.0,0.0,0.0
2509772192,-3.1337063,0.9726326,0.50802803,-0.04464875,0.0,-0.08886975,-0.10151211,-1.0,-0.19168025,-0.19102758,-6.6919303,0.0,0.0,0.0
2509870604,-3.1337063,0.9726326,0.50802803,-0.04464875,0.0,-0.10110357,-0.10817556,-1.0,-0.63515306,-0.12474,-6.472163,0.0,0.0,0.0
2509974686,-3.1337063,0.9726326,0.50802803,-0.04464875,0.0,-0.1404428,-0.107417926,-1.0,-0.5329358,0.021923676,-5.925939,0.0,0.0,0.0
2510075423,-3.1337063,0.9726326,0.50802803,-0.04464875,0.0,-0.17026213,-0.10667717,-1.0,-0.5217692,-0.10937346,-5.3838577,0.0,0.0,0.0
2510174802,-3.1337063,0.9726326,0.50802803,-0.04464875,0.0,-0.20690061,-0.10300564,-1.0,-0.56047946,-0.06537838,-5.1127224,0.0,0.0,0.0
2510278667,-3.1337063,0.9726326,0.50802803,-0.04464875,0.0,-0.24891026,-0.10013229,-1.0,-0.63720953,-0.0056624943,-5.0152454,0.0,0.0,0.0
2510380209,-3.1337063,0.9726326,0.50802803,-0.04464875,0.0,-0.2850251,-0.095432125,-1.0,-0.4481768,-0.069626056,-4.9849453,0.0,0.0,0.0
2510483068,-3.1337063,0.9726326,0.50802803,-0.04464875,0.0,-0.31437692,-0.089749865,-1.0,-0.5101409,-0.14099741,-4.9782515,0.0,0.0,0.0
2510587543,-3.1337063,0.9726326,0.50802803,-0.04464875,0.0,-0.33226955,-0.08736756,-1.0,-0.35740846,-0.11675327,-5.0305295,0.0,0.0,0.0
2510691008,-3.1337063,0.9726326,0.50802803,-0.04464875,0.0,-0.3393997,-0.084943466,-1.0,-0.2544886,-0.23034969,-5.0513215,0.0,0.0,0.0
2510790747,-3.1337063,0.9726326,0.50802803,-0.04464875,0.0,-0.3344811,-0.08676123,-1.0,-0.12975828,-0.25664526,-5.0935326,0.0,0.0,0.0
2510894748,-3.1337063,0.9726326,0.50802803,-0.04464875,0.0,-0.3218142,-0.09134056,-1.0,-0.045000315,-0.30761188,-5.1045165,0.0,0.0,0.0
2510995605,-3.1337063,0.9726326,0.50802803,-0.04464875,0.0,-0.29723647,-0.10138448,-1.0,0.010913681,-0.3950289,-5.1352425,0.0,0.0,0.0
2511099113,-3.1337063,0.9726326,0.50802803,-0.04464875,0.0,-0.26058033,-0.117305,-1.0,0.1318394,-0.46274945,-5.1116734,0.0,0.0,0.0
2511198710,-3.1337063,0.9726326,0.50802803,-0.04464875,0.0,-0.21764816,-0.13800247,-1.0,0.2052745,-0.5214856,-5.136571,0.0,0.0,0.0
2511299118,-3.1337063,0.9726326,0.50802803,-0.04464875,0.0,-0.17037176,-0.15888487,-1.0,0.27670145,-0.61015844,-5.1082683,0.0,0.0,0.0
2511403542,-3.1337063,0.9726326,0.50802803,-0.04464875,0.0,-0.117208004,-0.18769594,-1.0,0.37073332,-0.6721893,-5.151126,0.0,0.0,0.0
2511507463,-3.1337063,0.9726326,0.50802803,-0.04464875,0.0,-0.062454462,-0.21960482,-1.0,0.42053694,-0.6736865,-5.25291,0.0,0.0,0.0
2511606679,-3.1337063,0.9726326,0.50802803,-0.04464875,0.0,-0.0075677396,-0.24921621,-0.99825716,0.47490582,-0.7250548,-5.3145566,0.0,0.0,0.0
2511710933,-3.1337063,0.9726326,0.50802803,-0.04464875,0.0,0.049945675,-0.2761881,-0.91092503,0.567351,-0.76454866,-5.164642,0.0,0.0,0.0
2511810953,-3.1337063,0.9726326,0.50802803,-0.04464875,0.0,0.107926585,-0.30298495,-0.8261534,0.59220773,-0.74977463,-5.056491,0.0,0.0,0.0
2511910689,-3.1337063,0.9726326,0.50802803,-0.04464875,0.0,0.16713782,-0.330607,-0.7489207,0.63376516,-0.76707655,-4.9920816,0.0,0.0,0.0
2512014624,-3.1337063,0.9726326,0.50802803,-0.04464875,0.0,0.22786321,-0.35716477,-0.6702621,0.61501384,-0.7754645,-4.9342813,0.0,0.0,0.0
2512116201,-3.1337063,0.9726326,0.50802803,-0.04464875,0.0,0.2845979,-0.37942177,-0.5963311,0.63377756,-0.7721706,-4.9317455,0.0,0.0,0.0
2512219619,-3.1337063,0.9726326,0.50802803,-0.04464875,0.0,0.3412255,-0.39712134,-0.522491,0.70645696,-0.76912004,-4.9460926,0.0,0.0,0.0
2512323266,-3.1337063,0.9726326,0.50802803,-0.04464875,0.0,0.39395437,-0.40974903,-0.45343482,0.70157564,-0.74972415,-4.9379525,0.0,0.0,0.0
2512422724,-3.1337063,0.9726326,0.50802803,-0.04464875,0.0,0.438241,-0.41626072,-0.39463598,0.6967225,-0.7137274,-4.9605637,0.0,0.0,0.0
2512526696,-3.1337063,0.9726326,0.50802803,-0.04464875,0.0,0.47771072,-0.41881594,-0.3416106,0.7193719,-0.69646806,-4.983838,0.0,0.0,0.0
2512627318,-3.1337063,0.9726326,0.50802803,-0.04464875,0.0,0.506998,-0.41257855,-0.29449195,0.6769274,-0.6657377,-5.0011306,0.0,0.0,0.0
2512729306,-3.1337063,0.9726326,0.50802803,-0.04464875,0.0,0.5285556,-0.4030354,-0.25112033,0.6194046,-0.5829736,-4.9775424,0.0,0.0,0.0
2512828330,-3.1337063,0.9726326,0.50802803,-0.04464875,0.0,0.5445855,-0.39002866,-0.21811908,0.629669,-0.6369054,-5.042308,0.0,0.0,0.0
2512932388,-3.1337063,0.9726326,0.50802803,-0.04464875,0.0,0.5548089,-0.37449366,-0.18554485,0.56587565,-0.5891558,-5.0402236,0.0,0.0,0.0
2513032723,-3.1337063,0.9726326,0.50802803,-0.04464875,0.0,0.5583849,-0.35872114,-0.15454745,0.5310281,-0.51318675,-4.995694,0.0,0.0,0.0
2513132423,-3.1337063,0.9726326,0.50802803,-0.04464875,0.0,0.5555267,-0.3449895,-0.13074976,0.49880534,-0.50816756,-4.9900184,0.0,0.0,0.0
2513236381,-3.1337063,0.9726326,0.50802803,-0.04464875,0.0,0.5510312,-0.33020657,-0.10998666,0.48067808,-0.5505518,-5.0251083,0.0,0.0,0.0
2513337167,-3.1337063,0.9726326,0.50802803,-0.04464875,0.0,0.543316,-0.3175699,-0.09066719,0.46614942,-0.54091907,-4.984348,0.0,0.0,0.0
2513440990,-3.1337063,0.9726326,0.50802803,-0.04464875,0.0,0.53344977,-0.30534685,-0.073961854,0.47632408,-0.5355228,-4.908764,0.0,0.0,0.0
2513545182,-3.1337063,0.9726326,0.50802803,-0.04464875,0.0,0.5211593,-0.2960598,-0.06176907,0.44663858,-0.5712338,-4.9291205,0.0,0.0,0.0
2513648577,-3.1337063,0.9726326,0.50802803,-0.04464875,0.0,0.508605,-0.28927165,-0.04898852,0.46781027,-0.53425616,-4.922759,0.0,0.0,0.0
2513748300,-3.1337063,0.9726326,0.50802803,-0.04464875,0.0,0.49532703,-0.2852366,-0.03308165,0.4866039,-0.6098624,-4.9460435,0.0,0.0,0.0
2513852399,-3.1337063,0.9726326,0.50802803,-0.04464875,0.0,0.4839922,-0.28093958,-0.019420326,0.45458746,-0.5483182,-4.903493,0.0,0.0,0.0
2513952719,-3.1337063,0.9726326,0.50802803,-0.04464875,0.0,0.4733067,-0.2771026,-0.009903252,0.49077436,-0.5812564,-4.981975,0.0,0.0,0.0
2514056845,-3.1337063,0.9726326,0.50802803,-0.04464875,0.0,0.46616092,-0.27444896,-0.004259348,0.5080715,-0.562199,-5.0023227,0.0,0.0,0.0
2514161097,-3.1337063,0.9726326,0.50802803,-0.04464875,0.0,0.45808017,-0.27036396,-0.0034723282,0.47361615,-0.54734766,-5.014309,0.0,0.0,0.0
2514260267,-3.1337063,0.9726326,0.50802803,-0.04464875,0.0,0.45194843,-0.2663118,0.0002657175,0.4540075,-0.5035097,-5.0377517,0.0,0.0,0.0
2514364213,-3.1337063,0.9726326,0.50802803,-0.04464875,0.0,0.44200224,-0.25933453,0.0035554767,0.43585974,-0.41823184,-5.0045366,0.0,0.0,0.0
2514464643,-3.1337063,0.9726326,0.50802803,-0.04464875,0.0,0.4337199,-0.25204936,0.0045946836,0.3747175,-0.39777255,-5.021882,0.0,0.0,0.0
2514564370,-3.1337063,0.9726326,0.50802803,-0.04464875,0.0,0.42007047,-0.24295786,0.004363954,0.34911737,-0.38539913,-5.0145054,0.0,0.0,0.0
2514668359,-3.1337063,0.9726326,0.50802803,-0.04464875,0.0,0.40756258,-0.23441787,0.0039992332,0.37128952,-0.4071563,-5.063713,0.0,0.0,0.0
2514769479,-3.1337063,0.9726326,0.50802803,-0.04464875,0.0,0.39224184,-0.22497122,0.005206585,0.3380252,-0.37946507,-5.0005627,0.0,0.0,0.0
2514868242,-3.1337063,0.9726326,0.50802803,-0.04464875,0.0,0.37926894,-0.21951841,0.0060212016,0.33933753,-0.39711586,-5.0318713,0.0,0.0,0.0
2514972329,-3.1337063,0.9726326,0.50802803,-0.04464875,0.0,0.36423856,-0.21267682,0.00166893,0.3651104,-0.4370249,-5.1387844,0.0,0.0,0.0
2515072734,-3.1337063,0.9726326,0.50802803,-0.04464875,0.0,0.35183647,-0.21228078,-0.0056378245,0.32527506,-0.41632786,-5.1700664,0.0,0.0,0.0
2515177983,-3.1337063,0.9726326,0.50802803,-0.04464875,0.0,0.33579317,-0.20800576,-0.014544427,0.31145066,-0.41480955,-5.1946154,0.0,0.0,0.0
2515280862,-3.1337063,0.9726326,0.50802803,-0.04464875,0.0,0.32118633,-0.2052708,-0.027991354,0.29841354,-0.37968776,-5.2545514,0.0,0.0,0.0
2515380372,-3.1337063,0.9726326,0.50802803,-0.04464875,0.0,0.30313608,-0.19809365,-0.04295802,0.25092807,-0.37538555,-5.301984,0.0,0.0,0.0
2515484273,-3.1337063,0.9726326,0.50802803,-0.04464875,0.0,0.28862935,-0.19430107,-0.056904256,0.2886434,-0.34174478,-5.3084755,0.0,0.0,0.0
2515586014,-3.1337063,0.9726326,0.50802803,-0.04464875,0.0,0.2722812,-0.18583481,-0.06906426,0.29395017,-0.3121964,-5.3002505,0.0,0.0,0.0
2515688868,-3.1337063,0.9726326,0.50802803,-0.04464875,0.0,0.25810313,-0.17946184,-0.07787579,0.30631125,-0.31767595,-5.306714,0.0,0.0,0.0
2515792678,-3.1337063,0.9726326,0.50802803,-0.04464875,0.0,0.24279687,-0.16722643,-0.08838707,0.2739791,-0.2700559,-5.271965,0.0,0.0,0.0
2515897002,-3.1337063,0.9726326,0.50802803,-0.04464875,0.0,0.23073949,-0.15780346,-0.09676212,0.27298176,-0.25147197,-5.300342,0.0,0.0,0.0
2516000875,-3.1337063,0.9726326,0.50802803,-0.04464875,0.0,0.21787171,-0.14439808,-0.10487801,0.22978228,-0.1966409,-5.305817,0.0,0.0,0.0
2516102938,-3.1337063,0.9726326,0.50802803,-0.04464875,0.0,0.20497176,-0.13160583,-0.11433554,0.26166654,-0.20781142,-5.391214,0.0,0.0,0.0
2516201931,-3.1337063,0.9726326,0.50802803,-0.04464875,0.0,0.19039053,-0.11587263,-0.12650001,0.23066902,-0.23024729,-5.46656,0.0,0.0,0.0
2516306005,-3.1337063,0.9726326,0.50802803,-0.04464875,0.0,0.1746648,-0.10101155,-0.13954669,0.16420035,-0.14231092,-5.389866,0.0,0.0,0.0
2516406255,-3.1337063,0.9726326,0.50802803,-0.04464875,0.0,0.15836103,-0.08453306,-0.14681864,0.17324385,-0.15645452,-5.3447585,0.0,0.0,0.0
2516510302,-3.1337063,0.9726326,0.50802803,-0.04464875,0.0,0.1430523,-0.0696696,-0.14844877,0.198771,-0.11946188,-5.2482805,0.0,0.0,0.0
2516614500,-3.1337063,0.9726326,0.50802803,-0.04464875,0.0,0.12729643,-0.05516911,-0.14579397,0.17914873,-0.18475594,-5.195123,0.0,0.0,0.0
2516714232,-3.1337063,0.9726326,0.50802803,-0.04464875,0.0,0.11323025,-0.042508114,-0.14380121,0.18007882,-0.18427642,-5.163295,0.0,0.0,0.0
2516817947,-3.1337063,0.9726326,0.50802803,-0.04464875,0.0,0.09834188,-0.030958887,-0.14446801,0.17733474,-0.19962329,-5.102894,0.0,0.0,0.0
2516918577,-3.1337063,0.9726326,0.50802803,-0.04464875,0.0,0.085522115,-0.025748536,-0.14621365,0.18050495,-0.19342227,-5.092684,0.0,0.0,0.0
2517017853,-3.1337063,0.9726326,0.50802803,-0.04464875,0.0,0.07372702,-0.02170306,-0.14872271,0.15729198,-0.24099448,-5.066314,0.0,0.0,0.0
2517121977,-3.1337063,0.9726326,0.50802803,-0.04464875,0.0,0.06329092,-0.022368284,-0.1474539,0.14772663,-0.23710534,-5.03654,0.0,0.0,0.0
2517222244,-3.1337063,0.9726326,0.50802803,-0.04464875,0.0,0.053421736,-0.027718272,-0.14929861,0.15520321,-0.31025386,-5.0690393,0.0,0.0,0.0
2517322018,-3.1337063,0.9726326,0.50802803,-0.04464875,0.0,0.04279537,-0.035802994,-0.15001363,0.19009662,-0.37855557,-5.0310245,0.0,0.0,0.0
2517425890,-3.1337063,0.9726326,0.50802803,-0.04464875,0.0,0.031402767,-0.048868395,-0.15175629,0.09581725,-0.40915772,-5.004142,0.0,0.0,0.0
2517526555,-3.1337063,0.9726326,0.50802803,-0.04464875,0.0,0.019397939,-0.0653333,-0.15162045,0.071217656,-0.42262447,-4.957219,0.0,0.0,0.0
2517630408,-3.1337063,0.9726326,0.50802803,-0.04464875,0.0,0.006750083,-0.085878454,-0.15702498,0.038178485,-0.49636826,-5.0635695,0.0,0.0,0.0
2517734270,-3.1337063,0.9726326,0.50802803,-0.04464875,0.0,-0.007097757,-0.10536665,-0.1700877,0.060659364,-0.5245509,-5.2101717,0.0,0.0,0.0
2517833972,-3.1337063,0.9726326,0.50802803,-0.04464875,0.0,-0.0231843,-0.12383481,-0.18314731,0.015606224,-0.45480794,-5.230224,0.0,0.0,0.0
2517937973,-3.1337063,0.9726326,0.50802803,-0.04464875,0.0,-0.042143058,-0.14337827,-0.19271195,-0.063011006,-0.48908305,-5.2293925,0.0,0.0,0.0
2518038481,-3.1337063,0.9726326,0.50802803,-0.04464875,0.0,-0.06113896,-0.16142164,-0.19963247,-0.062051915,-0.49238038,-5.265199,0.0,0.0,0.0
2518137894,-3.1337063,0.9726326,0.50802803,-0.04464875,0.0,-0.08236247,-0.1757048,-0.2047764,-0.10795387,-0.5000956,-5.25292,0.0,0.0,0.0
2518241893,-3.1337063,0.9726326,0.50802803,-0.04464875,0.0,-0.10445256,-0.18879797,-0.20659626,-0.13549128,-0.52524275,-5.2322416,0.0,0.0,0.0
2518342330,-3.1337063,0.9726326,0.50802803,-0.04464875,0.0,-0.12705906,-0.19713636,-0.20812094,-0.15712993,-0.46917918,-5.20908,0.0,0.0,0.0
2518441964,-3.1337063,0.9726326,0.50802803,-0.04464875,0.0,-0.14990135,-0.20242406,-0.20792413,-0.1866645,-0.45608255,-5.1952486,0.0,0.0,0.0
2518545868,-3.1337063,0.9726326,0.50802803,-0.04464875,0.0,-0.17341724,-0.2039921,-0.20884442,-0.21585901,-0.40561128,-5.15579,0.0,0.0,0.0
2518646779,-3.1337063,0.9726326,0.50802803,-0.04464875,0.0,-0.19414224,-0.20441385,-0.20692694,-0.2272886,-0.43126354,-5.1616797,0.0,0.0,0.0
2518750639,-3.1337063,0.9726326,0.50802803,-0.04464875,0.0,-0.21431954,-0.20102748,-0.20173067,-0.22602665,-0.40543228,-5.1601357,0.0,0.0,0.0
2518854532,-3.1337063,0.9726326,0.50802803,-0.04464875,0.0,-0.23198251,-0.19429824,-0.1984418,-0.2155149,-0.36073527,-5.155273,0.0,0.0,0.0
2518953915,-3.1337063,0.9726326,0.50802803,-0.04464875,0.0,-0.24687995,-0.18456155,-0.19795138,-0.20897034,-0.3604981,-5.162415,0.0,0.0,0.0
2519057814,-3.1337063,0.9726326,0.50802803,-0.04464875,0.0,-0.26000887,-0.1722044,-0.19447947,-0.18992,-0.34773764,-5.16571,0.0,0.0,0.0
2519158600,-3.1337063,0.9726326,0.50802803,-0.04464875,0.0,-0.27030456,-0.15721637,-0.18592691,-0.17569779,-0.31381002,-5.131806,0.0,0.0,0.0
2519257911,-3.1337063,0.9726326,0.50802803,-0.04464875,0.0,-0.27675295,-0.14304702,-0.17751718,-0.17029226,-0.2703726,-5.117528,0.0,0.0,0.0
2519361992,-3.1337063,0.9726326,0.50802803,-0.04464875,0.0,-0.28134248,-0.12617294,-0.16750479,-0.1888957,-0.22276725,-5.087113,0.0,0.0,0.0
2519462264,-3.1337063,0.9726326,0.50802803,-0.04464875,0.0,-0.28376168,-0.108770005,-0.15519649,-0.18550862,-0.26666912,-5.142321,0.0,0.0,0.0
2519563771,-3.1337063,0.9726326,0.50802803,-0.04464875,0.0,-0.28492498,-0.08912326,-0.14296669,-0.14214768,-0.24904053,-5.130427,0.0,0.0,0.0
2519664171,-3.1337063,0.9726326,0.50802803,-0.04464875,0.0,-0.28581533,-0.067037694,-0.1297093,-0.13754627,-0.18409258,-5.1387424,0.0,0.0,0.0
2519768271,-3.1337063,0.9726326,0.50802803,-0.04464875,0.0,-0.28606722,-0.042794522,-0.11449158,-0.15307046,-0.14327708,-5.1118135,0.0,0.0,0.0
2519871767,-3.1337063,0.9726326,0.50802803,-0.04464875,0.0,-0.28306815,-0.018467259,-0.101153016,-0.13459474,-0.12137274,-5.122965,0.0,0.0,0.0
2519977640,-3.1337063,0.9726326,0.50802803,-0.04464875,0.0,-0.27881497,0.0063720583,-0.09185189,-0.15259904,-0.13613842,-5.155435,0.0,0.0,0.0
2520080037,-3.1337063,0.9726326,0.50802803,-0.04464875,0.0,-0.27307892,0.029735574,-0.08615458,-0.14735185,-0.099037446,-5.156641,0.0,0.0,0.0
2520184073,-3.1337063,0.9726326,0.50802803,-0.04464875,0.0,-0.2664636,0.05290798,-0.08156484,-0.10438357,-0.13002668,-5.198918,0.0,0.0,0.0
2520283495,-3.1337063,0.9726326,0.50802803,-0.04464875,0.0,-0.25626826,0.073903404,-0.07542664,-0.066529,-0.063953,-5.15598,0.0,0.0,0.0
2520385473,-3.1337063,0.9726326,0.50802803,-0.04464875,0.0,-0.24501179,0.093429886,-0.0706023,-0.05139575,-0.053430416,-5.1343164,0.0,0.0,0.0
2520488167,-3.1337063,0.9726326,0.50802803,-0.04464875,0.0,-0.23069963,0.1111206,-0.06647527,-0.009004277,-0.0956729,-5.172849,0.0,0.0,0.0
2520587716,-3.1337063,0.9726326,0.50802803,-0.04464875,0.0,-0.21596256,0.126031,-0.06595373,0.03417964,-0.106675245,-5.191485,0.0,0.0,0.0
2520691432,-3.1337063,0.9726326,0.50802803,-0.04464875,0.0,-0.19860084,0.13803893,-0.064718306,-0.02090384,-0.097841054,-5.1713057,0.0,0.0,0.0
2520793005,-2.9212976,0.82961947,0.38348696,-0.04464875,0.0,0.019991135,0.012182402,-0.18496594,0.21270628,-0.19885527,-5.4432087,0.0,0.0,0.0
2520896228,-2.9212976,0.82961947,0.067649275,-0.04464875,0.0,0.038898252,0.022079388,-0.4950579,0.20411925,-0.22808446,-5.993294,0.0,0.0,0.0
2520999923,-2.9212976,0.82961947,-0.25991648,-0.04464875,0.0,0.055806756,0.031779885,-0.80629903,0.16980566,-0.18357523,-6.2432146,0.0,0.0,0.0
2521099540,-2.9212976,0.82961947,-0.59239787,-0.04464875,0.0,0.07039728,0.041359205,-1.1050482,0.17461848,-0.18855631,-6.4612045,0.0,0.0,0.0
2521203570,-2.9212976,0.82961947,-0.83012223,-0.04464875,0.0,0.08184991,0.052829217,-1.2861111,0.14535739,-0.12399854,-6.2825766,0.0,0.0,0.0
2521304348,-2.9212976,0.82961947,-0.90990525,-0.04464875,0.0,0.09039045,0.0660026,-1.2861111,0.1309747,-0.11034007,-5.8554044,0.0,0.0,0.0
2521403546,-2.9212976,0.82961947,-1.0053731,-0.04464875,0.0,0.09753487,0.07807425,-1.2861111,0.12740496,-0.04155779,-5.60695,0.0,0.0,0.0
2521507544,-2.9212976,0.82961947,-1.1148298,-0.04464875,0.0,0.10859226,0.08631933,-1.2861111,0.20177828,-0.07312738,-5.509999,0.0,0.0,0.0
2521607898,-2.9212976,0.82961947,-1.2251054,-0.04464875,0.0,0.116296574,0.09586541,-1.2861111,0.17844145,-0.039822236,-5.4290733,0.0,0.0,0.0
2521707600,-2.9212976,0.82961947,-1.3375229,-0.04464875,0.0,0.12151168,0.10658017,-1.2861111,0.1650342,-0.035212204,-5.3651414,0.0,0.0,0.0
2521811533,-2.9212976,0.82961947,-1.4550749,-0.04464875,0.0,0.12424098,0.11897072,-1.2861111,0.14283122,0.0022306999,-5.2861366,0.0,0.0,0.0
2521912361,-2.9212976,0.82961947,-1.5663195,-0.04464875,0.0,0.12252979,0.13042481,-1.2861111,0.14077172,-0.051413376,-5.3309846,0.0,0.0,0.0
2522016412,-2.9212976,0.82961947,-1.6801056,-0.04464875,0.0,0.118510135,0.1431814,-1.2861111,0.16726895,-0.035484333,-5.29774,0.0,0.0,0.0
2522119735,-2.9212976,0.82961947,-1.7918905,-0.04464875,0.0,0.11238927,0.15464954,-1.2861111,0.13465998,-0.022090143,-5.249688,0.0,0.0,0.0
2522219496,-2.9212976,0.82961947,-1.9015574,-0.04464875,0.0,0.10571981,0.16428696,-1.2861111,0.0749987,-0.061284035,-5.2376294,0.0,0.0,0.0
2522323513,-2.9212976,0.82961947,-2.013904,-0.04464875,0.0,0.09675096,0.17189819,-1.2861111,0.09812403,-0.07889694,-5.235048,0.0,0.0,0.0
2522424132,-2.9212976,0.82961947,-2.1210885,-0.04464875,0.0,0.088105775,0.17413089,-1.2861111,0.030684993,-0.10122498,-5.220688,0.0,0.0,0.0
2522523574,-2.9212976,0.82961947,-2.2330866,-0.04464875,0.0,0.079331934,0.17180526,-1.2861111,0.010001973,-0.13321805,-5.1798553,0.0,0.0,0.0
2522627499,-2.9212976,0.82961947,-2.3509178,-0.04464875,0.0,0.0703171,0.16521944,-1.2861111,0.018575357,-0.13808617,-5.1908083,0.0,0.0,0.0
2522728076,-2.9212976,0.82961947,-2.464561,-0.04464875,0.0,0.061364327,0.15550122,-1.286111,-0.03316249,-0.16166568,-5.22922,0.0,0.0,0.0
2522827419,-2.9212976,0.82961947,-2.581791,-0.04464875,0.0,0.0517298,0.14338365,-1.286111,-0.036668636,-0.20521621,-5.2313414,0.0,0.0,0.0
2522931438,-2.9212976,0.82961947,-2.6993356,-0.04464875,0.0,0.041828904,0.1280881,-1.286111,-0.018150643,-0.22896852,-5.2372646,0.0,0.0,0.0
2523033207,-2.9212976,0.82961947,-2.8158736,-0.04464875,0.0,0.035202038,0.11086046,-1.2861111,-0.007529505,-0.26926726,-5.281149,0.0,0.0,0.0
2523133438,-2.9212976,0.82961947,-2.931869,-0.04464875,0.0,0.028440177,0.09286647,-1.2861111,-0.00910134,-0.25889128,-5.271614,0.0,0.0,0.0
2523237054,-2.9212976,0.82961947,-3.0490894,-0.04464875,0.0,0.02261375,0.070758544,-1.2861111,-0.035879992,-0.32903102,-5.2902994,0.0,0.0,0.0
2523337486,-2.9212976,0.82961947,-3.163999,-0.04464875,0.0,0.016305339,0.04849841,-1.2861111,-0.075777695,-0.31789714,-5.229916,0.0,0.0,0.0
2523437150,-2.9212976,0.82961947,-3.2843857,-0.04464875,0.0,0.010452867,0.025113607,-1.2861111,-0.04902924,-0.38615167,-5.2671046,0.0,0.0,0.0
2523541079,-2.9212976,0.82961947,-3.4093373,-0.04464875,0.0,0.0022176385,0.0016969204,-1.2861111,-0.1056179,-0.32864496,-5.256663,0.0,0.0,0.0
2523641953,-2.9212976,0.82961947,-3.5294452,-0.04464875,0.0,-0.010399413,-0.01815424,-1.2861111,-0.17939319,-0.35415876,-5.279746,0.0,0.0,0.0
2523741015,-2.9212976,0.82961947,-3.6498516,-0.04464875,0.0,-0.029331671,-0.034974296,-1.2861111,-0.27510887,-0.3691524,-5.327286,0.0,0.0,0.0
2523845321,-2.9212976,0.82961947,-3.775531,-0.04464875,0.0,-0.056714557,-0.048499998,-1.2861111,-0.3707225,-0.3358905,-5.3893642,0.0,0.0,0.0
2523945477,-2.9212976,0.82961947,-3.8935752,-0.04464875,0.0,-0.08976623,-0.057366192,-1.2861111,-0.4402107,-0.3134197,-5.469376,0.0,0.0,0.0
2524049452,-2.9212976,0.82961947,-4.009862,-0.04464875,0.0,-0.13018541,-0.06365739,-1.2861111,-0.552546,-0.2803373,-5.6020226,0.0,0.0,0.0
2524149096,-2.9212976,0.82961947,-4.117181,-0.04464875,0.0,-0.1750573,-0.06386248,-1.2861109,-0.6667358,-0.22478652,-5.698933,0.0,0.0,0.0
2524249675,-2.9212976,0.82961947,-4.2214346,-0.04464875,0.0,-0.22297765,-0.06265389,-1.2861111,-0.7513917,-0.17981482,-5.790107,0.0,0.0,0.0
2524354317,-2.9212976,0.82961947,-4.3216734,-0.04464875,0.0,-0.27735928,-0.055077434,-1.2861111,-0.79781914,-0.18417488,-5.8453417,0.0,0.0,0.0
2524457513,-2.9212976,0.82961947,-4.424221,-0.04464875,0.0,-0.33416942,-0.046055127,-1.2861111,-0.8525591,-0.087804444,-5.736478,0.0,0.0,0.0
2524557164,-2.9212976,0.82961947,-4.5262527,-0.04464875,0.0,-0.38786545,-0.03204064,-1.2861111,-0.8453444,-0.06094525,-5.6460385,0.0,0.0,0.0
2524661099,-2.9212976,0.82961947,-4.64019,-0.04464875,0.0,-0.44215128,-0.013628193,-1.2861111,-0.8570502,-0.014082923,-5.5787587,0.0,0.0,0.0
2524761531,-2.9212976,0.82961947,-4.753642,-0.04464875,0.0,-0.48954543,0.005917704,-1.2861111,-0.8706575,-0.017338125,-5.553967,0.0,0.0,0.0
2524861091,-2.9212976,0.82961947,-4.8664675,-0.04464875,0.0,-0.5342486,0.027014147,-1.2861109,-0.8405727,-0.014616043,-5.5395436,0.0,0.0,0.0
2524965152,-2.9212976,0.82961947,-4.982297,-0.04464875,0.0,-0.5721027,0.049447436,-1.2861109,-0.81786335,0.019904615,-5.5637274,0.0,0.0,0.0
2525065433,-2.9212976,0.82961947,-5.094721,-0.04464875,0.0,-0.60340375,0.070449375,-1.2861111,-0.7673613,0.046858564,-5.596168,0.0,0.0,0.0
2525170454,-2.9212976,0.82961947,-5.2112474,-0.04464875,0.0,-0.6254529,0.09261585,-1.2861111,-0.7308621,0.08076383,-5.626002,0.0,0.0,0.0
2525273625,-2.9212976,0.82961947,-5.326023,-0.04464875,0.0,-0.6400588,0.111095116,-1.2861109,-0.7393075,0.10410067,-5.646013,0.0,0.0,0.0
2525373183,-2.9212976,0.82961947,-5.439023,-0.04464875,0.0,-0.64500165,0.12790895,-1.2861109,-0.65453535,0.07920608,-5.618554,0.0,0.0,0.0
2525473663,-2.9212976,0.82961947,-5.5599174,-0.04464875,0.0,-0.6464949,0.14015312,-1.2861111,-0.6413234,0.008281232,-5.545312,0.0,0.0,0.0
2525577704,-2.9212976,0.82961947,-5.6944876,-0.04464875,0.0,-0.6403403,0.14903228,-1.2861111,-0.61330205,-0.027712028,-5.462629,0.0,0.0,0.0
2525677061,-2.9212976,0.82961947,-5.8250027,-0.04464875,0.0,-0.6303987,0.15260997,-1.2861109,-0.5495001,-0.051666766,-5.418049,0.0,0.0,0.0
2525781119,-2.9212976,0.82961947,-5.9632273,-0.04464875,0.0,-0.61428154,0.1519721,-1.2861109,-0.5202181,-0.12782142,-5.427712,0.0,0.0,0.0
2525881766,-2.9212976,0.82961947,-6.0976906,-0.04464875,0.0,-0.5968383,0.14688401,-1.2861111,-0.5245443,-0.09394608,-5.456569,0.0,0.0,0.0
2525981112,-2.9212976,0.82961947,-6.2319365,-0.04464875,0.0,-0.5754499,0.1394845,-1.2861111,-0.47651693,-0.11153173,-5.4626174,0.0,0.0,0.0
2526085053,-2.9212976,0.82961947,-6.374632,-0.04464875,0.0,-0.552228,0.13301119,-1.2861109,-0.45985362,-0.1510759,-5.4314466,0.0,0.0,0.0
2526185933,-2.9212976,0.82961947,-6.5123253,-0.04464875,0.0,-0.5272582,0.12544051,-1.2861111,-0.3665505,-0.13748857,-5.4385037,0.0,0.0,0.0
2526285056,-2.9212976,0.82961947,-6.649645,-0.04464875,0.0,-0.5032827,0.11928895,-1.2861111,-0.39969793,-0.19576769,-5.44256,0.0,0.0,0.0
2526389112,-2.9212976,0.82961947,-6.7970915,-0.04464875,0.0,-0.47625887,0.1116801,-1.2861109,-0.36048627,-0.1994644,-5.4514422,0.0,0.0,0.0
2526490454,-2.9212976,0.82961947,-6.939888,-0.04464875,0.0,-0.45141435,0.10590447,-1.2861111,-0.35167855,-0.17071517,-5.393668,0.0,0.0,0.0
2526591055,-2.9212976,0.82961947,-7.079879,-0.04464875,0.0,-0.42468128,0.09832705,-1.2861111,-0.35583198,-0.21273148,-5.316541,0.0,0.0,0.0
2526695538,-2.9212976,0.82961947,-7.2270107,-0.04464875,0.0,-0.39754868,0.089650884,-1.2861109,-0.33902958,-0.22930713,-5.294131,0.0,0.0,0.0
2526799785,-2.9212976,0.82961947,-7.372962,-0.04464875,0.0,-0.37097165,0.07958465,-1.2861111,-0.30348393,-0.25102192,-5.253288,0.0,0.0,0.0
2526903440,-2.9212976,0.82961947,-7.511078,-0.04464875,0.0,-0.34571263,0.06810518,-1.2861109,-0.2927996,-0.25248048,-5.2307982,0.0,0.0,0.0
2527002818,-2.9212976,0.82961947,-7.642949,-0.04464875,0.0,-0.32086632,0.05576304,-1.2861111,-0.28375363,-0.24319701,-5.2239723,0.0,0.0,0.0
2527106905,-2.9212976,0.82961947,-7.7794456,-0.04464875,0.0,-0.2964007,0.042602226,-1.2861111,-0.26610196,-0.29037094,-5.256361,0.0,0.0,0.0
2527207396,-2.9212976,0.82961947,-7.908268,-0.04464875,0.0,-0.27264133,0.03080838,-1.2861111,-0.2644549,-0.28749174,-5.2716026,0.0,0.0,0.0
2527311269,-2.9212976,0.82961947,-8.040622,-0.04464875,0.0,-0.24884889,0.020808622,-1.2861109,-0.25106427,-0.29940364,-5.3329487,0.0,0.0,0.0
2527415001,-2.9212976,0.82961947,-8.176506,-0.04464875,0.0,-0.2280179,0.011811796,-1.2861109,-0.3046417,-0.30441764,-5.291381,0.0,0.0,0.0
2527514720,-2.9212976,0.82961947,-8.307911,-0.04464875,0.0,-0.21185933,0.004179448,-1.2861109,-0.31603444,-0.32972258,-5.3088255,0.0,0.0,0.0
2527618662,-2.9212976,0.82961947,-8.444536,-0.04464875,0.0,-0.19929664,-0.004035678,-1.2861111,-0.40190864,-0.2940992,-5.3216214,0.0,0.0,0.0
2527719046,-2.9212976,0.82961947,-8.568506,-0.04464875,0.0,-0.19138643,-0.010715661,-1.2861109,-0.39630866,-0.3379749,-5.4308963,0.0,0.0,0.0
2527818694,-2.9212976,0.82961947,-8.684167,-0.04464875,0.0,-0.18766621,-0.01853753,-1.2861111,-0.44089726,-0.33998877,-5.583989,0.0,0.0,0.0
2527922992,-2.9212976,0.82961947,-8.793331,-0.04464875,0.0,-0.18762091,-0.0255324,-1.2861111,-0.46145192,-0.22003333,-5.6966476,0.0,0.0,0.0
2528022995,-2.9212976,0.82961947,-8.888379,-0.04464875,0.0,-0.19131644,-0.02947561,-1.2861109,-0.47711688,-0.3188266,-5.8887315,0.0,0.0,0.0
2528122912,-2.9212976,0.82961947,-8.97566,-0.04464875,0.0,-0.19588898,-0.03323819,-1.2861109,-0.45613897,-0.33245808,-6.037931,0.0,0.0,0.0
2528226664,-2.9212976,0.82961947,-9.066225,-0.04464875,0.0,-0.19920333,-0.03955238,-1.2861109,-0.44059992,-0.2619183,-5.9868608,0.0,0.0,0.0
2528327478,-2.9212976,0.82961947,-9.157798,-0.04464875,0.0,-0.19881465,-0.04601226,-1.2861109,-0.36127698,-0.3389127,-5.9729643,0.0,0.0,0.0
2528431472,-2.9212976,0.82961947,-9.2589035,-0.04464875,0.0,-0.19125484,-0.05180024,-1.2861109,-0.28621954,-0.36831963,-5.977156,0.0,0.0,0.0
2528535615,-2.9212976,0.82961947,-9.359563,-0.04464875,0.0,-0.17596851,-0.057945687,-1.2861109,-0.1905121,-0.42692208,-5.9943953,0.0,0.0,0.0
2528639285,-2.9212976,0.82961947,-9.463877,-0.04464875,0.0,-0.1533559,-0.06490432,-1.2861109,-0.1348128,-0.369555,-5.8908567,0.0,0.0,0.0
2528738740,-2.9212976,0.82961947,-9.571613,-0.04464875,0.0,-0.12612475,-0.07310863,-1.2861109,-0.077731326,-0.4382147,-5.900657,0.0,0.0,0.0
2528842728,-2.9212976,0.82961947,-9.688516,-0.04464875,0.0,-0.0945947,-0.0803057,-1.2861109,-0.02315662,-0.4141404,-5.836184,0.0,0.0,0.0
2528943733,-2.9212976,0.82961947,-9.806298,-0.04464875,0.0,-0.063012324,-0.086414516,-1.2861109,0.00095067004,-0.4392603,-5.774667,0.0,0.0,0.0
2529047056,-2.9212976,0.82961947,-9.93255,-0.04464875,0.0,-0.032109212,-0.092269875,-1.2861109,-0.012969317,-0.42273417,-5.6827946,0.0,0.0,0.0
2529147067,-2.9212976,0.82961947,-10.056638,-0.04464875,0.0,-0.002592039,-0.09806306,-1.2861109,0.058179494,-0.4524262,-5.7058167,0.0,0.0,0.0
2529247049,-2.9212976,0.82961947,-10.186684,-0.04464875,0.0,0.02959373,-0.10524893,-1.2861109,0.11333869,-0.43860984,-5.666548,0.0,0.0,0.0
2529351412,-2.9212976,0.82961947,-10.318959,-0.04464875,0.0,0.06564627,-0.11204023,-1.2861109,0.15903762,-0.4177578,-5.7056518,0.0,0.0,0.0
2529455398,-2.9212976,0.82961947,-10.451055,-0.04464875,0.0,0.10505436,-0.11520599,-1.2861109,0.20150843,-0.3876857,-5.709569,0.0,0.0,0.0
2529554746,-2.9212976,0.82961947,-10.57916,-0.04464875,0.0,0.14476915,-0.11611589,-1.2861109,0.28881624,-0.36189306,-5.7280335,0.0,0.0,0.0
2529658624,-2.9212976,0.82961947,-10.719163,-0.04464875,0.0,0.1901355,-0.11102847,-1.2861109,0.34555686,-0.30685118,-5.6663537,0.0,0.0,0.0
2529759282,-2.9212976,0.82961947,-10.860901,-0.04464875,0.0,0.23586695,-0.10485561,-1.2861109,0.4279496,-0.3272012,-5.6336207,0.0,0.0,0.0
2529858742,-2.9212976,0.82961947,-11.002147,-0.04464875,0.0,0.28278843,-0.093997374,-1.2861109,0.4436663,-0.28985268,-5.6464787,0.0,0.0,0.0
2529960584,-2.9212976,0.82961947,-11.1461315,-0.04464875,0.0,0.33046436,-0.082894176,-1.2861109,0.51694643,-0.25241262,-5.713597,0.0,0.0,0.0
2530064695,-2.9212976,0.82961947,-11.294936,-0.04464875,0.0,0.38162544,-0.07216357,-1.2861109,0.5525257,-0.3381889,-5.6734333,0.0,0.0,0.0
2530164312,-2.9212976,0.82961947,-11.446537,-0.04464875,0.0,0.425773,-0.06612882,-1.2861109,0.50433886,-0.31896535,-5.4719057,0.0,0.0,0.0
2530268284,-2.9212976,0.82961947,-11.615316,-0.04464875,0.0,0.4643666,-0.06398321,-1.2861109,0.3967576,-0.39432403,-5.293835,0.0,0.0,0.0
2530368898,-2.9212976,0.82961947,-11.793499,-0.04464875,0.0,0.48833868,-0.07013896,-1.2861109,0.25818735,-0.5075018,-5.1313505,0.0,0.0,0.0
2530468324,-2.9212976,0.82961947,-11.925878,-0.04464875,0.0,0.49440178,-0.082988285,-1.2375336,0.14438958,-0.5566616,-4.924304,0.0,0.0,0.0
2530572339,-2.9212976,0.82961947,-11.989719,-0.04464875,0.0,0.4839976,-0.10303123,-1.1098499,-0.02005353,-0.62126285,-4.7962055,0.0,0.0,0.0
2530672716,-2.9212976,0.82961947,-12.049086,-0.04464875,0.0,0.45729285,-0.1270449,-0.9911165,-0.2414877,-0.6886898,-4.649282,0.0,0.0,0.0
2530772409,-2.9212976,0.82961947,-12.104796,-0.04464875,0.0,0.4143702,-0.15354836,-0.87969494,-0.27571914,-0.666924,-4.614781,0.0,0.0,0.0
2530876311,-2.9212976,0.82961947,-12.158778,-0.04464875,0.0,0.35663754,-0.18676084,-0.77173233,-0.48382935,-0.72739905,-4.6235213,0.0,0.0,0.0
2530978132,-3.1213233,0.996117,-12.169503,-0.04424768,0.0,0.09874278,-0.060169894,-0.6430559,-0.8241264,-0.55745655,-4.537255,0.0,0.0,0.0
2531081003,-3.1213233,0.996117,-11.604538,-0.04424768,0.0,0.015918028,-0.095182694,0.043857574,-0.968612,-0.5861463,-3.4840643,0.0,0.0,0.0
2531184932,-3.1213233,0.996117,-11.604538,-0.04424768,0.0,-0.07067565,-0.12758125,0.13348007,-1.0269507,-0.6269888,-3.939714,0.0,0.0,0.0
2531284338,-3.1213233,0.996117,-11.604538,-0.04424768,0.0,-0.1549296,-0.15465213,0.18415356,-1.0264881,-0.7018711,-4.280135,0.0,0.0,0.0
2531388371,-3.1213233,0.996117,-11.604538,-0.04424768,0.0,-0.23877087,-0.18102689,0.21251011,-1.0309594,-0.6383579,-4.389735,0.0,0.0,0.0
2531488887,-3.1213233,0.996117,-11.604538,-0.04424768,0.0,-0.31331307,-0.20695011,0.22288322,-0.9225082,-0.64532346,-4.5050383,0.0,0.0,0.0
2531588378,-3.1213233,0.996117,-11.604538,-0.04424768,0.0,-0.37311593,-0.22929727,0.2232542,-0.805785,-0.7192561,-4.5391135,0.0,0.0,0.0
2531692539,-3.1213233,0.996117,-11.604538,-0.04424768,0.0,-0.41919708,-0.2499765,0.21464062,-0.7031005,-0.66123235,-4.5667505,0.0,0.0,0.0
2531792742,-3.1213233,0.996117,-11.604538,-0.04424768,0.0,-0.44593444,-0.2673302,0.18995094,-0.60933965,-0.7095533,-4.7457185,0.0,0.0,0.0
2531896700,-3.1213233,0.996117,-11.604538,-0.04424768,0.0,-0.45664802,-0.2791673,0.1502428,-0.49530706,-0.67726237,-4.862243,0.0,0.0,0.0
2532001205,-3.1213233,0.996117,-11.604538,-0.04424768,0.0,-0.4519185,-0.28932434,0.103572845,-0.39996567,-0.6043659,-5.0170217,0.0,0.0,0.0
2532105157,-3.1213233,0.996117,-11.604538,-0.04424768,0.0,-0.4332352,-0.2940005,0.053458214,-0.29715145,-0.706476,-5.1279755,0.0,0.0,0.0
2532204290,-3.1213233,0.996117,-11.604538,-0.04424768,0.0,-0.40593362,-0.29425964,0.009775162,-0.20930246,-0.58766645,-5.187276,0.0,0.0,0.0
2532308354,-3.1213233,0.996117,-11.604538,-0.04424768,0.0,-0.37101516,-0.2912634,-0.04043293,-0.22240299,-0.5976018,-5.392491,0.0,0.0,0.0
2532408582,-3.1213233,0.996117,-11.604538,-0.04424768,0.0,-0.33526817,-0.28418162,-0.09104538,-0.1710226,-0.56238425,-5.503752,0.0,0.0,0.0
2532508327,-3.1213233,0.996117,-11.604538,-0.04424768,0.0,-0.2997275,-0.27304992,-0.13335705,-0.19390057,-0.5157986,-5.5332417,0.0,0.0,0.0
2532612365,-3.1213233,0.996117,-11.604538,-0.04424768,0.0,-0.26510733,-0.25646046,-0.16926765,-0.18757811,-0.4467033,-5.549251,0.0,0.0,0.0
2532713098,-3.1213233,0.996117,-11.604538,-0.04424768,0.0,-0.23632017,-0.23508282,-0.2007227,-0.25621587,-0.50234866,-5.5478463,0.0,0.0,0.0
2532816877,-3.1213233,0.996117,-11.604538,-0.04424768,0.0,-0.2128994,-0.20940398,-0.22456837,-0.2692864,-0.33973995,-5.5034385,0.0,0.0,0.0
2532921137,-3.1213233,0.996117,-11.604538,-0.04424768,0.0,-0.19335085,-0.18028952,-0.24245071,-0.28911978,-0.37353072,-5.5043235,0.0,0.0,0.0
2533020278,-3.1213233,0.996117,-11.604538,-0.04424768,0.0,-0.17711754,-0.15040904,-0.2626791,-0.23656316,-0.25816393,-5.552171,0.0,0.0,0.0
2533124310,-3.1213233,0.996117,-11.604538,-0.04424768,0.0,-0.1616294,-0.11753665,-0.28447914,-0.21429239,-0.22147243,-5.5916977,0.0,0.0,0.0
2533224984,-3.1213233,0.996117,-11.604538,-0.04424768,0.0,-0.14706357,-0.08375464,-0.3076439,-0.22499011,-0.2609563,-5.6913056,0.0,0.0,0.0
2533324268,-3.1213233,0.996117,-11.604538,-0.04424768,0.0,-0.13219467,-0.050570924,-0.32740974,-0.17933013,-0.18920013,-5.6964207,0.0,0.0,0.0
2533425101,-3.1213233,0.996117,-11.604538,-0.04424768,0.0,-0.11560689,-0.015061301,-0.34353924,-0.15286511,-0.18051472,-5.754412,0.0,0.0,0.0
2533529945,-3.1213233,0.996117,-11.604538,-0.04424768,0.0,-0.09549775,0.020396113,-0.35708427,-0.1112524,-0.13994768,-5.715309,0.0,0.0,0.0
2533631010,-3.1213233,0.996117,-11.604538,-0.04424768,0.0,-0.075214885,0.05190182,-0.36565018,-0.05121267,-0.13566373,-5.6314945,0.0,0.0,0.0
2533729897,-3.1213233,0.996117,-11.604538,-0.04424768,0.0,-0.053410184,0.081036724,-0.36278534,-0.041920193,-0.11809041,-5.530654,0.0,0.0,0.0
2533833941,-3.1213233,0.996117,-11.604538,-0.04424768,0.0,-0.032316685,0.108715415,-0.3585825,-0.05765494,-0.15360726,-5.6435614,0.0,0.0,0.0
2533934518,-3.1213233,0.996117,-11.604538,-0.04424768,0.0,-0.013094282,0.13189417,-0.35597992,-0.039427757,-0.17148122,-5.8045526,0.0,0.0,0.0
2534038614,-3.1213233,0.996117,-11.604538,-0.04424768,0.0,0.0052930233,0.15520881,-0.35251045,-0.101578675,-0.061268214,-5.8951554,0.0,0.0,0.0
2534142655,-3.1213233,0.996117,-11.604538,-0.04424768,0.0,0.019594992,0.17897737,-0.3460083,-0.14213789,-0.07852456,-5.9793186,0.0,0.0,0.0
2534241893,-3.1213233,0.996117,2.9953554,-0.04424768,0.0,0.028519904,0.20498553,0.6,-0.14026478,0.017121304,-4.437758,0.0,0.0,0.0
2534346008,-3.1213233,0.996117,2.9953554,-0.04424768,0.0,0.034406576,0.2321577,0.6,-0.16891855,0.023441667,-4.8668447,0.0,0.0,0.0
2534449892,-3.1213233,0.996117,2.9953554,-0.04424768,0.0,0.03864367,0.25854513,0.6,-0.1572586,0.07707648,-5.204986,0.0,0.0,0.0
2534550494,-3.1213233,0.996117,2.9953554,-0.04424768,0.0,0.042916093,0.28229353,0.6,-0.109755665,0.06694237,-5.3453207,0.0,0.0,0.0
2534654616,-3.1213233,0.996117,2.9953554,-0.04424768,0.0,0.047171533,0.30770555,0.6,-0.13528633,0.10124562,-5.523229,0.0,0.0,0.0
2534758711,-3.1213233,0.996117,2.9953554,-0.04424768,0.0,0.052134547,0.3292992,0.6,-0.12646192,0.08492795,-5.5985312,0.0,0.0,0.0
2534862423,-3.1213233,0.996117,2.9953554,-0.04424768,0.0,0.05744841,0.3487926,0.6,-0.0792695,0.06823661,-5.6427155,0.0,0.0,0.0
2534961903,-3.1213233,0.996117,2.9953554,-0.04424768,0.0,0.063493855,0.36350703,0.6,-0.03836197,0.12178311,-5.72844,0.0,0.0,0.0
2535065923,-3.1213233,0.996117,2.9953554,-0.04424768,0.0,0.069527075,0.3812881,0.6,-0.07146283,0.10620067,-5.730378,0.0,0.0,0.0
2535166209,-3.1213233,0.996117,2.9953554,-0.04424768,0.0,0.075169586,0.39386344,0.6,-0.09751806,0.059128556,-5.7151856,0.0,0.0,0.0
2535270453,-3.1213233,0.996117,2.9953554,-0.04424768,0.0,0.079122424,0.399845,0.6,-0.11074539,0.08517286,-5.662361,0.0,0.0,0.0
2535375769,-3.1213233,0.996117,2.9953554,-0.04424768,0.0,0.07937089,0.39993206,0.6,-0.1930982,-0.0064261607,-5.5294223,0.0,0.0,0.0
2535478525,-3.1213233,0.996117,2.9953554,-0.04424768,0.0,0.072299406,0.39642373,0.6,-0.2780557,-0.08534884,-5.4083543,0.0,0.0,0.0
2535578019,-3.1213233,0.996117,2.9953554,-0.04424768,0.0,0.059228454,0.38575846,0.6,-0.32926953,-0.11317254,-5.299181,0.0,0.0,0.0
2535681898,-3.1213233,0.996117,2.9953554,-0.04424768,0.0,0.04210206,0.36866015,0.6,-0.44121912,-0.12919086,-5.25944,0.0,0.0,0.0
2535782292,-3.1213233,0.996117,2.9953554,-0.04424768,0.0,0.019558977,0.346897,0.6,-0.4787634,-0.18106991,-5.274974,0.0,0.0,0.0
2535886582,-3.1213233,0.996117,2.9953554,-0.04424768,0.0,-0.008715856,0.3212171,0.6,-0.53066176,-0.2524857,-5.318139,0.0,0.0,0.0
2535990489,-3.1213233,0.996117,2.9953554,-0.04424768,0.0,-0.03746452,0.29232597,0.6,-0.5002852,-0.26303503,-5.3044405,0.0,0.0,0.0
2536089827,-3.1213233,0.996117,2.9953554,-0.04424768,0.0,-0.06405399,0.26270816,0.6,-0.5303537,-0.28923118,-5.3184056,0.0,0.0,0.0
2536193953,-3.1213233,0.996117,2.9953554,-0.04424768,0.0,-0.08985162,0.23066102,0.6,-0.5375814,-0.31373698,-5.29669,0.0,0.0,0.0
2536294222,-3.1213233,0.996117,2.9953554,-0.04424768,0.0,-0.11279945,0.19742186,0.6,-0.52656555,-0.3899008,-5.2775364,0.0,0.0,0.0
2536393905,-3.1213233,0.996117,2.9953554,-0.04424768,0.0,-0.13468774,0.16273952,0.6,-0.5194074,-0.49172422,-5.2332416,0.0,0.0,0.0
2536497858,-3.1213233,0.996117,2.9953554,-0.04424768,0.0,-0.15434183,0.12553117,0.6,-0.53671026,-0.5564584,-5.1975083,0.0,0.0,0.0
2536598421,-3.1213233,0.996117,2.9953554,-0.04424768,0.0,-0.1705953,0.08510213,0.6,-0.57553536,-0.6096918,-5.2471685,0.0,0.0,0.0
2536698276,-3.1213233,0.996117,2.9953554,-0.04424768,0.0,-0.18333286,0.040329266,0.6,-0.4864258,-0.6302576,-5.255524,0.0,0.0,0.0
2536801899,-3.1213233,0.996117,2.9953554,-0.04424768,0.0,-0.1924059,-0.0076209665,0.6,-0.46732,-0.70726377,-5.2376,0.0,0.0,0.0
2536904329,-3.1213233,0.996117,2.9953554,-0.04424768,0.0,-0.19858159,-0.05369727,0.6,-0.4734797,-0.6660992,-5.280696,0.0,0.0,0.0
2537008215,-3.1213233,0.996117,2.9953554,-0.04424768,0.0,-0.19808714,-0.09820836,0.6,-0.39388978,-0.6911562,-5.290292,0.0,0.0,0.0
2537107568,-3.1213233,0.996117,2.9953554,-0.04424768,0.0,-0.19174159,-0.13690232,0.6,-0.35289305,-0.67831993,-5.2839036,0.0,0.0,0.0
2537211492,-3.1213233,0.996117,2.9953554,-0.04424768,0.0,-0.18031591,-0.17112735,0.6,-0.30153352,-0.61601424,-5.270348,0.0,0.0,0.0
2537312022,-3.1213233,0.996117,2.9953554,-0.04424768,0.0,-0.16480218,-0.19953628,0.6,-0.30029693,-0.65283626,-5.2620215,0.0,0.0,0.0
2537416099,-3.1213233,0.996117,2.9953554,-0.04424768,0.0,-0.14574964,-0.22387458,0.6,-0.27321252,-0.6552834,-5.231909,0.0,0.0,0.0
2537520556,-3.1213233,0.996117,2.9953554,-0.04424768,0.0,-0.124980725,-0.24560997,0.6,-0.17900291,-0.67220145,-5.147068,0.0,0.0,0.0
2537623851,-3.1213233,0.996117,2.9953554,-0.04424768,0.0,-0.10406774,-0.26015985,0.6,-0.18457946,-0.66614497,-5.208125,0.0,0.0,0.0
2537723594,-3.1213233,0.996117,2.9953554,-0.04424768,0.0,-0.082494974,-0.27006197,0.6,-0.13464105,-0.63627386,-5.1907463,0.0,0.0,0.0
2537827487,-3.1213233,0.996117,2.9953554,-0.04424768,0.0,-0.058766853,-0.2772809,0.6,-0.067700095,-0.67396194,-5.2188954,0.0,0.0,0.0
2537928142,-3.1213233,0.996117,2.9953554,-0.04424768,0.0,-0.032798443,-0.27899483,0.6,-0.0557346,-0.70486575,-5.130314,0.0,0.0,0.0
2538031839,-3.1213233,0.996117,2.9953554,-0.04424768,0.0,-0.0035215854,-0.27963808,0.6,0.0047180415,-0.5962271,-5.1901784,0.0,0.0,0.0
2538135770,-3.1213233,0.996117,2.9953554,-0.04424768,0.0,0.027637696,-0.27694649,0.6,0.03345513,-0.64907706,-5.2107053,0.0,0.0,0.0
2538235562,-3.1213233,0.996117,2.9953554,-0.04424768,0.0,0.054820586,-0.27290893,0.6,0.034588005,-0.57096785,-5.2063174,0.0,0.0,0.0
2538339532,-3.1213233,0.996117,2.9953554,-0.04424768,0.0,0.08099669,-0.26790276,0.6,0.057733666,-0.5433181,-5.2256083,0.0,0.0,0.0
2538440351,-3.1213233,0.996117,2.9953554,-0.04424768,0.0,0.108267464,-0.26007864,0.6,0.043161225,-0.52793735,-5.3009076,0.0,0.0,0.0
2538539532,-3.1213233,0.996117,2.9953554,-0.04424768,0.0,0.1360252,-0.25083527,0.6,0.14540266,-0.5209732,-5.265627,0.0,0.0,0.0
2538643746,-3.1213233,0.996117,2.9953554,-0.04424768,0.0,0.16425337,-0.24110766,0.6,0.14970215,-0.5460648,-5.247975,0.0,0.0,0.0
2538744953,-3.1213233,0.996117,2.9953554,-0.04424768,0.0,0.19104011,-0.23246427,0.6,0.19460362,-0.52229756,-5.145033,0.0,0.0,0.0
2538843589,-3.1213233,0.996117,2.9953554,-0.04424768,0.0,0.21723525,-0.22166272,0.6,0.24395162,-0.57399666,-5.103337,0.0,0.0,0.0
2538947736,-3.1213233,0.996117,2.9953554,-0.04424768,0.0,0.24421203,-0.21205333,0.6,0.26859874,-0.5711245,-5.110211,0.0,0.0,0.0
2539048166,-3.1213233,0.996117,2.9953554,-0.04424768,0.0,0.27046853,-0.20032981,0.6,0.2671358,-0.5519919,-5.1437593,0.0,0.0,0.0
2539152245,-3.1213233,0.996117,2.9953554,-0.04424768,0.0,0.2970043,-0.18929382,0.6,0.3208876,-0.45427832,-5.192875,0.0,0.0,0.0
2539256191,-3.1213233,0.996117,2.9953554,-0.04424768,0.0,0.32223344,-0.17642705,0.6,0.27261537,-0.45328584,-5.252947,0.0,0.0,0.0
2539355463,-3.1213233,0.996117,2.9953554,-0.04424768,0.0,0.34403044,-0.16523887,0.6,0.32569656,-0.4844386,-5.145544,0.0,0.0,0.0
2539459506,-3.1213233,0.996117,2.9953554,-0.04424768,0.0,0.36298922,-0.1510395,0.6,0.2556729,-0.42512262,-5.168713,0.0,0.0,0.0
2539560068,-3.1213233,0.996117,2.9953554,-0.04424768,0.0,0.3771272,-0.13727693,0.6,0.3003751,-0.42920956,-5.0888352,0.0,0.0,0.0
2539659470,-3.1213233,0.996117,2.9953554,-0.04424768,0.0,0.38635176,-0.12547834,0.6,0.24419755,-0.42427406,-5.081029,0.0,0.0,0.0
2539763503,-3.1213233,0.996117,2.9953554,-0.04424768,0.0,0.39186516,-0.11279945,0.6,0.23485269,-0.4722214,-4.9884524,0.0,0.0,0.0
2539864201,-3.1213233,0.996117,2.9953554,-0.04424768,0.0,0.39562526,-0.10500884,0.6,0.22254604,-0.39924452,-5.0439844,0.0,0.0,0.0
2539963621,-3.1213233,0.996117,2.9953554,-0.04424768,0.0,0.39639714,-0.0977326,0.6,0.19276749,-0.45931447,-4.96285,0.0,0.0,0.0
2540067412,-3.1213233,0.996117,2.9953554,-0.04424768,0.0,0.39409685,-0.08916544,0.6,0.20699978,-0.44498447,-4.940077,0.0,0.0,0.0
2540168413,-3.1213233,0.996117,2.9953554,-0.04424768,0.0,0.38841742,-0.08122104,0.6,0.16994396,-0.40950924,-4.9710917,0.0,0.0,0.0
2540271742,-3.1213233,0.996117,2.9953554,-0.04424768,0.0,0.37661937,-0.069121756,0.6,0.15533005,-0.40500367,-4.8779664,0.0,0.0,0.0
2540372420,-3.1213233,0.996117,2.9953554,-0.04424768,0.0,0.3643645,-0.057778418,0.6,0.12136795,-0.41486508,-4.863669,0.0,0.0,0.0
2540473813,-3.1213233,0.996117,2.9953554,-0.04424768,0.0,0.353265,-0.04920786,0.6,0.13257666,-0.38418955,-4.86943,0.0,0.0,0.0
2540573220,-3.1213233,0.996117,2.9953554,-0.04424768,0.0,0.34344494,-0.041475117,0.6,0.19723774,-0.35442075,-4.8330307,0.0,0.0,0.0
2540677074,-3.1213233,0.996117,2.9953554,-0.04424768,0.0,0.3340462,-0.02926361,0.6,0.0,0.0,-1.176798,0.0,0.0,0.0
2540777784,-3.1213233,0.996117,2.9953554,-0.04424768,0.0,0.326849,-0.020806866,0.6,0.21794055,-0.34180883,-5.110404,0.0,0.0,0.0
2540877157,-3.1213233,0.996117,2.9953554,-0.04424768,0.0,0.3219476,-0.016802501,0.6,0.20000157,-0.52200186,-5.651257,0.0,0.0,0.0
2540979278,-3.1213233,0.996117,2.9953554,-0.04424768,0.0,0.31768763,-0.017126845,0.6,0.20778397,-0.53840023,-5.4001966,0.0,0.0,0.0
2541081520,-3.1213233,0.996117,2.9953554,-0.04424768,0.0,0.31306753,-0.021447176,0.6,0.20094888,-0.62857354,-5.1487546,0.0,0.0,0.0
2541181161,-3.1213233,0.996117,2.9953554,-0.04424768,0.0,0.3086864,-0.03019995,0.6,0.24858615,-0.5665447,-5.0618725,0.0,0.0,0.0
2541285038,-3.1213233,0.996117,2.9953554,-0.04424768,0.0,0.3070341,-0.046874706,0.6,0.18932664,-0.5761376,-4.983873,0.0,0.0,0.0
2541385816,-3.1213233,0.996117,2.9953554,-0.04424768,0.0,0.30585948,-0.06312365,0.6,0.25708538,-0.6335779,-4.9702563,0.0,0.0,0.0
2541489760,-3.1213233,0.996117,2.9953554,-0.04424768,0.0,0.3062137,-0.08360028,0.6,0.19417833,-0.6077045,-4.990086,0.0,0.0,0.0
2541593625,-3.1213233,0.996117,2.9953554,-0.04424768,0.0,0.30496436,-0.099555,0.6,0.21136023,-0.5836549,-4.9363704,0.0,0.0,0.0
2541693158,-3.1213233,0.996117,2.9953554,-0.04424768,0.0,0.3006192,-0.107676186,0.6,0.1558322,-0.5259619,-4.91506,0.0,0.0,0.0
2541797284,-3.1213233,0.996117,2.9953554,-0.04424768,0.0,0.29078788,-0.11163582,0.6,0.118893534,-0.57008415,-4.8800583,0.0,0.0,0.0
2541901112,-3.1213233,0.996117,2.9953554,-0.04424768,0.0,0.27523178,-0.11043719,0.6,0.06578159,-0.5026512,-4.846237,0.0,0.0,0.0
2542001866,-3.1213233,0.996117,2.9953554,-0.04424768,0.0,0.25773892,-0.10615209,0.6,0.0010365477,-0.47030592,-4.922633,0.0,0.0,0.0
2542106001,-3.1213233,0.996117,2.9953554,-0.04424768,0.0,0.23797633,-0.09933292,0.6,-0.030952485,-0.40673423,-4.8663177,0.0,0.0,0.0
2542209537,-3.1213233,0.996117,2.9953554,-0.04424768,0.0,0.21418002,-0.08730952,0.6,-0.10841672,-0.31371227,-4.9656224,0.0,0.0,0.0
2542309076,-3.1213233,0.996117,2.9953554,-0.04424768,0.0,0.18810017,-0.071038045,0.6,-0.08661497,-0.36413565,-4.897453,0.0,0.0,0.0
2542413194,-3.1213233,0.996117,2.9953554,-0.04424768,0.0,0.15983644,-0.049175356,0.6,-0.11520683,-0.26605535,-4.917517,0.0,0.0,0.0
2542513662,-3.1213233,0.996117,2.9953554,-0.04424768,0.0,0.13099332,-0.023414534,0.6,-0.17084488,-0.20551097,-5.0145135,0.0,0.0,0.0
2542613206,-3.1213233,0.996117,2.9953554,-0.04424768,0.0,0.102262326,0.0044826716,0.6,-0.17507036,-0.16197403,-4.9923344,0.0,0.0,0.0
2542717319,-3.1213233,0.996117,2.9953554,-0.04424768,0.0,0.07201968,0.03599942,0.6,-0.18562222,-0.13782454,-4.986749,0.0,0.0,0.0
2542817560,-3.1213233,0.996117,2.9953554,-0.04424768,0.0,0.041490972,0.06971779,0.6,-0.22660288,-0.09032237,-5.0001817,0.0,0.0,0.0
2542921752,-3.1213233,0.996117,2.9953554,-0.04424768,0.0,0.008766365,0.10692682,0.6,-0.27510872,-0.055646338,-5.012686,0.0,0.0,0.0
2543025464,-3.1213233,0.996117,2.9953554,-0.04424768,0.0,-0.022482382,0.1426554,0.6,-0.2894546,0.0077753835,-5.044749,0.0,0.0,0.0
2543125150,-3.1213233,0.996117,2.9953554,-0.04424768,0.0,-0.050860275,0.17509757,0.6,-0.33924818,-0.022435522,-5.011983,0.0,0.0,0.0
2543225657,-3.1213233,0.996117,2.9953554,-0.04424768,0.0,-0.08063656,0.20769449,0.6,-0.3336419,0.021461269,-4.993113,0.0,0.0,0.0
2543330053,-3.1213233,0.996117,2.9953554,-0.04424768,0.0,-0.11129098,0.23929068,0.6,-0.35588586,0.04206998,-5.014299,0.0,0.0,0.0
2543429022,-3.1213233,0.996117,2.9953554,-0.04424768,0.0,-0.14041789,0.26748592,0.6,-0.39622164,0.027263563,-5.0146255,0.0,0.0,0.0
2543533191,-3.1213233,0.996117,2.9953554,-0.04424768,0.0,-0.16887936,0.29354128,0.6,-0.38358998,0.042480275,-5.0477953,0.0,0.0,0.0
2543633391,-3.1213233,0.996117,2.9953554,-0.04424768,0.0,-0.19304848,0.3139976,0.6,-0.37688828,0.049720492,-5.0689607,0.0,0.0,0.0
2543733136,-3.1213233,0.996117,2.9953554,-0.04424768,0.0,-0.21225186,0.32991546,0.6,-0.34510985,-0.011326939,-5.052828,0.0,0.0,0.0
2543835024,-3.1213233,0.996117,2.9953554,-0.04424768,0.0,-0.23321284,0.34914973,0.6,-0.34571022,0.07580529,-5.086719,0.0,0.0,0.0
2543939278,-3.1213233,0.996117,2.9953554,-0.04424768,0.0,-0.25094828,0.3666741,0.6,-0.33745354,0.014262152,-5.069999,0.0,0.0,0.0
2544038689,-3.1213233,0.996117,2.9953554,-0.04424768,0.0,-0.2646276,0.3791669,0.6,-0.33103332,-0.044806782,-5.0434594,0.0,0.0,0.0
2544139293,-3.1213233,0.996117,2.9953554,-0.04424768,0.0,-0.27442136,0.3870044,0.6,-0.2994313,-0.018583413,-5.0505385,0.0,0.0,0.0
2544243434,-3.1213233,0.996117,2.9953554,-0.04424768,0.0,-0.2803846,0.3829334,0.6,-0.29119205,-0.056365356,-5.0684285,0.0,0.0,0.0
2544342798,-3.1213233,0.996117,2.9953554,-0.04424768,0.0,-0.28133953,0.37330684,0.6,-0.29967698,-0.0616858,-5.1389475,0.0,0.0,0.0
2544446745,-3.1213233,0.996117,2.9953554,-0.04424768,0.0,-0.27734613,0.3575421,0.6,-0.2694552,-0.10750461,-5.180644,0.0,0.0,0.0
2544547522,-3.1213233,0.996117,2.9953554,-0.04424768,0.0,-0.26970026,0.3391769,0.6,-0.21886219,-0.20325328,-5.151396,0.0,0.0,0.0
2544646948,-3.1213233,0.996117,2.9953554,-0.04424768,0.0,-0.25863653,0.31895518,0.6,-0.24816053,-0.19195323,-5.221208,0.0,0.0,0.0
2544750746,-3.1213233,0.996117,2.9953554,-0.04424768,0.0,-0.24542877,0.295996,0.6,-0.21269889,-0.19481999,-5.2004046,0.0,0.0,0.0
2544851012,-3.1213233,0.996117,2.9953554,-0.04424768,0.0,-0.23140903,0.27625823,0.6,-0.18874244,-0.2858256,-5.1516237,0.0,0.0,0.0
2544950797,-3.1213233,0.996117,2.9953554,-0.04424768,0.0,-0.21696255,0.2573681,0.6,-0.20588706,-0.20675097,-5.208763,0.0,0.0,0.0
2545054681,-3.1213233,0.996117,2.9953554,-0.04424768,0.0,-0.20073195,0.23924352,0.6,-0.18631344,-0.20890212,-5.1722565,0.0,0.0,0.0
2545155265,-3.1213233,0.996117,2.9953554,-0.04424768,0.0,-0.18481256,0.22189216,0.6,-0.14136678,-0.28249082,-5.1170816,0.0,0.0,0.0
2545258956,-3.1213233,0.996117,2.9953554,-0.04424768,0.0,-0.1669299,0.2043275,0.6,-0.16349246,-0.29081532,-5.1106358,0.0,0.0,0.0
2545363046,-3.1213233,0.996117,2.9953554,-0.04424768,0.0,-0.14842074,0.18665196,0.6,-0.08376778,-0.30205137,-5.082084,0.0,0.0,0.0
2545462778,-3.1213233,0.996117,2.9953554,-0.04424768,0.0,-0.13025631,0.17566557,0.6,-0.08924175,-0.23317525,-5.125319,0.0,0.0,0.0
2545566782,-3.1213233,0.996117,2.9953554,-0.04424768,0.0,-0.110142864,0.16392711,0.6,-0.06483449,-0.2448107,-5.1432667,0.0,0.0,0.0
2545667334,-3.1213233,0.996117,2.9953554,-0.04424768,0.0,-0.09127651,0.16051571,0.6,-0.0048637427,-0.2337602,-5.1318007,0.0,0.0,0.0
2545766658,-3.1213233,0.996117,2.9953554,-0.04424768,0.0,-0.070537254,0.15519959,0.6,0.042543177,-0.24037264,-5.1173344,0.0,0.0,0.0
2545870666,-3.1213233,0.996117,2.9953554,-0.04424768,0.0,-0.054255247,0.1593202,0.6,0.018784808,-0.23330133,-5.1634097,0.0,0.0,0.0
2545972269,-3.1213233,0.996117,2.9953554,-0.04424768,0.0,-0.036930893,0.16202639,0.6,0.049789567,-0.23749249,-5.1903563,0.0,0.0,0.0
2546070653,-3.1213233,0.996117,2.9953554,-0.04424768,0.0,-0.020567345,0.16995318,0.6,0.056382123,-0.17006838,-5.216364,0.0,0.0,0.0
2546174667,-3.1213233,0.996117,2.9953554,-0.04424768,0.0,-0.0034087896,0.17620124,0.6,0.024962418,-0.13735488,-5.266463,0.0,0.0,0.0
2546275412,-3.1213233,0.996117,2.9953554,-0.04424768,0.0,0.007981777,0.1871631,0.6,0.05006957,-0.120872535,-5.2311883,0.0,0.0,0.0
2546379482,-3.1213233,0.996117,2.9953554,-0.04424768,0.0,0.019739496,0.19484596,0.6,-0.005333004,-0.11522051,-5.2589383,0.0,0.0,0.0
2546483331,-3.1213233,0.996117,2.9953554,-0.04424768,0.0,0.023762774,0.2036514,0.6,-0.00052395085,-0.11514938,-5.2292056,0.0,0.0,0.0
2546583050,-3.1213233,0.996117,2.9953554,-0.04424768,0.0,0.027255367,0.21037894,0.6,-0.029214734,-0.07663353,-5.2400694,0.0,0.0,0.0
2546686737,-3.1213233,0.996117,2.9953554,-0.04424768,0.0,0.027646303,0.22128147,0.6,-0.014445089,-0.05303877,-5.2421007,0.0,0.0,0.0
2546787134,-3.1213233,0.996117,2.9953554,-0.04424768,0.0,0.027261483,0.23048633,0.6,-0.018796548,-0.12679207,-5.1977305,0.0,0.0,0.0
2546886773,-3.1213233,0.996117,2.9953554,-0.04424768,0.0,0.025319945,0.24250208,0.6,-0.02788731,-0.106288835,-5.166567,0.0,0.0,0.0
2546990813,-3.1213233,0.996117,2.9953554,-0.04424768,0.0,0.021766197,0.25054824,0.6,-0.0056119217,-0.14578728,-5.0845513,0.0,0.0,0.0
2547091273,-3.1213233,0.996117,2.9953554,-0.04424768,0.0,0.0126854535,0.25865328,0.6,-0.05198811,-0.18109119,-5.119547,0.0,0.0,0.0
2547190723,-3.1213233,0.996117,2.9953554,-0.04424768,0.0,0.004524517,0.25979698,0.6,-0.0988879,-0.17161793,-5.1041656,0.0,0.0,0.0
2547292518,-3.1213233,0.996117,2.9953554,-0.04424768,0.0,-0.008295703,0.25944304,0.6,-0.080590814,-0.17922723,-5.074743,0.0,0.0,0.0
2547396313,-3.1213233,0.996117,2.9953554,-0.04424768,0.0,-0.017617213,0.25216192,0.6,-0.07777939,-0.25360548,-5.0721474,0.0,0.0,0.0
2547497285,-3.1213233,0.996117,2.9953554,-0.04424768,0.0,-0.025554823,0.24289109,0.6,-0.06538133,-0.2223899,-5.086836,0.0,0.0,0.0
2547600970,-3.1213233,0.996117,2.9953554,-0.04424768,0.0,-0.030795753,0.22703087,0.6,-0.09201836,-0.28421533,-5.1071134,0.0,0.0,0.0
2547704678,-3.1213233,0.996117,2.9953554,-0.04424768,0.0,-0.03445958,0.20803656,0.6,-0.07735249,-0.33389524,-5.095657,0.0,0.0,0.0
2547804619,-3.1213233,0.996117,2.9953554,-0.04424768,0.0,-0.037226927,0.1852578,0.6,-0.104506515,-0.29041484,-5.0465603,0.0,0.0,0.0
2547908318,-3.1213233,0.996117,2.9953554,-0.04424768,0.0,-0.045075297,0.15976697,0.6,-0.12266337,-0.39061517,-5.0941143,0.0,0.0,0.0
2548008626,-3.1213233,0.996117,2.9953554,-0.04424768,0.0,-0.05280951,0.13454962,0.6,-0.108437635,-0.41809806,-5.0952916,0.0,0.0,0.0
2548108352,-3.1213233,0.996117,2.9953554,-0.04424768,0.0,-0.06056117,0.10956552,0.6,-0.11878614,-0.4110337,-5.1364393,0.0,0.0,0.0
2548212389,-3.1213233,0.996117,2.9953554,-0.04424768,0.0,-0.06662655,0.0839603,0.6,-0.12484004,-0.3596582,-5.1940284,0.0,0.0,0.0
2548313706,-3.1213233,0.996117,2.9953554,-0.04424768,0.0,-0.070615396,0.061452605,0.6,-0.0541994,-0.43296194,-5.185814,0.0,0.0,0.0
2548412332,-3.1213233,0.996117,2.9953554,-0.04424768,0.0,-0.07175015,0.04077609,0.6,-0.035209455,-0.3903775,-5.220426,0.0,0.0,0.0
2548516590,-3.1213233,0.996117,2.9953554,-0.04424768,0.0,-0.07059388,0.021532396,0.6,-0.0069582947,-0.34339672,-5.2387104,0.0,0.0,0.0
2548616677,-3.1213233,0.996117,2.9953554,-0.04424768,0.0,-0.06444288,0.0060670227,0.6,0.038317878,-0.3765163,-5.2436647,0.0,0.0,0.0
2548720648,-3.1213233,0.996117,2.9953554,-0.04424768,0.0,-0.052862287,-0.0072028516,0.6,0.087422065,-0.3377926,-5.2407236,0.0,0.0,0.0
2548820387,-3.1213233,0.996117,2.9953554,-0.04424768,0.0,-0.037692152,-0.015260732,0.6,0.14388087,-0.3191485,-5.2624717,0.0,0.0,0.0
2548920647,-3.1213233,0.996117,2.9953554,-0.04424768,0.0,-0.019170308,-0.018948907,0.6,0.16234101,-0.32289445,-5.289227,0.0,0.0,0.0
2549024631,-3.1213233,0.996117,2.9953554,-0.04424768,0.0,0.0019028067,-0.021259408,0.6,0.2425464,-0.29504824,-5.2595778,0.0,0.0,0.0
2549124359,-3.1213233,0.996117,2.9953554,-0.04424768,0.0,0.024099575,-0.02130063,0.6,0.25246233,-0.26225126,-5.314179,0.0,0.0,0.0
2549224872,-3.1213233,0.996117,2.9953554,-0.04424768,0.0,0.045798957,-0.019362718,0.6,0.25054842,-0.198633,-5.3007655,0.0,0.0,0.0
2549329187,-3.1213233,0.996117,2.9953554,-0.04424768,0.0,0.0684306,-0.016146677,0.6,0.29741365,-0.24348961,-5.225713,0.0,0.0,0.0
2549428240,-3.1213233,0.996117,2.9953554,-0.04424768,0.0,0.0893463,-0.013453281,0.6,0.2631246,-0.23421066,-5.232202,0.0,0.0,0.0
2549532675,-3.1213233,0.996117,2.9953554,-0.04424768,0.0,0.10960697,-0.011869949,0.6,0.26194322,-0.22693984,-5.231235,0.0,0.0,0.0
2549636282,-3.1213233,0.996117,2.9953554,-0.04424768,0.0,0.12583168,-0.009785717,0.6,0.29299808,-0.26732162,-5.1943936,0.0,0.0,0.0
2549736868,-3.1213233,0.996117,2.9953554,-0.04424768,0.0,0.13917193,-0.007594466,0.6,0.27595457,-0.20580307,-5.2676826,0.0,0.0,0.0
2549840895,-3.1213233,0.996117,2.9953554,-0.04424768,0.0,0.1504248,-0.005696869,0.6,0.23679219,-0.21651867,-5.2858906,0.0,0.0,0.0
2549944673,-3.1213233,0.996117,2.9953554,-0.04424768,0.0,0.1586197,-0.0034034103,0.6,0.24224968,-0.18946213,-5.324306,0.0,0.0,0.0
2550044216,-3.1213233,0.996117,2.9953554,-0.04424768,0.0,0.16264161,-0.0034271926,0.6,0.21167138,-0.19323565,-5.34779,0.0,0.0,0.0
2550148258,-3.1213233,0.996117,2.9953554,-0.04424768,0.0,0.16512902,-0.002713725,0.6,0.20168042,-0.20488612,-5.2702384,0.0,0.0,0.0
2550248831,-3.1213233,0.996117,2.9953554,-0.04424768,0.0,0.16569684,-0.0015602857,0.6,0.19871132,-0.14207783,-5.2828283,0.0,0.0,0.0
2550348419,-3.1213233,0.996117,2.9953554,-0.04424768,0.0,0.1664538,0.0015580773,0.6,0.17226353,-0.19174916,-5.2450557,0.0,0.0,0.0
2550452373,-3.1213233,0.996117,2.9953554,-0.04424768,0.0,0.16780962,0.007567796,0.6,0.17877471,-0.21546805,-5.232054,0.0,0.0,0.0
2550552906,-3.1213233,0.996117,2.9953554,-0.04424768,0.0,0.16942137,0.014253044,0.6,0.16691598,-0.15726252,-5.2461634,0.0,0.0,0.0
2550652258,-3.1213233,0.996117,2.9953554,-0.04424768,0.0,0.16777474,0.021905493,0.6,0.18945305,-0.19289917,-5.170384,0.0,0.0,0.0
2550754288,-3.1213233,0.996117,2.9953554,-0.04424768,0.0,0.16587307,0.029426858,0.6,0.17475984,-0.12022048,-5.2055573,0.0,0.0,0.0
2550858545,-3.1213233,0.996117,2.9953554,-0.04424768,0.0,0.16169327,0.03362799,0.6,0.15392679,-0.17438103,-5.1771507,0.0,0.0,0.0
2550957966,-3.1213233,0.996117,2.9953554,-0.04424768,0.0,0.15874155,0.037856024,0.6,0.14751206,-0.14312884,-5.23973,0.0,0.0,0.0
2551062018,-3.1213233,0.996117,2.9953554,-0.04424768,0.0,0.15213145,0.04043821,0.6,0.21646047,-0.18150412,-5.129257,0.0,0.0,0.0
2551162680,-3.1213233,0.996117,2.9953554,-0.04424768,0.0,0.14782096,0.04405079,0.6,0.22584611,-0.14254032,-5.153274,0.0,0.0,0.0
2551261898,-3.1213233,0.996117,2.9953554,-0.04424768,0.0,0.1443431,0.049309727,0.6,0.2328953,-0.112980545,-5.149898,0.0,0.0,0.0
2551365872,-3.1213233,0.996117,2.9953554,-0.04424768,0.0,0.14310755,0.05542771,0.6,0.19930936,-0.046073075,-5.2263203,0.0,0.0,0.0
2551466724,-3.1213233,0.996117,2.9953554,-0.04424768,0.0,0.13820094,0.06075426,0.6,0.2266501,-0.11893808,-5.18654,0.0,0.0,0.0
2551565964,-3.1213233,0.996117,2.9953554,-0.04424768,0.0,0.13709494,0.06648601,0.6,0.2684166,-0.117884256,-5.136375,0.0,0.0,0.0
2551669890,-3.1213233,0.996117,2.9953554,-0.04424768,0.0,0.13333848,0.075079724,0.6,0.25337142,-0.10810537,-5.10578,0.0,0.0,0.0
2551770227,-3.1213233,0.996117,2.9953554,-0.04424768,0.0,0.13361254,0.08359456,0.6,0.27141178,-0.12216228,-5.1204686,0.0,0.0,0.0
2551874704,-3.1213233,0.996117,2.9953554,-0.04424768,0.0,0.13191359,0.09662769,0.6,0.2826327,-0.04653189,-5.1657267,0.0,0.0,0.0
2551979764,-3.1213233,0.996117,2.9953554,-0.04424768,0.0,0.13387823,0.10932928,0.6,0.2958914,-0.054110855,-5.1521163,0.0,0.0,0.0
2552082610,-3.1213233,0.996117,2.9953554,-0.04424768,0.0,0.13413484,0.12443045,0.6,0.24510977,0.0030341619,-5.2311354,0.0,0.0,0.0
2552182281,-3.1213233,0.996117,2.9953554,-0.04424768,0.0,0.13546212,0.13847812,0.6,0.23680261,-0.017420962,-5.236627,0.0,0.0,0.0
2552285994,-3.1213233,0.996117,2.9953554,-0.04424768,0.0,0.13515952,0.15859716,0.6,0.22532234,0.054706447,-5.242412,0.0,0.0,0.0
2552387806,-3.1213233,0.996117,2.9953554,-0.04424768,0.0,0.13440122,0.17589025,0.6,0.23553331,0.03593741,-5.2151675,0.0,0.0,0.0
2552490261,-3.1213233,0.996117,2.9953554,-0.04424768,0.0,0.13056049,0.19147545,0.6,0.21217692,0.039229438,-5.2023273,0.0,0.0,0.0
2552594571,-3.1213233,0.996117,2.9953554,-0.04424768,0.0,0.12742214,0.20359261,0.6,0.21181335,0.04414357,-5.202783,0.0,0.0,0.0
2552693931,-3.1213233,0.996117,2.9953554,-0.04424768,0.0,0.12617618,0.21015635,0.6,0.19715951,0.07528337,-5.212058,0.0,0.0,0.0
2552798091,-3.1213233,0.996117,2.9953554,-0.04424768,0.0,0.12539521,0.2138712,0.6,0.13769594,0.09734387,-5.2713666,0.0,0.0,0.0
2552898708,-3.1213233,0.996117,2.9953554,-0.04424768,0.0,0.12680402,0.2138465,0.6,0.16496319,0.0150490645,-5.2043223,0.0,0.0,0.0
2552997890,-3.1213233,0.996117,2.9953554,-0.04424768,0.0,0.12684457,0.21157049,0.6,0.15781872,0.052218847,-5.2312303,0.0,0.0,0.0
2553101779,-3.255722,0.78118205,-0.6795386,-0.04517596,0.0,0.02299316,0.004647764,0.49443895,0.0,0.0,-5.399113,0.0,0.0,0.0
2553202003,-3.2574053,0.7903007,-0.6325822,-0.04517596,0.0,0.0014332384,0.0011891108,0.19378492,0.0,0.0,-5.8659134,0.0,0.0,0.0
2553301818,-3.2603807,0.8017766,-0.5937979,-0.04517596,0.0,0.0073663294,0.0113539435,-0.105669074,0.0,0.0,-6.238558,0.0,0.0,0.0
2553405739,-3.262358,0.81226224,-0.57505846,-0.04517596,0.0,0.005271052,0.016199974,-0.26584372,0.0,0.0,-6.135665,0.0,0.0,0.0
2553506261,-3.2623146,0.8208589,-0.5821868,-0.04517596,0.0,0.0034706965,0.008542776,-0.26584104,0.0,0.0,-5.768639,0.0,0.0,0.0
2553605725,-3.261627,0.82786715,-0.60066736,-0.04517596,0.0,0.0059318235,0.027271444,-0.26583993,0.0,0.0,-5.5264087,0.0,0.0,0.0
