timestamp,noutputs,output[0],output[1],output[2],output[3],output[4],output[5],output[6],output[7],output[8],output[9],output[10],output[11],output[12],output[13],output[14],output[15]
2508746161,8,1153.0,1160.0,1167.0,1170.0,1167.0,1159.0,1152.0,1150.0,0.0,0.0,0.0,0.0,0.0,0.0,0.0,0.0
2508858136,8,1452.0,1457.0,1467.0,1468.0,1467.0,1458.0,1453.0,1448.0,0.0,0.0,0.0,0.0,0.0,0.0,0.0,0.0
2508906254,8,1458.0,1464.0,1473.0,1475.0,1474.0,1465.0,1459.0,1454.0,0.0,0.0,0.0,0.0,0.0,0.0,0.0,0.0
2508950136,8,1463.0,1469.0,1478.0,1480.0,1479.0,1470.0,1463.0,1459.0,0.0,0.0,0.0,0.0,0.0,0.0,0.0,0.0
2508994160,8,1468.0,1476.0,1483.0,1486.0,1483.0,1475.0,1468.0,1465.0,0.0,0.0,0.0,0.0,0.0,0.0,0.0,0.0
2509038008,8,1477.0,1480.0,1490.0,1489.0,1489.0,1480.0,1477.0,1471.0,0.0,0.0,0.0,0.0,0.0,0.0,0.0,0.0
2509082268,8,1472.0,1493.0,1490.0,1506.0,1489.0,1493.0,1472.0,1481.0,0.0,0.0,0.0,0.0,0.0,0.0,0.0,0.0
2509130016,8,1502.0,1486.0,1514.0,1490.0,1508.0,1478.0,1496.0,1474.0,0.0,0.0,0.0,0.0,0.0,0.0,0.0,0.0
2509150169,8,1496.0,1485.0,1514.0,1498.0,1514.0,1485.0,1495.0,1472.0,0.0,0.0,0.0,0.0,0.0,0.0,0.0,0.0
2509195772,8,1482.0,1486.0,1508.0,1517.0,1525.0,1509.0,1498.0,1479.0,0.0,0.0,0.0,0.0,0.0,0.0,0.0,0.0
2509239752,8,1501.0,1521.0,1503.0,1518.0,1496.0,1511.0,1494.0,1514.0,0.0,0.0,0.0,0.0,0.0,0.0,0.0,0.0
2509279755,8,1514.0,1520.0,1540.0,1525.0,1521.0,1494.0,1496.0,1489.0,0.0,0.0,0.0,0.0,0.0,0.0,0.0,0.0
2509327699,8,1503.0,1515.0,1531.0,1535.0,1533.0,1517.0,1505.0,1497.0,0.0,0.0,0.0,0.0,0.0,0.0,0.0,0.0
2509376048,8,1526.0,1527.0,1536.0,1529.0,1528.0,1516.0,1518.0,1514.0,0.0,0.0,0.0,0.0,0.0,0.0,0.0,0.0
2509419710,8,1526.0,1535.0,1541.0,1540.0,1534.0,1524.0,1519.0,1519.0,0.0,0.0,0.0,0.0,0.0,0.0,0.0,0.0
2509463720,8,1525.0,1535.0,1542.0,1550.0,1545.0,1539.0,1528.0,1525.0,0.0,0.0,0.0,0.0,0.0,0.0,0.0,0.0
2509507848,8,1534.0,1542.0,1546.0,1551.0,1547.0,1543.0,1534.0,1533.0,0.0,0.0,0.0,0.0,0.0,0.0,0.0,0.0
2509531711,8,1540.0,1547.0,1554.0,1554.0,1550.0,1541.0,1536.0,1534.0,0.0,0.0,0.0,0.0,0.0,0.0,0.0,0.0
2509575760,8,1546.0,1556.0,1563.0,1563.0,1556.0,1545.0,1539.0,1539.0,0.0,0.0,0.0,0.0,0.0,0.0,0.0,0.0
2509619743,8,1549.0,1557.0,1571.0,1569.0,1566.0,1550.0,1544.0,1537.0,0.0,0.0,0.0,0.0,0.0,0.0,0.0,0.0
2509659904,8,1559.0,1565.0,1575.0,1571.0,1567.0,1555.0,1551.0,1549.0,0.0,0.0,0.0,0.0,0.0,0.0,0.0,0.0
2509699848,8,1577.0,1571.0,1564.0,1552.0,1551.0,1552.0,1563.0,1570.0,0.0,0.0,0.0,0.0,0.0,0.0,0.0,0.0
2509763730,8,1595.0,1588.0,1528.0,1526.0,1506.0,1558.0,1573.0,1620.0,0.0,0.0,0.0,0.0,0.0,0.0,0.0,0.0
2509807699,8,1623.0,1606.0,1510.0,1500.0,1474.0,1554.0,1587.0,1660.0,0.0,0.0,0.0,0.0,0.0,0.0,0.0,0.0
2509851744,8,1606.0,1582.0,1501.0,1490.0,1475.0,1545.0,1580.0,1638.0,0.0,0.0,0.0,0.0,0.0,0.0,0.0,0.0
2509876143,8,1591.0,1577.0,1505.0,1494.0,1474.0,1534.0,1561.0,1617.0,0.0,0.0,0.0,0.0,0.0,0.0,0.0,0.0
2509919858,8,1561.0,1551.0,1507.0,1498.0,1485.0,1520.0,1538.0,1574.0,0.0,0.0,0.0,0.0,0.0,0.0,0.0,0.0
2509963738,8,1560.0,1526.0,1503.0,1472.0,1484.0,1499.0,1541.0,1553.0,0.0,0.0,0.0,0.0,0.0,0.0,0.0,0.0
2510011721,8,1529.0,1486.0,1480.0,1453.0,1482.0,1489.0,1531.0,1522.0,0.0,0.0,0.0,0.0,0.0,0.0,0.0,0.0
2510051728,8,1498.0,1470.0,1481.0,1464.0,1489.0,1481.0,1505.0,1487.0,0.0,0.0,0.0,0.0,0.0,0.0,0.0,0.0
2510099766,8,1477.0,1452.0,1483.0,1467.0,1497.0,1473.0,1491.0,1458.0,0.0,0.0,0.0,0.0,0.0,0.0,0.0,0.0
2510147777,8,1468.0,1435.0,1483.0,1458.0,1502.0,1461.0,1487.0,1438.0,0.0,0.0,0.0,0.0,0.0,0.0,0.0,0.0
2510171748,8,1479.0,1447.0,1487.0,1454.0,1489.0,1450.0,1480.0,1442.0,0.0,0.0,0.0,0.0,0.0,0.0,0.0,0.0
2510211784,8,1484.0,1449.0,1482.0,1442.0,1473.0,1437.0,1475.0,1444.0,0.0,0.0,0.0,0.0,0.0,0.0,0.0,0.0
2510259752,8,1480.0,1442.0,1489.0,1443.0,1482.0,1432.0,1473.0,1430.0,0.0,0.0,0.0,0.0,0.0,0.0,0.0,0.0
2510303714,8,1477.0,1449.0,1500.0,1452.0,1481.0,1422.0,1458.0,1419.0,0.0,0.0,0.0,0.0,0.0,0.0,0.0,0.0
2510347746,8,1471.0,1440.0,1500.0,1452.0,1489.0,1424.0,1460.0,1411.0,0.0,0.0,0.0,0.0,0.0,0.0,0.0,0.0
2510391735,8,1475.0,1443.0,1502.0,1453.0,1489.0,1424.0,1462.0,1414.0,0.0,0.0,0.0,0.0,0.0,0.0,0.0,0.0
2510435710,8,1469.0,1448.0,1508.0,1462.0,1489.0,1422.0,1450.0,1408.0,0.0,0.0,0.0,0.0,0.0,0.0,0.0,0.0
2510479751,8,1465.0,1453.0,1515.0,1474.0,1494.0,1423.0,1444.0,1403.0,0.0,0.0,0.0,0.0,0.0,0.0,0.0,0.0
2510519654,8,1466.0,1450.0,1508.0,1466.0,1489.0,1424.0,1448.0,1407.0,0.0,0.0,0.0,0.0,0.0,0.0,0.0,0.0
2510567728,8,1466.0,1455.0,1511.0,1471.0,1489.0,1423.0,1444.0,1407.0,0.0,0.0,0.0,0.0,0.0,0.0,0.0,0.0
2510587623,8,1466.0,1456.0,1514.0,1473.0,1489.0,1421.0,1441.0,1405.0,0.0,0.0,0.0,0.0,0.0,0.0,0.0,0.0
2510651758,8,1467.0,1449.0,1510.0,1467.0,1492.0,1423.0,1448.0,1406.0,0.0,0.0,0.0,0.0,0.0,0.0,0.0,0.0
2510675711,8,1468.0,1452.0,1505.0,1464.0,1485.0,1424.0,1448.0,1412.0,0.0,0.0,0.0,0.0,0.0,0.0,0.0,0.0
2510719738,8,1467.0,1453.0,1506.0,1464.0,1483.0,1420.0,1443.0,1408.0,0.0,0.0,0.0,0.0,0.0,0.0,0.0,0.0
2510763756,8,1471.0,1456.0,1510.0,1464.0,1482.0,1417.0,1443.0,1409.0,0.0,0.0,0.0,0.0,0.0,0.0,0.0,0.0
2510812042,8,1470.0,1457.0,1509.0,1467.0,1484.0,1421.0,1445.0,1412.0,0.0,0.0,0.0,0.0,0.0,0.0,0.0,0.0
2510855637,8,1469.0,1453.0,1506.0,1463.0,1483.0,1420.0,1446.0,1410.0,0.0,0.0,0.0,0.0,0.0,0.0,0.0,0.0
2510899776,8,1476.0,1468.0,1518.0,1472.0,1482.0,1417.0,1440.0,1413.0,0.0,0.0,0.0,0.0,0.0,0.0,0.0,0.0
2510939821,8,1475.0,1463.0,1513.0,1467.0,1480.0,1416.0,1441.0,1413.0,0.0,0.0,0.0,0.0,0.0,0.0,0.0,0.0
2510983771,8,1478.0,1468.0,1519.0,1472.0,1484.0,1418.0,1443.0,1414.0,0.0,0.0,0.0,0.0,0.0,0.0,0.0,0.0
2511027922,8,1478.0,1469.0,1517.0,1471.0,1480.0,1417.0,1441.0,1416.0,0.0,0.0,0.0,0.0,0.0,0.0,0.0,0.0
2511071720,8,1479.0,1471.0,1516.0,1471.0,1479.0,1417.0,1441.0,1417.0,0.0,0.0,0.0,0.0,0.0,0.0,0.0,0.0
2511115732,8,1473.0,1467.0,1512.0,1472.0,1480.0,1420.0,1440.0,1416.0,0.0,0.0,0.0,0.0,0.0,0.0,0.0,0.0
2511139726,8,1473.0,1473.0,1519.0,1479.0,1482.0,1420.0,1435.0,1413.0,0.0,0.0,0.0,0.0,0.0,0.0,0.0,0.0
2511183927,8,1474.0,1469.0,1518.0,1479.0,1482.0,1423.0,1439.0,1418.0,0.0,0.0,0.0,0.0,0.0,0.0,0.0,0.0
2511227813,8,1477.0,1478.0,1524.0,1482.0,1482.0,1419.0,1436.0,1416.0,0.0,0.0,0.0,0.0,0.0,0.0,0.0,0.0
2511271735,8,1472.0,1468.0,1515.0,1475.0,1482.0,1422.0,1439.0,1414.0,0.0,0.0,0.0,0.0,0.0,0.0,0.0,0.0
2511316139,8,1469.0,1469.0,1515.0,1477.0,1481.0,1420.0,1435.0,1412.0,0.0,0.0,0.0,0.0,0.0,0.0,0.0,0.0
2511359786,8,1468.0,1468.0,1514.0,1479.0,1484.0,1424.0,1437.0,1413.0,0.0,0.0,0.0,0.0,0.0,0.0,0.0,0.0
2511403805,8,1466.0,1462.0,1506.0,1477.0,1482.0,1435.0,1444.0,1423.0,0.0,0.0,0.0,0.0,0.0,0.0,0.0,0.0
2511424145,8,1467.0,1464.0,1503.0,1479.0,1488.0,1442.0,1452.0,1427.0,0.0,0.0,0.0,0.0,0.0,0.0,0.0,0.0
2511467612,8,1464.0,1462.0,1502.0,1479.0,1493.0,1448.0,1458.0,1430.0,0.0,0.0,0.0,0.0,0.0,0.0,0.0,0.0
2511507780,8,1471.0,1465.0,1507.0,1483.0,1497.0,1450.0,1461.0,1432.0,0.0,0.0,0.0,0.0,0.0,0.0,0.0,0.0
2511555728,8,1480.0,1463.0,1512.0,1477.0,1500.0,1446.0,1468.0,1432.0,0.0,0.0,0.0,0.0,0.0,0.0,0.0,0.0
2511599834,8,1484.0,1472.0,1527.0,1486.0,1504.0,1440.0,1462.0,1426.0,0.0,0.0,0.0,0.0,0.0,0.0,0.0,0.0
2511643736,8,1487.0,1471.0,1532.0,1482.0,1503.0,1430.0,1458.0,1418.0,0.0,0.0,0.0,0.0,0.0,0.0,0.0,0.0
2511687729,8,1489.0,1471.0,1534.0,1476.0,1497.0,1417.0,1451.0,1412.0,0.0,0.0,0.0,0.0,0.0,0.0,0.0,0.0
2511731731,8,1491.0,1468.0,1535.0,1471.0,1493.0,1408.0,1446.0,1405.0,0.0,0.0,0.0,0.0,0.0,0.0,0.0,0.0
2511775896,8,1486.0,1463.0,1535.0,1469.0,1494.0,1405.0,1445.0,1400.0,0.0,0.0,0.0,0.0,0.0,0.0,0.0,0.0
2511819921,8,1483.0,1457.0,1530.0,1466.0,1497.0,1410.0,1450.0,1400.0,0.0,0.0,0.0,0.0,0.0,0.0,0.0,0.0
2511863765,8,1480.0,1454.0,1526.0,1464.0,1494.0,1408.0,1448.0,1399.0,0.0,0.0,0.0,0.0,0.0,0.0,0.0,0.0
2511887763,8,1480.0,1452.0,1523.0,1461.0,1493.0,1410.0,1450.0,1400.0,0.0,0.0,0.0,0.0,0.0,0.0,0.0,0.0
2511947828,8,1477.0,1451.0,1523.0,1464.0,1496.0,1412.0,1450.0,1399.0,0.0,0.0,0.0,0.0,0.0,0.0,0.0,0.0
2511971729,8,1474.0,1450.0,1519.0,1463.0,1492.0,1413.0,1448.0,1400.0,0.0,0.0,0.0,0.0,0.0,0.0,0.0,0.0
2512011784,8,1474.0,1448.0,1520.0,1463.0,1495.0,1413.0,1449.0,1398.0,0.0,0.0,0.0,0.0,0.0,0.0,0.0,0.0
2512055790,8,1471.0,1448.0,1514.0,1462.0,1491.0,1415.0,1448.0,1401.0,0.0,0.0,0.0,0.0,0.0,0.0,0.0,0.0
2512115815,8,1471.0,1451.0,1519.0,1468.0,1495.0,1418.0,1447.0,1401.0,0.0,0.0,0.0,0.0,0.0,0.0,0.0,0.0
2512135826,8,1468.0,1449.0,1509.0,1463.0,1487.0,1418.0,1446.0,1404.0,0.0,0.0,0.0,0.0,0.0,0.0,0.0,0.0
2512199816,8,1470.0,1448.0,1510.0,1467.0,1492.0,1421.0,1448.0,1405.0,0.0,0.0,0.0,0.0,0.0,0.0,0.0,0.0
2512243859,8,1469.0,1448.0,1509.0,1462.0,1488.0,1419.0,1449.0,1406.0,0.0,0.0,0.0,0.0,0.0,0.0,0.0,0.0
2512267703,8,1469.0,1449.0,1511.0,1463.0,1489.0,1419.0,1447.0,1404.0,0.0,0.0,0.0,0.0,0.0,0.0,0.0,0.0
2512311769,8,1472.0,1450.0,1514.0,1464.0,1493.0,1419.0,1450.0,1404.0,0.0,0.0,0.0,0.0,0.0,0.0,0.0,0.0
2512355733,8,1471.0,1452.0,1515.0,1467.0,1492.0,1419.0,1447.0,1404.0,0.0,0.0,0.0,0.0,0.0,0.0,0.0,0.0
2512395878,8,1472.0,1449.0,1516.0,1464.0,1493.0,1418.0,1450.0,1403.0,0.0,0.0,0.0,0.0,0.0,0.0,0.0,0.0
2512439764,8,1474.0,1452.0,1515.0,1462.0,1489.0,1414.0,1447.0,1404.0,0.0,0.0,0.0,0.0,0.0,0.0,0.0,0.0
2512483726,8,1472.0,1452.0,1517.0,1464.0,1489.0,1413.0,1444.0,1400.0,0.0,0.0,0.0,0.0,0.0,0.0,0.0,0.0
2512523747,8,1475.0,1456.0,1521.0,1468.0,1489.0,1410.0,1445.0,1402.0,0.0,0.0,0.0,0.0,0.0,0.0,0.0,0.0
2512567746,8,1477.0,1457.0,1519.0,1465.0,1489.0,1414.0,1446.0,1405.0,0.0,0.0,0.0,0.0,0.0,0.0,0.0,0.0
2512611900,8,1476.0,1458.0,1520.0,1467.0,1488.0,1412.0,1444.0,1404.0,0.0,0.0,0.0,0.0,0.0,0.0,0.0,0.0
2512657439,8,1477.0,1455.0,1518.0,1464.0,1489.0,1415.0,1448.0,1406.0,0.0,0.0,0.0,0.0,0.0,0.0,0.0,0.0
2512701394,8,1477.0,1457.0,1519.0,1466.0,1490.0,1416.0,1448.0,1407.0,0.0,0.0,0.0,0.0,0.0,0.0,0.0,0.0
2512741474,8,1476.0,1454.0,1520.0,1465.0,1492.0,1414.0,1447.0,1403.0,0.0,0.0,0.0,0.0,0.0,0.0,0.0,0.0
2512785406,8,1480.0,1459.0,1527.0,1470.0,1496.0,1414.0,1448.0,1402.0,0.0,0.0,0.0,0.0,0.0,0.0,0.0,0.0
2512833300,8,1475.0,1455.0,1520.0,1466.0,1492.0,1414.0,1446.0,1402.0,0.0,0.0,0.0,0.0,0.0,0.0,0.0,0.0
2512873333,8,1474.0,1453.0,1521.0,1468.0,1494.0,1415.0,1447.0,1401.0,0.0,0.0,0.0,0.0,0.0,0.0,0.0,0.0
2512917347,8,1476.0,1458.0,1527.0,1474.0,1499.0,1419.0,1448.0,1403.0,0.0,0.0,0.0,0.0,0.0,0.0,0.0,0.0
2512937735,8,1476.0,1459.0,1528.0,1474.0,1497.0,1415.0,1445.0,1400.0,0.0,0.0,0.0,0.0,0.0,0.0,0.0,0.0
2512981315,8,1476.0,1457.0,1531.0,1474.0,1500.0,1413.0,1446.0,1396.0,0.0,0.0,0.0,0.0,0.0,0.0,0.0,0.0
2513029309,8,1477.0,1458.0,1531.0,1471.0,1495.0,1408.0,1442.0,1395.0,0.0,0.0,0.0,0.0,0.0,0.0,0.0,0.0
2513073315,8,1478.0,1463.0,1535.0,1473.0,1493.0,1404.0,1437.0,1393.0,0.0,0.0,0.0,0.0,0.0,0.0,0.0,0.0
2513117649,8,1476.0,1464.0,1538.0,1479.0,1497.0,1407.0,1436.0,1392.0,0.0,0.0,0.0,0.0,0.0,0.0,0.0,0.0
2513161499,8,1475.0,1465.0,1538.0,1481.0,1498.0,1408.0,1435.0,1392.0,0.0,0.0,0.0,0.0,0.0,0.0,0.0,0.0
2513205237,8,1475.0,1460.0,1533.0,1475.0,1496.0,1409.0,1438.0,1393.0,0.0,0.0,0.0,0.0,0.0,0.0,0.0,0.0
2513253299,8,1468.0,1461.0,1541.0,1487.0,1505.0,1410.0,1432.0,1384.0,0.0,0.0,0.0,0.0,0.0,0.0,0.0,0.0
2513293315,8,1466.0,1457.0,1535.0,1479.0,1497.0,1404.0,1429.0,1382.0,0.0,0.0,0.0,0.0,0.0,0.0,0.0,0.0
2513337252,8,1463.0,1461.0,1540.0,1487.0,1500.0,1406.0,1424.0,1379.0,0.0,0.0,0.0,0.0,0.0,0.0,0.0,0.0
2513377311,8,1463.0,1465.0,1544.0,1495.0,1504.0,1409.0,1423.0,1379.0,0.0,0.0,0.0,0.0,0.0,0.0,0.0,0.0
2513401318,8,1456.0,1458.0,1540.0,1490.0,1502.0,1405.0,1419.0,1372.0,0.0,0.0,0.0,0.0,0.0,0.0,0.0,0.0
2513449317,8,1453.0,1451.0,1534.0,1484.0,1500.0,1403.0,1419.0,1370.0,0.0,0.0,0.0,0.0,0.0,0.0,0.0,0.0
2513497533,8,1455.0,1451.0,1533.0,1483.0,1501.0,1405.0,1423.0,1373.0,0.0,0.0,0.0,0.0,0.0,0.0,0.0,0.0
2513545304,8,1449.0,1451.0,1535.0,1490.0,1504.0,1407.0,1418.0,1368.0,0.0,0.0,0.0,0.0,0.0,0.0,0.0,0.0
2513589312,8,1449.0,1447.0,1532.0,1485.0,1503.0,1406.0,1421.0,1368.0,0.0,0.0,0.0,0.0,0.0,0.0,0.0,0.0
2513633300,8,1451.0,1450.0,1535.0,1489.0,1506.0,1409.0,1421.0,1370.0,0.0,0.0,0.0,0.0,0.0,0.0,0.0,0.0
2513657886,8,1450.0,1449.0,1533.0,1488.0,1505.0,1409.0,1422.0,1370.0,0.0,0.0,0.0,0.0,0.0,0.0,0.0,0.0
2513701309,8,1452.0,1446.0,1537.0,1487.0,1510.0,1408.0,1425.0,1367.0,0.0,0.0,0.0,0.0,0.0,0.0,0.0,0.0
2513741437,8,1447.0,1449.0,1531.0,1488.0,1502.0,1409.0,1419.0,1370.0,0.0,0.0,0.0,0.0,0.0,0.0,0.0,0.0
2513785377,8,1453.0,1446.0,1530.0,1482.0,1504.0,1409.0,1427.0,1374.0,0.0,0.0,0.0,0.0,0.0,0.0,0.0,0.0
2513833333,8,1454.0,1446.0,1528.0,1482.0,1505.0,1414.0,1431.0,1378.0,0.0,0.0,0.0,0.0,0.0,0.0,0.0,0.0
2513873647,8,1451.0,1441.0,1524.0,1477.0,1502.0,1409.0,1428.0,1373.0,0.0,0.0,0.0,0.0,0.0,0.0,0.0,0.0
2513917330,8,1450.0,1440.0,1519.0,1475.0,1499.0,1412.0,1430.0,1377.0,0.0,0.0,0.0,0.0,0.0,0.0,0.0,0.0
2513965220,8,1460.0,1452.0,1530.0,1484.0,1506.0,1417.0,1435.0,1385.0,0.0,0.0,0.0,0.0,0.0,0.0,0.0,0.0
2513989325,8,1455.0,1444.0,1525.0,1478.0,1504.0,1413.0,1433.0,1379.0,0.0,0.0,0.0,0.0,0.0,0.0,0.0,0.0
2514033407,8,1457.0,1449.0,1523.0,1479.0,1500.0,1416.0,1433.0,1385.0,0.0,0.0,0.0,0.0,0.0,0.0,0.0,0.0
2514077438,8,1461.0,1447.0,1522.0,1474.0,1500.0,1416.0,1439.0,1389.0,0.0,0.0,0.0,0.0,0.0,0.0,0.0,0.0
2514117364,8,1463.0,1454.0,1522.0,1477.0,1495.0,1417.0,1437.0,1394.0,0.0,0.0,0.0,0.0,0.0,0.0,0.0,0.0
2514161718,8,1466.0,1457.0,1525.0,1478.0,1495.0,1415.0,1436.0,1394.0,0.0,0.0,0.0,0.0,0.0,0.0,0.0,0.0
2514205371,8,1470.0,1465.0,1531.0,1484.0,1497.0,1417.0,1436.0,1398.0,0.0,0.0,0.0,0.0,0.0,0.0,0.0,0.0
2514249368,8,1464.0,1459.0,1518.0,1476.0,1487.0,1415.0,1433.0,1399.0,0.0,0.0,0.0,0.0,0.0,0.0,0.0,0.0
2514289324,8,1465.0,1464.0,1525.0,1484.0,1493.0,1419.0,1433.0,1399.0,0.0,0.0,0.0,0.0,0.0,0.0,0.0,0.0
2514337369,8,1465.0,1459.0,1519.0,1477.0,1491.0,1419.0,1437.0,1401.0,0.0,0.0,0.0,0.0,0.0,0.0,0.0,0.0
2514381327,8,1465.0,1455.0,1520.0,1475.0,1494.0,1419.0,1440.0,1398.0,0.0,0.0,0.0,0.0,0.0,0.0,0.0,0.0
2514405230,8,1466.0,1458.0,1523.0,1480.0,1498.0,1422.0,1441.0,1400.0,0.0,0.0,0.0,0.0,0.0,0.0,0.0,0.0
2514449538,8,1467.0,1460.0,1531.0,1484.0,1500.0,1417.0,1435.0,1392.0,0.0,0.0,0.0,0.0,0.0,0.0,0.0,0.0
2514493322,8,1469.0,1459.0,1538.0,1485.0,1505.0,1413.0,1436.0,1387.0,0.0,0.0,0.0,0.0,0.0,0.0,0.0,0.0
2514541444,8,1465.0,1459.0,1531.0,1484.0,1500.0,1415.0,1434.0,1390.0,0.0,0.0,0.0,0.0,0.0,0.0,0.0,0.0
2514589423,8,1460.0,1459.0,1539.0,1493.0,1508.0,1415.0,1429.0,1381.0,0.0,0.0,0.0,0.0,0.0,0.0,0.0,0.0
2514613375,8,1462.0,1458.0,1537.0,1489.0,1506.0,1414.0,1432.0,1383.0,0.0,0.0,0.0,0.0,0.0,0.0,0.0,0.0
2514661353,8,1462.0,1455.0,1539.0,1490.0,1512.0,1417.0,1435.0,1381.0,0.0,0.0,0.0,0.0,0.0,0.0,0.0,0.0
2514701658,8,1461.0,1452.0,1535.0,1487.0,1510.0,1418.0,1437.0,1383.0,0.0,0.0,0.0,0.0,0.0,0.0,0.0,0.0
2514745335,8,1461.0,1451.0,1538.0,1486.0,1512.0,1414.0,1436.0,1379.0,0.0,0.0,0.0,0.0,0.0,0.0,0.0,0.0
2514789328,8,1466.0,1453.0,1536.0,1482.0,1507.0,1412.0,1437.0,1383.0,0.0,0.0,0.0,0.0,0.0,0.0,0.0,0.0
2514837341,8,1462.0,1448.0,1530.0,1479.0,1504.0,1413.0,1437.0,1383.0,0.0,0.0,0.0,0.0,0.0,0.0,0.0,0.0
2514877332,8,1463.0,1451.0,1533.0,1482.0,1507.0,1414.0,1437.0,1383.0,0.0,0.0,0.0,0.0,0.0,0.0,0.0,0.0
2514921327,8,1460.0,1451.0,1528.0,1484.0,1508.0,1422.0,1440.0,1388.0,0.0,0.0,0.0,0.0,0.0,0.0,0.0,0.0
2514965368,8,1464.0,1452.0,1529.0,1483.0,1509.0,1424.0,1444.0,1392.0,0.0,0.0,0.0,0.0,0.0,0.0,0.0,0.0
2515009350,8,1465.0,1451.0,1526.0,1481.0,1508.0,1425.0,1446.0,1395.0,0.0,0.0,0.0,0.0,0.0,0.0,0.0,0.0
2515049439,8,1477.0,1461.0,1536.0,1482.0,1507.0,1421.0,1449.0,1400.0,0.0,0.0,0.0,0.0,0.0,0.0,0.0,0.0
2515093442,8,1471.0,1458.0,1534.0,1486.0,1511.0,1426.0,1448.0,1398.0,0.0,0.0,0.0,0.0,0.0,0.0,0.0,0.0
2515117380,8,1472.0,1453.0,1530.0,1482.0,1513.0,1429.0,1455.0,1400.0,0.0,0.0,0.0,0.0,0.0,0.0,0.0,0.0
2515165362,8,1475.0,1458.0,1536.0,1488.0,1518.0,1431.0,1456.0,1401.0,0.0,0.0,0.0,0.0,0.0,0.0,0.0,0.0
2515205724,8,1475.0,1453.0,1535.0,1484.0,1520.0,1432.0,1460.0,1400.0,0.0,0.0,0.0,0.0,0.0,0.0,0.0,0.0
2515253344,8,1476.0,1455.0,1540.0,1488.0,1523.0,1431.0,1460.0,1398.0,0.0,0.0,0.0,0.0,0.0,0.0,0.0,0.0
2515297326,8,1483.0,1457.0,1536.0,1482.0,1518.0,1432.0,1465.0,1407.0,0.0,0.0,0.0,0.0,0.0,0.0,0.0,0.0
2515345349,8,1478.0,1458.0,1531.0,1484.0,1516.0,1435.0,1462.0,1409.0,0.0,0.0,0.0,0.0,0.0,0.0,0.0,0.0
2515389394,8,1480.0,1460.0,1535.0,1489.0,1520.0,1440.0,1465.0,1411.0,0.0,0.0,0.0,0.0,0.0,0.0,0.0,0.0
2515433352,8,1474.0,1461.0,1534.0,1493.0,1520.0,1441.0,1460.0,1408.0,0.0,0.0,0.0,0.0,0.0,0.0,0.0,0.0
2515457533,8,1469.0,1461.0,1532.0,1497.0,1519.0,1443.0,1456.0,1408.0,0.0,0.0,0.0,0.0,0.0,0.0,0.0,0.0
2515501353,8,1465.0,1464.0,1532.0,1502.0,1518.0,1445.0,1451.0,1407.0,0.0,0.0,0.0,0.0,0.0,0.0,0.0,0.0
2515549376,8,1460.0,1467.0,1537.0,1512.0,1524.0,1449.0,1447.0,1404.0,0.0,0.0,0.0,0.0,0.0,0.0,0.0,0.0
2515597363,8,1458.0,1471.0,1534.0,1513.0,1518.0,1449.0,1442.0,1406.0,0.0,0.0,0.0,0.0,0.0,0.0,0.0,0.0
2515641317,8,1460.0,1468.0,1532.0,1508.0,1516.0,1445.0,1444.0,1405.0,0.0,0.0,0.0,0.0,0.0,0.0,0.0,0.0
2515681340,8,1458.0,1468.0,1535.0,1514.0,1522.0,1451.0,1446.0,1405.0,0.0,0.0,0.0,0.0,0.0,0.0,0.0,0.0
2515721381,8,1461.0,1465.0,1529.0,1505.0,1518.0,1449.0,1449.0,1409.0,0.0,0.0,0.0,0.0,0.0,0.0,0.0,0.0
2515765351,8,1465.0,1461.0,1525.0,1495.0,1513.0,1444.0,1453.0,1409.0,0.0,0.0,0.0,0.0,0.0,0.0,0.0,0.0
2515789328,8,1467.0,1461.0,1529.0,1496.0,1516.0,1442.0,1453.0,1407.0,0.0,0.0,0.0,0.0,0.0,0.0,0.0,0.0
2515833332,8,1476.0,1469.0,1533.0,1495.0,1513.0,1441.0,1457.0,1415.0,0.0,0.0,0.0,0.0,0.0,0.0,0.0,0.0
2515897333,8,1476.0,1463.0,1538.0,1495.0,1522.0,1440.0,1460.0,1408.0,0.0,0.0,0.0,0.0,0.0,0.0,0.0,0.0
2515921390,8,1478.0,1465.0,1535.0,1492.0,1516.0,1438.0,1459.0,1411.0,0.0,0.0,0.0,0.0,0.0,0.0,0.0,0.0
2515965355,8,1482.0,1467.0,1535.0,1490.0,1515.0,1438.0,1461.0,1415.0,0.0,0.0,0.0,0.0,0.0,0.0,0.0,0.0
2516013376,8,1483.0,1471.0,1536.0,1492.0,1513.0,1438.0,1460.0,1417.0,0.0,0.0,0.0,0.0,0.0,0.0,0.0,0.0
2516053373,8,1482.0,1464.0,1530.0,1487.0,1514.0,1442.0,1466.0,1419.0,0.0,0.0,0.0,0.0,0.0,0.0,0.0,0.0
2516094218,8,1485.0,1471.0,1535.0,1493.0,1517.0,1444.0,1466.0,1422.0,0.0,0.0,0.0,0.0,0.0,0.0,0.0,0.0
2516134943,8,1489.0,1476.0,1538.0,1495.0,1516.0,1445.0,1467.0,1426.0,0.0,0.0,0.0,0.0,0.0,0.0,0.0,0.0
2516175250,8,1489.0,1473.0,1531.0,1489.0,1512.0,1446.0,1470.0,1429.0,0.0,0.0,0.0,0.0,0.0,0.0,0.0,0.0
2516222998,8,1486.0,1482.0,1538.0,1503.0,1516.0,1451.0,1464.0,1430.0,0.0,0.0,0.0,0.0,0.0,0.0,0.0,0.0
2516263043,8,1482.0,1482.0,1536.0,1505.0,1514.0,1452.0,1460.0,1429.0,0.0,0.0,0.0,0.0,0.0,0.0,0.0,0.0
2516306979,8,1474.0,1487.0,1540.0,1518.0,1517.0,1455.0,1451.0,1425.0,0.0,0.0,0.0,0.0,0.0,0.0,0.0,0.0
2516355279,8,1478.0,1491.0,1538.0,1510.0,1504.0,1443.0,1444.0,1424.0,0.0,0.0,0.0,0.0,0.0,0.0,0.0,0.0
2516379049,8,1477.0,1495.0,1543.0,1517.0,1507.0,1445.0,1441.0,1423.0,0.0,0.0,0.0,0.0,0.0,0.0,0.0,0.0
2516427099,8,1463.0,1490.0,1540.0,1524.0,1511.0,1448.0,1434.0,1415.0,0.0,0.0,0.0,0.0,0.0,0.0,0.0,0.0
2516474899,8,1464.0,1489.0,1536.0,1515.0,1501.0,1439.0,1429.0,1413.0,0.0,0.0,0.0,0.0,0.0,0.0,0.0,0.0
2516499118,8,1462.0,1490.0,1535.0,1514.0,1496.0,1436.0,1424.0,1412.0,0.0,0.0,0.0,0.0,0.0,0.0,0.0,0.0
2516547046,8,1455.0,1479.0,1531.0,1515.0,1505.0,1443.0,1429.0,1407.0,0.0,0.0,0.0,0.0,0.0,0.0,0.0,0.0
2516590906,8,1453.0,1475.0,1531.0,1516.0,1511.0,1446.0,1432.0,1405.0,0.0,0.0,0.0,0.0,0.0,0.0,0.0,0.0
2516631048,8,1455.0,1475.0,1529.0,1508.0,1502.0,1437.0,1428.0,1403.0,0.0,0.0,0.0,0.0,0.0,0.0,0.0,0.0
2516674904,8,1451.0,1468.0,1528.0,1507.0,1506.0,1437.0,1433.0,1400.0,0.0,0.0,0.0,0.0,0.0,0.0,0.0,0.0
2516715391,8,1451.0,1462.0,1523.0,1498.0,1502.0,1433.0,1430.0,1397.0,0.0,0.0,0.0,0.0,0.0,0.0,0.0,0.0
2516762983,8,1454.0,1462.0,1524.0,1495.0,1502.0,1430.0,1432.0,1396.0,0.0,0.0,0.0,0.0,0.0,0.0,0.0,0.0
2516802988,8,1457.0,1458.0,1522.0,1488.0,1499.0,1424.0,1433.0,1395.0,0.0,0.0,0.0,0.0,0.0,0.0,0.0,0.0
2516847015,8,1462.0,1468.0,1535.0,1499.0,1505.0,1426.0,1432.0,1395.0,0.0,0.0,0.0,0.0,0.0,0.0,0.0,0.0
2516895276,8,1460.0,1465.0,1535.0,1494.0,1501.0,1417.0,1426.0,1388.0,0.0,0.0,0.0,0.0,0.0,0.0,0.0,0.0
2516942969,8,1459.0,1463.0,1535.0,1495.0,1505.0,1421.0,1430.0,1388.0,0.0,0.0,0.0,0.0,0.0,0.0,0.0,0.0
2516967270,8,1459.0,1467.0,1543.0,1504.0,1512.0,1423.0,1428.0,1386.0,0.0,0.0,0.0,0.0,0.0,0.0,0.0,0.0
2517010906,8,1460.0,1458.0,1543.0,1497.0,1515.0,1418.0,1431.0,1379.0,0.0,0.0,0.0,0.0,0.0,0.0,0.0,0.0
2517054970,8,1466.0,1463.0,1537.0,1487.0,1501.0,1410.0,1429.0,1386.0,0.0,0.0,0.0,0.0,0.0,0.0,0.0,0.0
2517099032,8,1471.0,1462.0,1542.0,1486.0,1505.0,1406.0,1431.0,1381.0,0.0,0.0,0.0,0.0,0.0,0.0,0.0,0.0
2517139038,8,1472.0,1461.0,1539.0,1480.0,1499.0,1404.0,1431.0,1384.0,0.0,0.0,0.0,0.0,0.0,0.0,0.0,0.0
2517187016,8,1472.0,1465.0,1538.0,1482.0,1496.0,1406.0,1430.0,1389.0,0.0,0.0,0.0,0.0,0.0,0.0,0.0,0.0
2517230944,8,1471.0,1467.0,1534.0,1483.0,1493.0,1409.0,1430.0,1393.0,0.0,0.0,0.0,0.0,0.0,0.0,0.0,0.0
2517278957,8,1467.0,1459.0,1526.0,1471.0,1483.0,1399.0,1425.0,1388.0,0.0,0.0,0.0,0.0,0.0,0.0,0.0,0.0
2517303007,8,1467.0,1463.0,1533.0,1480.0,1492.0,1405.0,1426.0,1388.0,0.0,0.0,0.0,0.0,0.0,0.0,0.0,0.0
2517346924,8,1463.0,1466.0,1539.0,1488.0,1495.0,1404.0,1419.0,1382.0,0.0,0.0,0.0,0.0,0.0,0.0,0.0,0.0
2517391011,8,1468.0,1464.0,1542.0,1483.0,1495.0,1398.0,1423.0,1380.0,0.0,0.0,0.0,0.0,0.0,0.0,0.0,0.0
2517435316,8,1466.0,1464.0,1541.0,1485.0,1496.0,1399.0,1420.0,1378.0,0.0,0.0,0.0,0.0,0.0,0.0,0.0,0.0
2517483040,8,1472.0,1469.0,1547.0,1483.0,1492.0,1392.0,1417.0,1377.0,0.0,0.0,0.0,0.0,0.0,0.0,0.0,0.0
2517507133,8,1474.0,1462.0,1542.0,1475.0,1491.0,1390.0,1423.0,1378.0,0.0,0.0,0.0,0.0,0.0,0.0,0.0,0.0
2517555036,8,1476.0,1464.0,1538.0,1473.0,1489.0,1394.0,1427.0,1385.0,0.0,0.0,0.0,0.0,0.0,0.0,0.0,0.0
2517603032,8,1476.0,1454.0,1528.0,1470.0,1498.0,1411.0,1445.0,1396.0,0.0,0.0,0.0,0.0,0.0,0.0,0.0,0.0
2517651270,8,1478.0,1450.0,1521.0,1463.0,1496.0,1415.0,1452.0,1402.0,0.0,0.0,0.0,0.0,0.0,0.0,0.0,0.0
2517698926,8,1483.0,1454.0,1529.0,1468.0,1503.0,1417.0,1456.0,1403.0,0.0,0.0,0.0,0.0,0.0,0.0,0.0,0.0
2517743015,8,1480.0,1450.0,1531.0,1470.0,1508.0,1417.0,1457.0,1398.0,0.0,0.0,0.0,0.0,0.0,0.0,0.0,0.0
2517766947,8,1483.0,1454.0,1537.0,1475.0,1512.0,1420.0,1458.0,1399.0,0.0,0.0,0.0,0.0,0.0,0.0,0.0,0.0
2517806940,8,1487.0,1461.0,1541.0,1478.0,1511.0,1420.0,1458.0,1403.0,0.0,0.0,0.0,0.0,0.0,0.0,0.0,0.0
2517854949,8,1493.0,1470.0,1548.0,1482.0,1510.0,1417.0,1455.0,1404.0,0.0,0.0,0.0,0.0,0.0,0.0,0.0,0.0
2517903292,8,1492.0,1468.0,1546.0,1480.0,1509.0,1416.0,1455.0,1404.0,0.0,0.0,0.0,0.0,0.0,0.0,0.0,0.0
2517946990,8,1491.0,1468.0,1543.0,1479.0,1507.0,1417.0,1455.0,1406.0,0.0,0.0,0.0,0.0,0.0,0.0,0.0,0.0
2517987033,8,1495.0,1470.0,1548.0,1479.0,1508.0,1414.0,1455.0,1405.0,0.0,0.0,0.0,0.0,0.0,0.0,0.0,0.0
2518011111,8,1498.0,1472.0,1548.0,1478.0,1506.0,1413.0,1456.0,1408.0,0.0,0.0,0.0,0.0,0.0,0.0,0.0,0.0
2518078985,8,1496.0,1469.0,1548.0,1478.0,1508.0,1413.0,1456.0,1404.0,0.0,0.0,0.0,0.0,0.0,0.0,0.0,0.0
2518102935,8,1499.0,1470.0,1550.0,1479.0,1511.0,1414.0,1459.0,1406.0,0.0,0.0,0.0,0.0,0.0,0.0,0.0,0.0
2518146986,8,1498.0,1468.0,1547.0,1473.0,1506.0,1409.0,1456.0,1404.0,0.0,0.0,0.0,0.0,0.0,0.0,0.0,0.0
2518191330,8,1498.0,1469.0,1549.0,1475.0,1506.0,1409.0,1455.0,1403.0,0.0,0.0,0.0,0.0,0.0,0.0,0.0,0.0
2518238932,8,1495.0,1470.0,1550.0,1480.0,1510.0,1409.0,1458.0,1401.0,0.0,0.0,0.0,0.0,0.0,0.0,0.0,0.0
2518263135,8,1493.0,1464.0,1550.0,1479.0,1513.0,1413.0,1456.0,1398.0,0.0,0.0,0.0,0.0,0.0,0.0,0.0,0.0
2518306924,8,1494.0,1459.0,1544.0,1470.0,1508.0,1409.0,1458.0,1399.0,0.0,0.0,0.0,0.0,0.0,0.0,0.0,0.0
2518350970,8,1493.0,1459.0,1544.0,1472.0,1512.0,1413.0,1461.0,1400.0,0.0,0.0,0.0,0.0,0.0,0.0,0.0,0.0
2518394960,8,1490.0,1456.0,1541.0,1472.0,1513.0,1415.0,1462.0,1400.0,0.0,0.0,0.0,0.0,0.0,0.0,0.0,0.0
2518438930,8,1489.0,1455.0,1538.0,1467.0,1507.0,1411.0,1458.0,1398.0,0.0,0.0,0.0,0.0,0.0,0.0,0.0,0.0
2518483004,8,1485.0,1455.0,1538.0,1471.0,1509.0,1412.0,1455.0,1396.0,0.0,0.0,0.0,0.0,0.0,0.0,0.0,0.0
2518526973,8,1487.0,1456.0,1542.0,1473.0,1510.0,1412.0,1456.0,1396.0,0.0,0.0,0.0,0.0,0.0,0.0,0.0,0.0
2518574901,8,1486.0,1459.0,1543.0,1477.0,1511.0,1413.0,1453.0,1396.0,0.0,0.0,0.0,0.0,0.0,0.0,0.0,0.0
2518598929,8,1491.0,1460.0,1546.0,1474.0,1510.0,1409.0,1455.0,1396.0,0.0,0.0,0.0,0.0,0.0,0.0,0.0,0.0
2518642925,8,1490.0,1463.0,1545.0,1474.0,1506.0,1408.0,1451.0,1397.0,0.0,0.0,0.0,0.0,0.0,0.0,0.0,0.0
2518686975,8,1485.0,1457.0,1538.0,1471.0,1505.0,1410.0,1452.0,1396.0,0.0,0.0,0.0,0.0,0.0,0.0,0.0,0.0
2518734974,8,1483.0,1458.0,1537.0,1473.0,1504.0,1412.0,1451.0,1397.0,0.0,0.0,0.0,0.0,0.0,0.0,0.0,0.0
2518774947,8,1483.0,1458.0,1539.0,1475.0,1507.0,1413.0,1451.0,1396.0,0.0,0.0,0.0,0.0,0.0,0.0,0.0,0.0
2518822822,8,1482.0,1458.0,1541.0,1476.0,1508.0,1412.0,1450.0,1393.0,0.0,0.0,0.0,0.0,0.0,0.0,0.0,0.0
2518846979,8,1482.0,1460.0,1540.0,1478.0,1507.0,1414.0,1449.0,1396.0,0.0,0.0,0.0,0.0,0.0,0.0,0.0,0.0
2518894945,8,1484.0,1461.0,1541.0,1478.0,1508.0,1415.0,1451.0,1398.0,0.0,0.0,0.0,0.0,0.0,0.0,0.0,0.0
2518939022,8,1481.0,1460.0,1533.0,1474.0,1501.0,1414.0,1449.0,1400.0,0.0,0.0,0.0,0.0,0.0,0.0,0.0,0.0
2518983296,8,1484.0,1461.0,1537.0,1475.0,1503.0,1413.0,1449.0,1400.0,0.0,0.0,0.0,0.0,0.0,0.0,0.0,0.0
2519030964,8,1481.0,1461.0,1538.0,1478.0,1504.0,1414.0,1448.0,1398.0,0.0,0.0,0.0,0.0,0.0,0.0,0.0,0.0
2519074948,8,1483.0,1461.0,1539.0,1478.0,1507.0,1416.0,1451.0,1399.0,0.0,0.0,0.0,0.0,0.0,0.0,0.0,0.0
2519115013,8,1481.0,1461.0,1540.0,1479.0,1506.0,1413.0,1447.0,1396.0,0.0,0.0,0.0,0.0,0.0,0.0,0.0,0.0
2519158824,8,1484.0,1463.0,1541.0,1478.0,1504.0,1411.0,1447.0,1397.0,0.0,0.0,0.0,0.0,0.0,0.0,0.0,0.0
2519183034,8,1483.0,1458.0,1537.0,1473.0,1504.0,1411.0,1450.0,1396.0,0.0,0.0,0.0,0.0,0.0,0.0,0.0,0.0
2519226939,8,1481.0,1461.0,1536.0,1476.0,1503.0,1413.0,1447.0,1398.0,0.0,0.0,0.0,0.0,0.0,0.0,0.0,0.0
2519271238,8,1484.0,1459.0,1536.0,1473.0,1503.0,1412.0,1451.0,1399.0,0.0,0.0,0.0,0.0,0.0,0.0,0.0,0.0
2519318928,8,1487.0,1458.0,1530.0,1465.0,1498.0,1411.0,1454.0,1404.0,0.0,0.0,0.0,0.0,0.0,0.0,0.0,0.0
2519362954,8,1485.0,1460.0,1535.0,1471.0,1502.0,1413.0,1452.0,1401.0,0.0,0.0,0.0,0.0,0.0,0.0,0.0,0.0
2519406936,8,1484.0,1458.0,1532.0,1469.0,1500.0,1412.0,1451.0,1401.0,0.0,0.0,0.0,0.0,0.0,0.0,0.0,0.0
2519447046,8,1484.0,1455.0,1532.0,1467.0,1501.0,1411.0,1453.0,1399.0,0.0,0.0,0.0,0.0,0.0,0.0,0.0,0.0
2519494971,8,1482.0,1458.0,1534.0,1471.0,1501.0,1411.0,1449.0,1397.0,0.0,0.0,0.0,0.0,0.0,0.0,0.0,0.0
2519518990,8,1482.0,1458.0,1533.0,1469.0,1499.0,1410.0,1448.0,1398.0,0.0,0.0,0.0,0.0,0.0,0.0,0.0,0.0
2519564731,8,1487.0,1455.0,1535.0,1467.0,1503.0,1411.0,1452.0,1397.0,0.0,0.0,0.0,0.0,0.0,0.0,0.0,0.0
2519608596,8,1486.0,1456.0,1534.0,1468.0,1503.0,1412.0,1455.0,1400.0,0.0,0.0,0.0,0.0,0.0,0.0,0.0,0.0
2519656568,8,1488.0,1456.0,1536.0,1466.0,1502.0,1408.0,1454.0,1398.0,0.0,0.0,0.0,0.0,0.0,0.0,0.0,0.0
2519700580,8,1490.0,1455.0,1534.0,1463.0,1501.0,1408.0,1457.0,1400.0,0.0,0.0,0.0,0.0,0.0,0.0,0.0,0.0
2519744592,8,1487.0,1455.0,1534.0,1465.0,1501.0,1408.0,1454.0,1398.0,0.0,0.0,0.0,0.0,0.0,0.0,0.0,0.0
2519788551,8,1490.0,1457.0,1536.0,1465.0,1501.0,1407.0,1455.0,1399.0,0.0,0.0,0.0,0.0,0.0,0.0,0.0,0.0
2519812689,8,1488.0,1456.0,1533.0,1464.0,1500.0,1409.0,1455.0,1401.0,0.0,0.0,0.0,0.0,0.0,0.0,0.0,0.0
2519860560,8,1485.0,1452.0,1528.0,1463.0,1500.0,1413.0,1458.0,1403.0,0.0,0.0,0.0,0.0,0.0,0.0,0.0,0.0
2519908601,8,1485.0,1449.0,1522.0,1457.0,1496.0,1413.0,1459.0,1405.0,0.0,0.0,0.0,0.0,0.0,0.0,0.0,0.0
2519952590,8,1484.0,1456.0,1528.0,1468.0,1500.0,1416.0,1455.0,1405.0,0.0,0.0,0.0,0.0,0.0,0.0,0.0,0.0
2519996543,8,1482.0,1455.0,1529.0,1470.0,1502.0,1419.0,1460.0,1402.0,0.0,0.0,0.0,0.0,0.0,0.0,0.0,0.0
2520040538,8,1486.0,1460.0,1536.0,1474.0,1506.0,1418.0,1456.0,1404.0,0.0,0.0,0.0,0.0,0.0,0.0,0.0,0.0
2520064918,8,1485.0,1457.0,1534.0,1472.0,1506.0,1418.0,1457.0,1402.0,0.0,0.0,0.0,0.0,0.0,0.0,0.0,0.0
2520112548,8,1486.0,1457.0,1536.0,1472.0,1508.0,1417.0,1458.0,1402.0,0.0,0.0,0.0,0.0,0.0,0.0,0.0,0.0
2520156502,8,1483.0,1461.0,1541.0,1480.0,1510.0,1417.0,1452.0,1398.0,0.0,0.0,0.0,0.0,0.0,0.0,0.0,0.0
2520204523,8,1479.0,1456.0,1543.0,1480.0,1514.0,1414.0,1449.0,1389.0,0.0,0.0,0.0,0.0,0.0,0.0,0.0,0.0
2520252585,8,1479.0,1455.0,1544.0,1480.0,1514.0,1412.0,1449.0,1387.0,0.0,0.0,0.0,0.0,0.0,0.0,0.0,0.0
2520276507,8,1480.0,1456.0,1548.0,1483.0,1518.0,1414.0,1450.0,1387.0,0.0,0.0,0.0,0.0,0.0,0.0,0.0,0.0
2520320548,8,1484.0,1450.0,1543.0,1472.0,1514.0,1409.0,1455.0,1388.0,0.0,0.0,0.0,0.0,0.0,0.0,0.0,0.0
2520364521,8,1489.0,1458.0,1545.0,1471.0,1508.0,1406.0,1452.0,1392.0,0.0,0.0,0.0,0.0,0.0,0.0,0.0,0.0
2520404561,8,1490.0,1456.0,1546.0,1471.0,1511.0,1407.0,1455.0,1392.0,0.0,0.0,0.0,0.0,0.0,0.0,0.0,0.0
2520444624,8,1490.0,1456.0,1547.0,1470.0,1510.0,1404.0,1454.0,1391.0,0.0,0.0,0.0,0.0,0.0,0.0,0.0,0.0
2520488700,8,1491.0,1458.0,1547.0,1472.0,1511.0,1406.0,1455.0,1392.0,0.0,0.0,0.0,0.0,0.0,0.0,0.0,0.0
2520532919,8,1492.0,1455.0,1542.0,1466.0,1507.0,1405.0,1457.0,1395.0,0.0,0.0,0.0,0.0,0.0,0.0,0.0,0.0
2520576512,8,1491.0,1453.0,1543.0,1468.0,1513.0,1410.0,1461.0,1394.0,0.0,0.0,0.0,0.0,0.0,0.0,0.0,0.0
2520616572,8,1493.0,1451.0,1540.0,1461.0,1507.0,1404.0,1460.0,1395.0,0.0,0.0,0.0,0.0,0.0,0.0,0.0,0.0
2520660590,8,1496.0,1455.0,1542.0,1462.0,1506.0,1404.0,1460.0,1397.0,0.0,0.0,0.0,0.0,0.0,0.0,0.0,0.0
2520700506,8,1496.0,1452.0,1540.0,1460.0,1508.0,1408.0,1465.0,1399.0,0.0,0.0,0.0,0.0,0.0,0.0,0.0,0.0
2520748924,8,1491.0,1456.0,1543.0,1473.0,1516.0,1417.0,1464.0,1400.0,0.0,0.0,0.0,0.0,0.0,0.0,0.0,0.0
2520792611,8,1497.0,1471.0,1556.0,1491.0,1526.0,1428.0,1467.0,1408.0,0.0,0.0,0.0,0.0,0.0,0.0,0.0,0.0
2520836528,8,1516.0,1486.0,1561.0,1499.0,1535.0,1450.0,1490.0,1437.0,0.0,0.0,0.0,0.0,0.0,0.0,0.0,0.0
2520880536,8,1530.0,1501.0,1569.0,1509.0,1540.0,1461.0,1501.0,1454.0,0.0,0.0,0.0,0.0,0.0,0.0,0.0,0.0
2520920664,8,1538.0,1514.0,1577.0,1524.0,1552.0,1478.0,1512.0,1469.0,0.0,0.0,0.0,0.0,0.0,0.0,0.0,0.0
2520964965,8,1548.0,1525.0,1585.0,1533.0,1558.0,1487.0,1520.0,1479.0,0.0,0.0,0.0,0.0,0.0,0.0,0.0,0.0
2521008539,8,1546.0,1528.0,1586.0,1538.0,1561.0,1492.0,1521.0,1482.0,0.0,0.0,0.0,0.0,0.0,0.0,0.0,0.0
2521032573,8,1547.0,1530.0,1589.0,1543.0,1566.0,1498.0,1525.0,1484.0,0.0,0.0,0.0,0.0,0.0,0.0,0.0,0.0
2521076535,8,1549.0,1537.0,1601.0,1558.0,1578.0,1506.0,1526.0,1485.0,0.0,0.0,0.0,0.0,0.0,0.0,0.0,0.0
2521120606,8,1551.0,1539.0,1600.0,1559.0,1579.0,1509.0,1530.0,1489.0,0.0,0.0,0.0,0.0,0.0,0.0,0.0,0.0
2521164567,8,1554.0,1541.0,1606.0,1563.0,1585.0,1511.0,1533.0,1489.0,0.0,0.0,0.0,0.0,0.0,0.0,0.0,0.0
2521208573,8,1541.0,1528.0,1593.0,1549.0,1570.0,1496.0,1518.0,1475.0,0.0,0.0,0.0,0.0,0.0,0.0,0.0,0.0
2521253021,8,1529.0,1515.0,1577.0,1536.0,1558.0,1488.0,1510.0,1467.0,0.0,0.0,0.0,0.0,0.0,0.0,0.0,0.0
2521300546,8,1518.0,1508.0,1569.0,1527.0,1545.0,1474.0,1494.0,1455.0,0.0,0.0,0.0,0.0,0.0,0.0,0.0,0.0
2521324970,8,1514.0,1501.0,1564.0,1519.0,1540.0,1468.0,1490.0,1450.0,0.0,0.0,0.0,0.0,0.0,0.0,0.0,0.0
2521368657,8,1504.0,1495.0,1553.0,1514.0,1532.0,1464.0,1482.0,1444.0,0.0,0.0,0.0,0.0,0.0,0.0,0.0,0.0
2521412806,8,1498.0,1488.0,1546.0,1506.0,1524.0,1456.0,1475.0,1438.0,0.0,0.0,0.0,0.0,0.0,0.0,0.0,0.0
2521452669,8,1492.0,1488.0,1545.0,1510.0,1524.0,1458.0,1470.0,1435.0,0.0,0.0,0.0,0.0,0.0,0.0,0.0,0.0
2521496531,8,1487.0,1484.0,1537.0,1502.0,1516.0,1453.0,1469.0,1436.0,0.0,0.0,0.0,0.0,0.0,0.0,0.0,0.0
2521544666,8,1480.0,1480.0,1533.0,1507.0,1519.0,1459.0,1465.0,1431.0,0.0,0.0,0.0,0.0,0.0,0.0,0.0,0.0
2521588618,8,1479.0,1478.0,1529.0,1504.0,1516.0,1460.0,1466.0,1433.0,0.0,0.0,0.0,0.0,0.0,0.0,0.0,0.0
2521636534,8,1476.0,1476.0,1524.0,1502.0,1512.0,1459.0,1464.0,1434.0,0.0,0.0,0.0,0.0,0.0,0.0,0.0,0.0
2521680526,8,1474.0,1476.0,1523.0,1499.0,1507.0,1453.0,1458.0,1430.0,0.0,0.0,0.0,0.0,0.0,0.0,0.0,0.0
2521704699,8,1472.0,1475.0,1523.0,1500.0,1508.0,1453.0,1457.0,1428.0,0.0,0.0,0.0,0.0,0.0,0.0,0.0,0.0
2521752600,8,1469.0,1471.0,1521.0,1498.0,1508.0,1452.0,1456.0,1424.0,0.0,0.0,0.0,0.0,0.0,0.0,0.0,0.0
2521796527,8,1472.0,1474.0,1526.0,1499.0,1507.0,1448.0,1454.0,1423.0,0.0,0.0,0.0,0.0,0.0,0.0,0.0,0.0
2521840552,8,1471.0,1469.0,1523.0,1494.0,1506.0,1444.0,1453.0,1419.0,0.0,0.0,0.0,0.0,0.0,0.0,0.0,0.0
2521888544,8,1471.0,1467.0,1525.0,1493.0,1508.0,1443.0,1454.0,1417.0,0.0,0.0,0.0,0.0,0.0,0.0,0.0,0.0
2521928587,8,1476.0,1472.0,1532.0,1497.0,1511.0,1443.0,1456.0,1419.0,0.0,0.0,0.0,0.0,0.0,0.0,0.0,0.0
2521972679,8,1476.0,1470.0,1532.0,1493.0,1508.0,1437.0,1453.0,1414.0,0.0,0.0,0.0,0.0,0.0,0.0,0.0,0.0
2522016604,8,1479.0,1468.0,1534.0,1491.0,1511.0,1435.0,1455.0,1412.0,0.0,0.0,0.0,0.0,0.0,0.0,0.0,0.0
2522040528,8,1482.0,1468.0,1536.0,1488.0,1511.0,1432.0,1457.0,1412.0,0.0,0.0,0.0,0.0,0.0,0.0,0.0,0.0
2522088605,8,1482.0,1460.0,1534.0,1479.0,1508.0,1424.0,1457.0,1406.0,0.0,0.0,0.0,0.0,0.0,0.0,0.0,0.0
2522132657,8,1485.0,1460.0,1539.0,1479.0,1512.0,1422.0,1458.0,1403.0,0.0,0.0,0.0,0.0,0.0,0.0,0.0,0.0
2522176558,8,1490.0,1458.0,1542.0,1474.0,1512.0,1417.0,1461.0,1401.0,0.0,0.0,0.0,0.0,0.0,0.0,0.0,0.0
2522220547,8,1495.0,1457.0,1544.0,1472.0,1516.0,1417.0,1466.0,1402.0,0.0,0.0,0.0,0.0,0.0,0.0,0.0,0.0
2522264602,8,1497.0,1458.0,1547.0,1471.0,1514.0,1412.0,1464.0,1399.0,0.0,0.0,0.0,0.0,0.0,0.0,0.0,0.0
2522308536,8,1500.0,1464.0,1552.0,1473.0,1513.0,1409.0,1461.0,1400.0,0.0,0.0,0.0,0.0,0.0,0.0,0.0,0.0
2522352569,8,1502.0,1466.0,1552.0,1471.0,1510.0,1406.0,1460.0,1401.0,0.0,0.0,0.0,0.0,0.0,0.0,0.0,0.0
2522376534,8,1500.0,1463.0,1550.0,1470.0,1509.0,1405.0,1459.0,1399.0,0.0,0.0,0.0,0.0,0.0,0.0,0.0,0.0
2522420526,8,1498.0,1465.0,1542.0,1468.0,1501.0,1408.0,1458.0,1406.0,0.0,0.0,0.0,0.0,0.0,0.0,0.0,0.0
2522460561,8,1494.0,1460.0,1537.0,1466.0,1503.0,1412.0,1460.0,1406.0,0.0,0.0,0.0,0.0,0.0,0.0,0.0,0.0
2522504728,8,1491.0,1464.0,1536.0,1472.0,1502.0,1416.0,1457.0,1408.0,0.0,0.0,0.0,0.0,0.0,0.0,0.0,0.0
2522548955,8,1485.0,1461.0,1529.0,1473.0,1502.0,1423.0,1458.0,1411.0,0.0,0.0,0.0,0.0,0.0,0.0,0.0,0.0
2522592580,8,1482.0,1460.0,1531.0,1475.0,1503.0,1422.0,1455.0,1407.0,0.0,0.0,0.0,0.0,0.0,0.0,0.0,0.0
2522640546,8,1482.0,1463.0,1531.0,1478.0,1503.0,1423.0,1454.0,1408.0,0.0,0.0,0.0,0.0,0.0,0.0,0.0,0.0
2522664533,8,1482.0,1465.0,1534.0,1480.0,1503.0,1422.0,1452.0,1407.0,0.0,0.0,0.0,0.0,0.0,0.0,0.0,0.0
2522712566,8,1474.0,1463.0,1529.0,1485.0,1505.0,1430.0,1450.0,1408.0,0.0,0.0,0.0,0.0,0.0,0.0,0.0,0.0
2522760574,8,1477.0,1466.0,1531.0,1486.0,1505.0,1430.0,1452.0,1411.0,0.0,0.0,0.0,0.0,0.0,0.0,0.0,0.0
2522804647,8,1477.0,1467.0,1525.0,1482.0,1499.0,1430.0,1451.0,1414.0,0.0,0.0,0.0,0.0,0.0,0.0,0.0,0.0
2522848526,8,1474.0,1469.0,1530.0,1490.0,1504.0,1432.0,1448.0,1410.0,0.0,0.0,0.0,0.0,0.0,0.0,0.0,0.0
2522892549,8,1472.0,1469.0,1529.0,1490.0,1502.0,1432.0,1446.0,1411.0,0.0,0.0,0.0,0.0,0.0,0.0,0.0,0.0
2522936553,8,1477.0,1474.0,1532.0,1491.0,1501.0,1429.0,1445.0,1412.0,0.0,0.0,0.0,0.0,0.0,0.0,0.0,0.0
2522960536,8,1480.0,1473.0,1531.0,1488.0,1502.0,1431.0,1450.0,1415.0,0.0,0.0,0.0,0.0,0.0,0.0,0.0,0.0
2523004609,8,1483.0,1474.0,1530.0,1486.0,1500.0,1431.0,1453.0,1419.0,0.0,0.0,0.0,0.0,0.0,0.0,0.0,0.0
2523049369,8,1486.0,1472.0,1528.0,1479.0,1496.0,1428.0,1455.0,1421.0,0.0,0.0,0.0,0.0,0.0,0.0,0.0,0.0
2523090496,8,1487.0,1477.0,1532.0,1489.0,1503.0,1436.0,1457.0,1424.0,0.0,0.0,0.0,0.0,0.0,0.0,0.0,0.0
2523134119,8,1484.0,1470.0,1529.0,1484.0,1503.0,1434.0,1458.0,1420.0,0.0,0.0,0.0,0.0,0.0,0.0,0.0,0.0
2523178102,8,1485.0,1471.0,1532.0,1485.0,1506.0,1433.0,1459.0,1419.0,0.0,0.0,0.0,0.0,0.0,0.0,0.0,0.0
2523222108,8,1486.0,1471.0,1534.0,1486.0,1507.0,1432.0,1458.0,1417.0,0.0,0.0,0.0,0.0,0.0,0.0,0.0,0.0
2523266139,8,1493.0,1473.0,1538.0,1484.0,1508.0,1430.0,1462.0,1419.0,0.0,0.0,0.0,0.0,0.0,0.0,0.0,0.0
2523310208,8,1495.0,1470.0,1534.0,1476.0,1503.0,1424.0,1460.0,1417.0,0.0,0.0,0.0,0.0,0.0,0.0,0.0,0.0
2523354225,8,1495.0,1466.0,1533.0,1472.0,1503.0,1424.0,1466.0,1419.0,0.0,0.0,0.0,0.0,0.0,0.0,0.0,0.0
2523378466,8,1498.0,1468.0,1539.0,1473.0,1506.0,1422.0,1466.0,1415.0,0.0,0.0,0.0,0.0,0.0,0.0,0.0,0.0
2523422191,8,1507.0,1466.0,1539.0,1462.0,1501.0,1413.0,1469.0,1417.0,0.0,0.0,0.0,0.0,0.0,0.0,0.0,0.0
2523466163,8,1505.0,1463.0,1537.0,1462.0,1503.0,1415.0,1471.0,1416.0,0.0,0.0,0.0,0.0,0.0,0.0,0.0,0.0
2523510159,8,1505.0,1460.0,1533.0,1459.0,1503.0,1418.0,1475.0,1419.0,0.0,0.0,0.0,0.0,0.0,0.0,0.0,0.0
2523554108,8,1506.0,1460.0,1529.0,1456.0,1501.0,1421.0,1479.0,1425.0,0.0,0.0,0.0,0.0,0.0,0.0,0.0,0.0
2523598102,8,1510.0,1464.0,1530.0,1457.0,1500.0,1422.0,1480.0,1429.0,0.0,0.0,0.0,0.0,0.0,0.0,0.0,0.0
2523642100,8,1515.0,1467.0,1526.0,1452.0,1494.0,1421.0,1480.0,1435.0,0.0,0.0,0.0,0.0,0.0,0.0,0.0,0.0
2523690235,8,1514.0,1473.0,1527.0,1459.0,1495.0,1427.0,1482.0,1441.0,0.0,0.0,0.0,0.0,0.0,0.0,0.0,0.0
2523710167,8,1518.0,1478.0,1524.0,1456.0,1486.0,1425.0,1480.0,1447.0,0.0,0.0,0.0,0.0,0.0,0.0,0.0,0.0
2523754253,8,1518.0,1475.0,1520.0,1449.0,1481.0,1421.0,1479.0,1447.0,0.0,0.0,0.0,0.0,0.0,0.0,0.0,0.0
2523798208,8,1516.0,1477.0,1520.0,1456.0,1487.0,1430.0,1483.0,1451.0,0.0,0.0,0.0,0.0,0.0,0.0,0.0,0.0
2523846505,8,1515.0,1477.0,1520.0,1458.0,1488.0,1432.0,1483.0,1451.0,0.0,0.0,0.0,0.0,0.0,0.0,0.0,0.0
2523890008,8,1516.0,1477.0,1521.0,1460.0,1492.0,1437.0,1487.0,1453.0,0.0,0.0,0.0,0.0,0.0,0.0,0.0,0.0
2523930104,8,1517.0,1477.0,1525.0,1465.0,1499.0,1441.0,1491.0,1454.0,0.0,0.0,0.0,0.0,0.0,0.0,0.0,0.0
2523978100,8,1529.0,1481.0,1519.0,1454.0,1492.0,1441.0,1501.0,1467.0,0.0,0.0,0.0,0.0,0.0,0.0,0.0,0.0
2524018104,8,1531.0,1478.0,1521.0,1455.0,1498.0,1446.0,1507.0,1469.0,0.0,0.0,0.0,0.0,0.0,0.0,0.0,0.0
2524062292,8,1533.0,1480.0,1519.0,1457.0,1500.0,1452.0,1513.0,1475.0,0.0,0.0,0.0,0.0,0.0,0.0,0.0,0.0
2524106143,8,1537.0,1478.0,1522.0,1455.0,1505.0,1454.0,1520.0,1476.0,0.0,0.0,0.0,0.0,0.0,0.0,0.0,0.0
2524154114,8,1541.0,1484.0,1527.0,1460.0,1507.0,1455.0,1520.0,1479.0,0.0,0.0,0.0,0.0,0.0,0.0,0.0,0.0
2524174446,8,1537.0,1492.0,1533.0,1473.0,1510.0,1459.0,1514.0,1478.0,0.0,0.0,0.0,0.0,0.0,0.0,0.0,0.0
2524222264,8,1541.0,1494.0,1532.0,1469.0,1505.0,1456.0,1514.0,1482.0,0.0,0.0,0.0,0.0,0.0,0.0,0.0,0.0
2524266169,8,1535.0,1499.0,1534.0,1481.0,1508.0,1463.0,1509.0,1482.0,0.0,0.0,0.0,0.0,0.0,0.0,0.0,0.0
2524314268,8,1534.0,1513.0,1547.0,1497.0,1512.0,1464.0,1499.0,1479.0,0.0,0.0,0.0,0.0,0.0,0.0,0.0,0.0
2524354007,8,1535.0,1516.0,1551.0,1500.0,1512.0,1461.0,1496.0,1478.0,0.0,0.0,0.0,0.0,0.0,0.0,0.0,0.0
2524402192,8,1529.0,1516.0,1546.0,1501.0,1508.0,1462.0,1490.0,1477.0,0.0,0.0,0.0,0.0,0.0,0.0,0.0,0.0
2524446165,8,1526.0,1517.0,1547.0,1506.0,1509.0,1463.0,1487.0,1475.0,0.0,0.0,0.0,0.0,0.0,0.0,0.0,0.0
2524490126,8,1523.0,1510.0,1533.0,1496.0,1502.0,1466.0,1490.0,1480.0,0.0,0.0,0.0,0.0,0.0,0.0,0.0,0.0
2524530516,8,1514.0,1506.0,1530.0,1499.0,1504.0,1469.0,1488.0,1476.0,0.0,0.0,0.0,0.0,0.0,0.0,0.0,0.0
2524578258,8,1503.0,1499.0,1528.0,1503.0,1508.0,1471.0,1483.0,1467.0,0.0,0.0,0.0,0.0,0.0,0.0,0.0,0.0
2524602551,8,1506.0,1499.0,1531.0,1502.0,1510.0,1469.0,1485.0,1466.0,0.0,0.0,0.0,0.0,0.0,0.0,0.0,0.0
2524650011,8,1504.0,1501.0,1533.0,1502.0,1506.0,1464.0,1478.0,1463.0,0.0,0.0,0.0,0.0,0.0,0.0,0.0,0.0
2524690138,8,1504.0,1501.0,1532.0,1502.0,1507.0,1465.0,1479.0,1463.0,0.0,0.0,0.0,0.0,0.0,0.0,0.0,0.0
2524738150,8,1508.0,1498.0,1532.0,1497.0,1507.0,1463.0,1483.0,1464.0,0.0,0.0,0.0,0.0,0.0,0.0,0.0,0.0
2524782582,8,1509.0,1495.0,1528.0,1491.0,1502.0,1459.0,1483.0,1464.0,0.0,0.0,0.0,0.0,0.0,0.0,0.0,0.0
2524830283,8,1509.0,1497.0,1529.0,1493.0,1503.0,1460.0,1483.0,1464.0,0.0,0.0,0.0,0.0,0.0,0.0,0.0,0.0
2524854260,8,1512.0,1498.0,1529.0,1491.0,1502.0,1460.0,1485.0,1467.0,0.0,0.0,0.0,0.0,0.0,0.0,0.0,0.0
2524898203,8,1501.0,1493.0,1531.0,1501.0,1512.0,1467.0,1483.0,1459.0,0.0,0.0,0.0,0.0,0.0,0.0,0.0,0.0
2524942221,8,1504.0,1494.0,1532.0,1499.0,1511.0,1465.0,1484.0,1460.0,0.0,0.0,0.0,0.0,0.0,0.0,0.0,0.0
2524986165,8,1504.0,1496.0,1534.0,1503.0,1513.0,1467.0,1483.0,1460.0,0.0,0.0,0.0,0.0,0.0,0.0,0.0,0.0
2525034493,8,1501.0,1487.0,1527.0,1497.0,1515.0,1470.0,1489.0,1460.0,0.0,0.0,0.0,0.0,0.0,0.0,0.0,0.0
2525078160,8,1508.0,1490.0,1528.0,1493.0,1513.0,1469.0,1493.0,1466.0,0.0,0.0,0.0,0.0,0.0,0.0,0.0,0.0
2525118240,8,1513.0,1496.0,1526.0,1490.0,1504.0,1465.0,1491.0,1472.0,0.0,0.0,0.0,0.0,0.0,0.0,0.0,0.0
2525166195,8,1515.0,1499.0,1525.0,1489.0,1501.0,1465.0,1491.0,1475.0,0.0,0.0,0.0,0.0,0.0,0.0,0.0,0.0
2525210222,8,1520.0,1502.0,1529.0,1490.0,1504.0,1465.0,1494.0,1477.0,0.0,0.0,0.0,0.0,0.0,0.0,0.0,0.0
2525250337,8,1524.0,1506.0,1533.0,1490.0,1501.0,1461.0,1492.0,1477.0,0.0,0.0,0.0,0.0,0.0,0.0,0.0,0.0
2525270153,8,1521.0,1510.0,1536.0,1496.0,1501.0,1460.0,1486.0,1474.0,0.0,0.0,0.0,0.0,0.0,0.0,0.0,0.0
2525334206,8,1518.0,1508.0,1535.0,1496.0,1504.0,1459.0,1482.0,1471.0,0.0,0.0,0.0,0.0,0.0,0.0,0.0,0.0
2525378218,8,1521.0,1511.0,1541.0,1495.0,1499.0,1451.0,1479.0,1466.0,0.0,0.0,0.0,0.0,0.0,0.0,0.0,0.0
2525418170,8,1523.0,1522.0,1549.0,1501.0,1494.0,1444.0,1468.0,1465.0,0.0,0.0,0.0,0.0,0.0,0.0,0.0,0.0
2525442197,8,1523.0,1520.0,1546.0,1497.0,1489.0,1440.0,1466.0,1464.0,0.0,0.0,0.0,0.0,0.0,0.0,0.0,0.0
2525486000,8,1521.0,1517.0,1543.0,1494.0,1488.0,1440.0,1467.0,1464.0,0.0,0.0,0.0,0.0,0.0,0.0,0.0,0.0
2525530138,8,1523.0,1517.0,1538.0,1486.0,1479.0,1434.0,1464.0,1465.0,0.0,0.0,0.0,0.0,0.0,0.0,0.0,0.0
2525574448,8,1514.0,1508.0,1531.0,1486.0,1483.0,1440.0,1466.0,1462.0,0.0,0.0,0.0,0.0,0.0,0.0,0.0,0.0
2525618223,8,1512.0,1501.0,1526.0,1482.0,1485.0,1443.0,1471.0,1463.0,0.0,0.0,0.0,0.0,0.0,0.0,0.0,0.0
2525666206,8,1506.0,1492.0,1519.0,1478.0,1485.0,1444.0,1469.0,1460.0,0.0,0.0,0.0,0.0,0.0,0.0,0.0,0.0
2525690165,8,1508.0,1498.0,1524.0,1482.0,1484.0,1443.0,1468.0,1459.0,0.0,0.0,0.0,0.0,0.0,0.0,0.0,0.0
2525734181,8,1502.0,1492.0,1521.0,1481.0,1486.0,1443.0,1468.0,1455.0,0.0,0.0,0.0,0.0,0.0,0.0,0.0,0.0
2525778142,8,1503.0,1491.0,1521.0,1481.0,1489.0,1445.0,1471.0,1455.0,0.0,0.0,0.0,0.0,0.0,0.0,0.0,0.0
2525818221,8,1508.0,1489.0,1518.0,1475.0,1487.0,1446.0,1477.0,1460.0,0.0,0.0,0.0,0.0,0.0,0.0,0.0,0.0
2525866161,8,1517.0,1492.0,1521.0,1469.0,1484.0,1440.0,1481.0,1463.0,0.0,0.0,0.0,0.0,0.0,0.0,0.0,0.0
2525914134,8,1515.0,1490.0,1524.0,1472.0,1490.0,1441.0,1480.0,1458.0,0.0,0.0,0.0,0.0,0.0,0.0,0.0,0.0
2525954185,8,1517.0,1484.0,1521.0,1464.0,1490.0,1440.0,1487.0,1460.0,0.0,0.0,0.0,0.0,0.0,0.0,0.0,0.0
2526002241,8,1515.0,1486.0,1525.0,1471.0,1493.0,1442.0,1484.0,1457.0,0.0,0.0,0.0,0.0,0.0,0.0,0.0,0.0
2526042582,8,1509.0,1481.0,1519.0,1471.0,1495.0,1447.0,1485.0,1457.0,0.0,0.0,0.0,0.0,0.0,0.0,0.0,0.0
2526066194,8,1510.0,1487.0,1520.0,1474.0,1493.0,1448.0,1483.0,1460.0,0.0,0.0,0.0,0.0,0.0,0.0,0.0,0.0
2526110135,8,1508.0,1488.0,1524.0,1478.0,1494.0,1445.0,1478.0,1455.0,0.0,0.0,0.0,0.0,0.0,0.0,0.0,0.0
2526154200,8,1501.0,1488.0,1521.0,1483.0,1492.0,1448.0,1472.0,1454.0,0.0,0.0,0.0,0.0,0.0,0.0,0.0,0.0
2526198020,8,1504.0,1491.0,1518.0,1479.0,1488.0,1448.0,1474.0,1459.0,0.0,0.0,0.0,0.0,0.0,0.0,0.0,0.0
2526246168,8,1508.0,1493.0,1516.0,1474.0,1481.0,1444.0,1473.0,1463.0,0.0,0.0,0.0,0.0,0.0,0.0,0.0,0.0
2526286162,8,1513.0,1493.0,1515.0,1469.0,1479.0,1442.0,1476.0,1466.0,0.0,0.0,0.0,0.0,0.0,0.0,0.0,0.0
2526330556,8,1513.0,1490.0,1513.0,1466.0,1478.0,1441.0,1478.0,1466.0,0.0,0.0,0.0,0.0,0.0,0.0,0.0,0.0
2526374131,8,1516.0,1494.0,1515.0,1464.0,1474.0,1436.0,1475.0,1466.0,0.0,0.0,0.0,0.0,0.0,0.0,0.0,0.0
2526418137,8,1517.0,1498.0,1521.0,1469.0,1477.0,1435.0,1473.0,1463.0,0.0,0.0,0.0,0.0,0.0,0.0,0.0,0.0
2526462193,8,1514.0,1493.0,1522.0,1468.0,1478.0,1431.0,1470.0,1456.0,0.0,0.0,0.0,0.0,0.0,0.0,0.0,0.0
2526503025,8,1516.0,1492.0,1526.0,1467.0,1480.0,1428.0,1470.0,1453.0,0.0,0.0,0.0,0.0,0.0,0.0,0.0,0.0
2526543840,8,1513.0,1483.0,1524.0,1465.0,1488.0,1430.0,1475.0,1448.0,0.0,0.0,0.0,0.0,0.0,0.0,0.0,0.0
2526587815,8,1516.0,1481.0,1526.0,1459.0,1484.0,1422.0,1475.0,1445.0,0.0,0.0,0.0,0.0,0.0,0.0,0.0,0.0
2526611761,8,1517.0,1478.0,1525.0,1453.0,1482.0,1418.0,1475.0,1443.0,0.0,0.0,0.0,0.0,0.0,0.0,0.0,0.0
2526655884,8,1518.0,1479.0,1524.0,1454.0,1482.0,1419.0,1475.0,1444.0,0.0,0.0,0.0,0.0,0.0,0.0,0.0,0.0
2526703722,8,1516.0,1480.0,1525.0,1458.0,1484.0,1422.0,1476.0,1444.0,0.0,0.0,0.0,0.0,0.0,0.0,0.0,0.0
2526751882,8,1511.0,1474.0,1516.0,1452.0,1480.0,1423.0,1474.0,1445.0,0.0,0.0,0.0,0.0,0.0,0.0,0.0,0.0
2526795837,8,1506.0,1479.0,1519.0,1462.0,1482.0,1426.0,1469.0,1443.0,0.0,0.0,0.0,0.0,0.0,0.0,0.0,0.0
2526836165,8,1504.0,1479.0,1517.0,1460.0,1478.0,1423.0,1465.0,1442.0,0.0,0.0,0.0,0.0,0.0,0.0,0.0,0.0
2526879747,8,1503.0,1480.0,1516.0,1459.0,1473.0,1420.0,1460.0,1440.0,0.0,0.0,0.0,0.0,0.0,0.0,0.0,0.0
2526923812,8,1505.0,1480.0,1518.0,1458.0,1474.0,1417.0,1461.0,1439.0,0.0,0.0,0.0,0.0,0.0,0.0,0.0,0.0
2526967711,8,1507.0,1482.0,1522.0,1462.0,1480.0,1422.0,1465.0,1441.0,0.0,0.0,0.0,0.0,0.0,0.0,0.0,0.0
2526991827,8,1504.0,1477.0,1517.0,1458.0,1477.0,1421.0,1464.0,1439.0,0.0,0.0,0.0,0.0,0.0,0.0,0.0,0.0
2527039710,8,1507.0,1475.0,1516.0,1456.0,1479.0,1424.0,1471.0,1443.0,0.0,0.0,0.0,0.0,0.0,0.0,0.0,0.0
2527088071,8,1513.0,1472.0,1514.0,1446.0,1476.0,1419.0,1475.0,1445.0,0.0,0.0,0.0,0.0,0.0,0.0,0.0,0.0
2527111857,8,1512.0,1476.0,1516.0,1450.0,1476.0,1418.0,1471.0,1444.0,0.0,0.0,0.0,0.0,0.0,0.0,0.0,0.0
2527155925,8,1516.0,1473.0,1518.0,1448.0,1481.0,1420.0,1479.0,1445.0,0.0,0.0,0.0,0.0,0.0,0.0,0.0,0.0
2527203744,8,1521.0,1471.0,1519.0,1445.0,1483.0,1420.0,1485.0,1447.0,0.0,0.0,0.0,0.0,0.0,0.0,0.0,0.0
2527247708,8,1522.0,1464.0,1517.0,1439.0,1486.0,1422.0,1492.0,1447.0,0.0,0.0,0.0,0.0,0.0,0.0,0.0,0.0
2527295677,8,1531.0,1459.0,1520.0,1428.0,1487.0,1413.0,1499.0,1444.0,0.0,0.0,0.0,0.0,0.0,0.0,0.0,0.0
2527335784,8,1543.0,1475.0,1538.0,1434.0,1485.0,1400.0,1490.0,1441.0,0.0,0.0,0.0,0.0,0.0,0.0,0.0,0.0
2527379887,8,1545.0,1473.0,1540.0,1431.0,1486.0,1396.0,1491.0,1438.0,0.0,0.0,0.0,0.0,0.0,0.0,0.0,0.0
2527423708,8,1545.0,1476.0,1546.0,1434.0,1485.0,1390.0,1483.0,1432.0,0.0,0.0,0.0,0.0,0.0,0.0,0.0,0.0
2527448044,8,1547.0,1475.0,1541.0,1426.0,1477.0,1385.0,1483.0,1435.0,0.0,0.0,0.0,0.0,0.0,0.0,0.0,0.0
2527491709,8,1545.0,1480.0,1543.0,1432.0,1478.0,1387.0,1480.0,1435.0,0.0,0.0,0.0,0.0,0.0,0.0,0.0,0.0
2527531789,8,1533.0,1471.0,1535.0,1439.0,1488.0,1404.0,1485.0,1436.0,0.0,0.0,0.0,0.0,0.0,0.0,0.0,0.0
2527579755,8,1534.0,1471.0,1528.0,1438.0,1487.0,1412.0,1493.0,1446.0,0.0,0.0,0.0,0.0,0.0,0.0,0.0,0.0
2527628151,8,1530.0,1468.0,1522.0,1437.0,1486.0,1417.0,1494.0,1449.0,0.0,0.0,0.0,0.0,0.0,0.0,0.0,0.0
2527671726,8,1528.0,1466.0,1519.0,1441.0,1492.0,1428.0,1501.0,1454.0,0.0,0.0,0.0,0.0,0.0,0.0,0.0,0.0
2527715756,8,1529.0,1472.0,1525.0,1450.0,1498.0,1434.0,1502.0,1456.0,0.0,0.0,0.0,0.0,0.0,0.0,0.0,0.0
2527759736,8,1529.0,1480.0,1530.0,1458.0,1498.0,1435.0,1497.0,1457.0,0.0,0.0,0.0,0.0,0.0,0.0,0.0,0.0
2527779729,8,1531.0,1481.0,1533.0,1461.0,1502.0,1438.0,1500.0,1458.0,0.0,0.0,0.0,0.0,0.0,0.0,0.0,0.0
2527827727,8,1534.0,1494.0,1531.0,1467.0,1496.0,1444.0,1498.0,1471.0,0.0,0.0,0.0,0.0,0.0,0.0,0.0,0.0
2527867772,8,1533.0,1491.0,1527.0,1468.0,1501.0,1454.0,1507.0,1477.0,0.0,0.0,0.0,0.0,0.0,0.0,0.0,0.0
2527916104,8,1537.0,1494.0,1529.0,1471.0,1505.0,1459.0,1513.0,1483.0,0.0,0.0,0.0,0.0,0.0,0.0,0.0,0.0
2527963725,8,1543.0,1505.0,1537.0,1481.0,1508.0,1464.0,1514.0,1489.0,0.0,0.0,0.0,0.0,0.0,0.0,0.0,0.0
2528011764,8,1545.0,1511.0,1537.0,1483.0,1515.0,1470.0,1518.0,1489.0,0.0,0.0,0.0,0.0,0.0,0.0,0.0,0.0
2528035752,8,1542.0,1511.0,1549.0,1497.0,1523.0,1474.0,1516.0,1487.0,0.0,0.0,0.0,0.0,0.0,0.0,0.0,0.0
2528079608,8,1547.0,1529.0,1567.0,1514.0,1525.0,1470.0,1505.0,1485.0,0.0,0.0,0.0,0.0,0.0,0.0,0.0,0.0
2528123734,8,1546.0,1538.0,1582.0,1526.0,1528.0,1463.0,1493.0,1475.0,0.0,0.0,0.0,0.0,0.0,0.0,0.0,0.0
2528167927,8,1542.0,1542.0,1591.0,1537.0,1534.0,1460.0,1489.0,1466.0,0.0,0.0,0.0,0.0,0.0,0.0,0.0,0.0
2528211732,8,1542.0,1542.0,1589.0,1536.0,1534.0,1464.0,1487.0,1470.0,0.0,0.0,0.0,0.0,0.0,0.0,0.0,0.0
2528251792,8,1535.0,1529.0,1573.0,1526.0,1532.0,1470.0,1494.0,1473.0,0.0,0.0,0.0,0.0,0.0,0.0,0.0,0.0
2528295724,8,1534.0,1520.0,1568.0,1521.0,1536.0,1475.0,1502.0,1473.0,0.0,0.0,0.0,0.0,0.0,0.0,0.0,0.0
2528335733,8,1538.0,1522.0,1562.0,1515.0,1529.0,1475.0,1505.0,1482.0,0.0,0.0,0.0,0.0,0.0,0.0,0.0,0.0
2528384069,8,1536.0,1527.0,1568.0,1524.0,1531.0,1475.0,1499.0,1479.0,0.0,0.0,0.0,0.0,0.0,0.0,0.0,0.0
2528407724,8,1532.0,1526.0,1566.0,1526.0,1532.0,1478.0,1498.0,1478.0,0.0,0.0,0.0,0.0,0.0,0.0,0.0,0.0
2528451748,8,1536.0,1527.0,1561.0,1519.0,1523.0,1475.0,1499.0,1483.0,0.0,0.0,0.0,0.0,0.0,0.0,0.0,0.0
2528495785,8,1535.0,1521.0,1561.0,1516.0,1528.0,1474.0,1502.0,1480.0,0.0,0.0,0.0,0.0,0.0,0.0,0.0,0.0
2528535806,8,1530.0,1517.0,1557.0,1516.0,1529.0,1477.0,1502.0,1478.0,0.0,0.0,0.0,0.0,0.0,0.0,0.0,0.0
2528579814,8,1532.0,1517.0,1558.0,1515.0,1528.0,1476.0,1503.0,1478.0,0.0,0.0,0.0,0.0,0.0,0.0,0.0,0.0
2528623827,8,1531.0,1515.0,1558.0,1514.0,1529.0,1475.0,1502.0,1476.0,0.0,0.0,0.0,0.0,0.0,0.0,0.0,0.0
2528671890,8,1538.0,1516.0,1560.0,1508.0,1526.0,1469.0,1504.0,1477.0,0.0,0.0,0.0,0.0,0.0,0.0,0.0,0.0
2528711768,8,1545.0,1515.0,1559.0,1498.0,1522.0,1462.0,1508.0,1479.0,0.0,0.0,0.0,0.0,0.0,0.0,0.0,0.0
2528759715,8,1545.0,1520.0,1563.0,1501.0,1518.0,1457.0,1500.0,1475.0,0.0,0.0,0.0,0.0,0.0,0.0,0.0,0.0
2528803726,8,1548.0,1520.0,1560.0,1495.0,1513.0,1452.0,1500.0,1477.0,0.0,0.0,0.0,0.0,0.0,0.0,0.0,0.0
2528847758,8,1551.0,1519.0,1560.0,1489.0,1509.0,1447.0,1500.0,1477.0,0.0,0.0,0.0,0.0,0.0,0.0,0.0,0.0
2528867726,8,1547.0,1518.0,1557.0,1490.0,1508.0,1448.0,1498.0,1476.0,0.0,0.0,0.0,0.0,0.0,0.0,0.0,0.0
2528915835,8,1544.0,1516.0,1557.0,1491.0,1508.0,1447.0,1494.0,1472.0,0.0,0.0,0.0,0.0,0.0,0.0,0.0,0.0
2528955852,8,1537.0,1512.0,1551.0,1491.0,1507.0,1450.0,1493.0,1471.0,0.0,0.0,0.0,0.0,0.0,0.0,0.0,0.0
2528999829,8,1530.0,1508.0,1550.0,1493.0,1509.0,1450.0,1489.0,1465.0,0.0,0.0,0.0,0.0,0.0,0.0,0.0,0.0
2529043769,8,1524.0,1502.0,1544.0,1493.0,1511.0,1455.0,1491.0,1464.0,0.0,0.0,0.0,0.0,0.0,0.0,0.0,0.0
2529083822,8,1512.0,1499.0,1538.0,1500.0,1514.0,1465.0,1489.0,1464.0,0.0,0.0,0.0,0.0,0.0,0.0,0.0,0.0
2529127808,8,1513.0,1512.0,1548.0,1510.0,1510.0,1458.0,1475.0,1460.0,0.0,0.0,0.0,0.0,0.0,0.0,0.0,0.0
2529171745,8,1512.0,1519.0,1551.0,1516.0,1509.0,1459.0,1470.0,1461.0,0.0,0.0,0.0,0.0,0.0,0.0,0.0,0.0
2529215779,8,1504.0,1511.0,1547.0,1515.0,1510.0,1459.0,1468.0,1455.0,0.0,0.0,0.0,0.0,0.0,0.0,0.0,0.0
2529263774,8,1499.0,1498.0,1548.0,1514.0,1516.0,1460.0,1472.0,1450.0,0.0,0.0,0.0,0.0,0.0,0.0,0.0,0.0
2529287727,8,1501.0,1496.0,1547.0,1514.0,1527.0,1468.0,1481.0,1449.0,0.0,0.0,0.0,0.0,0.0,0.0,0.0,0.0
2529335769,8,1494.0,1480.0,1536.0,1506.0,1532.0,1474.0,1490.0,1447.0,0.0,0.0,0.0,0.0,0.0,0.0,0.0,0.0
2529379770,8,1500.0,1485.0,1540.0,1508.0,1532.0,1473.0,1492.0,1451.0,0.0,0.0,0.0,0.0,0.0,0.0,0.0,0.0
2529423739,8,1507.0,1488.0,1540.0,1503.0,1529.0,1473.0,1497.0,1457.0,0.0,0.0,0.0,0.0,0.0,0.0,0.0,0.0
2529464125,8,1511.0,1490.0,1542.0,1502.0,1528.0,1470.0,1497.0,1457.0,0.0,0.0,0.0,0.0,0.0,0.0,0.0,0.0
2529507856,8,1510.0,1493.0,1546.0,1506.0,1527.0,1468.0,1492.0,1455.0,0.0,0.0,0.0,0.0,0.0,0.0,0.0,0.0
2529547832,8,1510.0,1499.0,1549.0,1511.0,1526.0,1467.0,1487.0,1455.0,0.0,0.0,0.0,0.0,0.0,0.0,0.0,0.0
2529591899,8,1507.0,1498.0,1547.0,1512.0,1527.0,1470.0,1488.0,1456.0,0.0,0.0,0.0,0.0,0.0,0.0,0.0,0.0
2529635774,8,1512.0,1499.0,1547.0,1505.0,1520.0,1462.0,1485.0,1456.0,0.0,0.0,0.0,0.0,0.0,0.0,0.0,0.0
2529675856,8,1509.0,1506.0,1558.0,1517.0,1523.0,1457.0,1473.0,1446.0,0.0,0.0,0.0,0.0,0.0,0.0,0.0,0.0
2529719784,8,1510.0,1492.0,1551.0,1503.0,1525.0,1455.0,1483.0,1445.0,0.0,0.0,0.0,0.0,0.0,0.0,0.0,0.0
2529767787,8,1506.0,1482.0,1548.0,1500.0,1531.0,1458.0,1489.0,1441.0,0.0,0.0,0.0,0.0,0.0,0.0,0.0,0.0
2529811723,8,1510.0,1481.0,1547.0,1498.0,1533.0,1462.0,1496.0,1445.0,0.0,0.0,0.0,0.0,0.0,0.0,0.0,0.0
2529835759,8,1514.0,1483.0,1549.0,1496.0,1533.0,1460.0,1498.0,1447.0,0.0,0.0,0.0,0.0,0.0,0.0,0.0,0.0
2529875748,8,1512.0,1485.0,1544.0,1498.0,1530.0,1466.0,1499.0,1453.0,0.0,0.0,0.0,0.0,0.0,0.0,0.0,0.0
2529923742,8,1512.0,1488.0,1541.0,1497.0,1525.0,1467.0,1497.0,1457.0,0.0,0.0,0.0,0.0,0.0,0.0,0.0,0.0
2529969352,8,1521.0,1507.0,1561.0,1507.0,1521.0,1450.0,1480.0,1450.0,0.0,0.0,0.0,0.0,0.0,0.0,0.0,0.0
2530013327,8,1527.0,1512.0,1566.0,1504.0,1515.0,1440.0,1476.0,1449.0,0.0,0.0,0.0,0.0,0.0,0.0,0.0,0.0
2530057324,8,1533.0,1513.0,1573.0,1503.0,1518.0,1435.0,1477.0,1446.0,0.0,0.0,0.0,0.0,0.0,0.0,0.0,0.0
2530077387,8,1530.0,1510.0,1569.0,1497.0,1512.0,1429.0,1473.0,1442.0,0.0,0.0,0.0,0.0,0.0,0.0,0.0,0.0
2530125342,8,1540.0,1504.0,1570.0,1482.0,1508.0,1416.0,1477.0,1439.0,0.0,0.0,0.0,0.0,0.0,0.0,0.0,0.0
2530169306,8,1545.0,1497.0,1561.0,1465.0,1500.0,1410.0,1483.0,1442.0,0.0,0.0,0.0,0.0,0.0,0.0,0.0,0.0
2530213369,8,1546.0,1491.0,1558.0,1455.0,1496.0,1403.0,1484.0,1439.0,0.0,0.0,0.0,0.0,0.0,0.0,0.0,0.0
2530257223,8,1548.0,1487.0,1555.0,1443.0,1485.0,1388.0,1477.0,1432.0,0.0,0.0,0.0,0.0,0.0,0.0,0.0,0.0
2530301302,8,1548.0,1491.0,1561.0,1445.0,1483.0,1380.0,1470.0,1426.0,0.0,0.0,0.0,0.0,0.0,0.0,0.0,0.0
2530349351,8,1539.0,1477.0,1540.0,1427.0,1469.0,1376.0,1468.0,1426.0,0.0,0.0,0.0,0.0,0.0,0.0,0.0,0.0
2530393455,8,1534.0,1477.0,1534.0,1426.0,1463.0,1376.0,1463.0,1427.0,0.0,0.0,0.0,0.0,0.0,0.0,0.0,0.0
2530417303,8,1531.0,1470.0,1520.0,1417.0,1456.0,1380.0,1467.0,1433.0,0.0,0.0,0.0,0.0,0.0,0.0,0.0,0.0
2530457321,8,1530.0,1464.0,1506.0,1401.0,1440.0,1371.0,1464.0,1435.0,0.0,0.0,0.0,0.0,0.0,0.0,0.0,0.0
2530501387,8,1530.0,1469.0,1503.0,1401.0,1433.0,1371.0,1460.0,1439.0,0.0,0.0,0.0,0.0,0.0,0.0,0.0,0.0
2530549440,8,1520.0,1463.0,1489.0,1397.0,1425.0,1375.0,1456.0,1440.0,0.0,0.0,0.0,0.0,0.0,0.0,0.0,0.0
2530593351,8,1526.0,1465.0,1487.0,1381.0,1407.0,1352.0,1446.0,1436.0,0.0,0.0,0.0,0.0,0.0,0.0,0.0,0.0
2530641311,8,1536.0,1470.0,1504.0,1380.0,1409.0,1335.0,1441.0,1426.0,0.0,0.0,0.0,0.0,0.0,0.0,0.0,0.0
2530685614,8,1528.0,1464.0,1498.0,1380.0,1410.0,1340.0,1441.0,1424.0,0.0,0.0,0.0,0.0,0.0,0.0,0.0,0.0
2530729451,8,1510.0,1451.0,1488.0,1381.0,1411.0,1343.0,1433.0,1413.0,0.0,0.0,0.0,0.0,0.0,0.0,0.0,0.0
2530753344,8,1510.0,1448.0,1481.0,1373.0,1403.0,1339.0,1433.0,1414.0,0.0,0.0,0.0,0.0,0.0,0.0,0.0,0.0
2530797475,8,1504.0,1443.0,1478.0,1373.0,1405.0,1339.0,1431.0,1409.0,0.0,0.0,0.0,0.0,0.0,0.0,0.0,0.0
2530841304,8,1501.0,1441.0,1483.0,1386.0,1422.0,1356.0,1441.0,1412.0,0.0,0.0,0.0,0.0,0.0,0.0,0.0,0.0
2530885325,8,1496.0,1442.0,1484.0,1392.0,1425.0,1359.0,1437.0,1409.0,0.0,0.0,0.0,0.0,0.0,0.0,0.0,0.0
2530925379,8,1495.0,1436.0,1483.0,1389.0,1429.0,1360.0,1441.0,1415.0,0.0,0.0,0.0,0.0,0.0,0.0,0.0,0.0
2530969304,8,1507.0,1442.0,1473.0,1379.0,1418.0,1363.0,1451.0,1426.0,0.0,0.0,0.0,0.0,0.0,0.0,0.0,0.0
2531017350,8,1428.0,1383.0,1386.0,1303.0,1314.0,1282.0,1356.0,1362.0,0.0,0.0,0.0,0.0,0.0,0.0,0.0,0.0
2531061306,8,1436.0,1395.0,1415.0,1326.0,1339.0,1287.0,1360.0,1365.0,0.0,0.0,0.0,0.0,0.0,0.0,0.0,0.0
2531085334,8,1444.0,1408.0,1434.0,1342.0,1351.0,1290.0,1360.0,1356.0,0.0,0.0,0.0,0.0,0.0,0.0,0.0,0.0
2531133408,8,1444.0,1407.0,1449.0,1359.0,1376.0,1304.0,1371.0,1352.0,0.0,0.0,0.0,0.0,0.0,0.0,0.0,0.0
2531177366,8,1445.0,1410.0,1454.0,1377.0,1398.0,1331.0,1389.0,1364.0,0.0,0.0,0.0,0.0,0.0,0.0,0.0,0.0
2531221379,8,1440.0,1412.0,1463.0,1393.0,1412.0,1341.0,1389.0,1360.0,0.0,0.0,0.0,0.0,0.0,0.0,0.0,0.0
2531265330,8,1447.0,1419.0,1477.0,1407.0,1430.0,1352.0,1400.0,1364.0,0.0,0.0,0.0,0.0,0.0,0.0,0.0,0.0
2531309379,8,1460.0,1438.0,1495.0,1421.0,1436.0,1354.0,1401.0,1371.0,0.0,0.0,0.0,0.0,0.0,0.0,0.0,0.0
2531357342,8,1462.0,1438.0,1494.0,1419.0,1435.0,1354.0,1403.0,1373.0,0.0,0.0,0.0,0.0,0.0,0.0,0.0,0.0
2531401338,8,1466.0,1454.0,1505.0,1434.0,1437.0,1359.0,1398.0,1379.0,0.0,0.0,0.0,0.0,0.0,0.0,0.0,0.0
2531421332,8,1467.0,1457.0,1511.0,1442.0,1444.0,1364.0,1401.0,1380.0,0.0,0.0,0.0,0.0,0.0,0.0,0.0,0.0
2531465329,8,1464.0,1454.0,1496.0,1432.0,1432.0,1364.0,1400.0,1387.0,0.0,0.0,0.0,0.0,0.0,0.0,0.0,0.0
2531509622,8,1461.0,1466.0,1506.0,1452.0,1441.0,1375.0,1397.0,1389.0,0.0,0.0,0.0,0.0,0.0,0.0,0.0,0.0
2531557473,8,1461.0,1463.0,1501.0,1447.0,1438.0,1374.0,1398.0,1390.0,0.0,0.0,0.0,0.0,0.0,0.0,0.0,0.0
2531597452,8,1461.0,1466.0,1500.0,1448.0,1435.0,1375.0,1397.0,1393.0,0.0,0.0,0.0,0.0,0.0,0.0,0.0,0.0
2531645374,8,1454.0,1445.0,1480.0,1434.0,1438.0,1386.0,1412.0,1397.0,0.0,0.0,0.0,0.0,0.0,0.0,0.0,0.0
2531689328,8,1461.0,1450.0,1484.0,1433.0,1437.0,1382.0,1413.0,1399.0,0.0,0.0,0.0,0.0,0.0,0.0,0.0,0.0
2531733373,8,1464.0,1453.0,1489.0,1436.0,1440.0,1383.0,1415.0,1400.0,0.0,0.0,0.0,0.0,0.0,0.0,0.0,0.0
2531777328,8,1468.0,1451.0,1490.0,1439.0,1452.0,1396.0,1430.0,1408.0,0.0,0.0,0.0,0.0,0.0,0.0,0.0,0.0
2531821343,8,1474.0,1459.0,1492.0,1442.0,1450.0,1400.0,1432.0,1415.0,0.0,0.0,0.0,0.0,0.0,0.0,0.0,0.0
2531845325,8,1463.0,1456.0,1481.0,1441.0,1442.0,1401.0,1424.0,1416.0,0.0,0.0,0.0,0.0,0.0,0.0,0.0,0.0
2531905356,8,1472.0,1474.0,1497.0,1458.0,1450.0,1407.0,1425.0,1423.0,0.0,0.0,0.0,0.0,0.0,0.0,0.0,0.0
2531929340,8,1471.0,1476.0,1497.0,1460.0,1448.0,1407.0,1422.0,1422.0,0.0,0.0,0.0,0.0,0.0,0.0,0.0,0.0
2531973378,8,1473.0,1482.0,1503.0,1469.0,1455.0,1413.0,1425.0,1426.0,0.0,0.0,0.0,0.0,0.0,0.0,0.0,0.0
2532021345,8,1488.0,1498.0,1518.0,1472.0,1451.0,1403.0,1420.0,1429.0,0.0,0.0,0.0,0.0,0.0,0.0,0.0,0.0
2532061326,8,1494.0,1498.0,1516.0,1470.0,1454.0,1410.0,1432.0,1439.0,0.0,0.0,0.0,0.0,0.0,0.0,0.0,0.0
2532105329,8,1483.0,1486.0,1498.0,1468.0,1457.0,1429.0,1442.0,1447.0,0.0,0.0,0.0,0.0,0.0,0.0,0.0,0.0
2532153329,8,1485.0,1488.0,1505.0,1471.0,1462.0,1426.0,1442.0,1443.0,0.0,0.0,0.0,0.0,0.0,0.0,0.0,0.0
2532193326,8,1484.0,1480.0,1503.0,1470.0,1471.0,1434.0,1452.0,1444.0,0.0,0.0,0.0,0.0,0.0,0.0,0.0,0.0
2532237374,8,1491.0,1482.0,1503.0,1470.0,1474.0,1441.0,1462.0,1453.0,0.0,0.0,0.0,0.0,0.0,0.0,0.0,0.0
2532281363,8,1497.0,1491.0,1514.0,1479.0,1480.0,1443.0,1464.0,1455.0,0.0,0.0,0.0,0.0,0.0,0.0,0.0,0.0
2532325355,8,1522.0,1511.0,1525.0,1477.0,1474.0,1439.0,1471.0,1473.0,0.0,0.0,0.0,0.0,0.0,0.0,0.0,0.0
2532369330,8,1531.0,1517.0,1524.0,1472.0,1467.0,1436.0,1473.0,1481.0,0.0,0.0,0.0,0.0,0.0,0.0,0.0,0.0
2532393341,8,1533.0,1521.0,1527.0,1474.0,1467.0,1436.0,1473.0,1482.0,0.0,0.0,0.0,0.0,0.0,0.0,0.0,0.0
2532453343,8,1543.0,1521.0,1530.0,1467.0,1467.0,1432.0,1480.0,1486.0,0.0,0.0,0.0,0.0,0.0,0.0,0.0,0.0
2532477258,8,1542.0,1527.0,1535.0,1474.0,1467.0,1431.0,1474.0,1484.0,0.0,0.0,0.0,0.0,0.0,0.0,0.0,0.0
2532521626,8,1545.0,1528.0,1534.0,1471.0,1465.0,1430.0,1476.0,1486.0,0.0,0.0,0.0,0.0,0.0,0.0,0.0,0.0
2532565344,8,1540.0,1523.0,1529.0,1473.0,1470.0,1439.0,1481.0,1489.0,0.0,0.0,0.0,0.0,0.0,0.0,0.0,0.0
2532613323,8,1537.0,1514.0,1522.0,1466.0,1469.0,1439.0,1484.0,1487.0,0.0,0.0,0.0,0.0,0.0,0.0,0.0,0.0
2532657326,8,1539.0,1516.0,1523.0,1463.0,1464.0,1433.0,1481.0,1486.0,0.0,0.0,0.0,0.0,0.0,0.0,0.0,0.0
2532701713,8,1539.0,1521.0,1529.0,1471.0,1468.0,1434.0,1478.0,1485.0,0.0,0.0,0.0,0.0,0.0,0.0,0.0,0.0
2532745394,8,1539.0,1523.0,1533.0,1475.0,1470.0,1434.0,1476.0,1483.0,0.0,0.0,0.0,0.0,0.0,0.0,0.0,0.0
2532769364,8,1529.0,1514.0,1526.0,1472.0,1470.0,1435.0,1474.0,1477.0,0.0,0.0,0.0,0.0,0.0,0.0,0.0,0.0
2532813325,8,1518.0,1509.0,1530.0,1481.0,1480.0,1438.0,1469.0,1466.0,0.0,0.0,0.0,0.0,0.0,0.0,0.0,0.0
2532857393,8,1518.0,1508.0,1532.0,1482.0,1482.0,1438.0,1469.0,1463.0,0.0,0.0,0.0,0.0,0.0,0.0,0.0,0.0
2532897372,8,1515.0,1508.0,1536.0,1487.0,1486.0,1437.0,1465.0,1458.0,0.0,0.0,0.0,0.0,0.0,0.0,0.0,0.0
2532957494,8,1515.0,1499.0,1527.0,1481.0,1489.0,1446.0,1478.0,1464.0,0.0,0.0,0.0,0.0,0.0,0.0,0.0,0.0
2533001348,8,1516.0,1501.0,1529.0,1483.0,1491.0,1447.0,1477.0,1465.0,0.0,0.0,0.0,0.0,0.0,0.0,0.0,0.0
2533025643,8,1517.0,1502.0,1528.0,1483.0,1490.0,1449.0,1480.0,1468.0,0.0,0.0,0.0,0.0,0.0,0.0,0.0,0.0
2533069328,8,1521.0,1500.0,1524.0,1478.0,1490.0,1453.0,1488.0,1474.0,0.0,0.0,0.0,0.0,0.0,0.0,0.0,0.0
2533113375,8,1522.0,1499.0,1523.0,1477.0,1490.0,1452.0,1488.0,1474.0,0.0,0.0,0.0,0.0,0.0,0.0,0.0,0.0
2533161323,8,1534.0,1510.0,1541.0,1482.0,1494.0,1443.0,1486.0,1471.0,0.0,0.0,0.0,0.0,0.0,0.0,0.0,0.0
2533205742,8,1541.0,1516.0,1551.0,1484.0,1496.0,1438.0,1486.0,1470.0,0.0,0.0,0.0,0.0,0.0,0.0,0.0,0.0
2533229329,8,1542.0,1513.0,1549.0,1481.0,1497.0,1440.0,1491.0,1472.0,0.0,0.0,0.0,0.0,0.0,0.0,0.0,0.0
2533277774,8,1537.0,1507.0,1549.0,1483.0,1503.0,1443.0,1492.0,1467.0,0.0,0.0,0.0,0.0,0.0,0.0,0.0,0.0
2533337334,8,1535.0,1512.0,1556.0,1494.0,1510.0,1446.0,1489.0,1464.0,0.0,0.0,0.0,0.0,0.0,0.0,0.0,0.0
2533361403,8,1531.0,1506.0,1552.0,1493.0,1512.0,1450.0,1491.0,1463.0,0.0,0.0,0.0,0.0,0.0,0.0,0.0,0.0
2533406010,8,1529.0,1505.0,1551.0,1494.0,1514.0,1452.0,1491.0,1463.0,0.0,0.0,0.0,0.0,0.0,0.0,0.0,0.0
2533450120,8,1525.0,1510.0,1552.0,1501.0,1512.0,1454.0,1486.0,1463.0,0.0,0.0,0.0,0.0,0.0,0.0,0.0,0.0
2533495268,8,1538.0,1520.0,1558.0,1496.0,1504.0,1443.0,1483.0,1467.0,0.0,0.0,0.0,0.0,0.0,0.0,0.0,0.0
2533543045,8,1540.0,1518.0,1561.0,1491.0,1503.0,1435.0,1482.0,1462.0,0.0,0.0,0.0,0.0,0.0,0.0,0.0,0.0
2533587010,8,1541.0,1517.0,1565.0,1491.0,1502.0,1430.0,1478.0,1458.0,0.0,0.0,0.0,0.0,0.0,0.0,0.0,0.0
2533630904,8,1537.0,1503.0,1548.0,1477.0,1500.0,1436.0,1489.0,1462.0,0.0,0.0,0.0,0.0,0.0,0.0,0.0,0.0
