timestamp,roll_body,pitch_body,yaw_body,yaw_sp_move_rate,q_d[0],q_d[1],q_d[2],q_d[3],thrust,landing_gear,q_d_valid,roll_reset_integral,pitch_reset_integral,yaw_reset_integral,fw_control_yaw,disable_mc_yaw_control,apply_flaps
2508753408,-0.018314328,0.013908905,-0.04464875,0.0,0.9996861,-0.0089993,0.0071567753,-0.02225738,0.49597907,-1.0,1,0,0,0,0,0,0
2508953731,-0.018837078,0.015226908,-0.04464875,0.0,0.9996791,-0.009245837,0.007821382,-0.022249194,0.53705716,-1.0,1,0,0,0,0,0,0
2509057941,-0.026094645,0.00929514,-0.04464875,0.0,0.9996563,-0.012939825,0.004937237,-0.022259759,0.5585044,-1.0,1,0,0,0,0,0,0
2509157224,-0.039880987,0.027278416,-0.04464875,0.0,0.99946517,-0.019627959,0.014077728,-0.022044128,0.57957417,-1.0,1,0,0,0,0,0,0
2509259114,-0.0425605,0.027748385,-0.04464875,0.0,0.9994348,-0.02096167,0.014342099,-0.02202018,0.60071075,-1.0,1,0,0,0,0,0,0
2509363408,-0.018732067,0.029748784,-0.04464875,0.0,0.9995995,-0.009030519,0.015078532,-0.022179801,0.62424827,-1.0,1,0,0,0,0,0,0
2509467312,-0.02188786,0.0066370373,-0.04464875,0.0,0.99968624,-0.010866852,0.0035617768,-0.022284754,0.645217,-1.0,1,0,0,0,0,0,0
2509566672,-0.029541995,0.02370145,-0.04464875,0.0,0.99957544,-0.014501241,0.012175894,-0.022143526,0.66730183,-1.0,1,0,0,0,0,0,0
2509670687,-0.02047104,0.01955965,-0.04464875,0.0,0.99965286,-0.010014007,0.010005188,-0.02222021,0.6881657,-1.0,1,0,0,0,0,0,0
2509772191,-0.029776052,0.027334018,-0.04464875,0.0,0.99955124,-0.014577337,0.013993959,-0.022114553,0.68266356,-1.0,1,0,0,0,0,0,0
2509870603,-0.02351915,0.0968739,-0.04464875,0.0,0.9985219,-0.010661849,0.04866479,-0.02172558,0.6548758,-1.0,1,0,0,0,0,0,0
2509974685,-0.00031684362,0.08976633,-0.04464875,0.0,0.9987442,0.0008433462,0.04486045,-0.022292934,0.59945047,-1.0,1,0,0,0,0,0,0
2510075422,-0.024503091,0.09561785,-0.04464875,0.0,0.9985466,-0.011167463,0.048048384,-0.021709992,0.54617226,-1.0,1,0,0,0,0,0,0
2510174802,-0.017561886,0.10851648,-0.04464875,0.0,0.99825174,-0.0075551844,0.05441174,-0.021812731,0.52195024,-1.0,1,0,0,0,0,0,0
2510278666,-0.0067446977,0.12620316,-0.04464875,0.0,0.9977602,-0.001957148,0.06311878,-0.022065362,0.51391226,-1.0,1,0,0,0,0,0,0
2510380208,-0.017893257,0.08895765,-0.04464875,0.0,0.99873096,-0.007942921,0.044650815,-0.02190185,0.5104049,-1.0,1,0,0,0,0,0,0
2510483067,-0.032689888,0.10076518,-0.04464875,0.0,0.9983672,-0.015195366,0.050706387,-0.021468304,0.51004213,-1.0,1,0,0,0,0,0,0
2510587542,-0.026286677,0.06982747,-0.04464875,0.0,0.9990655,-0.012352537,0.03518813,-0.021848328,0.51289266,-1.0,1,0,0,0,0,0,0
2510691007,-0.04771321,0.0482575,-0.04464875,0.0,0.99918824,-0.023303047,0.024645869,-0.021734297,0.5128471,-1.0,1,0,0,0,0,0,0
2510790746,-0.05141414,0.023196613,-0.04464875,0.0,0.99935997,-0.02543729,0.01216507,-0.022015598,0.5157044,-1.0,1,0,0,0,0,0,0
2510894747,-0.06052098,0.006117162,-0.04464875,0.0,0.9992905,-0.030179951,0.0037317984,-0.02221968,0.5164748,-1.0,1,0,0,0,0,0,0
2510995604,-0.07660218,-0.005556543,-0.04464875,0.0,0.9990114,-0.038344007,-0.001920774,-0.022412421,0.5196387,-1.0,1,0,0,0,0,0,0
2511099112,-0.089011095,-0.029797915,-0.04464875,0.0,0.9986352,-0.044807076,-0.01388691,-0.02296062,0.517384,-1.0,1,0,0,0,0,0,0
2511198709,-0.099214055,-0.044425674,-0.04464875,0.0,0.99825007,-0.050057292,-0.02107153,-0.023390656,0.52060825,-1.0,1,0,0,0,0,0,0
2511299117,-0.11617699,-0.059374824,-0.04464875,0.0,0.9975863,-0.058677267,-0.02833022,-0.023997897,0.5187292,-1.0,1,0,0,0,0,0,0
2511403541,-0.12609632,-0.077568084,-0.04464875,0.0,0.99695957,-0.06380715,-0.03728224,-0.02470384,0.52438635,-1.0,1,0,0,0,0,0,0
2511507462,-0.12346296,-0.085493505,-0.04464875,0.0,0.9968761,-0.062572666,-0.04126584,-0.024895333,0.53713137,-1.0,1,0,0,0,0,0,0
2511606678,-0.13095245,-0.095072225,-0.04464875,0.0,0.9964122,-0.06639771,-0.045945674,-0.025357842,0.5453795,-1.0,1,0,0,0,0,0,0
2511710932,-0.14108281,-0.11583001,-0.04464875,0.0,0.99550134,-0.07163608,-0.056153577,-0.026308391,0.5311166,-1.0,1,0,0,0,0,0,0
2511810952,-0.14088526,-0.12299589,-0.04464875,0.0,0.99528956,-0.07160235,-0.059723306,-0.026549757,0.5206314,-1.0,1,0,0,0,0,0,0
2511910688,-0.1454999,-0.13289797,-0.04464875,0.0,0.99479806,-0.07398561,-0.06458901,-0.027039485,0.51514184,-1.0,1,0,0,0,0,0,0
2512014623,-0.14903222,-0.13078067,-0.04464875,0.0,0.9947372,-0.075724125,-0.06348787,-0.027076442,0.51013404,-1.0,1,0,0,0,0,0,0
2512116200,-0.1482225,-0.13455221,-0.04464875,0.0,0.99464,-0.07535404,-0.06537503,-0.027187245,0.5106415,-1.0,1,0,0,0,0,0,0
2512219619,-0.14627798,-0.14852767,-0.04464875,0.0,0.99420875,-0.074506015,-0.07235208,-0.027621878,0.5131573,-1.0,1,0,0,0,0,0,0
2512323265,-0.14277704,-0.14763139,-0.04464875,0.0,0.9943714,-0.072758,-0.07195462,-0.027464058,0.5126308,1.0,1,0,0,0,0,0,0
2512422723,-0.13518202,-0.14569454,-0.04464875,0.0,0.9947128,-0.06896463,-0.071094915,-0.027126977,0.5147849,1.0,1,0,0,0,0,0,0
2512526695,-0.13092856,-0.14931482,-0.04464875,0.0,0.9947215,-0.06688048,-0.072953545,-0.02709081,0.5171854,1.0,1,0,0,0,0,0,0
2512627317,-0.1250414,-0.14023495,-0.04464875,0.0,0.995248,-0.063871786,-0.068514444,-0.02660042,0.5182728,1.0,1,0,0,0,0,0,0
2512729306,-0.11007947,-0.12882595,-0.04464875,0.0,0.99608773,-0.056318868,-0.06302949,-0.025782647,0.5145646,1.0,1,0,0,0,0,0,0
2512828329,-0.119034804,-0.129659,-0.04464875,0.0,0.9957982,-0.060786106,-0.06332826,-0.02608873,0.5214637,1.0,1,0,0,0,0,0,0
2512932388,-0.110548586,-0.116842695,-0.04464875,0.0,0.99644893,-0.05643954,-0.057053298,-0.025475323,0.52009124,1.0,1,0,0,0,0,0,0
2513032722,-0.09697872,-0.110326454,-0.04464875,0.0,0.9969972,-0.04961388,-0.05397639,-0.024934124,0.5145265,1.0,1,0,0,0,0,0,0
2513132422,-0.09644763,-0.10402948,-0.04464875,0.0,0.9971821,-0.049287163,-0.050843295,-0.024772037,0.5132988,1.0,1,0,0,0,0,0,0
2513236380,-0.10427526,-0.100114204,-0.04464875,0.0,0.99708354,-0.053151183,-0.0487939,-0.024871204,0.5165363,1.0,1,0,0,0,0,0,0
2513337166,-0.103371575,-0.097958736,-0.04464875,0.0,0.9971619,-0.05267941,-0.04773036,-0.024794746,0.511841,1.0,1,0,0,0,0,0,0
2513440989,-0.103743464,-0.10145852,-0.04464875,0.0,0.99706304,-0.052899268,-0.049470786,-0.02489227,0.5035695,1.0,1,0,0,0,0,0,0
2513545182,-0.11076639,-0.09540402,-0.04464875,0.0,0.9970235,-0.056340933,-0.04636469,-0.02490182,0.5052677,1.0,1,0,0,0,0,0,0
2513648576,-0.10329436,-0.09945024,-0.04464875,0.0,0.99712634,-0.05265561,-0.048475023,-0.024830522,0.5043494,1.0,1,0,0,0,0,0,0
2513748299,-0.117609054,-0.10341762,-0.04464875,0.0,0.996621,-0.059829224,-0.05027342,-0.025291,0.5069949,1.0,1,0,0,0,0,0,0
2513852398,-0.106657594,-0.09729733,-0.04464875,0.0,0.9970905,-0.05431118,-0.047359787,-0.02485589,0.5026539,1.0,1,0,0,0,0,0,0
2513952718,-0.111102,-0.10325086,-0.04464875,0.0,0.9968148,-0.056584775,-0.05027232,-0.025122775,0.511113,1.0,1,0,0,0,0,0,0
2514056844,-0.10672948,-0.10608247,-0.04464875,0.0,0.9968605,-0.054432902,-0.051738705,-0.025086556,0.5136174,1.0,1,0,0,0,0,0,0
2514161096,-0.103944235,-0.09890713,-0.04464875,0.0,0.997123,-0.05297427,-0.048196148,-0.024832487,0.51509464,1.0,1,0,0,0,0,0,0
2514260266,-0.09511244,-0.09421254,-0.04464875,0.0,0.99746275,-0.048523683,-0.045963895,-0.024510514,0.5173718,1.0,1,0,0,0,0,0,0
2514364212,-0.07910886,-0.09048843,-0.04464875,0.0,0.9979066,-0.040502626,-0.044300314,-0.02407032,0.51356965,1.0,1,0,0,0,0,0,0
2514464642,-0.07542514,-0.07791986,-0.04464875,0.0,0.99824905,-0.03853448,-0.038071685,-0.023757918,0.51491636,1.0,1,0,0,0,0,0,0
2514564369,-0.07334555,-0.07285338,-0.04464875,0.0,0.998386,-0.03744351,-0.035567176,-0.023627652,0.5138569,1.0,1,0,0,0,0,0,0
2514668358,-0.07667673,-0.07668866,-0.04464875,0.0,0.99824905,-0.039146356,-0.037442256,-0.023758693,0.51881933,1.0,1,0,0,0,0,0,0
2514769478,-0.072482154,-0.070798546,-0.04464875,0.0,0.99843985,-0.03699094,-0.034551524,-0.023575926,0.5119722,1.0,1,0,0,0,0,0,0
2514868241,-0.075497836,-0.07077454,-0.04464875,0.0,0.9983833,-0.038496133,-0.034503944,-0.023627557,0.5151944,1.0,1,0,0,0,0,0,0
2514972328,-0.08138058,-0.07463611,-0.04464875,0.0,0.9981939,-0.041472763,-0.036361795,-0.023805847,0.52637804,1.0,1,0,0,0,0,0,0
2515072733,-0.07731297,-0.06634905,-0.04464875,0.0,0.99842566,-0.039355814,-0.032273185,-0.023575108,0.52950585,1.0,1,0,0,0,0,0,0
2515177982,-0.076792,-0.0633759,-0.04464875,0.0,0.9984853,-0.03906445,-0.030794946,-0.023510754,0.5320239,1.0,1,0,0,0,0,0,0
2515280861,-0.06941541,-0.05988833,-0.04464875,0.0,0.9986776,-0.03534447,-0.029139945,-0.023337748,0.5378613,1.0,1,0,0,0,0,0,0
2515380371,-0.0684239,-0.050397456,-0.04464875,0.0,0.99882936,-0.034748007,-0.024411736,-0.023164002,0.5425294,1.0,1,0,0,0,0,0,0
2515484272,-0.0617067,-0.057131037,-0.04464875,0.0,0.9988476,-0.03146545,-0.027852595,-0.023183657,0.5429884,1.0,1,0,0,0,0,0,0
2515586013,-0.056214146,-0.057968423,-0.04464875,0.0,0.998918,-0.028731221,-0.028334415,-0.023118569,0.54178274,1.0,1,0,0,0,0,0,0
2515688867,-0.057061136,-0.06026278,-0.04464875,0.0,0.99887115,-0.029178878,-0.02947057,-0.023162512,0.5423338,1.0,1,0,0,0,0,0,0
2515792677,-0.048744015,-0.054150656,-0.04464875,0.0,0.9990729,-0.024958728,-0.026513442,-0.02296728,0.5385196,1.0,1,0,0,0,0,0,0
2515897002,-0.04500345,-0.053517826,-0.04464875,0.0,0.9991265,-0.02308327,-0.026240207,-0.022910729,0.5414315,1.0,1,0,0,0,0,0,0
2516000874,-0.03504176,-0.044888478,-0.04464875,0.0,0.99933684,-0.0180121,-0.022042327,-0.02270657,0.5417184,1.0,1,0,0,0,0,0,0
2516102937,-0.036279913,-0.050165713,-0.04464875,0.0,0.99926174,-0.0186885,-0.024665074,-0.022766644,0.5506639,1.0,1,0,0,0,0,0,0
2516201930,-0.04013339,-0.04400584,-0.04464875,0.0,0.99929774,-0.020546515,-0.021543432,-0.022753974,0.5583992,1.0,1,0,0,0,0,0,0
2516306004,-0.024999652,-0.03160224,-0.04464875,0.0,0.9995435,-0.0128475055,-0.015516308,-0.022515437,0.54996204,1.0,1,0,0,0,0,0,0
2516406254,-0.027773686,-0.033675294,-0.04464875,0.0,0.9995075,-0.0142567735,-0.016521098,-0.022550954,0.5455313,1.0,1,0,0,0,0,0,0
2516510301,-0.02103,-0.038832236,-0.04464875,0.0,0.9995026,-0.010943571,-0.019174315,-0.022521175,0.5356024,1.0,1,0,0,0,0,0,0
2516614499,-0.03395364,-0.036021397,-0.04464875,0.0,0.9994378,-0.017370986,-0.017623758,-0.022621345,0.5300304,1.0,1,0,0,0,0,0,0
2516714231,-0.034061655,-0.036418825,-0.04464875,0.0,0.9994332,-0.017429335,-0.01782114,-0.022625595,0.5267058,1.0,1,0,0,0,0,0,0
2516817946,-0.037487037,-0.03644709,-0.04464875,0.0,0.9994016,-0.019141342,-0.017796487,-0.022656346,0.5205924,1.0,1,0,0,0,0,0,0
2516918576,-0.036319587,-0.037086852,-0.04464875,0.0,0.9994066,-0.018564994,-0.018129406,-0.022651628,0.5195084,1.0,1,0,0,0,0,0,0
2517017853,-0.04607692,-0.033126708,-0.04464875,0.0,0.9993399,-0.023397146,-0.016039915,-0.02269498,0.5168322,1.0,1,0,0,0,0,0,0
2517121976,-0.045666654,-0.031392656,-0.04464875,0.0,0.99935913,-0.023173116,-0.015178092,-0.022672214,0.5138208,1.0,1,0,0,0,0,0,0
2517222243,-0.05967397,-0.033306886,-0.04464875,0.0,0.99915624,-0.030192552,-0.015975269,-0.022806158,0.5173022,1.0,1,0,0,0,0,0,0
2517322017,-0.07328925,-0.041082535,-0.04464875,0.0,0.9988521,-0.037077762,-0.019703275,-0.023055146,0.5136897,1.0,1,0,0,0,0,0,0
2517425889,-0.080631554,-0.022774009,-0.04464875,0.0,0.99886346,-0.04054617,-0.010475023,-0.022761764,0.5108715,1.0,1,0,0,0,0,0,0
2517526554,-0.084313855,-0.018155377,-0.04464875,0.0,0.99881285,-0.042334653,-0.008126507,-0.022684243,0.50616175,1.0,1,0,0,0,0,0,0
2517630407,-0.09727818,-0.0119071035,-0.04464875,0.0,0.9985443,-0.04873968,-0.0048596943,-0.022585114,0.51762074,1.0,1,0,0,0,0,0,0
2517734269,-0.099713445,-0.016123153,-0.04464875,0.0,0.9984671,-0.050001767,-0.006937036,-0.022695709,0.53342164,1.0,1,0,0,0,0,0,0
2517833971,-0.08651921,-0.0068620318,-0.04464875,0.0,0.9988063,-0.043311603,-0.0024615885,-0.022449845,0.5351702,1.0,1,0,0,0,0,0,0
2517937972,-0.09369237,0.0078628,-0.04464875,0.0,0.99865043,-0.046729356,0.0049714325,-0.0221138,0.5352068,1.0,1,0,0,0,0,0,0
2518038480,-0.09367117,0.007599415,-0.04464875,0.0,0.99865127,-0.046721738,0.004839685,-0.022120027,0.5388985,1.0,1,0,0,0,0,0,0
2518137893,-0.09571961,0.016279992,-0.04464875,0.0,0.99858165,-0.04764654,0.009196469,-0.021906894,0.5376755,1.0,1,0,0,0,0,0,0
2518241892,-0.101072796,0.021385778,-0.04464875,0.0,0.9984294,-0.05026103,0.011803929,-0.021752745,0.53579575,1.0,1,0,0,0,0,0,0
2518342329,-0.09104258,0.026108468,-0.04464875,0.0,0.99864334,-0.045199264,0.0140528055,-0.02170362,0.53315866,1.0,1,0,0,0,0,0,0
2518441963,-0.08902306,0.031964812,-0.04464875,0.0,0.99864894,-0.04412367,0.01695507,-0.021586606,0.53183234,1.0,1,0,0,0,0,0,0
2518545864,-0.08022976,0.038295448,-0.04464875,0.0,0.9987806,-0.039659716,0.020021444,-0.021532807,0.5275672,1.0,1,0,0,0,0,0,0
2518646778,-0.08515754,0.04023902,-0.04464875,0.0,0.99866164,-0.042098008,0.021044897,-0.021441642,0.52848846,1.0,1,0,0,0,0,0,0
2518750638,-0.0802093,0.0402302,-0.04464875,0.0,0.99876285,-0.039627172,0.020987378,-0.021493822,0.528179,1.0,1,0,0,0,0,0,0
2518854486,-0.071594134,0.038620666,-0.04464875,0.0,0.9989395,-0.035343077,0.020090712,-0.02161317,0.5273707,1.0,1,0,0,0,0,0,0
2518953914,-0.07139709,0.03730468,-0.04464875,0.0,0.99895495,-0.035259783,0.019431304,-0.021638902,0.52810156,1.0,1,0,0,0,0,0,0
2519054759,-0.06287239,0.03727903,-0.04464875,0.0,0.99909633,-0.031001877,0.019326081,-0.021721937,0.5253759,1.0,1,0,0,0,0,0,0
2519158599,-0.06250469,0.03146315,-0.04464875,0.0,0.9991499,-0.030884622,0.016416758,-0.021817433,0.5245763,1.0,1,0,0,0,0,0,0
2519257910,-0.0541863,0.030875169,-0.04464875,0.0,0.9992742,-0.026735391,0.016032102,-0.02189359,0.5228384,1.0,1,0,0,0,0,0,0
2519361991,-0.04534511,0.0351262,-0.04464875,0.0,0.9993486,-0.022269536,0.018059297,-0.021915294,0.51947814,1.0,1,0,0,0,0,0,0
2519462263,-0.05333524,0.033711538,-0.04464875,0.0,0.9992634,-0.02627792,0.017439915,-0.021862097,0.52534187,1.0,1,0,0,0,0,0,0
2519563770,-0.049673084,0.025507031,-0.04464875,0.0,0.9993683,-0.024541184,0.013300371,-0.021997187,0.5239468,1.0,1,0,0,0,0,0,0
2519664170,-0.036954917,0.025135567,-0.04464875,0.0,0.9995064,-0.018189857,0.012974585,-0.022084804,0.5244475,1.0,1,0,0,0,0,0,0
2519768270,-0.029316781,0.02865574,-0.04464875,0.0,0.9995455,-0.014332918,0.014649436,-0.022107873,0.52153665,1.0,1,0,0,0,0,0,0
2519871766,-0.024827959,0.025183847,-0.04464875,0.0,0.999598,-0.012128529,0.0128645655,-0.02216276,0.52256507,1.0,1,0,0,0,0,0,0
2519971387,-0.02264939,0.022646662,-0.04464875,0.0,0.9996255,-0.0110681625,0.011572316,-0.022191465,0.5242757,1.0,1,0,0,0,0,0,0
2520075496,-0.018106855,0.022782592,-0.04464875,0.0,0.99964726,-0.008796196,0.011589825,-0.022217056,0.5273065,1.0,1,0,0,0,0,0,0
2520177213,-0.026732022,0.018825889,-0.04464875,0.0,0.9996201,-0.013151591,0.009707959,-0.022193762,0.5310955,1.0,1,0,0,0,0,0,0
2520280032,-0.015916727,0.012822869,-0.04464875,0.0,0.9996998,-0.007813019,0.0065872357,-0.022270346,0.52676356,1.0,1,0,0,0,0,0,0
2520385472,-0.010842038,0.009535493,-0.04464875,0.0,0.99972534,-0.0053131534,0.0048874794,-0.022296099,0.52354485,1.0,1,0,0,0,0,0,0
2520488167,-0.018552328,0.0009134319,-0.04464875,0.0,0.9997078,-0.009263525,0.0006636469,-0.022317322,0.5275146,1.0,1,0,0,0,0,0,0
2520587715,-0.020230453,-0.00749423,-0.04464875,0.0,0.99969184,-0.010196103,-0.0035201886,-0.022359116,0.5294255,1.0,1,0,0,0,0,0,0
2520691431,-0.019079145,0.0031937633,-0.04464875,0.0,0.9997044,-0.009501394,0.0018093542,-0.022306249,0.52741987,1.0,1,0,0,0,0,0,0
2520793004,-0.034709495,-0.040646628,-0.04464875,0.0,0.99938595,-0.017799536,-0.019926488,-0.022667125,0.5554312,1.0,1,0,0,0,0,0,0
2520896227,-0.036459118,-0.035707433,-0.04464875,0.0,0.99941814,-0.018619558,-0.017438512,-0.022640603,0.6118236,1.0,1,0,0,0,0,0,0
2520999922,-0.02814183,-0.028476039,-0.04464875,0.0,0.99954605,-0.014383306,-0.0139185265,-0.022518326,0.6371091,1.0,1,0,0,0,0,0,0
2521099540,-0.027929045,-0.028293746,-0.04464875,0.0,0.9995489,-0.014274946,-0.013829815,-0.022515604,0.6593221,1.0,1,0,0,0,0,0,0
2521203569,-0.018676998,-0.023989864,-0.04464875,0.0,0.9996328,-0.009603105,-0.011782694,-0.022431925,0.6407611,1.0,1,0,0,0,0,0,0
2521304347,-0.017820306,-0.023182815,-0.04464875,0.0,0.99964166,-0.00916595,-0.011388918,-0.022423388,0.5971712,1.0,1,0,0,0,0,0,0
2521403545,-0.006388466,-0.02302679,-0.04464875,0.0,0.9996786,-0.0034502211,-0.0114389155,-0.022357695,0.5716102,1.0,1,0,0,0,0,0,0
2521507543,-0.011615477,-0.03715915,-0.04464875,0.0,0.999559,-0.0062199677,-0.018443942,-0.022426164,0.5620879,1.0,1,0,0,0,0,0,0
2521607897,-0.0058573834,-0.033150245,-0.04464875,0.0,0.99960816,-0.0032975355,-0.016504794,-0.022367889,0.5536106,1.0,1,0,0,0,0,0,0
2521707599,-0.0051811063,-0.031012798,-0.04464875,0.0,0.9996264,-0.00293572,-0.015444039,-0.02235992,0.54703045,1.0,1,0,0,0,0,0,0
2521811532,0.0016269838,-0.026967663,-0.04464875,0.0,0.9996599,0.00051223126,-0.013498215,-0.022309523,0.53883135,1.0,1,0,0,0,0,0,0
2521912360,-0.008452788,-0.026804054,-0.04464875,0.0,0.9996509,-0.0045241043,-0.013303831,-0.022376945,0.5436919,1.0,1,0,0,0,0,0,0
2522016411,-0.005279359,-0.031830378,-0.04464875,0.0,0.9996198,-0.0029939353,-0.01585158,-0.022361616,0.5403832,1.0,1,0,0,0,0,0,0
2522119734,-0.0030577679,-0.025807563,-0.04464875,0.0,0.99966604,-0.0018164116,-0.012866067,-0.02234036,0.53543377,1.0,1,0,0,0,0,0,0
2522219495,-0.011048272,-0.014826099,-0.04464875,0.0,0.9997072,-0.005688054,-0.0072877132,-0.022362508,0.53416866,1.0,1,0,0,0,0,0,0
2522323512,-0.014215657,-0.019395236,-0.04464875,0.0,0.999677,-0.007322129,-0.009536148,-0.022389818,0.5339586,1.0,1,0,0,0,0,0,0
2522424131,-0.019104784,-0.0067370343,-0.04464875,0.0,0.9996988,-0.009625002,-0.0031542885,-0.022353545,0.5322808,1.0,1,0,0,0,0,0,0
2522523573,-0.025600955,-0.0030769194,-0.04464875,0.0,0.9996673,-0.012831263,-0.001252219,-0.022340352,0.5280871,1.0,1,0,0,0,0,0,0
2522627498,-0.026409384,-0.0047622616,-0.04464875,0.0,0.9996602,-0.013254127,-0.0020855747,-0.022351945,0.5293642,1.0,1,0,0,0,0,0,0
2522728075,-0.031157607,0.0049555106,-0.04464875,0.0,0.9996273,-0.015518942,0.002824578,-0.022281157,0.53334635,1.0,1,0,0,0,0,0,0
2522827418,-0.039480913,0.005251471,-0.04464875,0.0,0.99955374,-0.019675588,0.0030651933,-0.022266278,0.53374076,1.0,1,0,0,0,0,0,0
2522931437,-0.04380213,0.0015108624,-0.04464875,0.0,0.9995111,-0.02187699,0.0012439096,-0.022300621,0.5344935,1.0,1,0,0,0,0,0,0
2523033206,-0.050955154,-0.0008514151,-0.04464875,0.0,0.99942607,-0.025477968,0.00014319879,-0.022326117,0.53913325,1.0,1,0,0,0,0,0,0
2523133437,-0.049099054,-0.0004672312,-0.04464875,0.0,0.9994494,-0.02454616,0.0003144653,-0.022321528,0.53816587,1.0,1,0,0,0,0,0,0
2523233833,-0.057828132,0.0010585329,-0.04464875,0.0,0.9993331,-0.028891023,0.0011742584,-0.022297887,0.5404668,1.0,1,0,0,0,0,0,0
2523337486,-0.061289407,0.011761248,-0.04464875,0.0,0.9992682,-0.03050053,0.006560312,-0.02213152,0.5341771,1.0,1,0,0,0,0,0,0
2523437149,-0.07352216,0.006026941,-0.04464875,0.0,0.99907327,-0.036676254,0.0038310909,-0.022196611,0.5383263,1.0,1,0,0,0,0,0,0
2523541079,-0.063260205,0.017279956,-0.04464875,0.0,0.9992196,-0.031423,0.009339316,-0.022037357,0.53673995,1.0,1,0,0,0,0,0,0
2523641952,-0.068388835,0.03093989,-0.04464875,0.0,0.99905866,-0.033830035,0.016219499,-0.021778073,0.5388404,1.0,1,0,0,0,0,0,0
2523741014,-0.071325384,0.048459142,-0.04464875,0.0,0.9988411,-0.03509532,0.025001444,-0.021438172,0.54310584,1.0,1,0,0,0,0,0,0
2523845320,-0.06509917,0.06584214,-0.04464875,0.0,0.9987038,-0.031783745,0.033615556,-0.021227693,0.5485226,1.0,1,0,0,0,0,0,0
2523945476,-0.06058204,0.07769183,-0.04464875,0.0,0.9985646,-0.029389475,0.039484214,-0.021119535,0.55642945,1.0,1,0,0,0,0,0,0
2524045077,-0.050962333,0.10056814,-0.04464875,0.0,0.9981916,-0.02431823,0.050802063,-0.02100677,0.56634355,1.0,1,0,0,0,0,0,0
2524149095,-0.04430438,0.11461151,-0.04464875,0.0,0.99789315,-0.020830309,0.05773971,-0.021012077,0.5785835,1.0,1,0,0,0,0,0,0
2524249674,-0.036501445,0.12755978,-0.04464875,0.0,0.99757785,-0.016785542,0.06411672,-0.021110538,0.58836794,1.0,1,0,0,0,0,0,0
2524354317,-0.037213918,0.13413538,-0.04464875,0.0,0.9973584,-0.01706369,0.06740352,-0.02102187,0.596486,1.0,1,0,0,0,0,0,0
2524457513,-0.021685617,0.14672723,-0.04464875,0.0,0.9970207,-0.00917464,0.07351665,-0.021466624,0.5870744,1.0,1,0,0,0,0,0,0
2524557164,-0.01727366,0.14800227,-0.04464875,0.0,0.9969917,-0.006960616,0.074104704,-0.021622213,0.579297,1.0,1,0,0,0,0,0,0
2524661098,-0.009270208,0.15217598,-0.04464875,0.0,0.99685544,-0.002923706,0.076097995,-0.021905452,0.5736443,1.0,1,0,0,0,0,0,0
2524761530,-0.00999367,0.15520915,-0.04464875,0.0,0.9967381,-0.0032499635,0.07761763,-0.02186777,0.5719963,1.0,1,0,0,0,0,0,0
2524861090,-0.009302254,0.1503287,-0.04464875,0.0,0.99692506,-0.0029605613,0.075177595,-0.021910071,0.57051027,1.0,1,0,0,0,0,0,0
2524965151,-0.0029553715,0.14596678,-0.04464875,0.0,0.9970907,0.0001543413,0.072933264,-0.02215535,0.5728404,1.0,1,0,0,0,0,0,0
2525065432,0.002223781,0.1365055,-0.04464875,0.0,0.9974208,0.0026314144,0.06815796,-0.022346346,0.5755181,1.0,1,0,0,0,0,0,0
2525165293,0.0008084632,0.13212788,-0.04464875,0.0,0.99756926,0.0018768903,0.06599043,-0.022300504,0.578228,1.0,1,0,0,0,0,0,0
2525269202,0.0066692056,0.1213692,-0.04464875,0.0,0.9979005,0.004681423,0.0605576,-0.022483496,0.5825449,1.0,1,0,0,0,0,0,0
2525369848,0.0087766005,0.11833687,-0.04464875,0.0,0.9979859,0.00569952,0.05902083,-0.022542678,0.5805402,1.0,1,0,0,0,0,0,0
2525473662,-0.0036457935,0.11509198,-0.04464875,0.0,0.99809664,-0.00053556444,0.057540428,-0.022180717,0.5690086,1.0,1,0,0,0,0,0,0
2525577704,-0.01001623,0.11147001,-0.04464875,0.0,0.99819213,-0.003755585,0.055803195,-0.022008667,0.5600041,1.0,1,0,0,0,0,0,0
2525677060,-0.013981431,0.10055333,-0.04464875,0.0,0.99847096,-0.0058582835,0.050397582,-0.021942537,0.55490154,1.0,1,0,0,0,0,0,0
2525781118,-0.027673334,0.094416626,-0.04464875,0.0,0.998556,-0.012764051,0.04748302,-0.021642739,0.5557143,1.0,1,0,0,0,0,0,0
2525881766,-0.021390468,0.094979875,-0.04464875,0.0,0.9985779,-0.009620674,0.047696017,-0.021788491,0.55872625,1.0,1,0,0,0,0,0,0
2525981111,-0.024195904,0.086021304,-0.04464875,0.0,0.99876475,-0.011123718,0.043253332,-0.021780206,0.55896074,1.0,1,0,0,0,0,0,0
2526085053,-0.031446833,0.08314702,-0.04464875,0.0,0.9987781,-0.014777626,0.041896716,-0.02164718,0.5557156,1.0,1,0,0,0,0,0,0
2526185932,-0.02819447,0.06610713,-0.04464875,0.0,0.9991158,-0.013347927,0.033350535,-0.021842364,0.55591965,1.0,1,0,0,0,0,0,0
2526285055,-0.039091323,0.07163786,-0.04464875,0.0,0.9989343,-0.018727766,0.03623151,-0.021604206,0.5566172,1.0,1,0,0,0,0,0,0
2526389111,-0.039402183,0.06433882,-0.04464875,0.0,0.9990538,-0.018966878,0.03258913,-0.021673178,0.5571949,1.0,1,0,0,0,0,0,0
2526490453,-0.034446187,0.06363836,-0.04464875,0.0,0.99910873,-0.016499178,0.03218542,-0.021760143,0.5510251,1.0,1,0,0,0,0,0,0
2526591054,-0.04284365,0.06498495,-0.04464875,0.0,0.99900943,-0.02067853,0.032949112,-0.02160992,0.5432841,1.0,1,0,0,0,0,0,0
2526695537,-0.04600759,0.061962273,-0.04464875,0.0,0.9990226,-0.022293715,0.03147348,-0.021593576,0.54097795,1.0,1,0,0,0,0,0,0
2526799784,-0.050194934,0.055522814,-0.04464875,0.0,0.9990664,-0.024459483,0.028302148,-0.021610491,0.53682905,1.0,1,0,0,0,0,0,0
2526903439,-0.050602,0.053714186,-0.04464875,0.0,0.99908555,-0.024683625,0.0274031,-0.021628141,0.53456235,1.0,1,0,0,0,0,0,0
2527002817,-0.048826713,0.05213828,-0.04464875,0.0,0.9991275,-0.023814866,0.026596654,-0.02167214,0.5338298,1.0,1,0,0,0,0,0,0
2527106904,-0.05731713,0.048071574,-0.04464875,0.0,0.999067,-0.028102962,0.02465708,-0.021618413,0.5372358,1.0,1,0,0,0,0,0,0
2527207395,-0.056595806,0.047645714,-0.04464875,0.0,0.999082,-0.027747529,0.024436552,-0.021633439,0.53868234,1.0,1,0,0,0,0,0,0
2527311268,-0.058064613,0.044495787,-0.04464875,0.0,0.99909663,-0.028517434,0.022878965,-0.02166199,0.54484004,1.0,1,0,0,0,0,0,0
2527415000,-0.05988112,0.05489279,-0.04464875,0.0,0.9989447,-0.029305032,0.02809181,-0.021482782,0.54045254,1.0,1,0,0,0,0,0,0
2527514719,-0.06451016,0.056637898,-0.04464875,0.0,0.9988505,-0.031596787,0.029012987,-0.021389041,0.5421532,1.0,1,0,0,0,0,0,0
2527618661,-0.058359068,0.0728526,-0.04464875,0.0,0.998686,-0.028336173,0.037044507,-0.021235965,0.5434041,1.0,1,0,0,0,0,0,0
2527719045,-0.06517423,0.070008,-0.04464875,0.0,0.9986334,-0.031772472,0.03569641,-0.021157043,0.55511224,1.0,1,0,0,0,0,0,0
2527818693,-0.0640762,0.07601437,-0.04464875,0.0,0.9985433,-0.031153733,0.038683604,-0.02107808,0.5710626,1.0,1,0,0,0,0,0,0
2527922991,-0.042045563,0.079034425,-0.04464875,0.0,0.99876815,-0.020117888,0.039957233,-0.02146989,0.5817866,1.0,1,0,0,0,0,0,0
2528022995,-0.05746377,0.07836391,-0.04464875,0.0,0.99859625,-0.027824672,0.039786793,-0.021171136,0.6023262,1.0,1,0,0,0,0,0,0
2528122911,-0.05815797,0.072883345,-0.04464875,0.0,0.99868834,-0.028235393,0.03705772,-0.021239229,0.61807036,1.0,1,0,0,0,0,0,0
2528226664,-0.04683591,0.07144665,-0.04464875,0.0,0.99885774,-0.022597995,0.036219403,-0.021466058,0.61271054,1.0,1,0,0,0,0,0,0
2528327478,-0.059215695,0.057827964,-0.04464875,0.0,0.99891406,-0.028938713,0.029550629,-0.021447785,0.6108908,1.0,1,0,0,0,0,0,0
2528431471,-0.063546814,0.04505694,-0.04464875,0.0,0.99900866,-0.031249484,0.023218546,-0.021590143,0.6108146,1.0,1,0,0,0,0,0,0
2528535614,-0.07241135,0.028563425,-0.04464875,0.0,0.99900526,-0.035866465,0.0150762545,-0.0217888,0.6121701,1.0,1,0,0,0,0,0,0
2528639285,-0.06359391,0.020059546,-0.04464875,0.0,0.9992024,-0.031558305,0.01073167,-0.021991337,0.60129404,1.0,1,0,0,0,0,0,0
2528738740,-0.07463684,0.009845131,-0.04464875,0.0,0.99904674,-0.0371902,0.0057507306,-0.022123095,0.6027089,1.0,1,0,0,0,0,0,0
2528842727,-0.0709479,0.00079655356,-0.04464875,0.0,0.9991221,-0.035448782,0.0011896288,-0.022294354,0.5962,1.0,1,0,0,0,0,0,0
2528943732,-0.07583743,-0.0035596075,-0.04464875,0.0,0.9990291,-0.037939824,-0.00093184307,-0.022373896,0.59023714,1.0,1,0,0,0,0,0,0
2529047055,-0.074279204,-0.0010403137,-0.04464875,0.0,0.9990608,-0.03713341,0.00030919033,-0.022326432,0.58093685,1.0,1,0,0,0,0,0,0
2529147066,-0.07858835,-0.013724616,-0.04464875,0.0,0.9989496,-0.03942642,-0.0059783496,-0.022574274,0.58333486,1.0,1,0,0,0,0,0,0
2529247049,-0.0762643,-0.023431959,-0.04464875,0.0,0.99894553,-0.03837213,-0.010853336,-0.022751288,0.57897377,1.0,1,0,0,0,0,0,0
2529351411,-0.07174305,-0.031103903,-0.04464875,0.0,0.9989744,-0.03619748,-0.014736973,-0.022863053,0.58244187,1.0,1,0,0,0,0,0,0
2529455397,-0.0661131,-0.03826993,-0.04464875,0.0,0.9990076,-0.03346312,-0.018380942,-0.022938466,0.58245045,1.0,1,0,0,0,0,0,0
2529554745,-0.060705215,-0.053141147,-0.04464875,0.0,0.9989196,-0.030922454,-0.02587139,-0.023110433,0.58417356,1.0,1,0,0,0,0,0,0
2529658623,-0.051229656,-0.06325578,-0.04464875,0.0,0.9989049,-0.026298506,-0.031032931,-0.023113757,0.57784045,1.0,1,0,0,0,0,0,0
2529759281,-0.054410428,-0.0783196,-0.04464875,0.0,0.9985909,-0.028047826,-0.03851881,-0.023361832,0.5749694,1.0,1,0,0,0,0,0,0
2529858741,-0.04758404,-0.08061182,-0.04464875,0.0,0.9986347,-0.024663763,-0.03974294,-0.023256449,0.5764999,1.0,1,0,0,0,0,0,0
2529960584,-0.039904073,-0.09209691,-0.04464875,0.0,0.99847174,-0.020951947,-0.045566678,-0.023212567,0.5837745,1.0,1,0,0,0,0,0,0
2530064694,-0.054874144,-0.0996209,-0.04464875,0.0,0.9981046,-0.028503792,-0.049147084,-0.023652019,0.5811333,1.0,1,0,0,0,0,0,0
2530164311,-0.053826522,-0.09439731,-0.04464875,0.0,0.99824744,-0.027926162,-0.04655226,-0.023558915,0.5607145,1.0,1,0,0,0,0,0,0
2530268284,-0.07073349,-0.07803827,-0.04464875,0.0,0.99833435,-0.036193896,-0.038186416,-0.023670578,0.5422146,1.0,1,0,0,0,0,0,0
2530368898,-0.09611673,-0.054625526,-0.04464875,0.0,0.9981948,-0.04861889,-0.026199065,-0.023600044,0.52438575,1.0,1,0,0,0,0,0,0
2530468324,-0.1110972,-0.0343247,-0.04464875,0.0,0.9980405,-0.05588053,-0.015891602,-0.023237381,0.5022857,1.0,1,0,0,0,0,0,0
2530572338,-0.12887132,-0.0016045687,-0.04464875,0.0,0.99767464,-0.06439288,0.0006369509,-0.022327835,0.48772958,1.0,1,0,0,0,0,0,0
2530672715,-0.14903185,0.045246653,-0.04464875,0.0,0.99675894,-0.07390582,0.024214419,-0.020571204,0.47001806,1.0,1,0,0,0,0,0,0
2530772408,-0.14579207,0.05318675,-0.04464875,0.0,0.9967864,-0.07219561,0.028138224,-0.020319242,0.46753705,1.0,1,0,0,0,0,0,0
2530876310,-0.15970385,0.097211465,-0.04464875,0.0,0.9954747,-0.078571916,0.050198216,-0.018350465,0.47019914,1.0,1,0,0,0,0,0,0
2530978131,-0.1280909,0.1742382,-0.04424768,0.0,0.994045,-0.061822474,0.088219784,-0.016425602,0.46124712,1.0,1,0,0,0,0,0,0
2531081003,-0.17239214,0.2639899,-0.04424768,0.0,0.98762995,-0.0824189,0.1329792,-0.010520566,0.35902166,1.0,1,0,0,0,0,0,0
2531184931,-0.16381559,0.24814945,-0.04424768,0.0,0.9889678,-0.07843885,0.12510756,-0.011755553,0.41168088,1.0,1,0,0,0,0,0,0
2531284338,-0.16829842,0.22828764,-0.04424768,0.0,0.9899467,-0.08097186,0.11531259,-0.012329692,0.45145053,1.0,1,0,0,0,0,0,0
2531388370,-0.1506161,0.22435297,-0.04424768,0.0,0.9908421,-0.07227637,0.11325071,-0.013500628,0.46347323,1.0,1,0,0,0,0,0,0
2531488886,-0.14816411,0.19569875,-0.04424768,0.0,0.9924039,-0.071486995,0.09903104,-0.014726897,0.473202,1.0,1,0,0,0,0,0,0
2531588377,-0.16235365,0.16871816,-0.04424768,0.0,0.99307066,-0.07892173,0.085748486,-0.015140075,0.47467998,1.0,1,0,0,0,0,0,0
2531692538,-0.14873548,0.14635149,-0.04424768,0.0,0.994444,-0.072469346,0.07452979,-0.01657113,0.47497785,1.0,1,0,0,0,0,0,0
2531792741,-0.15271431,0.12106363,-0.04424768,0.0,0.99511856,-0.07479026,0.061988268,-0.017403577,0.4919351,1.0,1,0,0,0,0,0,0
2531896699,-0.1420445,0.09531734,-0.04424768,0.0,0.9961773,-0.069813386,0.049076952,-0.018661335,0.501791,1.0,1,0,0,0,0,0,0
2531996641,-0.12260395,0.07504533,-0.04424768,0.0,0.9972258,-0.06037716,0.038788553,-0.019767271,0.5129445,1.0,1,0,0,0,0,0,0
2532096948,-0.13463709,0.05966902,-0.04424768,0.0,0.9970913,-0.06656291,0.03124267,-0.020055993,0.52386177,1.0,1,0,0,0,0,0,0
2532201198,-0.10544087,0.038479097,-0.04424768,0.0,0.9982039,-0.052248366,0.020372456,-0.021073675,0.5314421,1.0,1,0,0,0,0,0,0
2532305195,-0.10552275,0.02965407,-0.04424768,0.0,0.9982716,-0.05239066,0.015968757,-0.021307113,0.5538375,1.0,1,0,0,0,0,0,0
2532408581,-0.10305371,0.026517347,-0.04424768,0.0,0.99835575,-0.051194012,0.014376723,-0.021408046,0.5640866,1.0,1,0,0,0,0,0,0
2532508326,-0.09435089,0.030875392,-0.04424768,0.0,0.9985401,-0.046799667,0.01645924,-0.021366984,0.5668787,1.0,1,0,0,0,0,0,0
2532612364,-0.08169477,0.030199472,-0.04424768,0.0,0.99882114,-0.040487636,0.015986148,-0.021484626,0.5675895,1.0,1,0,0,0,0,0,0
2532713098,-0.09215882,0.042107586,-0.04424768,0.0,0.9984942,-0.045576405,0.02204353,-0.021124162,0.5678565,1.0,1,0,0,0,0,0,0
2532816876,-0.06368214,0.04611933,-0.04424768,0.0,0.9989991,-0.031309612,0.023744375,-0.021371065,0.56188756,1.0,1,0,0,0,0,0,0
2532921136,-0.06991849,0.049432497,-0.04424768,0.0,0.99885833,-0.034386512,0.025465565,-0.021238182,0.562873,1.0,1,0,0,0,0,0,0
2533020277,-0.04825987,0.04048673,-0.04424768,0.0,0.99927026,-0.023669083,0.02076478,-0.02162279,0.56689894,1.0,1,0,0,0,0,0,0
2533121518,-0.053714477,0.04093804,-0.04424768,0.0,0.99919754,-0.026389195,0.021049144,-0.021559922,0.5761771,1.0,1,0,0,0,0,0,0
2533224984,-0.04748644,0.037447866,-0.04424768,0.0,0.9993081,-0.023316948,0.019238088,-0.021667536,0.5812276,1.0,1,0,0,0,0,0,0
2533324268,-0.03454459,0.029972242,-0.04424768,0.0,0.9994996,-0.016933812,0.0153616965,-0.021857494,0.5812572,1.0,1,0,0,0,0,0,0
2533425101,-0.032492418,0.025145965,-0.04424768,0.0,0.99954885,-0.015962139,0.01292727,-0.021913169,0.58708346,1.0,1,0,0,0,0,0,0
2533529945,-0.025313845,0.018361453,-0.04424768,0.0,0.99963564,-0.012449878,0.009457595,-0.022003168,0.582861,1.0,1,0,0,0,0,0,0
2533631009,-0.024463193,0.008019316,-0.04424768,0.0,0.99967355,-0.012139506,0.0042789443,-0.022071173,0.57423925,1.0,1,0,0,0,0,0,0
2533729896,-0.021662485,0.006627626,-0.04424768,0.0,0.99969196,-0.010755018,0.0035524047,-0.022084733,0.56388295,1.0,1,0,0,0,0,0,0
2533833940,-0.027635233,0.009001866,-0.04424768,0.0,0.9996511,-0.013714096,0.0048050475,-0.022057522,0.5754212,1.0,1,0,0,0,0,0,0
2533934517,-0.029804803,0.0054790913,-0.04424768,0.0,0.9996414,-0.014837551,0.0030682257,-0.02207868,0.5918731,1.0,1,0,0,0,0,0,0
2534038614,-0.011142957,0.016752725,-0.04424768,0.0,0.99970573,-0.0053845933,0.008497332,-0.022074258,0.6000806,1.0,1,0,0,0,0,0,0
2534142654,-0.014166586,0.023163274,-0.04424768,0.0,0.999665,-0.006824828,0.011734937,-0.022037981,0.60820913,1.0,1,0,0,0,0,0,0
2534241892,0.002454994,0.031736188,-0.04424768,0.0,0.99962825,0.0015780614,0.015836382,-0.02213871,0.45115176,-1.0,1,0,0,0,0,0,0
2534346007,0.0032746384,0.034872964,-0.04424768,0.0,0.99960136,0.002022379,0.01739509,-0.022147182,0.4956627,-1.0,1,0,0,0,0,0,0
2534449891,0.0134500805,0.030828742,-0.04424768,0.0,0.9996117,0.0070635206,0.015260886,-0.02222254,0.530411,-1.0,1,0,0,0,0,0,0
2534550493,0.011599952,0.021063782,-0.04424768,0.0,0.99968165,0.0060311807,0.010400643,-0.022181507,0.5447347,-1.0,1,0,0,0,0,0,0
2534654616,0.017222274,0.025275541,-0.04424768,0.0,0.999636,0.008887792,0.012443395,-0.022228243,0.5629798,-1.0,1,0,0,0,0,0,0
2534758710,0.014150913,0.023233125,-0.04424768,0.0,0.999661,0.0073301573,0.011456654,-0.022202158,0.570767,-1.0,1,0,0,0,0,0,0
2534862422,0.011457922,0.0145682385,-0.04424768,0.0,0.99971145,0.005888511,0.00715542,-0.022162806,0.5752446,-1.0,1,0,0,0,0,0,0
2534961902,0.020938689,0.007630426,-0.04424768,0.0,0.9996923,0.010550911,0.003582464,-0.022160595,0.5837115,-1.0,1,0,0,0,0,0,0
2535065922,0.017959643,0.01327766,-0.04424768,0.0,0.9996916,0.009124164,0.006438244,-0.022180257,0.58417386,-1.0,1,0,0,0,0,0,0
2535166208,0.00957923,0.017502118,-0.04424768,0.0,0.9997046,0.0049818284,0.008642754,-0.02216284,0.58285886,-1.0,1,0,0,0,0,0,0
2535270452,0.014158254,0.020201627,-0.04424768,0.0,0.99967766,0.007300416,0.009941322,-0.022191841,0.5773021,-1.0,1,0,0,0,0,0,0
2535375768,-0.0027041025,0.03482228,-0.04424768,0.0,0.9996034,-0.000966365,0.017435888,-0.022095127,0.5632772,-1.0,1,0,0,0,0,0,0
2535478524,-0.018014554,0.050620604,-0.04424768,0.0,0.99939954,-0.008442233,0.025499575,-0.021886159,0.5503706,-1.0,1,0,0,0,0,0,0
2535578019,-0.024034677,0.061054464,-0.04424768,0.0,0.99922544,-0.011333339,0.030778537,-0.021743434,0.5392931,-1.0,1,0,0,0,0,0,0
2535681898,-0.02814674,0.08253434,-0.04424768,0.0,0.99881804,-0.013144921,0.041552335,-0.021520572,0.53592014,-1.0,1,0,0,0,0,0,0
2535782291,-0.038137447,0.08891899,-0.04424768,0.0,0.99860454,-0.018061033,0.04484729,-0.021248909,0.5389268,-1.0,1,0,0,0,0,0,0
2535886581,-0.051552773,0.09727764,-0.04424768,0.0,0.9982689,-0.024661545,0.04916109,-0.020835742,0.54474455,-1.0,1,0,0,0,0,0,0
2535990488,-0.05343408,0.09177019,-0.04424768,0.0,0.9983737,-0.02566486,0.04643175,-0.02086583,0.54364896,-1.0,1,0,0,0,0,0,0
2536089826,-0.058398675,0.09691275,-0.04424768,0.0,0.99818736,-0.028082706,0.04905001,-0.020672858,0.54546404,-1.0,1,0,0,0,0,0,0
2536193952,-0.0632712,0.09845508,-0.04424768,0.0,0.99807894,-0.030496245,0.049869884,-0.020528108,0.54339385,-1.0,1,0,0,0,0,0,0
2536294221,-0.077702604,0.096112266,-0.04424768,0.0,0.9978888,-0.0377253,0.04884789,-0.020214422,0.5417203,-1.0,1,0,0,0,0,0,0
2536393904,-0.097509325,0.094713956,-0.04424768,0.0,0.9974988,-0.0476228,0.048348367,-0.019764448,0.5376351,-1.0,1,0,0,0,0,0,0
2536497857,-0.110536665,0.098110184,-0.04424768,0.0,0.99708784,-0.054077145,0.05016912,-0.019353623,0.5346238,-1.0,1,0,0,0,0,0,0
2536598420,-0.119703226,0.10406069,-0.04424768,0.0,0.9966834,-0.058571883,0.053222504,-0.018942464,0.54030967,-1.0,1,0,0,0,0,0,0
2536698275,-0.122810386,0.08694026,-0.04424768,0.0,0.99698734,-0.0603341,0.04472019,-0.019393364,0.5403979,-1.0,1,0,0,0,0,0,0
2536801898,-0.13749954,0.082972735,-0.04424768,0.0,0.99659836,-0.06770439,0.04288474,-0.01920237,0.53923637,-1.0,1,0,0,0,0,0,0
2536904328,-0.12880789,0.0837984,-0.04424768,0.0,0.9968666,-0.06336251,0.04321238,-0.01936164,0.54413414,-1.0,1,0,0,0,0,0,0
2537008214,-0.1327132,0.06849611,-0.04424768,0.0,0.9970203,-0.065496996,0.035623647,-0.019790487,0.5451212,-1.0,1,0,0,0,0,0,0
2537107567,-0.13021846,0.060966972,-0.04424768,0.0,0.9972173,-0.06434428,0.031845406,-0.020082345,0.5442683,-1.0,1,0,0,0,0,0,0
2537211491,-0.11857955,0.051940337,-0.04424768,0.0,0.99769604,-0.058647126,0.027225679,-0.020537406,0.5419051,-1.0,1,0,0,0,0,0,0
2537312021,-0.1256358,0.051479533,-0.04424768,0.0,0.9974886,-0.06217222,0.02706816,-0.020455807,0.54155654,-1.0,1,0,0,0,0,0,0
2537416099,-0.12661546,0.046595465,-0.04424768,0.0,0.99751437,-0.062718496,0.024642449,-0.020598281,0.5383353,-1.0,1,0,0,0,0,0,0
2537520555,-0.1311961,0.028958693,-0.04424768,0.0,0.9975214,-0.06520849,0.015894135,-0.021123273,0.52937275,-1.0,1,0,0,0,0,0,0
2537623850,-0.12857695,0.029739562,-0.04424768,0.0,0.99760085,-0.06389312,0.016255941,-0.021118866,0.53539455,-1.0,1,0,0,0,0,0,0
2537723593,-0.12295652,0.020488374,-0.04424768,0.0,0.99782807,-0.061195098,0.011581248,-0.02144985,0.53286654,-1.0,1,0,0,0,0,0,0
2537827486,-0.12886472,0.007247059,-0.04424768,0.0,0.99767935,-0.064291604,0.005039497,-0.021842731,0.53555316,-1.0,1,0,0,0,0,0,0
2537928141,-0.13687557,0.0047758026,-0.04424768,0.0,0.99741566,-0.068314746,0.003894523,-0.02190693,0.52686656,-1.0,1,0,0,0,0,0,0
2538031838,-0.11422199,-0.005989411,-0.04424768,0.0,0.998117,-0.057131864,-0.0017263676,-0.022256764,0.5320679,-1.0,1,0,0,0,0,0,0
2538135769,-0.123519294,-0.011923574,-0.04424768,0.0,0.99782336,-0.06183582,-0.0045835725,-0.02244734,0.53488123,-1.0,1,0,0,0,0,0,0
2538235561,-0.10882819,-0.011487445,-0.04424768,0.0,0.9982522,-0.054499913,-0.004530649,-0.022401236,0.53371096,-1.0,1,0,0,0,0,0,0
2538339531,-0.10300328,-0.015635159,-0.04424768,0.0,0.99839026,-0.05163742,-0.0066664414,-0.022494365,0.5353273,-1.0,1,0,0,0,0,0,0
2538440350,-0.09880554,-0.012538962,-0.04424768,0.0,0.99850905,-0.04950815,-0.005167835,-0.02240414,0.54297024,-1.0,1,0,0,0,0,0,0
2538539531,-0.097262524,-0.031952012,-0.04424768,0.0,0.9984287,-0.048946984,-0.014877275,-0.022869466,0.5390268,-1.0,1,0,0,0,0,0,0
2538643745,-0.10227456,-0.033088278,-0.04424768,0.0,0.99829304,-0.051460978,-0.0153871,-0.022935502,0.5372468,-1.0,1,0,0,0,0,0,0
2538744952,-0.09932554,-0.042251736,-0.04424768,0.0,0.9982766,-0.05008587,-0.019995147,-0.02313823,0.5263487,-1.0,1,0,0,0,0,0,0
2538843588,-0.10965564,-0.052681923,-0.04424768,0.0,0.99787474,-0.055349715,-0.025080027,-0.023524107,0.5224653,-1.0,1,0,0,0,0,0,0
2538947735,-0.108716756,-0.057390217,-0.04424768,0.0,0.99783313,-0.054929722,-0.027440349,-0.023638722,0.52317125,-1.0,1,0,0,0,0,0,0
2539048166,-0.10436232,-0.0565695,-0.04424768,0.0,0.99796253,-0.05274864,-0.027082203,-0.02355779,0.52666235,-1.0,1,0,0,0,0,0,0
2539152244,-0.0842804,-0.065509036,-0.04424768,0.0,0.99830145,-0.042818658,-0.03178013,-0.023469834,0.5312142,-1.0,1,0,0,0,0,0,0
2539256190,-0.08358675,-0.055606388,-0.04424768,0.0,0.99847054,-0.04236929,-0.026844611,-0.023255393,0.5378079,-1.0,1,0,0,0,0,0,0
2539355462,-0.09079832,-0.06729751,-0.04424768,0.0,0.99812603,-0.046090253,-0.032596115,-0.023613172,0.5273981,-1.0,1,0,0,0,0,0,0
2539459505,-0.07969919,-0.053005524,-0.04424768,0.0,0.9985874,-0.04040107,-0.02559113,-0.02315217,0.5292728,-1.0,1,0,0,0,0,0,0
2539560067,-0.08131022,-0.06261734,-0.04424768,0.0,0.9984115,-0.041305978,-0.03037135,-0.023364915,0.5212576,-1.0,1,0,0,0,0,0,0
2539659469,-0.08100787,-0.051661145,-0.04424768,0.0,0.99857897,-0.04104033,-0.024904711,-0.023142098,0.5202983,-1.0,1,0,0,0,0,0,0
2539763502,-0.09210536,-0.05117571,-0.04424768,0.0,0.99834234,-0.046575468,-0.024533598,-0.023268905,0.5110825,-1.0,1,0,0,0,0,0,0
2539864200,-0.07688452,-0.04754322,-0.04424768,0.0,0.9987142,-0.03893797,-0.022896027,-0.023012746,0.5161942,-1.0,1,0,0,0,0,0,0
2539963620,-0.09041131,-0.042871606,-0.04424768,0.0,0.99848306,-0.045642503,-0.02040755,-0.023062738,0.5083177,-1.0,1,0,0,0,0,0,0
2540067411,-0.08781589,-0.045813423,-0.04424768,0.0,0.99850744,-0.044377793,-0.021906264,-0.023100045,0.50594926,-1.0,1,0,0,0,0,0,0
2540168409,-0.080552995,-0.037778854,-0.04424768,0.0,0.99874943,-0.04066609,-0.01797777,-0.022860516,0.5086604,-1.0,1,0,0,0,0,0,0
2540271742,-0.08130644,-0.035469715,-0.04424768,0.0,0.99875623,-0.041017674,-0.016815994,-0.022820849,0.49891928,-1.0,1,0,0,0,0,0,0
2540372419,-0.083879605,-0.028694734,-0.04424768,0.0,0.99876004,-0.04223004,-0.0134033235,-0.022701692,0.497425,-1.0,1,0,0,0,0,0,0
2540473812,-0.077425115,-0.03067997,-0.04424768,0.0,0.9988755,-0.03902795,-0.014468053,-0.022696396,0.49768686,-1.0,1,0,0,0,0,0,0
2540573219,-0.07126606,-0.043985784,-0.04424768,0.0,0.99886173,-0.036094338,-0.021183861,-0.022885896,0.49344024,-1.0,1,0,0,0,0,0,0
2540677073,0.0,-0.0,-0.04424768,0.0,0.99975526,0.0,-0.0,-0.022122037,0.12,-1.0,1,0,0,0,0,0,0
2540777783,-0.06477498,-0.045531746,-0.04424768,0.0,0.9989557,-0.03286884,-0.022030234,-0.022841662,0.52153987,-1.0,1,0,0,0,0,0,0
2540877156,-0.0903958,-0.039421346,-0.04424768,0.0,0.9985206,-0.045598242,-0.018685114,-0.022985449,0.57681763,-1.0,1,0,0,0,0,0,0
2540979277,-0.097500674,-0.042823315,-0.04424768,0.0,0.9983155,-0.049181003,-0.020301567,-0.023133766,0.5512805,-1.0,1,0,0,0,0,0,0
2541081519,-0.119545735,-0.04436142,-0.04424768,0.0,0.997695,-0.060197733,-0.020812681,-0.02340168,0.5265919,-1.0,1,0,0,0,0,0,0
2541181161,-0.10904822,-0.053959783,-0.04424768,0.0,0.9978737,-0.055059824,-0.025724793,-0.02355091,0.5178511,-1.0,1,0,0,0,0,0,0
2541285037,-0.11321531,-0.043037463,-0.04424768,0.0,0.99789584,-0.05702573,-0.02022603,-0.023298569,0.51029295,-1.0,1,0,0,0,0,0,0
2541385815,-0.12421347,-0.057250105,-0.04424768,0.0,0.99737966,-0.062658146,-0.027186489,-0.023846328,0.5097372,-1.0,1,0,0,0,0,0,0
2541489759,-0.11925603,-0.04423269,-0.04424768,0.0,0.9977053,-0.060051877,-0.020751849,-0.02339486,0.51229304,-1.0,1,0,0,0,0,0,0
2541593624,-0.115574926,-0.04796814,-0.04424768,0.0,0.9977687,-0.058254197,-0.022658585,-0.023463491,0.5070114,-1.0,1,0,0,0,0,0,0
2541693157,-0.10504518,-0.03639135,-0.04424768,0.0,0.9981902,-0.052878853,-0.017003955,-0.02304283,0.50430155,-1.0,1,0,0,0,0,0,0
2541797284,-0.11506629,-0.029498022,-0.04424768,0.0,0.99797386,-0.05780681,-0.013448561,-0.022930881,0.5010659,-1.0,1,0,0,0,0,0,0
2541901111,-0.10263906,-0.018146336,-0.04424768,0.0,0.99838763,-0.051482785,-0.007924133,-0.022557307,0.4967884,-1.0,1,0,0,0,0,0,0
2542001865,-0.09514757,-0.004436354,-0.04424768,0.0,0.9986194,-0.047593106,-0.0011630941,-0.022202412,0.50412697,-1.0,1,0,0,0,0,0,0
2542106000,-0.08358556,0.0026572424,-0.04424768,0.0,0.99888265,-0.041740987,0.0022514071,-0.022047201,0.49778843,-1.0,1,0,0,0,0,0,0
2542209536,-0.06398173,0.019015282,-0.04424768,0.0,0.9992053,-0.03176592,0.010207859,-0.02180569,0.5068755,-1.0,1,0,0,0,0,0,0
2542309075,-0.07491337,0.014378586,-0.04424768,0.0,0.9990341,-0.037278857,0.008010833,-0.02183679,0.50067353,-1.0,1,0,0,0,0,0,0
2542413193,-0.055019185,0.021008648,-0.04424768,0.0,0.99932826,-0.027265592,0.011106045,-0.021823592,0.5018924,-1.0,1,0,0,0,0,0,0
2542513662,-0.042402696,0.032212764,-0.04424768,0.0,0.99940854,-0.02083561,0.016567046,-0.021772841,0.5112172,-1.0,1,0,0,0,0,0,0
2542613205,-0.033931773,0.03358575,-0.04424768,0.0,0.9994768,-0.016587107,0.017160807,-0.021830922,0.50878865,-1.0,1,0,0,0,0,0,0
2542717318,-0.029230366,0.035948638,-0.04424768,0.0,0.9994928,-0.014211163,0.01829029,-0.02185349,0.5083373,-1.0,1,0,0,0,0,0,0
2542817559,-0.020028263,0.04444626,-0.04424768,0.0,0.9994632,-0.009517484,0.022436222,-0.021892993,0.5096623,-1.0,1,0,0,0,0,0,0
2542921751,-0.0134971365,0.054284364,-0.04424768,0.0,0.99936837,-0.006144027,0.027280824,-0.021930283,0.5111387,-1.0,1,0,0,0,0,0,0
2543025463,-0.0009965746,0.05732654,-0.04424768,0.0,0.9993448,0.00013604225,0.028663348,-0.022098672,0.5144473,-1.0,1,0,0,0,0,0,0
2543125150,-0.0074489787,0.06732127,-0.04424768,0.0,0.9991848,-0.0029769642,0.033728156,-0.02198404,0.5117458,-1.0,1,0,0,0,0,0,0
2543225656,0.0013352938,0.06684541,-0.04424768,0.0,0.99919623,0.0014063509,0.033393532,-0.02213198,0.50978506,-1.0,1,0,0,0,0,0,0
2543330053,0.0052290573,0.07115552,-0.04424768,0.0,0.99911714,0.0033991155,0.03550363,-0.022200938,0.5120627,-1.0,1,0,0,0,0,0,0
2543429022,0.0019304337,0.07901153,-0.04424768,0.0,0.9989739,0.0018379478,0.03946447,-0.02214288,0.51245815,-1.0,1,0,0,0,0,0,0
2543533190,0.0050313557,0.07614197,-0.04424768,0.0,0.9990256,0.0033552386,0.037996743,-0.022201667,0.51593214,-1.0,1,0,0,0,0,0,0
2543633390,0.00649219,0.07457474,-0.04424768,0.0,0.9990524,0.0040677167,0.03719765,-0.022227524,0.5181282,-1.0,1,0,0,0,0,0,0
2543733136,-0.005248438,0.06802919,-0.04424768,0.0,0.9991755,-0.0018697316,0.034057617,-0.022019943,0.51640487,-1.0,1,0,0,0,0,0,0
2543835023,0.0118533885,0.06844887,-0.04424768,0.0,0.9991478,0.0066786925,0.03407775,-0.02231144,0.5197224,-1.0,1,0,0,0,0,0,0
2543939278,-0.00013352507,0.0665199,-0.04424768,0.0,0.99920243,0.00066893274,0.03324715,-0.022107583,0.5180763,-1.0,1,0,0,0,0,0,0
2544038689,-0.01175326,0.06508688,-0.04424768,0.0,0.99921286,-0.0051522595,0.032659102,-0.021918777,0.51541436,-1.0,1,0,0,0,0,0,0
2544139292,-0.0062873056,0.058997672,-0.04424768,0.0,0.99931747,-0.0024890343,0.029556707,-0.022019602,0.515909,-1.0,1,0,0,0,0,0,0
2544243433,-0.013628392,0.056842692,-0.04424768,0.0,0.9993326,-0.0061810855,0.028560586,-0.021918995,0.5177196,-1.0,1,0,0,0,0,0,0
2544342797,-0.01454605,0.05766283,-0.04424768,0.0,0.999318,-0.0066304537,0.028980428,-0.021902649,0.5249454,-1.0,1,0,0,0,0,0,0
2544446744,-0.022997553,0.050998855,-0.04424768,0.0,0.9993707,-0.01092797,0.025743024,-0.021820277,0.5291064,-1.0,1,0,0,0,0,0,0
2544547521,-0.04123909,0.0406767,-0.04424768,0.0,0.99934536,-0.020158974,0.020783667,-0.021693554,0.5261227,-1.0,1,0,0,0,0,0,0
2544646947,-0.038770333,0.045824513,-0.04424768,0.0,0.9993149,-0.018867396,0.02332904,-0.02166809,0.5333378,-1.0,1,0,0,0,0,0,0
2544750745,-0.039184775,0.039183266,-0.04424768,0.0,0.99938005,-0.019149287,0.020015141,-0.021729844,0.5310527,-1.0,1,0,0,0,0,0,0
2544851011,-0.056954026,0.03413417,-0.04424768,0.0,0.9992151,-0.028084662,0.017684955,-0.021624036,0.52638686,-1.0,1,0,0,0,0,0,0
2544950796,-0.04134945,0.037714727,-0.04424768,0.0,0.99937254,-0.020247469,0.019304855,-0.021723647,0.5318279,-1.0,1,0,0,0,0,0,0
2545054680,-0.041893758,0.034186576,-0.04424768,0.0,0.9993979,-0.020559128,0.01754781,-0.021756032,0.5280889,-1.0,1,0,0,0,0,0,0
2545155264,-0.056296047,0.025152186,-0.04424768,0.0,0.9992881,-0.0278571,0.013190262,-0.021757675,0.5227861,-1.0,1,0,0,0,0,0,0
2545258956,-0.058172353,0.029433772,-0.04424768,0.0,0.9992337,-0.028746393,0.015349815,-0.021682408,0.52224034,-1.0,1,0,0,0,0,0,0
2545363045,-0.06002751,0.0138369575,-0.04424768,0.0,0.9992857,-0.029848209,0.0075774654,-0.021903977,0.5191534,-1.0,1,0,0,0,0,0,0
2545462778,-0.046182103,0.015381304,-0.04424768,0.0,0.99946314,-0.02291258,0.008197404,-0.02193796,0.523116,-1.0,1,0,0,0,0,0,0
2545566782,-0.048069593,0.010487553,-0.04424768,0.0,0.99945563,-0.023910299,0.005772595,-0.021989351,0.52494836,-1.0,1,0,0,0,0,0,0
2545667334,-0.045517154,-0.0010680438,-0.04424768,0.0,0.9994959,-0.022762852,-3.0330393e-05,-0.022128457,0.52356577,-1.0,1,0,0,0,0,0,0
2545766657,-0.04652243,-0.010382767,-0.04424768,0.0,0.9994687,-0.02336792,-0.0046741534,-0.022236466,0.52203774,-1.0,1,0,0,0,0,0,0
2545870665,-0.04494742,-0.0056330585,-0.04424768,0.0,0.9994975,-0.022528524,-0.0023180046,-0.022179639,0.52682,-1.0,1,0,0,0,0,0,0
2545972268,-0.045253422,-0.011606755,-0.04424768,0.0,0.9994796,-0.022747211,-0.0052999416,-0.022247266,0.5295969,-1.0,1,0,0,0,0,0,0
2546070652,-0.032079432,-0.0122396415,-0.04424768,0.0,0.9996058,-0.016170168,-0.005762689,-0.022216909,0.5318967,-1.0,1,0,0,0,0,0,0
2546174666,-0.025839662,-0.0058888253,-0.04424768,0.0,0.9996667,-0.012981385,-0.0026576386,-0.022158124,0.53692645,-1.0,1,0,0,0,0,0,0
2546275411,-0.022655003,-0.010583654,-0.04424768,0.0,0.9996758,-0.011441385,-0.005039589,-0.022180233,0.5333108,-1.0,1,0,0,0,0,0,0
2546379481,-0.021929353,4.3964705e-05,-0.04424768,0.0,0.9996952,-0.010961289,0.00026453182,-0.022120463,0.5360366,-1.0,1,0,0,0,0,0,0
2546483330,-0.021999756,-0.00087393605,-0.04424768,0.0,0.9996946,-0.01100663,-0.0001934999,-0.022125501,0.53308755,-1.0,1,0,0,0,0,0,0
2546583050,-0.01485555,0.0049228705,-0.04424768,0.0,0.9997251,-0.0073714163,0.002625078,-0.022103084,0.5341151,-1.0,1,0,0,0,0,0,0
2546686737,-0.01022945,0.0023053454,-0.04424768,0.0,0.9997416,-0.005087948,0.0012655228,-0.022115838,0.5343807,-1.0,1,0,0,0,0,0,0
2546787133,-0.024524825,0.0025337401,-0.04424768,0.0,0.9996797,-0.012231071,0.0015377268,-0.022104822,0.5301768,-1.0,1,0,0,0,0,0,0
2546886772,-0.020787846,0.0044823494,-0.04424768,0.0,0.9996993,-0.010341589,0.0024704332,-0.022097494,0.5269579,-1.0,1,0,0,0,0,0,0
2546990812,-0.028685482,-0.00016564215,-0.04424768,0.0,0.9996524,-0.014340573,0.00023448748,-0.022120945,0.5186402,-1.0,1,0,0,0,0,0,0
2547091272,-0.03577048,0.0085800355,-0.04424768,0.0,0.9995879,-0.017784856,0.004683902,-0.022041585,0.52225447,-1.0,1,0,0,0,0,0,0
2547190722,-0.034428068,0.017865837,-0.04424768,0.0,0.99957067,-0.017010702,0.009310067,-0.021964151,0.520695,-1.0,1,0,0,0,0,0,0
2547292517,-0.0359662,0.014302041,-0.04424768,0.0,0.9995709,-0.017819101,0.0075458447,-0.021989336,0.517686,-1.0,1,0,0,0,0,0,0
2547396312,-0.050581463,0.013107203,-0.04424768,0.0,0.9994178,-0.02513637,0.0071092662,-0.021948801,0.51746374,-1.0,1,0,0,0,0,0,0
2547497285,-0.04421299,0.010906213,-0.04424768,0.0,0.9994988,-0.021978354,0.005939407,-0.021995794,0.519005,-1.0,1,0,0,0,0,0,0
2547600969,-0.056326937,0.015537181,-0.04424768,0.0,0.9993335,-0.027980218,0.008386464,-0.021893892,0.5214364,-1.0,1,0,0,0,0,0,0
2547704677,-0.06603167,0.012266206,-0.04424768,0.0,0.9991962,-0.032865535,0.006858452,-0.02190716,0.5204329,-1.0,1,0,0,0,0,0,0
2547804618,-0.05833091,0.01814071,-0.04424768,0.0,0.9992949,-0.028952416,0.009709236,-0.021847282,0.51521873,-1.0,1,0,0,0,0,0,0
2547908318,-0.07749766,0.02066113,-0.04424768,0.0,0.9989604,-0.038499232,0.011177044,-0.02170416,0.5204619,-1.0,1,0,0,0,0,0,0
2548008625,-0.08271479,0.017629681,-0.04424768,0.0,0.99886966,-0.041139048,0.009719647,-0.0217379,0.52110714,-1.0,1,0,0,0,0,0,0
2548108351,-0.080776066,0.019561352,-0.04424768,0.0,0.99890095,-0.04014905,0.010663332,-0.021708125,0.5254891,-1.0,1,0,0,0,0,0,0
2548212388,-0.07010944,0.0209458,-0.04424768,0.0,0.99909437,-0.034805506,0.011238995,-0.021740278,0.53103447,-1.0,1,0,0,0,0,0,0
2548313705,-0.08367254,0.006748123,-0.04424768,0.0,0.9988779,-0.04173902,0.004295506,-0.021961475,0.5303396,-1.0,1,0,0,0,0,0,0
2548412331,-0.07486338,0.003430229,-0.04424768,0.0,0.9990549,-0.03737582,0.0025413635,-0.022042336,0.5334018,-1.0,1,0,0,0,0,0,0
2548516589,-0.06545076,-0.0015725357,-0.04424768,0.0,0.9992191,-0.032728903,-6.183199e-05,-0.022135908,0.53460264,-1.0,1,0,0,0,0,0,0
2548616676,-0.071285605,-0.01047605,-0.04424768,0.0,0.9991025,-0.035741854,-0.0044450797,-0.022294294,0.5350319,-1.0,1,0,0,0,0,0,0
2548720647,-0.06355656,-0.019513564,-0.04424768,0.0,0.9991961,-0.03197937,-0.009046466,-0.022419736,0.5342146,-1.0,1,0,0,0,0,0,0
2548820387,-0.05928115,-0.029987754,-0.04424768,0.0,0.99919397,-0.02995719,-0.014327522,-0.02255407,0.5362302,-1.0,1,0,0,0,0,0,0
2548920646,-0.059526615,-0.03335069,-0.04424768,0.0,0.9991626,-0.030116206,-0.016004872,-0.022605259,0.53916377,-1.0,1,0,0,0,0,0,0
2549024630,-0.053886835,-0.048513323,-0.04424768,0.0,0.99908394,-0.027462004,-0.02364375,-0.022760758,0.5360812,-1.0,1,0,0,0,0,0,0
2549124358,-0.047106706,-0.049602967,-0.04424768,0.0,0.99915767,-0.024086624,-0.024265153,-0.022693,0.5419946,-1.0,1,0,0,0,0,0,0
2549224871,-0.03528828,-0.048838858,-0.04424768,0.0,0.99929214,-0.018173719,-0.024017038,-0.022542683,0.540699,-1.0,1,0,0,0,0,0,0
2549329187,-0.04392695,-0.05885079,-0.04424768,0.0,0.9990672,-0.022597525,-0.028921226,-0.022753105,0.53366363,-1.0,1,0,0,0,0,0,0
2549428239,-0.042411756,-0.05217287,-0.04424768,0.0,0.9991782,-0.021768777,-0.025602309,-0.022662487,0.5343883,-1.0,1,0,0,0,0,0,0
2549532674,-0.041045908,-0.051896185,-0.04424768,0.0,0.99919647,-0.021083428,-0.025479548,-0.022642236,0.53429383,-1.0,1,0,0,0,0,0,0
2549636281,-0.048795447,-0.058560744,-0.04424768,0.0,0.9990135,-0.025026338,-0.028720874,-0.02282,0.5308549,-1.0,1,0,0,0,0,0,0
2549736867,-0.036643595,-0.05401063,-0.04424768,0.0,0.999212,-0.018906847,-0.026585747,-0.022604834,0.5380541,-1.0,1,0,0,0,0,0,0
2549840894,-0.038878266,-0.04653143,-0.04424768,0.0,0.9992859,-0.019942436,-0.022823641,-0.022563957,0.53989893,-1.0,1,0,0,0,0,0,0
2549944672,-0.033487447,-0.04699369,-0.04424768,0.0,0.9993305,-0.017253898,-0.023115354,-0.022506107,0.54368603,-1.0,1,0,0,0,0,0,0
2550044215,-0.034305077,-0.041117482,-0.04424768,0.0,0.9993892,-0.017598579,-0.020169888,-0.022466611,0.54598373,-1.0,1,0,0,0,0,0,0
2550148257,-0.037098672,-0.039928727,-0.04424768,0.0,0.9993759,-0.018981583,-0.019544475,-0.022484016,0.53808016,-1.0,1,0,0,0,0,0,0
2550248830,-0.025179898,-0.038747977,-0.04424768,0.0,0.99948305,-0.013012704,-0.019088045,-0.022359967,0.5390145,-1.0,1,0,0,0,0,0,0
2550348418,-0.035034437,-0.034414373,-0.04424768,0.0,0.9994472,-0.017890025,-0.01681205,-0.022416687,0.5352989,-1.0,1,0,0,0,0,0,0
2550452372,-0.039584305,-0.035941824,-0.04424768,0.0,0.9993902,-0.020180276,-0.017524287,-0.022469686,0.53400964,-1.0,1,0,0,0,0,0,0
2550552906,-0.02851661,-0.033099506,-0.04424768,0.0,0.99951154,-0.0146184405,-0.016227897,-0.022352653,0.5352282,-1.0,1,0,0,0,0,0,0
2550652257,-0.035610046,-0.038237732,-0.04424768,0.0,0.9994066,-0.018219331,-0.018716203,-0.022454776,0.52764523,-1.0,1,0,0,0,0,0,0
2550754287,-0.02157082,-0.03454672,-0.04424768,0.0,0.99954385,-0.0111630345,-0.017028715,-0.02230369,0.5308962,-1.0,1,0,0,0,0,0,0
2550858545,-0.032307744,-0.031182637,-0.04424768,0.0,0.9994978,-0.016492108,-0.01522754,-0.022368236,0.52813816,-1.0,1,0,0,0,0,0,0
2550957966,-0.026026983,-0.02932492,-0.04424768,0.0,0.9995589,-0.013332865,-0.014369261,-0.022308538,0.53433585,-1.0,1,0,0,0,0,0,0
2551062018,-0.03344028,-0.043697234,-0.04424768,0.0,0.9993689,-0.017194508,-0.021468697,-0.022478841,0.5230287,-1.0,1,0,0,0,0,0,0
2551162679,-0.025662899,-0.044976003,-0.04424768,0.0,0.99941385,-0.013322111,-0.022194976,-0.022403073,0.5252587,-1.0,1,0,0,0,0,0,0
2551261897,-0.019892761,-0.046116702,-0.04424768,0.0,0.99943495,-0.010451167,-0.022829555,-0.02234433,0.5247367,-1.0,1,0,0,0,0,0,0
2551365871,-0.0071147047,-0.038469326,-0.04424768,0.0,0.9995625,-0.0039812974,-0.019149967,-0.022186209,0.5324008,-1.0,1,0,0,0,0,0,0
2551466723,-0.020952677,-0.04464158,-0.04424768,0.0,0.9994462,-0.010964687,-0.022080554,-0.022349073,0.5285636,-1.0,1,0,0,0,0,0,0
2551565963,-0.020584816,-0.05317186,-0.04424768,0.0,0.9993429,-0.010874107,-0.026347281,-0.022386577,0.52338696,-1.0,1,0,0,0,0,0,0
2551669889,-0.018930962,-0.05046952,-0.04424768,0.0,0.9993869,-0.010018171,-0.025015451,-0.022352772,0.5203345,-1.0,1,0,0,0,0,0,0
2551770226,-0.021455124,-0.053956263,-0.04424768,0.0,0.9993276,-0.011317533,-0.026729481,-0.022402009,0.5219482,-1.0,1,0,0,0,0,0,0
2551874703,-0.0065688156,-0.05500242,-0.04424768,0.0,0.99936986,-0.0038906587,-0.027418233,-0.022203842,0.52646655,-1.0,1,0,0,0,0,0,0
2551979763,-0.00793857,-0.057775028,-0.04424768,0.0,0.9993278,-0.004605605,-0.028788429,-0.02222725,0.52537847,-1.0,1,0,0,0,0,0,0
2552082609,0.0026491384,-0.04675034,-0.04424768,0.0,0.999482,0.00080682425,-0.023396594,-0.022085024,0.533441,-1.0,1,0,0,0,0,0,0
2552182280,-0.0013218918,-0.045292348,-0.04424768,0.0,0.99949837,-0.0011615511,-0.022624074,-0.022131324,0.53424174,-1.0,1,0,0,0,0,0,0
2552285993,0.012314592,-0.042451482,-0.04424768,0.0,0.99951404,0.0056848503,-0.021354731,-0.02198598,0.53473186,-1.0,1,0,0,0,0,0,0
2552387805,0.00887277,-0.04478416,-0.04424768,0.0,0.999497,0.0039388607,-0.022482626,-0.022016965,0.5321083,-1.0,1,0,0,0,0,0,0
2552490260,0.009329535,-0.04038956,-0.04424768,0.0,0.99954265,0.004215943,-0.020291416,-0.022023108,0.53075504,-1.0,1,0,0,0,0,0,0
2552594570,0.010268412,-0.04027461,-0.04424768,0.0,0.99954164,0.0046864436,-0.020244308,-0.022013906,0.5307755,-1.0,1,0,0,0,0,0,0
2552693930,0.016090686,-0.037134565,-0.04424768,0.0,0.99955386,0.0076311915,-0.018739019,-0.021968175,0.53162163,-1.0,1,0,0,0,0,0,0
2552798090,0.019595126,-0.025273701,-0.04424768,0.0,0.9996302,0.009514695,-0.012849538,-0.021995435,0.5374663,-1.0,1,0,0,0,0,0,0
2552898707,0.0042887353,-0.031527966,-0.04424768,0.0,0.99962956,0.0017948585,-0.015806867,-0.022085445,0.53082335,-1.0,1,0,0,0,0,0,0
2552997889,0.0113013545,-0.029688772,-0.04424768,0.0,0.99963105,0.0053202715,-0.0149649605,-0.02203539,0.5334966,-1.0,1,0,0,0,0,0,0
2553101798,0.0,-0.0,-0.04517596,0.0,0.9997449,0.0,-0.0,-0.022586059,0.5505164,-1.0,1,0,0,0,0,0,0
2553202025,0.0,-0.0,-0.04517596,0.0,0.9997449,0.0,-0.0,-0.022586059,0.5981031,-1.0,1,0,0,0,0,0,0
2553301919,0.0,-0.0,-0.04517596,-0.0,0.9997449,0.0,-0.0,-0.022586059,0.63606125,-1.0,1,0,0,0,0,0,0
2553405758,0.0,-0.0,-0.04517596,0.0,0.9997449,0.0,-0.0,-0.022586059,0.62550575,-1.0,1,0,0,0,0,0,0
2553506280,0.0,-0.0,-0.04517596,0.0,0.9997449,0.0,-0.0,-0.022586059,0.58810157,-1.0,1,0,0,0,0,0,0
2553610431,0.0,-0.0,-0.04517596,-0.0,0.9997449,0.0,-0.0,-0.022586059,0.63870573,-1.0,1,0,0,0,0,0,0
2553714020,0.0,-0.0,-0.04517596,-0.0,0.9997449,0.0,-0.0,-0.022586059,0.6387056,-1.0,1,0,0,0,0,0,0
2553813768,0.0,-0.0,-0.04517596,-0.0,0.9997449,0.0,-0.0,-0.022586059,0.6387052,-1.0,1,0,0,0,0,0,0
2553917686,0.0,-0.0,-0.04517596,0.0,0.9997449,0.0,-0.0,-0.022586059,0.6386933,-1.0,1,0,0,0,0,0,0
2554018556,0.0,-0.0,-0.04517596,0.0,0.9997449,0.0,-0.0,-0.022586059,0.638694,-1.0,1,0,0,0,0,0,0
2554117789,0.0,-0.0,-0.04517596,-0.0,0.9997449,0.0,-0.0,-0.022586059,0.6587587,-1.0,1,0,0,0,0,0,0
2554221776,0.0,-0.0,-0.04517596,0.0,0.9997449,0.0,-0.0,-0.022586059,0.6710893,-1.0,1,0,0,0,0,0,0
2554323841,0.0,-0.0,-0.04517596,0.0,0.9997449,0.0,-0.0,-0.022586059,0.6747887,-1.0,1,0,0,0,0,0,0
2554424260,0.0,-0.0,-0.04517596,-0.0,0.9997449,0.0,-0.0,-0.022586059,0.67967856,-1.0,1,0,0,0,0,0,0
2554523707,0.0,-0.0,-0.04517596,-0.0,0.9997449,0.0,-0.0,-0.022586059,0.6795542,-1.0,1,0,0,0,0,0,0
2554627541,0.0,-0.0,-0.04517596,0.0,0.9997449,0.0,-0.0,-0.022586059,0.67907745,-1.0,1,0,0,0,0,0,0
2554728338,0.0,-0.0,-0.04517596,0.0,0.9997449,0.0,-0.0,-0.022586059,0.6804352,-1.0,1,0,0,0,0,0,0
2554831589,0.0,-0.0,-0.04517596,-0.0,0.9997449,0.0,-0.0,-0.022586059,0.6804683,-1.0,1,0,0,0,0,0,0
2554936121,0.0,-0.0,-0.04517596,-0.0,0.9997449,0.0,-0.0,-0.022586059,0.6804366,-1.0,1,0,0,0,0,0,0
2555035347,0.0,-0.0,-0.04517596,0.0,0.9997449,0.0,-0.0,-0.022586059,0.68055046,-1.0,1,0,0,0,0,0,0
2555139403,0.0,-0.0,-0.04517596,0.0,0.9997449,0.0,-0.0,-0.022586059,0.6805589,-1.0,1,0,0,0,0,0,0
2555240069,0.0,-0.0,-0.04517596,-0.0,0.9997449,0.0,-0.0,-0.022586059,0.6804035,-1.0,1,0,0,0,0,0,0
2555339383,0.0,-0.0,-0.04517596,-0.0,0.9997449,0.0,-0.0,-0.022586059,0.6804073,-1.0,1,0,0,0,0,0,0
2555443368,0.0,-0.0,-0.04517596,0.0,0.9997449,0.0,-0.0,-0.022586059,0.6805481,-1.0,1,0,0,0,0,0,0
2555545046,0.0,-0.0,-0.04517596,0.0,0.9997449,0.0,-0.0,-0.022586059,0.6805396,-1.0,1,0,0,0,0,0,0
2555643441,0.0,-0.0,-0.04517596,-0.0,0.9997449,0.0,-0.0,-0.022586059,0.68043566,-1.0,1,0,0,0,0,0,0
2555747721,0.0,-0.0,-0.04517596,-0.0,0.9997449,0.0,-0.0,-0.022586059,0.6791644,-1.0,1,0,0,0,0,0,0
2555847756,0.0,-0.0,-0.04517596,0.0,0.9997449,0.0,-0.0,-0.022586059,0.67685485,-1.0,1,0,0,0,0,0,0
2555951939,0.0,-0.0,-0.04517596,0.0,0.9997449,0.0,-0.0,-0.022586059,0.6768396,-1.0,1,0,0,0,0,0,0
2556055699,0.0,-0.0,-0.04517596,-0.0,0.9997449,0.0,-0.0,-0.022586059,0.6767667,-1.0,1,0,0,0,0,0,0
2556155318,0.0,-0.0,-0.04517596,0.0,0.9997449,0.0,-0.0,-0.022586059,0.6768112,-1.0,1,0,0,0,0,0,0
2556259392,0.0,-0.0,-0.04517596,0.0,0.9997449,0.0,-0.0,-0.022586059,0.6768036,-1.0,1,0,0,0,0,0,0
2556359693,0.0,-0.0,-0.04517596,-0.0,0.9997449,0.0,-0.0,-0.022586059,0.6767938,-1.0,1,0,0,0,0,0,0
2556459462,0.0,-0.0,-0.04517596,-0.0,0.9997449,0.0,-0.0,-0.022586059,0.6767976,-1.0,1,0,0,0,0,0,0
2556563496,0.0,-0.0,-0.04517596,0.0,0.9997449,0.0,-0.0,-0.022586059,0.6767897,-1.0,1,0,0,0,0,0,0
2556663728,0.0,-0.0,-0.04517596,-0.0,0.9997449,0.0,-0.0,-0.022586059,0.67680216,-1.0,1,0,0,0,0,0,0
2556763502,0.0,-0.0,-0.04517596,-0.0,0.9997449,0.0,-0.0,-0.022586059,0.6768025,-1.0,1,0,0,0,0,0,0
2556867335,0.0,-0.0,-0.04517596,0.0,0.9997449,0.0,-0.0,-0.022586059,0.67678803,-1.0,1,0,0,0,0,0,0
2556968290,0.0,-0.0,-0.04517596,0.0,0.9997449,0.0,-0.0,-0.022586059,0.6767885,-1.0,1,0,0,0,0,0,0
2557072195,0.0,-0.0,-0.04517596,-0.0,0.9997449,0.0,-0.0,-0.022586059,0.67680097,-1.0,1,0,0,0,0,0,0
